[
	{
		"name": "EAGLZ",
		"latitude": "34-16-8.28 N",
		"longitude": "117-11-3.34 W",
		"state": "CALIFORNIA",
		"artcc": "ZLA",
		"type": "RNAV",
		"updated": "02/14/2017"
	},
	{
		"name": "EASTR",
		"latitude": "36-8-24.32 N",
		"longitude": "115-5-21.99 W",
		"state": "NEVADA",
		"artcc": "ZLA",
		"type": "RNAV",
		"updated": "04/29/2010"
	},
	{
		"name": "EBITE",
		"latitude": "33-51-40.73 N",
		"longitude": "117-45-3.23 W",
		"state": "CALIFORNIA",
		"artcc": "ZLA",
		"type": "RP",
		"updated": "POM*VORTAC*157.08"
	},
	{
		"name": "EBUDE",
		"latitude": "35-31-37.46 N",
		"longitude": "120-29-30.05 W",
		"state": "CALIFORNIA",
		"artcc": "ZLA",
		"type": "RNAV",
		"updated": "11/30/2015"
	},
	{
		"name": "EBUSE",
		"latitude": "33-5-15.58 N",
		"longitude": "117-0-11.45 W",
		"state": "CALIFORNIA",
		"artcc": "ZLA",
		"type": "RNAV",
		"updated": "09/04/2001"
	},
	{
		"name": "ECATY",
		"latitude": "32-47-32.14 N",
		"longitude": "114-23-8.37 W",
		"state": "ARIZONA",
		"artcc": "ZLA",
		"type": "RNAV",
		"updated": "03/17/2009"
	},
	{
		"name": "ECEVA",
		"latitude": "34-25-20.49 N",
		"longitude": "120-5-20.01 W",
		"state": "CALIFORNIA",
		"artcc": "ZLA",
		"type": "RNAV",
		"updated": "02/29/2008"
	},
	{
		"name": "ECHHO",
		"latitude": "32-58-1.44 N",
		"longitude": "117-22-23.4 W",
		"state": "CALIFORNIA",
		"artcc": "ZLA",
		"type": "RNAV",
		"updated": "12/29/2016"
	},
	{
		"name": "ECONU",
		"latitude": "33-7-51.95 N",
		"longitude": "117-16-59.47 W",
		"state": "CALIFORNIA",
		"artcc": "ZLA",
		"type": "RP",
		"updated": "OCN*VORTAC*119.04/9.43"
	},
	{
		"name": "ECULU",
		"latitude": "33-43-36.72 N",
		"longitude": "117-5-17.64 W",
		"state": "CALIFORNIA",
		"artcc": "ZLA",
		"type": "RNAV",
		"updated": "11/05/2014"
	},
	{
		"name": "ECVOR",
		"latitude": "33-1-35.36 N",
		"longitude": "116-43-51.29 W",
		"state": "CALIFORNIA",
		"artcc": "ZLA",
		"type": "MR",
		"updated": "JLI*VORTAC*212.00/10.00"
	},
	{
		"name": "EDADE",
		"latitude": "32-59-59.78 N",
		"longitude": "119-8-57.25 W",
		"state": "CALIFORNIA",
		"artcc": "ZLA",
		"type": "MR",
		"updated": "NSI*TACAN*120.02"
	},
	{
		"name": "EDDEN",
		"latitude": "34-12-13.09 N",
		"longitude": "119-45-53.51 W",
		"state": "CALIFORNIA",
		"artcc": "ZLA",
		"type": "RNAV",
		"updated": "09/11/2016"
	},
	{
		"name": "EDITS",
		"latitude": "33-54-31.09 N",
		"longitude": "117-17-23.87 W",
		"state": "CALIFORNIA",
		"artcc": "ZLA",
		"type": "RP",
		"updated": "HDF*VOR*312.61"
	},
	{
		"name": "EDTOO",
		"latitude": "32-28-0.12 N",
		"longitude": "123-0-3.69 W",
		"state": "OFFSHORE PACIFIC",
		"artcc": "ZLA",
		"type": "RP",
		"updated": "05/06/2002"
	},
	{
		"name": "EDWRD",
		"latitude": "35-30-47.66 N",
		"longitude": "113-47-23.68 W",
		"state": "ARIZONA",
		"artcc": "ZLA",
		"type": "RP",
		"updated": "PGS*VOR/DME*226.00/13.75"
	},
	{
		"name": "EEAZY",
		"latitude": "35-13-28.56 N",
		"longitude": "119-34-54.76 W",
		"state": "CALIFORNIA",
		"artcc": "ZLA",
		"type": "RNAV",
		"updated": "12/27/2016"
	},
	{
		"name": "EEEZY",
		"latitude": "36-44-33.18 N",
		"longitude": "112-21-40.77 W",
		"state": "ARIZONA",
		"artcc": "ZLA",
		"type": "RNAV",
		"updated": "01/20/2016"
	},
	{
		"name": "EESSA",
		"latitude": "33-53-46.99 N",
		"longitude": "119-39-19.21 W",
		"state": "OFFSHORE PACIFIC",
		"artcc": "ZLA",
		"type": "RNAV",
		"updated": "02/28/2017"
	},
	{
		"name": "EEVUN",
		"latitude": "37-2-52.9 N",
		"longitude": "113-42-42.56 W",
		"state": "UTAH",
		"artcc": "ZLA",
		"type": "RNAV",
		"updated": "01/19/2016"
	},
	{
		"name": "EFALO",
		"latitude": "34-51-19.84 N",
		"longitude": "118-22-37.78 W",
		"state": "CALIFORNIA",
		"artcc": "ZLA",
		"type": "RP",
		"updated": "LHS*VORTAC*028.64"
	},
	{
		"name": "EFFIE",
		"latitude": "33-49-53.06 N",
		"longitude": "117-48-56.06 W",
		"state": "CALIFORNIA",
		"artcc": "ZLA",
		"type": "RP",
		"updated": "SLI*VORTAC*061.39"
	},
	{
		"name": "EFFXX",
		"latitude": "33-56-33.87 N",
		"longitude": "117-32-27.17 W",
		"state": "CALIFORNIA",
		"artcc": "ZLA",
		"type": "RNAV",
		"updated": "02/14/2017"
	},
	{
		"name": "EGIVE",
		"latitude": "33-10-56.92 N",
		"longitude": "117-7-10.23 W",
		"state": "CALIFORNIA",
		"artcc": "ZLA",
		"type": "RNAV",
		"updated": "07/20/2011"
	},
	{
		"name": "EGYAZ",
		"latitude": "34-3-24.64 N",
		"longitude": "117-40-29.69 W",
		"state": "CALIFORNIA",
		"artcc": "ZLA",
		"type": "RNAV",
		"updated": "05/05/2008"
	},
	{
		"name": "EHGUY",
		"latitude": "35-48-42.01 N",
		"longitude": "112-4-18.65 W",
		"state": "ARIZONA",
		"artcc": "ZLA",
		"type": "WP",
		"updated": "11/02/1998"
	},
	{
		"name": "EHUNT",
		"latitude": "34-11-34.81 N",
		"longitude": "118-42-37.13 W",
		"state": "CALIFORNIA",
		"artcc": "ZLA",
		"type": "RNAV",
		"updated": "12/27/2016"
	},
	{
		"name": "EHVOX",
		"latitude": "33-49-58.62 N",
		"longitude": "117-46-8.26 W",
		"state": "CALIFORNIA",
		"artcc": "ZLA",
		"type": "RNAV",
		"updated": "08/12/2014"
	},
	{
		"name": "EIFEL",
		"latitude": "34-32-9.6 N",
		"longitude": "118-29-26.8 W",
		"state": "CALIFORNIA",
		"artcc": "ZLA",
		"type": "RP",
		"updated": "LHS*VORTAC*139.12"
	},
	{
		"name": "EIREE",
		"latitude": "33-13-54.4 N",
		"longitude": "117-53-27.41 W",
		"state": "CALIFORNIA",
		"artcc": "ZLA",
		"type": "RP",
		"updated": "LAX*VORTAC*132.00/50.00"
	},
	{
		"name": "EKJER",
		"latitude": "35-36-51.43 N",
		"longitude": "117-38-41.89 W",
		"state": "CALIFORNIA",
		"artcc": "ZLA",
		"type": "RNAV",
		"updated": "05/18/2017"
	},
	{
		"name": "EKOTY",
		"latitude": "34-37-49.87 N",
		"longitude": "118-3-28.29 W",
		"state": "CALIFORNIA",
		"artcc": "ZLA",
		"type": "RP",
		"updated": "PMD*VORTAC*085.10/0.30"
	},
	{
		"name": "ELECO",
		"latitude": "33-59-39.27 N",
		"longitude": "116-36-0.66 W",
		"state": "CALIFORNIA",
		"artcc": "ZLA",
		"type": "RNAV",
		"updated": "12/23/2003"
	},
	{
		"name": "ELKEY",
		"latitude": "32-41-0.11 N",
		"longitude": "122-3-3.63 W",
		"state": "CALIFORNIA",
		"artcc": "ZLA",
		"type": "RP",
		"updated": "LAX*VORTAC*233.64/196.75"
	},
	{
		"name": "ELLBC",
		"latitude": "35-3-48.28 N",
		"longitude": "119-50-1.16 W",
		"state": "CALIFORNIA",
		"artcc": "ZLA",
		"type": "RNAV",
		"updated": "03/02/2017"
	},
	{
		"name": "ELLBO",
		"latitude": "33-42-38.63 N",
		"longitude": "117-21-21.48 W",
		"state": "CALIFORNIA",
		"artcc": "ZLA",
		"type": "RNAV",
		"updated": "12/30/2016"
	},
	{
		"name": "ELMOO",
		"latitude": "34-5-54.6 N",
		"longitude": "118-4-52.53 W",
		"state": "CALIFORNIA",
		"artcc": "ZLA",
		"type": "RP",
		"updated": "LAX*VORTAC*045.39/20.10"
	},
	{
		"name": "ELMRR",
		"latitude": "34-28-50.57 N",
		"longitude": "118-29-11.72 W",
		"state": "CALIFORNIA",
		"artcc": "ZLA",
		"type": "RNAV",
		"updated": "12/27/2016"
	},
	{
		"name": "ELZUS",
		"latitude": "34-43-16.45 N",
		"longitude": "120-19-40.22 W",
		"state": "CALIFORNIA",
		"artcc": "ZLA",
		"type": "RNAV",
		"updated": "05/18/2009"
	},
	{
		"name": "EMILE",
		"latitude": "33-12-44.66 N",
		"longitude": "117-28-51.16 W",
		"state": "CALIFORNIA",
		"artcc": "ZLA",
		"type": "MR",
		"updated": "OCN*VORTAC*227.00/3.60"
	},
	{
		"name": "EMLLD",
		"latitude": "33-45-28.8 N",
		"longitude": "114-8-46 W",
		"state": "ARIZONA",
		"artcc": "ZLA",
		"type": "RNAV",
		"updated": "12/23/2016"
	},
	{
		"name": "EMMEY",
		"latitude": "34-24-57.58 N",
		"longitude": "116-24-54.5 W",
		"state": "CALIFORNIA",
		"artcc": "ZLA",
		"type": "RP",
		"updated": "PDZ*VORTAC*046.45/63.00"
	},
	{
		"name": "EMMLN",
		"latitude": "34-26-26.89 N",
		"longitude": "117-12-53.81 W",
		"state": "CALIFORNIA",
		"artcc": "ZLA",
		"type": "RP",
		"updated": "PDZ*VORTAC*011.53/35.00"
	},
	{
		"name": "EMMMY",
		"latitude": "33-59-5.01 N",
		"longitude": "117-30-51.59 W",
		"state": "CALIFORNIA",
		"artcc": "ZLA",
		"type": "RNAV",
		"updated": "12/27/2016"
	},
	{
		"name": "EMRUD",
		"latitude": "33-47-38.71 N",
		"longitude": "116-15-5.67 W",
		"state": "CALIFORNIA",
		"artcc": "ZLA",
		"type": "RP",
		"updated": "PSP*VORTAC*104.00/10.00"
	},
	{
		"name": "EMUXY",
		"latitude": "34-31-24.9 N",
		"longitude": "119-35-24.97 W",
		"state": "CALIFORNIA",
		"artcc": "ZLA",
		"type": "RP",
		"updated": "RZS*VORTAC*070.58/9.00"
	},
	{
		"name": "ENAMY",
		"latitude": "35-16-15.04 N",
		"longitude": "117-57-12.23 W",
		"state": "CALIFORNIA",
		"artcc": "ZLA",
		"type": "RNAV",
		"updated": "02/09/2018"
	},
	{
		"name": "ENGLA",
		"latitude": "36-8-37.81 N",
		"longitude": "115-7-59.11 W",
		"state": "NEVADA",
		"artcc": "ZLA",
		"type": "MR",
		"updated": "LSV*TACAN*209.00/8.00"
	},
	{
		"name": "ENGLI",
		"latitude": "33-56-52.97 N",
		"longitude": "117-11-7.08 W",
		"state": "CALIFORNIA",
		"artcc": "ZLA",
		"type": "RP",
		"updated": "PDZ*VORTAC*069.00/17.30"
	},
	{
		"name": "ENILE",
		"latitude": "35-2-22.85 N",
		"longitude": "117-19-58.18 W",
		"state": "CALIFORNIA",
		"artcc": "ZLA",
		"type": "MR",
		"updated": "DAG*VORTAC*262.31/37.48"
	},
	{
		"name": "ENIYO",
		"latitude": "36-15-4.19 N",
		"longitude": "115-0-56.71 W",
		"state": "NEVADA",
		"artcc": "ZLA",
		"type": "MR",
		"updated": "LAS*VORTAC*/12.43"
	},
	{
		"name": "ENJAY",
		"latitude": "33-34-59 N",
		"longitude": "118-1-39 W",
		"state": "OFFSHORE PACIFIC",
		"artcc": "ZLA",
		"type": "RNAV",
		"updated": "06/29/2009"
	},
	{
		"name": "ENNEY",
		"latitude": "33-56-32.86 N",
		"longitude": "118-30-20.84 W",
		"state": "CALIFORNIA",
		"artcc": "ZLA",
		"type": "RNAV",
		"updated": "12/27/2016"
	},
	{
		"name": "ENOBE",
		"latitude": "33-3-32.62 N",
		"longitude": "116-50-47.89 W",
		"state": "CALIFORNIA",
		"artcc": "ZLA",
		"type": "RNAV",
		"updated": "04/17/2009"
	},
	{
		"name": "ENUME",
		"latitude": "33-51-26.43 N",
		"longitude": "117-23-33.72 W",
		"state": "CALIFORNIA",
		"artcc": "ZLA",
		"type": "RNAV",
		"updated": "12/23/2015"
	},
	{
		"name": "ERAME",
		"latitude": "34-4-53.04 N",
		"longitude": "119-9-30.96 W",
		"state": "CALIFORNIA",
		"artcc": "ZLA",
		"type": "MR",
		"updated": "FIM*VORTAC*205.00/21.50"
	},
	{
		"name": "ERGOH",
		"latitude": "34-0-6.41 N",
		"longitude": "117-8-46.96 W",
		"state": "CALIFORNIA",
		"artcc": "ZLA",
		"type": "RNAV",
		"updated": "02/16/2018"
	},
	{
		"name": "ERNUF",
		"latitude": "33-15-47.85 N",
		"longitude": "116-3-16.91 W",
		"state": "CALIFORNIA",
		"artcc": "ZLA",
		"type": "RNAV",
		"updated": "02/13/2008"
	},
	{
		"name": "EROCK",
		"latitude": "33-59-48.1 N",
		"longitude": "117-11-45.83 W",
		"state": "CALIFORNIA",
		"artcc": "ZLA",
		"type": "RNAV",
		"updated": "12/27/2016"
	},
	{
		"name": "ERUSE",
		"latitude": "32-39-30.36 N",
		"longitude": "117-2-52.01 W",
		"state": "CALIFORNIA",
		"artcc": "ZLA",
		"type": "RNAV",
		"updated": "06/22/2015"
	},
	{
		"name": "ESAPE",
		"latitude": "32-34-33.86 N",
		"longitude": "117-8-3.4 W",
		"state": "CALIFORNIA",
		"artcc": "ZLA",
		"type": "RNAV",
		"updated": "06/22/2015"
	},
	{
		"name": "ESAYE",
		"latitude": "34-0-39.63 N",
		"longitude": "117-27-56.51 W",
		"state": "CALIFORNIA",
		"artcc": "ZLA",
		"type": "RNAV",
		"updated": "03/02/2017"
	},
	{
		"name": "ESCON",
		"latitude": "33-9-33.52 N",
		"longitude": "117-5-11.47 W",
		"state": "CALIFORNIA",
		"artcc": "ZLA",
		"type": "RP",
		"updated": "JLI*VORTAC*257.70/25.24"
	},
	{
		"name": "ESEHI",
		"latitude": "34-38-0.44 N",
		"longitude": "120-18-0.16 W",
		"state": "CALIFORNIA",
		"artcc": "ZLA",
		"type": "RNAV",
		"updated": "02/09/2018"
	},
	{
		"name": "ESGEE",
		"latitude": "35-8-0.5 N",
		"longitude": "114-37-21.64 W",
		"state": "NEVADA",
		"artcc": "ZLA",
		"type": "RNAV",
		"updated": "01/22/2016"
	},
	{
		"name": "ESINE",
		"latitude": "33-56-44.2 N",
		"longitude": "118-18-6.11 W",
		"state": "CALIFORNIA",
		"artcc": "ZLA",
		"type": "RNAV",
		"updated": "06/10/2008"
	},
	{
		"name": "ESOTY",
		"latitude": "35-16-13.96 N",
		"longitude": "113-55-29.47 W",
		"state": "ARIZONA",
		"artcc": "ZLA",
		"type": "RNAV",
		"updated": "04/28/2009"
	},
	{
		"name": "ESSAA",
		"latitude": "37-4-5.07 N",
		"longitude": "116-55-59.16 W",
		"state": "NEVADA",
		"artcc": "ZLA",
		"type": "RNAV",
		"updated": "09/19/2014"
	},
	{
		"name": "ESTWD",
		"latitude": "33-54-18.5 N",
		"longitude": "114-6-48.9 W",
		"state": "ARIZONA",
		"artcc": "ZLA",
		"type": "RNAV",
		"updated": "12/23/2016"
	},
	{
		"name": "ESYUP",
		"latitude": "35-8-30.36 N",
		"longitude": "118-53-10.79 W",
		"state": "CALIFORNIA",
		"artcc": "ZLA",
		"type": "RP",
		"updated": "EHF*VORTAC*139.17/23.00"
	},
	{
		"name": "ETFIR",
		"latitude": "34-56-19.47 N",
		"longitude": "118-18-15.6 W",
		"state": "CALIFORNIA",
		"artcc": "ZLA",
		"type": "RNAV",
		"updated": "02/09/2018"
	},
	{
		"name": "ETHER",
		"latitude": "34-39-50.89 N",
		"longitude": "117-45-48.67 W",
		"state": "CALIFORNIA",
		"artcc": "ZLA",
		"type": "RP",
		"updated": "VCV*VOR/DME*268.88/18.96"
	},
	{
		"name": "ETINE",
		"latitude": "35-1-56.38 N",
		"longitude": "114-58-55.79 W",
		"state": "CALIFORNIA",
		"artcc": "ZLA",
		"type": "RP",
		"updated": "PGS*VOR/DME*228.72/79.00"
	},
	{
		"name": "ETIYU",
		"latitude": "32-52-52.59 N",
		"longitude": "117-5-19.39 W",
		"state": "CALIFORNIA",
		"artcc": "ZLA",
		"type": "MW",
		"updated": "10/27/2014"
	},
	{
		"name": "ETWAB",
		"latitude": "33-45-21.24 N",
		"longitude": "117-56-4.91 W",
		"state": "CALIFORNIA",
		"artcc": "ZLA",
		"type": "RNAV",
		"updated": "11/02/2001"
	},
	{
		"name": "EVOSE",
		"latitude": "33-55-42.26 N",
		"longitude": "118-29-59.03 W",
		"state": "CALIFORNIA",
		"artcc": "ZLA",
		"type": "RNAV",
		"updated": "12/27/2016"
	},
	{
		"name": "EWALD",
		"latitude": "37-12-0 N",
		"longitude": "118-7-45 W",
		"state": "CALIFORNIA",
		"artcc": "ZLA",
		"type": "RNAV",
		"updated": "07/21/2011"
	},
	{
		"name": "EXCON",
		"latitude": "34-43-27.63 N",
		"longitude": "117-11-30.43 W",
		"state": "CALIFORNIA",
		"artcc": "ZLA",
		"type": "RNAV",
		"updated": "04/10/2000"
	},
	{
		"name": "EXERT",
		"latitude": "33-52-39.94 N",
		"longitude": "118-50-45.93 W",
		"state": "CALIFORNIA",
		"artcc": "ZLA",
		"type": "RP",
		"updated": "VTU*VOR/DME*129.42/17.46"
	},
	{
		"name": "EXITT",
		"latitude": "36-55-12.59 N",
		"longitude": "116-8-33.46 W",
		"state": "NEVADA",
		"artcc": "ZLA",
		"type": "MR",
		"updated": "BTY*VORTAC*060.00/30.00"
	},
	{
		"name": "EXIXE",
		"latitude": "34-2-54.13 N",
		"longitude": "115-51-34.36 W",
		"state": "CALIFORNIA",
		"artcc": "ZLA",
		"type": "MR",
		"updated": "NXP*TACAN*121.00/21.00"
	},
	{
		"name": "EXPAM",
		"latitude": "33-58-26.17 N",
		"longitude": "117-33-22 W",
		"state": "CALIFORNIA",
		"artcc": "ZLA",
		"type": "RP",
		"updated": "PDZ*VORTAC*323.63"
	},
	{
		"name": "EXUPY",
		"latitude": "35-29-39.61 N",
		"longitude": "120-29-38.78 W",
		"state": "CALIFORNIA",
		"artcc": "ZLA",
		"type": "RP",
		"updated": "PRB*VORTAC*132.58/12.50"
	},
	{
		"name": "EYEDL",
		"latitude": "33-45-4.94 N",
		"longitude": "117-14-1.1 W",
		"state": "CALIFORNIA",
		"artcc": "ZLA",
		"type": "RNAV",
		"updated": "01/05/2017"
	},
	{
		"name": "EYENE",
		"latitude": "36-4-24.78 N",
		"longitude": "115-13-22.46 W",
		"state": "NEVADA",
		"artcc": "ZLA",
		"type": "WP",
		"updated": "11/21/2002"
	},
	{
		"name": "EYENO",
		"latitude": "33-55-57.24 N",
		"longitude": "118-37-56.68 W",
		"state": "CALIFORNIA",
		"artcc": "ZLA",
		"type": "RNAV",
		"updated": "01/05/2017"
	},
	{
		"name": "EYIRA",
		"latitude": "34-3-17.17 N",
		"longitude": "117-20-29.45 W",
		"state": "CALIFORNIA",
		"artcc": "ZLA",
		"type": "RNAV",
		"updated": "03/01/2017"
	},
	{
		"name": "EYUYI",
		"latitude": "34-11-24.63 N",
		"longitude": "116-36-45.79 W",
		"state": "CALIFORNIA",
		"artcc": "ZLA",
		"type": "RNAV",
		"updated": "10/31/2005"
	},
	{
		"name": "EZKEL",
		"latitude": "33-37-38.35 N",
		"longitude": "118-3-19.79 W",
		"state": "CALIFORNIA",
		"artcc": "ZLA",
		"type": "RNAV",
		"updated": "03/02/2017"
	}
]
