	{
		"name": "FABAT",
		"latitude": "35-39-55.86 N",
		"longitude": "117-40-21.62 W",
		"state": "CALIFORNIA",
		"artcc": "ZLA",
		"type": "MR",
		"updated": "NID*TACAN*133.00/1.70",
	},
	{
		"name": "FABEG",
		"latitude": "35-0-49.98 N",
		"longitude": "120-32-12.82 W",
		"state": "CALIFORNIA",
		"artcc": "ZLA",
		"type": "RP",
		"updated": "MQO*VORTAC*126.43/18.00",
	},
	{
		"name": "FABRA",
		"latitude": "33-56-44.3 N",
		"longitude": "118-27-53.85 W",
		"state": "CALIFORNIA",
		"artcc": "ZLA",
		"type": "RNAV",
		"updated": "12/22/2005",
	},
	{
		"name": "FABUR",
		"latitude": "34-42-58.34 N",
		"longitude": "120-33-36.27 W",
		"state": "CALIFORNIA",
		"artcc": "ZLA",
		"type": "MR",
		"updated": "VBG*TACAN*/1.50",
	},
	{
		"name": "FABUT",
		"latitude": "37-4-21.55 N",
		"longitude": "112-30-6.69 W",
		"state": "UTAH",
		"artcc": "ZLA",
		"type": "RNAV",
		"updated": "10/31/2011",
	},
	{
		"name": "FALAK",
		"latitude": "37-45-10.46 N",
		"longitude": "116-45-23.19 W",
		"state": "NEVADA",
		"artcc": "ZLA",
		"type": "MW",
		"updated": "11/04/2011",
	},
	{
		"name": "FALBA",
		"latitude": "34-54-43.01 N",
		"longitude": "116-42-15.69 W",
		"state": "CALIFORNIA",
		"artcc": "ZLA",
		"type": "RNAV",
		"updated": "06/11/2010",
	},
	{
		"name": "FALCC",
		"latitude": "33-15-41.06 N",
		"longitude": "117-34-6.47 W",
		"state": "CALIFORNIA",
		"artcc": "ZLA",
		"type": "RP",
		"updated": "OCN*VORTAC*264.35/7.69",
	},
	{
		"name": "FALLT",
		"latitude": "33-58-16.45 N",
		"longitude": "118-4-7.78 W",
		"state": "CALIFORNIA",
		"artcc": "ZLA",
		"type": "RP",
		"updated": "CFN*LD*071.01/17.84",
	},
	{
		"name": "FAMAK",
		"latitude": "35-36-24.14 N",
		"longitude": "117-47-36.29 W",
		"state": "CALIFORNIA",
		"artcc": "ZLA",
		"type": "MR",
		"updated": "NID*TACAN*212.00/7.00",
	},
	{
		"name": "FAMOS",
		"latitude": "35-37-57.04 N",
		"longitude": "119-17-55.6 W",
		"state": "CALIFORNIA",
		"artcc": "ZLA",
		"type": "RP",
		"updated": "TTE*VOR/DME*203.00",
	},
	{
		"name": "FANGY",
		"latitude": "34-2-27.25 N",
		"longitude": "118-9-11.91 W",
		"state": "CALIFORNIA",
		"artcc": "ZLA",
		"type": "RP",
		"updated": "SMO*VOR/DME*068.00/15.24",
	},
	{
		"name": "FANKO",
		"latitude": "34-4-37.66 N",
		"longitude": "119-26-2.05 W",
		"state": "CALIFORNIA",
		"artcc": "ZLA",
		"type": "MR",
		"updated": "RZS*VORTAC*133.00/30.85",
	},
	{
		"name": "FANLO",
		"latitude": "36-18-36 N",
		"longitude": "115-28-31 W",
		"state": "NEVADA",
		"artcc": "ZLA",
		"type": "RNAV",
		"updated": "06/20/2005",
	},
	{
		"name": "FAPDU",
		"latitude": "33-46-33.57 N",
		"longitude": "118-17-50.23 W",
		"state": "CALIFORNIA",
		"artcc": "ZLA",
		"type": "RNAV",
		"updated": "10/05/2012",
	},
	{
		"name": "FAPID",
		"latitude": "34-30-26.41 N",
		"longitude": "117-12-37.71 W",
		"state": "CALIFORNIA",
		"artcc": "ZLA",
		"type": "RNAV",
		"updated": "08/09/2006",
	},
	{
		"name": "FARLO",
		"latitude": "32-55-19.32 N",
		"longitude": "116-58-45.08 W",
		"state": "CALIFORNIA",
		"artcc": "ZLA",
		"type": "MR",
		"updated": "MZB*VORTAC*041.00/15.00",
	},
	{
		"name": "FARNA",
		"latitude": "33-1-59.46 N",
		"longitude": "118-33-40.35 W",
		"state": "CALIFORNIA",
		"artcc": "ZLA",
		"type": "MR",
		"updated": "NUC*TACAN*053.00/1.00",
	},
	{
		"name": "FARTO",
		"latitude": "33-54-6.84 N",
		"longitude": "117-17-47.14 W",
		"state": "CALIFORNIA",
		"artcc": "ZLA",
		"type": "RNAV",
		"updated": "12/23/2015",
	},
	{
		"name": "FASIR",
		"latitude": "34-32-41 N",
		"longitude": "114-0-51 W",
		"state": "ARIZONA",
		"artcc": "ZLA",
		"type": "RNAV",
		"updated": "08/17/2005",
	},
	{
		"name": "FASTO",
		"latitude": "35-16-19.98 N",
		"longitude": "118-51-41.21 W",
		"state": "CALIFORNIA",
		"artcc": "ZLA",
		"type": "RP",
		"updated": "GMN*VORTAC*343.99",
	},
	{
		"name": "FAYZE",
		"latitude": "33-59-6.93 N",
		"longitude": "118-3-14.34 W",
		"state": "CALIFORNIA",
		"artcc": "ZLA",
		"type": "RP",
		"updated": "HQB*LD*071.00/19.38",
	},
	{
		"name": "FEBET",
		"latitude": "35-52-53.96 N",
		"longitude": "115-16-38.61 W",
		"state": "NEVADA",
		"artcc": "ZLA",
		"type": "RNAV",
		"updated": "07/12/2017",
	},
	{
		"name": "FEBTA",
		"latitude": "33-46-49.08 N",
		"longitude": "117-48-8.7 W",
		"state": "CALIFORNIA",
		"artcc": "ZLA",
		"type": "RNAV",
		"updated": "09/20/2016",
	},
	{
		"name": "FEBUG",
		"latitude": "33-53-47.81 N",
		"longitude": "117-52-0.32 W",
		"state": "CALIFORNIA",
		"artcc": "ZLA",
		"type": "MW",
		"updated": "07/20/2011",
	},
	{
		"name": "FEDVI",
		"latitude": "32-43-49.85 N",
		"longitude": "115-42-47.76 W",
		"state": "CALIFORNIA",
		"artcc": "ZLA",
		"type": "MR",
		"updated": "IPL*VORTAC*250.00/10.42",
	},
	{
		"name": "FEGAV",
		"latitude": "33-17-57.96 N",
		"longitude": "119-32-7.42 W",
		"state": "CALIFORNIA",
		"artcc": "ZLA",
		"type": "RNAV",
		"updated": "01/03/2006",
	},
	{
		"name": "FEHPY",
		"latitude": "33-12-39.28 N",
		"longitude": "116-56-40.44 W",
		"state": "CALIFORNIA",
		"artcc": "ZLA",
		"type": "RNAV",
		"updated": "05/22/2013",
	},
	{
		"name": "FEKIG",
		"latitude": "35-9-19.34 N",
		"longitude": "117-59-49.85 W",
		"state": "CALIFORNIA",
		"artcc": "ZLA",
		"type": "RNAV",
		"updated": "01/14/2005",
	},
	{
		"name": "FEKIL",
		"latitude": "33-54-47.35 N",
		"longitude": "118-38-18.87 W",
		"state": "CALIFORNIA",
		"artcc": "ZLA",
		"type": "RP",
		"updated": "IAS*LD*250.99/10.81",
	},
	{
		"name": "FELMI",
		"latitude": "34-15-44.74 N",
		"longitude": "118-57-23.28 W",
		"state": "CALIFORNIA",
		"artcc": "ZLA",
		"type": "MR",
		"updated": "NTD*TACAN*032.62/11.72",
	},
	{
		"name": "FEMAK",
		"latitude": "33-52-7.21 N",
		"longitude": "116-32-8.07 W",
		"state": "CALIFORNIA",
		"artcc": "ZLA",
		"type": "RNAV",
		"updated": "12/23/2003",
	},
	{
		"name": "FEMEK",
		"latitude": "34-38-2.52 N",
		"longitude": "120-22-1.98 W",
		"state": "CALIFORNIA",
		"artcc": "ZLA",
		"type": "RP",
		"updated": "GVO*VORTAC*278.30/15.00",
	},
	{
		"name": "FEPAG",
		"latitude": "33-2-51.2 N",
		"longitude": "118-31-8.14 W",
		"state": "CALIFORNIA",
		"artcc": "ZLA",
		"type": "MR",
		"updated": "NUC*TACAN*053.00/3.30",
	},
	{
		"name": "FERDO",
		"latitude": "34-9-50 N",
		"longitude": "115-40-22 W",
		"state": "CALIFORNIA",
		"artcc": "ZLA",
		"type": "RNAV",
		"updated": "06/20/2005",
	},
	{
		"name": "FERMY",
		"latitude": "33-44-0.29 N",
		"longitude": "118-13-9.88 W",
		"state": "CALIFORNIA",
		"artcc": "ZLA",
		"type": "RP",
		"updated": "LAX*VORTAC*123.33/16.00",
	},
	{
		"name": "FERNN",
		"latitude": "33-58-22.14 N",
		"longitude": "116-32-49.39 W",
		"state": "CALIFORNIA",
		"artcc": "ZLA",
		"type": "RNAV",
		"updated": "12/20/2017",
	},
	{
		"name": "FETAR",
		"latitude": "34-0-50.13 N",
		"longitude": "116-41-14.09 W",
		"state": "CALIFORNIA",
		"artcc": "ZLA",
		"type": "RNAV",
		"updated": "12/23/2003",
	},
	{
		"name": "FEXDE",
		"latitude": "33-7-0.69 N",
		"longitude": "116-39-36.72 W",
		"state": "CALIFORNIA",
		"artcc": "ZLA",
		"type": "RP",
		"updated": "JLI*VORTAC*234.33/4.00",
	},
	{
		"name": "FEXED",
		"latitude": "33-59-26.5 N",
		"longitude": "119-24-12.09 W",
		"state": "CALIFORNIA",
		"artcc": "ZLA",
		"type": "MR",
		"updated": "FIM*VORTAC*215.00/34.00",
	},
	{
		"name": "FEXIV",
		"latitude": "33-59-31.2 N",
		"longitude": "117-51-23.81 W",
		"state": "CALIFORNIA",
		"artcc": "ZLA",
		"type": "CN",
		"updated": "12/27/2005",
	},
	{
		"name": "FEYLA",
		"latitude": "35-13-36.52 N",
		"longitude": "115-54-4.77 W",
		"state": "CALIFORNIA",
		"artcc": "ZLA",
		"type": "RNAV",
		"updated": "12/27/2016",
	},
	{
		"name": "FIBLU",
		"latitude": "34-35-56.39 N",
		"longitude": "117-50-42.65 W",
		"state": "CALIFORNIA",
		"artcc": "ZLA",
		"type": "MR",
		"updated": "PMD*VORTAC*085.10/11.00",
	},
	{
		"name": "FICKY",
		"latitude": "31-33-27.38 N",
		"longitude": "121-23-30.47 W",
		"state": "OFFSHORE PACIFIC",
		"artcc": "ZLA",
		"type": "RNAV",
		"updated": "10/30/2017",
	},
	{
		"name": "FICWO",
		"latitude": "32-43-14.93 N",
		"longitude": "117-8-13.48 W",
		"state": "CALIFORNIA",
		"artcc": "ZLA",
		"type": "RNAV",
		"updated": "06/08/2015",
	},
	{
		"name": "FIDOE",
		"latitude": "36-16-11.44 N",
		"longitude": "115-29-56.85 W",
		"state": "NEVADA",
		"artcc": "ZLA",
		"type": "RNAV",
		"updated": "08/29/2011",
	},
	{
		"name": "FIKUS",
		"latitude": "32-45-40.28 N",
		"longitude": "117-18-14.64 W",
		"state": "CALIFORNIA",
		"artcc": "ZLA",
		"type": "RNAV",
		"updated": "08/31/2015",
	},
	{
		"name": "FILBA",
		"latitude": "33-56-53.07 N",
		"longitude": "118-17-57.24 W",
		"state": "CALIFORNIA",
		"artcc": "ZLA",
		"type": "RNAV",
		"updated": "06/11/2008",
	},
	{
		"name": "FILMZ",
		"latitude": "34-8-53.39 N",
		"longitude": "118-28-15.44 W",
		"state": "CALIFORNIA",
		"artcc": "ZLA",
		"type": "RNAV",
		"updated": "08/30/2016",
	},
	{
		"name": "FINLE",
		"latitude": "32-40-56.26 N",
		"longitude": "116-59-38.7 W",
		"state": "CALIFORNIA",
		"artcc": "ZLA",
		"type": "RP",
		"updated": "PGY*VORTAC*336.00/4.38",
	},
	{
		"name": "FINOL",
		"latitude": "33-33-44.95 N",
		"longitude": "116-5-24.69 W",
		"state": "CALIFORNIA",
		"artcc": "ZLA",
		"type": "RNAV",
		"updated": "11/25/2002",
	},
	{
		"name": "FINSA",
		"latitude": "34-55-25.42 N",
		"longitude": "118-7-54.55 W",
		"state": "CALIFORNIA",
		"artcc": "ZLA",
		"type": "MR",
		"updated": "EDW*VORTAC*245.00/20.00",
	},
	{
		"name": "FINZZ",
		"latitude": "33-34-58.8 N",
		"longitude": "118-7-59.9 W",
		"state": "CALIFORNIA",
		"artcc": "ZLA",
		"type": "RNAV",
		"updated": "03/02/2017",
	},
	{
		"name": "FIRUP",
		"latitude": "33-49-18.64 N",
		"longitude": "116-21-9.02 W",
		"state": "CALIFORNIA",
		"artcc": "ZLA",
		"type": "RNAV",
		"updated": "09/01/2017",
	},
	{
		"name": "FISAM",
		"latitude": "33-23-37.72 N",
		"longitude": "117-14-49.59 W",
		"state": "CALIFORNIA",
		"artcc": "ZLA",
		"type": "MR",
		"updated": "NFG*TACAN*031.40/10.00",
	},
	{
		"name": "FISCH",
		"latitude": "34-47-36.81 N",
		"longitude": "118-16-29.55 W",
		"state": "CALIFORNIA",
		"artcc": "ZLA",
		"type": "RP",
		"updated": "LHS*VORTAC*051.00",
	},
	{
		"name": "FITEP",
		"latitude": "34-12-5.8 N",
		"longitude": "119-19-10.91 W",
		"state": "CALIFORNIA",
		"artcc": "ZLA",
		"type": "RNAV",
		"updated": "06/17/2011",
	},
	{
		"name": "FITMU",
		"latitude": "33-19-47.27 N",
		"longitude": "117-10-6.9 W",
		"state": "CALIFORNIA",
		"artcc": "ZLA",
		"type": "WP",
		"updated": "11/02/1998",
	},
	{
		"name": "FIVUT",
		"latitude": "33-59-20.76 N",
		"longitude": "116-35-17.1 W",
		"state": "CALIFORNIA",
		"artcc": "ZLA",
		"type": "RNAV",
		"updated": "09/20/2016",
	},
	{
		"name": "FIXIT",
		"latitude": "33-58-28 N",
		"longitude": "118-59-17 W",
		"state": "CALIFORNIA",
		"artcc": "ZLA",
		"type": "RNAV",
		"updated": "02/13/2012",
	},
	{
		"name": "FIXIX",
		"latitude": "36-0-54.1 N",
		"longitude": "115-12-4.79 W",
		"state": "NEVADA",
		"artcc": "ZLA",
		"type": "RNAV",
		"updated": "09/04/2003",
	},
	{
		"name": "FIXLU",
		"latitude": "35-49-12 N",
		"longitude": "115-12-28 W",
		"state": "NEVADA",
		"artcc": "ZLA",
		"type": "WP",
		"updated": "07/09/2001",
	},
	{
		"name": "FIZZL",
		"latitude": "36-56-3.37 N",
		"longitude": "113-16-23.91 W",
		"state": "ARIZONA",
		"artcc": "ZLA",
		"type": "RNAV",
		"updated": "01/20/2016",
	},
	{
		"name": "FJAYY",
		"latitude": "35-1-40.02 N",
		"longitude": "115-46-11.86 W",
		"state": "CALIFORNIA",
		"artcc": "ZLA",
		"type": "RNAV",
		"updated": "12/27/2016",
	},
	{
		"name": "FLAMZ",
		"latitude": "35-54-39.93 N",
		"longitude": "114-16-11.56 W",
		"state": "ARIZONA",
		"artcc": "ZLA",
		"type": "RNAV",
		"updated": "05/24/2011",
	},
	{
		"name": "FLAVR",
		"latitude": "34-25-45.34 N",
		"longitude": "117-37-21.33 W",
		"state": "CALIFORNIA",
		"artcc": "ZLA",
		"type": "RP",
		"updated": "PMD*VORTAC*103.84/25.00",
	},
	{
		"name": "FLEEE",
		"latitude": "33-6-18.17 N",
		"longitude": "117-25-23.63 W",
		"state": "CALIFORNIA",
		"artcc": "ZLA",
		"type": "RNAV",
		"updated": "10/04/2016",
	},
	{
		"name": "FLICR",
		"latitude": "36-4-34.48 N",
		"longitude": "114-51-5.23 W",
		"state": "NEVADA",
		"artcc": "ZLA",
		"type": "RP",
		"updated": "BLD*VORTAC*351.97",
	},
	{
		"name": "FLOJO",
		"latitude": "34-38-0.54 N",
		"longitude": "115-53-35.8 W",
		"state": "CALIFORNIA",
		"artcc": "ZLA",
		"type": "RNAV",
		"updated": "04/06/2018",
	},
	{
		"name": "FLOUT",
		"latitude": "34-15-27.32 N",
		"longitude": "119-57-11.53 W",
		"state": "CALIFORNIA",
		"artcc": "ZLA",
		"type": "RP",
		"updated": "RZS*VORTAC*197.00/17.59",
	},
	{
		"name": "FLSHH",
		"latitude": "33-3-2 N",
		"longitude": "117-24-41 W",
		"state": "CALIFORNIA",
		"artcc": "ZLA",
		"type": "RNAV",
		"updated": "12/27/2016",
	},
	{
		"name": "FLUSH",
		"latitude": "36-50-47.87 N",
		"longitude": "116-20-16.13 W",
		"state": "NEVADA",
		"artcc": "ZLA",
		"type": "MR",
		"updated": "LAS*VORTAC*294.22/73.23",
	},
	{
		"name": "FLWRZ",
		"latitude": "33-29-53 N",
		"longitude": "116-54-5.9 W",
		"state": "CALIFORNIA",
		"artcc": "ZLA",
		"type": "RNAV",
		"updated": "01/05/2017",
	},
	{
		"name": "FLYES",
		"latitude": "36-4-33.84 N",
		"longitude": "114-45-46.01 W",
		"state": "NEVADA",
		"artcc": "ZLA",
		"type": "RP",
		"updated": "BLD*VORTAC*030.53",
	},
	{
		"name": "FLYIN",
		"latitude": "34-4-51.37 N",
		"longitude": "117-50-54.89 W",
		"state": "CALIFORNIA",
		"artcc": "ZLA",
		"type": "RP",
		"updated": "EMT*NDB*077.73",
	},
	{
		"name": "FLYTE",
		"latitude": "34-37-4.05 N",
		"longitude": "118-3-43.08 W",
		"state": "CALIFORNIA",
		"artcc": "ZLA",
		"type": "MW",
		"updated": "11/22/2016",
	},
	{
		"name": "FNCHH",
		"latitude": "33-34-38.2 N",
		"longitude": "117-14-22.8 W",
		"state": "CALIFORNIA",
		"artcc": "ZLA",
		"type": "RNAV",
		"updated": "01/05/2017",
	},
	{
		"name": "FNESE",
		"latitude": "33-59-29.79 N",
		"longitude": "117-59-25.07 W",
		"state": "CALIFORNIA",
		"artcc": "ZLA",
		"type": "RP",
		"updated": "HQB*LD*071.00/22.58",
	},
	{
		"name": "FNNDA",
		"latitude": "34-45-14.96 N",
		"longitude": "114-45-18.49 W",
		"state": "CALIFORNIA",
		"artcc": "ZLA",
		"type": "RNAV",
		"updated": "12/27/2016",
	},
	{
		"name": "FOBDA",
		"latitude": "33-25-42.99 N",
		"longitude": "119-23-47.56 W",
		"state": "CALIFORNIA",
		"artcc": "ZLA",
		"type": "MR",
		"updated": "NSI*TACAN*003.00/12.00",
	},
	{
		"name": "FODIG",
		"latitude": "34-2-13.1 N",
		"longitude": "118-15-43.67 W",
		"state": "CALIFORNIA",
		"artcc": "ZLA",
		"type": "RNAV",
		"updated": "01/24/2017",
	},
	{
		"name": "FOGGY",
		"latitude": "34-40-39.95 N",
		"longitude": "120-30-24.46 W",
		"state": "CALIFORNIA",
		"artcc": "ZLA",
		"type": "MR",
		"updated": "VBG*TACAN*117.00/5.00",
	},
	{
		"name": "FOGLA",
		"latitude": "33-57-2.39 N",
		"longitude": "118-16-25.29 W",
		"state": "CALIFORNIA",
		"artcc": "ZLA",
		"type": "RP",
		"updated": "CFN*LD*071.01/7.54",
	},
	{
		"name": "FOGSI",
		"latitude": "34-1-54.79 N",
		"longitude": "117-25-59.97 W",
		"state": "CALIFORNIA",
		"artcc": "ZLA",
		"type": "MW",
		"updated": "02/15/2012",
	},
	{
		"name": "FOGVA",
		"latitude": "33-13-7.06 N",
		"longitude": "117-20-49.71 W",
		"state": "CALIFORNIA",
		"artcc": "ZLA",
		"type": "WP",
		"updated": "11/02/1998",
	},
	{
		"name": "FOILD",
		"latitude": "33-44-48.96 N",
		"longitude": "115-10-29.85 W",
		"state": "CALIFORNIA",
		"artcc": "ZLA",
		"type": "RNAV",
		"updated": "03/02/2017",
	},
	{
		"name": "FOLDD",
		"latitude": "36-21-40.28 N",
		"longitude": "114-37-44.04 W",
		"state": "NEVADA",
		"artcc": "ZLA",
		"type": "RNAV",
		"updated": "12/19/2007",
	},
	{
		"name": "FOLDI",
		"latitude": "34-2-13.62 N",
		"longitude": "116-30-43.64 W",
		"state": "CALIFORNIA",
		"artcc": "ZLA",
		"type": "RNAV",
		"updated": "12/23/2003",
	},
	{
		"name": "FOLNU",
		"latitude": "34-3-24.83 N",
		"longitude": "117-31-42.21 W",
		"state": "CALIFORNIA",
		"artcc": "ZLA",
		"type": "RNAV",
		"updated": "05/05/2008",
	},
	{
		"name": "FOLTA",
		"latitude": "32-34-34.62 N",
		"longitude": "117-10-1.79 W",
		"state": "CALIFORNIA",
		"artcc": "ZLA",
		"type": "MR",
		"updated": "NRS*TACAN*273.00/3.00",
	},
	{
		"name": "FOMIN",
		"latitude": "33-41-54.25 N",
		"longitude": "117-4-33.07 W",
		"state": "CALIFORNIA",
		"artcc": "ZLA",
		"type": "RNAV",
		"updated": "10/07/2003",
	},
	{
		"name": "FONTA",
		"latitude": "34-3-22.33 N",
		"longitude": "117-28-17.72 W",
		"state": "CALIFORNIA",
		"artcc": "ZLA",
		"type": "RP",
		"updated": "PDZ*VORTAC*004.42/8.76",
	},
	{
		"name": "FORDA",
		"latitude": "34-38-21.99 N",
		"longitude": "117-57-2.24 W",
		"state": "CALIFORNIA",
		"artcc": "ZLA",
		"type": "RP",
		"updated": "EDW*VORTAC*192.73",
	},
	{
		"name": "FORGE",
		"latitude": "35-51-53.09 N",
		"longitude": "115-4-6.47 W",
		"state": "NEVADA",
		"artcc": "ZLA",
		"type": "RNAV",
		"updated": "01/18/2005",
	},
	{
		"name": "FORKI",
		"latitude": "33-35-27.34 N",
		"longitude": "116-7-26.81 W",
		"state": "CALIFORNIA",
		"artcc": "ZLA",
		"type": "RNAV",
		"updated": "11/25/2002",
	},
	{
		"name": "FOSEB",
		"latitude": "32-53-7.7 N",
		"longitude": "117-4-10.43 W",
		"state": "CALIFORNIA",
		"artcc": "ZLA",
		"type": "MW",
		"updated": "10/27/2014",
	},
	{
		"name": "FOSKO",
		"latitude": "34-15-25.96 N",
		"longitude": "118-56-33.59 W",
		"state": "CALIFORNIA",
		"artcc": "ZLA",
		"type": "MR",
		"updated": "NTD*TACAN*036.00/12.00",
	},
	{
		"name": "FOVOL",
		"latitude": "34-3-12 N",
		"longitude": "115-34-37 W",
		"state": "CALIFORNIA",
		"artcc": "ZLA",
		"type": "RNAV",
		"updated": "10/24/2011",
	},
	{
		"name": "FRAMS",
		"latitude": "35-22-1.94 N",
		"longitude": "120-56-21.92 W",
		"state": "CALIFORNIA",
		"artcc": "ZLA",
		"type": "RP",
		"updated": "MQO*VORTAC*292.00/11.20",
	},
	{
		"name": "FRASR",
		"latitude": "34-38-15.44 N",
		"longitude": "118-57-23.04 W",
		"state": "CALIFORNIA",
		"artcc": "ZLA",
		"type": "RNAV",
		"updated": "03/01/2017",
	},
	{
		"name": "FRAWG",
		"latitude": "36-8-43 N",
		"longitude": "114-46-4 W",
		"state": "NEVADA",
		"artcc": "ZLA",
		"type": "RNAV",
		"updated": "09/04/2003",
	},
	{
		"name": "FRBET",
		"latitude": "36-58-8.86 N",
		"longitude": "112-27-26.66 W",
		"state": "ARIZONA",
		"artcc": "ZLA",
		"type": "RNAV",
		"updated": "11/02/2016",
	},
	{
		"name": "FREDD",
		"latitude": "36-54-33.81 N",
		"longitude": "112-21-4.42 W",
		"state": "ARIZONA",
		"artcc": "ZLA",
		"type": "RP",
		"updated": "LAS*VORTAC*054.07/144.68",
	},
	{
		"name": "FRETS",
		"latitude": "33-46-46.35 N",
		"longitude": "117-29-51.68 W",
		"state": "CALIFORNIA",
		"artcc": "ZLA",
		"type": "RP",
		"updated": "HDF*VOR*256.79",
	},
	{
		"name": "FRETZ",
		"latitude": "36-40-43.06 N",
		"longitude": "115-1-30.02 W",
		"state": "NEVADA",
		"artcc": "ZLA",
		"type": "MR",
		"updated": "LSV*TACAN*345.00/26.00",
	},
	{
		"name": "FRIRR",
		"latitude": "34-30-0.42 N",
		"longitude": "118-22-42.52 W",
		"state": "CALIFORNIA",
		"artcc": "ZLA",
		"type": "RNAV",
		"updated": "09/11/2016",
	},
	{
		"name": "FRITR",
		"latitude": "33-38-40.57 N",
		"longitude": "118-2-19.75 W",
		"state": "CALIFORNIA",
		"artcc": "ZLA",
		"type": "RNAV",
		"updated": "12/30/2016",
	},
	{
		"name": "FROGE",
		"latitude": "37-32-28.01 N",
		"longitude": "116-3-36.19 W",
		"state": "NEVADA",
		"artcc": "ZLA",
		"type": "RNAV",
		"updated": "05/11/2016",
	},
	{
		"name": "FROUN",
		"latitude": "34-23-57.87 N",
		"longitude": "117-50-27 W",
		"state": "CALIFORNIA",
		"artcc": "ZLA",
		"type": "RP",
		"updated": "DAG*VORTAC*227.00/71.00",
	},
	{
		"name": "FUELR",
		"latitude": "33-59-9.67 N",
		"longitude": "117-53-48.79 W",
		"state": "CALIFORNIA",
		"artcc": "ZLA",
		"type": "RP",
		"updated": "LAX*LD*071.01/26.41",
	},
	{
		"name": "FUMBL",
		"latitude": "33-55-23.72 N",
		"longitude": "118-31-12.05 W",
		"state": "CALIFORNIA",
		"artcc": "ZLA",
		"type": "RP",
		"updated": "MKZ*LD*250.99/4.92",
	},
	{
		"name": "FURNY",
		"latitude": "36-29-24.47 N",
		"longitude": "117-27-42.05 W",
		"state": "CALIFORNIA",
		"artcc": "ZLA",
		"type": "RP",
		"updated": "CZQ*VORTAC*086.04/116.00",
	},
	{
		"name": "FURRY",
		"latitude": "34-20-50.9 N",
		"longitude": "118-30-12.28 W",
		"state": "CALIFORNIA",
		"artcc": "ZLA",
		"type": "RP",
		"updated": "VNY*VOR/DME*/7.42",
	},
	{
		"name": "FUZZY",
		"latitude": "36-12-2.07 N",
		"longitude": "115-54-1.01 W",
		"state": "NEVADA",
		"artcc": "ZLA",
		"type": "RP",
		"updated": "BLD*VORTAC*268.98/51.88",
	},
	{
		"name": "FYTRR",
		"latitude": "33-34-16.34 N",
		"longitude": "117-42-9.64 W",
		"state": "CALIFORNIA",
		"artcc": "ZLA",
		"type": "RNAV",
		"updated": "12/27/2016",
	},
	{
		"name": "FYTTR",
		"latitude": "36-21-26.33 N",
		"longitude": "115-41-28.06 W",
		"state": "NEVADA",
		"artcc": "ZLA",
		"type": "MR",
		"updated": "LSV*TACAN*270.00/33.00",
	},
