[
	{
		"name": "HABUT",
		"latitude": "34-25-20.16 N",
		"longitude": "120-5-19.99 W",
		"state": "CALIFORNIA",
		"artcc": "ZLA",
		"type": "RP",
		"updated": "GVO*VORTAC*163.04/6.53"
	},
	{
		"name": "HADIO",
		"latitude": "34-0-19.92 N",
		"longitude": "118-12-50.28 W",
		"state": "CALIFORNIA",
		"artcc": "ZLA",
		"type": "RNAV",
		"updated": "03/02/2017"
	},
	{
		"name": "HAGEB",
		"latitude": "33-41-12.26 N",
		"longitude": "117-51-42.6 W",
		"state": "CALIFORNIA",
		"artcc": "ZLA",
		"type": "RP",
		"updated": "OJW*DD*002.94/0.28"
	},
	{
		"name": "HAILE",
		"latitude": "32-46-45.7 N",
		"longitude": "117-0-51.71 W",
		"state": "CALIFORNIA",
		"artcc": "ZLA",
		"type": "RP",
		"updated": "PGY*VORTAC*335.99/10.28"
	},
	{
		"name": "HAILO",
		"latitude": "35-38-14 N",
		"longitude": "115-58-16 W",
		"state": "CALIFORNIA",
		"artcc": "ZLA",
		"type": "RNAV",
		"updated": "12/27/2016"
	},
	{
		"name": "HAKID",
		"latitude": "35-45-45.44 N",
		"longitude": "115-8-12.68 W",
		"state": "NEVADA",
		"artcc": "ZLA",
		"type": "RNAV",
		"updated": "05/25/2011"
	},
	{
		"name": "HAKMN",
		"latitude": "35-30-28.31 N",
		"longitude": "115-4-47.04 W",
		"state": "NEVADA",
		"artcc": "ZLA",
		"type": "RNAV",
		"updated": "12/23/2016"
	},
	{
		"name": "HAKOD",
		"latitude": "34-53-3.4 N",
		"longitude": "120-26-42.3 W",
		"state": "CALIFORNIA",
		"artcc": "ZLA",
		"type": "RNAV",
		"updated": "02/19/2016"
	},
	{
		"name": "HAKUR",
		"latitude": "33-15-42.87 N",
		"longitude": "116-9-55.1 W",
		"state": "CALIFORNIA",
		"artcc": "ZLA",
		"type": "RNAV",
		"updated": "01/02/2003"
	},
	{
		"name": "HALAV",
		"latitude": "34-39-28.01 N",
		"longitude": "120-25-52.95 W",
		"state": "CALIFORNIA",
		"artcc": "ZLA",
		"type": "RP",
		"updated": "GVO*VORTAC*278.30/18.48"
	},
	{
		"name": "HALDA",
		"latitude": "35-9-43.91 N",
		"longitude": "120-30-40.43 W",
		"state": "CALIFORNIA",
		"artcc": "ZLA",
		"type": "RNAV",
		"updated": "03/20/2001"
	},
	{
		"name": "HALVI",
		"latitude": "34-15-51.12 N",
		"longitude": "116-44-21.06 W",
		"state": "CALIFORNIA",
		"artcc": "ZLA",
		"type": "RNAV",
		"updated": "08/13/2013"
	},
	{
		"name": "HAMBO",
		"latitude": "37-12-0 N",
		"longitude": "117-38-30 W",
		"state": "CALIFORNIA",
		"artcc": "ZLA",
		"type": "RNAV",
		"updated": "10/23/2017"
	},
	{
		"name": "HAMIG",
		"latitude": "36-16-17.81 N",
		"longitude": "115-0-26.6 W",
		"state": "NEVADA",
		"artcc": "ZLA",
		"type": "RNAV",
		"updated": "09/26/2006"
	},
	{
		"name": "HAMUG",
		"latitude": "33-53-54.75 N",
		"longitude": "117-50-30.2 W",
		"state": "CALIFORNIA",
		"artcc": "ZLA",
		"type": "RP",
		"updated": "FUL*LE*NE CRS/7.40"
	},
	{
		"name": "HANGO",
		"latitude": "34-14-43.76 N",
		"longitude": "116-2-54.55 W",
		"state": "CALIFORNIA",
		"artcc": "ZLA",
		"type": "MR",
		"updated": "TNP*VORTAC*285.00/16.00"
	},
	{
		"name": "HANIB",
		"latitude": "34-33-47.53 N",
		"longitude": "117-36-24.68 W",
		"state": "CALIFORNIA",
		"artcc": "ZLA",
		"type": "MR",
		"updated": "PMD*VORTAC*085.10/23.00"
	},
	{
		"name": "HANIS",
		"latitude": "32-34-29.33 N",
		"longitude": "117-22-17 W",
		"state": "CALIFORNIA",
		"artcc": "ZLA",
		"type": "MR",
		"updated": "PGY*VORTAC*250.00/20.00"
	},
	{
		"name": "HANNU",
		"latitude": "34-57-54.77 N",
		"longitude": "120-29-44.23 W",
		"state": "CALIFORNIA",
		"artcc": "ZLA",
		"type": "RNAV",
		"updated": "05/18/2009"
	},
	{
		"name": "HAPER",
		"latitude": "37-2-56.55 N",
		"longitude": "113-11-20.24 W",
		"state": "UTAH",
		"artcc": "ZLA",
		"type": "RNAV",
		"updated": "07/31/2017"
	},
	{
		"name": "HAPLY",
		"latitude": "35-52-44.4 N",
		"longitude": "112-13-27.64 W",
		"state": "ARIZONA",
		"artcc": "ZLA",
		"type": "RP",
		"updated": "GCN*VOR/DME*/6.19"
	},
	{
		"name": "HAPPE",
		"latitude": "33-40-17.85 N",
		"longitude": "116-39-23.74 W",
		"state": "CALIFORNIA",
		"artcc": "ZLA",
		"type": "RP",
		"updated": "PSP*VORTAC*210.74"
	},
	{
		"name": "HARBR",
		"latitude": "33-14-16.76 N",
		"longitude": "117-51-23.04 W",
		"state": "CALIFORNIA",
		"artcc": "ZLA",
		"type": "RP",
		"updated": "SXC*VORTAC*091.00/29.50"
	},
	{
		"name": "HARFE",
		"latitude": "35-54-22.89 N",
		"longitude": "114-59-7.88 W",
		"state": "NEVADA",
		"artcc": "ZLA",
		"type": "RP",
		"updated": "LAS*VORTAC*125.70"
	},
	{
		"name": "HARLS",
		"latitude": "36-4-1.22 N",
		"longitude": "115-22-47.05 W",
		"state": "NEVADA",
		"artcc": "ZLA",
		"type": "RP",
		"updated": "LAS*VORTAC*251.00/10.72"
	},
	{
		"name": "HARNE",
		"latitude": "36-55-30 N",
		"longitude": "117-10-33 W",
		"state": "CALIFORNIA",
		"artcc": "ZLA",
		"type": "RNAV",
		"updated": "04/08/2014"
	},
	{
		"name": "HARYS",
		"latitude": "34-20-25.96 N",
		"longitude": "118-27-16.49 W",
		"state": "CALIFORNIA",
		"artcc": "ZLA",
		"type": "RNAV",
		"updated": "03/02/2017"
	},
	{
		"name": "HASBY",
		"latitude": "35-16-6.79 N",
		"longitude": "120-41-45.06 W",
		"state": "CALIFORNIA",
		"artcc": "ZLA",
		"type": "RP",
		"updated": "MQO*VORTAC*056.66"
	},
	{
		"name": "HASHY",
		"latitude": "33-55-45.57 N",
		"longitude": "118-11-48.09 W",
		"state": "CALIFORNIA",
		"artcc": "ZLA",
		"type": "RP",
		"updated": "LAX*VORTAC*/11.75"
	},
	{
		"name": "HASIL",
		"latitude": "36-18-34.67 N",
		"longitude": "115-15-32.61 W",
		"state": "NEVADA",
		"artcc": "ZLA",
		"type": "RP",
		"updated": "LSV*TACAN*277.00/12.00"
	},
	{
		"name": "HASIV",
		"latitude": "33-57-54.12 N",
		"longitude": "117-31-50.53 W",
		"state": "CALIFORNIA",
		"artcc": "ZLA",
		"type": "RNAV",
		"updated": "06/15/2010"
	},
	{
		"name": "HASOR",
		"latitude": "33-49-27.94 N",
		"longitude": "116-27-2.24 W",
		"state": "CALIFORNIA",
		"artcc": "ZLA",
		"type": "RNAV",
		"updated": "12/23/2003"
	},
	{
		"name": "HASSA",
		"latitude": "34-12-6.51 N",
		"longitude": "117-50-54.58 W",
		"state": "CALIFORNIA",
		"artcc": "ZLA",
		"type": "RP",
		"updated": "LAX*VORTAC*045.88"
	},
	{
		"name": "HATLI",
		"latitude": "34-12-8.02 N",
		"longitude": "119-25-4.76 W",
		"state": "CALIFORNIA",
		"artcc": "ZLA",
		"type": "WP",
		"updated": "11/02/1998"
	},
	{
		"name": "HAVOX",
		"latitude": "34-42-50.06 N",
		"longitude": "114-24-13.96 W",
		"state": "ARIZONA",
		"artcc": "ZLA",
		"type": "RNAV",
		"updated": "11/06/2002"
	},
	{
		"name": "HAVUR",
		"latitude": "33-54-6.06 N",
		"longitude": "117-49-31.35 W",
		"state": "CALIFORNIA",
		"artcc": "ZLA",
		"type": "RNAV",
		"updated": "04/12/2004"
	},
	{
		"name": "HAWKO",
		"latitude": "36-4-34.81 N",
		"longitude": "114-54-40.64 W",
		"state": "NEVADA",
		"artcc": "ZLA",
		"type": "RP",
		"updated": "BLD*VORTAC*319.35"
	},
	{
		"name": "HAWNN",
		"latitude": "34-5-9.6 N",
		"longitude": "117-40-7.5 W",
		"state": "CALIFORNIA",
		"artcc": "ZLA",
		"type": "RP",
		"updated": "PDZ*VORTAC*310.46"
	},
	{
		"name": "HAWWC",
		"latitude": "33-54-54.92 N",
		"longitude": "118-24-50.76 W",
		"state": "CALIFORNIA",
		"artcc": "ZLA",
		"type": "RNAV",
		"updated": "03/02/2017"
	},
	{
		"name": "HAYEZ",
		"latitude": "34-22-40 N",
		"longitude": "118-31-29 W",
		"state": "CALIFORNIA",
		"artcc": "ZLA",
		"type": "RNAV",
		"updated": "12/27/2012"
	},
	{
		"name": "HAYNK",
		"latitude": "33-50-26.07 N",
		"longitude": "118-38-14.25 W",
		"state": "CALIFORNIA",
		"artcc": "ZLA",
		"type": "RNAV",
		"updated": "01/26/2017"
	},
	{
		"name": "HAYOO",
		"latitude": "33-31-39.7 N",
		"longitude": "116-55-28.99 W",
		"state": "CALIFORNIA",
		"artcc": "ZLA",
		"type": "RP",
		"updated": "OCN*VORTAC*040.10"
	},
	{
		"name": "HEDAL",
		"latitude": "35-57-30.93 N",
		"longitude": "116-2-22.72 W",
		"state": "CALIFORNIA",
		"artcc": "ZLA",
		"type": "RNAV",
		"updated": "05/25/2011"
	},
	{
		"name": "HEDRI",
		"latitude": "34-48-43.56 N",
		"longitude": "117-6-14.6 W",
		"state": "CALIFORNIA",
		"artcc": "ZLA",
		"type": "RNAV",
		"updated": "02/15/2008"
	},
	{
		"name": "HEDVI",
		"latitude": "33-32-23 N",
		"longitude": "114-28-14 W",
		"state": "ARIZONA",
		"artcc": "ZLA",
		"type": "RNAV",
		"updated": "06/24/2005"
	},
	{
		"name": "HEEDS",
		"latitude": "32-45-37.18 N",
		"longitude": "115-0-27.83 W",
		"state": "CALIFORNIA",
		"artcc": "ZLA",
		"type": "RP",
		"updated": "IPL*VORTAC*074.31/25.35"
	},
	{
		"name": "HEELX",
		"latitude": "32-45-7.46 N",
		"longitude": "116-17-7.61 W",
		"state": "CALIFORNIA",
		"artcc": "ZLA",
		"type": "RNAV",
		"updated": "09/11/2016"
	},
	{
		"name": "HEFAY",
		"latitude": "33-38-7.44 N",
		"longitude": "117-53-17.61 W",
		"state": "CALIFORNIA",
		"artcc": "ZLA",
		"type": "RNAV",
		"updated": "11/22/2017"
	},
	{
		"name": "HEGAS",
		"latitude": "33-50-52.63 N",
		"longitude": "118-16-29.12 W",
		"state": "CALIFORNIA",
		"artcc": "ZLA",
		"type": "RNAV",
		"updated": "04/25/2007"
	},
	{
		"name": "HEGID",
		"latitude": "37-21-22.92 N",
		"longitude": "112-16-22.61 W",
		"state": "UTAH",
		"artcc": "ZLA",
		"type": "RP",
		"updated": "BCE*VORTAC*160.75/20.00"
	},
	{
		"name": "HEINY",
		"latitude": "35-51-30 N",
		"longitude": "116-33-0 W",
		"state": "CALIFORNIA",
		"artcc": "ZLA",
		"type": "RNAV",
		"updated": "04/08/2014"
	},
	{
		"name": "HELDE",
		"latitude": "34-42-16.29 N",
		"longitude": "117-22-57.18 W",
		"state": "CALIFORNIA",
		"artcc": "ZLA",
		"type": "RP",
		"updated": "HEC*VORTAC*248.31"
	},
	{
		"name": "HELSI",
		"latitude": "32-54-40.46 N",
		"longitude": "117-11-3.92 W",
		"state": "CALIFORNIA",
		"artcc": "ZLA",
		"type": "MR",
		"updated": "MZB*VORTAC*360.00/8.00"
	},
	{
		"name": "HEMET",
		"latitude": "33-41-25.78 N",
		"longitude": "116-52-44.58 W",
		"state": "CALIFORNIA",
		"artcc": "ZLA",
		"type": "RP",
		"updated": "TRM*VORTAC*263.12/36.20"
	},
	{
		"name": "HEMOM",
		"latitude": "35-49-36.52 N",
		"longitude": "115-37-48.2 W",
		"state": "NEVADA",
		"artcc": "ZLA",
		"type": "RNAV",
		"updated": "05/25/2011"
	},
	{
		"name": "HENER",
		"latitude": "34-19-51.83 N",
		"longitude": "119-13-39.68 W",
		"state": "CALIFORNIA",
		"artcc": "ZLA",
		"type": "RP",
		"updated": "VTU*VOR/DME*310.63/15.68"
	},
	{
		"name": "HENOM",
		"latitude": "33-28-9.73 N",
		"longitude": "116-1-23.91 W",
		"state": "CALIFORNIA",
		"artcc": "ZLA",
		"type": "RP",
		"updated": "TRM*VORTAC*131.13/11.73"
	},
	{
		"name": "HENSA",
		"latitude": "33-14-54.69 N",
		"longitude": "116-50-29.34 W",
		"state": "CALIFORNIA",
		"artcc": "ZLA",
		"type": "MR",
		"updated": "RIV*TACAN*137.00/45.00"
	},
	{
		"name": "HEPGA",
		"latitude": "32-48-1.8 N",
		"longitude": "114-32-10.3 W",
		"state": "CALIFORNIA",
		"artcc": "ZLA",
		"type": "MR",
		"updated": "NYL*TACAN*012.00/10.00"
	},
	{
		"name": "HERAS",
		"latitude": "36-8-26.09 N",
		"longitude": "115-5-21.42 W",
		"state": "NEVADA",
		"artcc": "ZLA",
		"type": "RNAV",
		"updated": "11/14/2016"
	},
	{
		"name": "HERDS",
		"latitude": "33-1-9.41 N",
		"longitude": "116-59-0.67 W",
		"state": "CALIFORNIA",
		"artcc": "ZLA",
		"type": "RNAV",
		"updated": "04/21/2009"
	},
	{
		"name": "HEREI",
		"latitude": "36-13-30.93 N",
		"longitude": "114-45-59.61 W",
		"state": "NEVADA",
		"artcc": "ZLA",
		"type": "RNAV",
		"updated": "11/02/2016"
	},
	{
		"name": "HEREM",
		"latitude": "36-22-31.23 N",
		"longitude": "114-52-18.37 W",
		"state": "NEVADA",
		"artcc": "ZLA",
		"type": "MR",
		"updated": "BLD*VORTAC*344.00/22.74"
	},
	{
		"name": "HERMO",
		"latitude": "33-51-32.35 N",
		"longitude": "118-21-10.46 W",
		"state": "CALIFORNIA",
		"artcc": "ZLA",
		"type": "RP",
		"updated": "LAX*VORTAC*123.00/6.00"
	},
	{
		"name": "HESIL",
		"latitude": "32-46-35.47 N",
		"longitude": "114-29-20.59 W",
		"state": "ARIZONA",
		"artcc": "ZLA",
		"type": "MR",
		"updated": "NYL*TACAN*028.00/10.00"
	},
	{
		"name": "HESPE",
		"latitude": "34-20-28.2 N",
		"longitude": "117-25-55.31 W",
		"state": "CALIFORNIA",
		"artcc": "ZLA",
		"type": "RP",
		"updated": "DAG*VORTAC*213.88/56.31"
	},
	{
		"name": "HETIT",
		"latitude": "33-14-21.16 N",
		"longitude": "118-19-36.03 W",
		"state": "CALIFORNIA",
		"artcc": "ZLA",
		"type": "MR",
		"updated": "NUC*TACAN*030.00/18.00"
	},
	{
		"name": "HETMA",
		"latitude": "32-57-26.7 N",
		"longitude": "116-2-47.44 W",
		"state": "CALIFORNIA",
		"artcc": "ZLA",
		"type": "RNAV",
		"updated": "02/13/2008"
	},
	{
		"name": "HETOM",
		"latitude": "35-11-30.56 N",
		"longitude": "117-56-20.31 W",
		"state": "CALIFORNIA",
		"artcc": "ZLA",
		"type": "RNAV",
		"updated": "01/14/2005"
	},
	{
		"name": "HEVVY",
		"latitude": "34-35-21.52 N",
		"longitude": "119-5-54.28 W",
		"state": "CALIFORNIA",
		"artcc": "ZLA",
		"type": "RNAV",
		"updated": "12/27/2016"
	},
	{
		"name": "HEYJO",
		"latitude": "34-43-10.33 N",
		"longitude": "118-43-53.04 W",
		"state": "CALIFORNIA",
		"artcc": "ZLA",
		"type": "RNAV",
		"updated": "12/27/2016"
	},
	{
		"name": "HEYNG",
		"latitude": "34-47-5.74 N",
		"longitude": "116-0-1.17 W",
		"state": "CALIFORNIA",
		"artcc": "ZLA",
		"type": "RNAV",
		"updated": "03/02/2017"
	},
	{
		"name": "HFMNN",
		"latitude": "33-34-33.14 N",
		"longitude": "118-14-10.12 W",
		"state": "CALIFORNIA",
		"artcc": "ZLA",
		"type": "RNAV",
		"updated": "12/29/2016"
	},
	{
		"name": "HHERO",
		"latitude": "33-31-16.96 N",
		"longitude": "118-29-16.38 W",
		"state": "CALIFORNIA",
		"artcc": "ZLA",
		"type": "RNAV",
		"updated": "03/02/2017"
	},
	{
		"name": "HHOME",
		"latitude": "34-21-33.87 N",
		"longitude": "119-50-13.94 W",
		"state": "CALIFORNIA",
		"artcc": "ZLA",
		"type": "RNAV",
		"updated": "09/11/2016"
	},
	{
		"name": "HIDEN",
		"latitude": "36-1-42.13 N",
		"longitude": "116-0-36.6 W",
		"state": "CALIFORNIA",
		"artcc": "ZLA",
		"type": "RP",
		"updated": "LAS*VORTAC*251.00/41.49"
	},
	{
		"name": "HIGOP",
		"latitude": "33-9-52.04 N",
		"longitude": "116-54-13.22 W",
		"state": "CALIFORNIA",
		"artcc": "ZLA",
		"type": "MR",
		"updated": "OCN*VORTAC*085.00"
	},
	{
		"name": "HIGRO",
		"latitude": "34-0-29.85 N",
		"longitude": "117-20-5.46 W",
		"state": "CALIFORNIA",
		"artcc": "ZLA",
		"type": "RP",
		"updated": "HDF*VOR*317.78"
	},
	{
		"name": "HIHWY",
		"latitude": "34-59-58.59 N",
		"longitude": "119-22-12.26 W",
		"state": "CALIFORNIA",
		"artcc": "ZLA",
		"type": "RNAV",
		"updated": "02/02/2018"
	},
	{
		"name": "HIIHO",
		"latitude": "33-4-33.79 N",
		"longitude": "115-31-7.01 W",
		"state": "CALIFORNIA",
		"artcc": "ZLA",
		"type": "RP",
		"updated": "IPL*VORTAC*344.52/19.60"
	},
	{
		"name": "HIIPR",
		"latitude": "33-55-47.45 N",
		"longitude": "118-27-21.59 W",
		"state": "CALIFORNIA",
		"artcc": "ZLA",
		"type": "RNAV",
		"updated": "12/27/2016"
	},
	{
		"name": "HIJOS",
		"latitude": "33-5-35.1 N",
		"longitude": "117-31-22.28 W",
		"state": "CALIFORNIA",
		"artcc": "ZLA",
		"type": "WP",
		"updated": "11/02/1998"
	},
	{
		"name": "HILDY",
		"latitude": "34-58-3.7 N",
		"longitude": "120-32-7.94 W",
		"state": "CALIFORNIA",
		"artcc": "ZLA",
		"type": "RP",
		"updated": "SMX*LD*120.41/6.48"
	},
	{
		"name": "HILER",
		"latitude": "33-10-34.81 N",
		"longitude": "119-22-34.36 W",
		"state": "CALIFORNIA",
		"artcc": "ZLA",
		"type": "MR",
		"updated": "NSI*TACAN*118.35"
	},
	{
		"name": "HIMDI",
		"latitude": "34-12-5.22 N",
		"longitude": "119-1-2.81 W",
		"state": "CALIFORNIA",
		"artcc": "ZLA",
		"type": "MR",
		"updated": "NTD*TACAN*036.00/7.00"
	},
	{
		"name": "HIMDU",
		"latitude": "34-24-6 N",
		"longitude": "114-0-51 W",
		"state": "ARIZONA",
		"artcc": "ZLA",
		"type": "RNAV",
		"updated": "12/23/2016"
	},
	{
		"name": "HIMEN",
		"latitude": "34-11-53.74 N",
		"longitude": "118-23-42.94 W",
		"state": "CALIFORNIA",
		"artcc": "ZLA",
		"type": "RNAV",
		"updated": "08/27/2001"
	},
	{
		"name": "HIMVI",
		"latitude": "34-12-18.67 N",
		"longitude": "118-32-19.66 W",
		"state": "CALIFORNIA",
		"artcc": "ZLA",
		"type": "RNAV",
		"updated": "09/28/2016"
	},
	{
		"name": "HINDI",
		"latitude": "34-56-50.15 N",
		"longitude": "117-48-5.8 W",
		"state": "CALIFORNIA",
		"artcc": "ZLA",
		"type": "MR",
		"updated": "EDW*VORTAC*223.00/4.00"
	},
	{
		"name": "HINOH",
		"latitude": "34-27-2.42 N",
		"longitude": "117-1-24.6 W",
		"state": "CALIFORNIA",
		"artcc": "ZLA",
		"type": "RNAV",
		"updated": "03/02/2017"
	},
	{
		"name": "HINTN",
		"latitude": "33-57-58.05 N",
		"longitude": "117-32-43.11 W",
		"state": "CALIFORNIA",
		"artcc": "ZLA",
		"type": "RP",
		"updated": "PDZ*VORTAC*330.05"
	},
	{
		"name": "HINUY",
		"latitude": "33-11-21.37 N",
		"longitude": "117-10-9.48 W",
		"state": "CALIFORNIA",
		"artcc": "ZLA",
		"type": "CN",
		"updated": "03/26/2018"
	},
	{
		"name": "HIPED",
		"latitude": "33-55-36.84 N",
		"longitude": "118-6-43.01 W",
		"state": "CALIFORNIA",
		"artcc": "ZLA",
		"type": "RNAV",
		"updated": "01/24/2017"
	},
	{
		"name": "HIRAK",
		"latitude": "32-50-12.3 N",
		"longitude": "116-58-21.88 W",
		"state": "CALIFORNIA",
		"artcc": "ZLA",
		"type": "RNAV",
		"updated": "03/28/2012"
	},
	{
		"name": "HIRVI",
		"latitude": "34-5-35.92 N",
		"longitude": "118-27-20 W",
		"state": "CALIFORNIA",
		"artcc": "ZLA",
		"type": "RP",
		"updated": "VNY*VOR/DME*152.00/8.03"
	},
	{
		"name": "HITAR",
		"latitude": "36-39-14.04 N",
		"longitude": "112-23-43.14 W",
		"state": "ARIZONA",
		"artcc": "ZLA",
		"type": "RNAV",
		"updated": "07/28/2017"
	},
	{
		"name": "HITME",
		"latitude": "35-49-17 N",
		"longitude": "115-4-27 W",
		"state": "NEVADA",
		"artcc": "ZLA",
		"type": "RNAV",
		"updated": "06/02/2010"
	},
	{
		"name": "HITOP",
		"latitude": "34-17-58.7 N",
		"longitude": "117-20-33.18 W",
		"state": "CALIFORNIA",
		"artcc": "ZLA",
		"type": "RP",
		"updated": "HDF*VOR*332.00"
	},
	{
		"name": "HIVKA",
		"latitude": "37-7-45 N",
		"longitude": "113-31-3 W",
		"state": "UTAH",
		"artcc": "ZLA",
		"type": "RNAV",
		"updated": "11/19/2010"
	},
	{
		"name": "HIVYU",
		"latitude": "34-38-26.85 N",
		"longitude": "118-19-47.74 W",
		"state": "CALIFORNIA",
		"artcc": "ZLA",
		"type": "RNAV",
		"updated": "03/13/2018"
	},
	{
		"name": "HIXAL",
		"latitude": "33-9-55.12 N",
		"longitude": "117-8-3.65 W",
		"state": "CALIFORNIA",
		"artcc": "ZLA",
		"type": "WP",
		"updated": "11/02/1998"
	},
	{
		"name": "HIXOV",
		"latitude": "33-47-34.95 N",
		"longitude": "116-14-53.56 W",
		"state": "CALIFORNIA",
		"artcc": "ZLA",
		"type": "RNAV",
		"updated": "08/15/2006"
	},
	{
		"name": "HLYWD",
		"latitude": "34-6-15.25 N",
		"longitude": "116-17-55.63 W",
		"state": "CALIFORNIA",
		"artcc": "ZLA",
		"type": "RNAV",
		"updated": "12/27/2016"
	},
	{
		"name": "HNAHH",
		"latitude": "32-44-23.7 N",
		"longitude": "116-44-58.9 W",
		"state": "CALIFORNIA",
		"artcc": "ZLA",
		"type": "RNAV",
		"updated": "09/11/2016"
	},
	{
		"name": "HNCHE",
		"latitude": "34-0-39.49 N",
		"longitude": "118-30-58.88 W",
		"state": "CALIFORNIA",
		"artcc": "ZLA",
		"type": "RNAV",
		"updated": "12/27/2016"
	},
	{
		"name": "HNTUN",
		"latitude": "34-23-39.8 N",
		"longitude": "118-48-20.4 W",
		"state": "CALIFORNIA",
		"artcc": "ZLA",
		"type": "RNAV",
		"updated": "12/27/2016"
	},
	{
		"name": "HOAPP",
		"latitude": "33-47-19.4 N",
		"longitude": "116-27-57.92 W",
		"state": "CALIFORNIA",
		"artcc": "ZLA",
		"type": "RNAV",
		"updated": "06/15/2015"
	},
	{
		"name": "HOBMA",
		"latitude": "32-40-3.23 N",
		"longitude": "114-35-36.87 W",
		"state": "ARIZONA",
		"artcc": "ZLA",
		"type": "MR",
		"updated": "NYL*TACAN*028.00/1.60"
	},
	{
		"name": "HOBOW",
		"latitude": "33-47-49.88 N",
		"longitude": "118-0-23.48 W",
		"state": "CALIFORNIA",
		"artcc": "ZLA",
		"type": "RNAV",
		"updated": "03/02/2017"
	},
	{
		"name": "HOBTA",
		"latitude": "36-46-43.71 N",
		"longitude": "113-40-32.46 W",
		"state": "ARIZONA",
		"artcc": "ZLA",
		"type": "RP",
		"updated": "MMM*VORTAC*072.69"
	},
	{
		"name": "HOBTU",
		"latitude": "34-37-17.93 N",
		"longitude": "120-12-0.29 W",
		"state": "CALIFORNIA",
		"artcc": "ZLA",
		"type": "RNAV",
		"updated": "02/09/2018"
	},
	{
		"name": "HOCKY",
		"latitude": "36-2-55.8 N",
		"longitude": "114-52-16.33 W",
		"state": "NEVADA",
		"artcc": "ZLA",
		"type": "RP",
		"updated": "LAS*VORTAC*082.42/14.16"
	},
	{
		"name": "HODKI",
		"latitude": "34-26-37.11 N",
		"longitude": "114-16-5.47 W",
		"state": "ARIZONA",
		"artcc": "ZLA",
		"type": "RNAV",
		"updated": "12/11/2008"
	},
	{
		"name": "HODKO",
		"latitude": "32-40-8.28 N",
		"longitude": "114-35-32.95 W",
		"state": "ARIZONA",
		"artcc": "ZLA",
		"type": "MR",
		"updated": "NYL*TACAN*/1.70"
	},
	{
		"name": "HOGAX",
		"latitude": "34-41-42.59 N",
		"longitude": "117-57-38.97 W",
		"state": "CALIFORNIA",
		"artcc": "ZLA",
		"type": "RNAV",
		"updated": "03/13/2018"
	},
	{
		"name": "HOGGZ",
		"latitude": "32-46-29.5 N",
		"longitude": "114-4-9.12 W",
		"state": "ARIZONA",
		"artcc": "ZLA",
		"type": "RP",
		"updated": "BZA*VORTAC*075.00/27.00"
	},
	{
		"name": "HOGNO",
		"latitude": "34-26-34.25 N",
		"longitude": "118-30-44.88 W",
		"state": "CALIFORNIA",
		"artcc": "ZLA",
		"type": "RNAV",
		"updated": "06/14/2016"
	},
	{
		"name": "HOKIV",
		"latitude": "34-12-44.01 N",
		"longitude": "118-55-10.2 W",
		"state": "CALIFORNIA",
		"artcc": "ZLA",
		"type": "RNAV",
		"updated": "10/18/2006"
	},
	{
		"name": "HOKNU",
		"latitude": "34-1-4.98 N",
		"longitude": "118-26-33.47 W",
		"state": "CALIFORNIA",
		"artcc": "ZLA",
		"type": "RNAV",
		"updated": "12/17/2013"
	},
	{
		"name": "HOKUM",
		"latitude": "36-27-34.22 N",
		"longitude": "114-59-15.73 W",
		"state": "NEVADA",
		"artcc": "ZLA",
		"type": "MR",
		"updated": "LSV*TACAN*356.00/13.00"
	},
	{
		"name": "HOLDM",
		"latitude": "36-49-7.1 N",
		"longitude": "113-32-40.59 W",
		"state": "ARIZONA",
		"artcc": "ZLA",
		"type": "RP",
		"updated": "LAS*VORTAC*045.00/89.85"
	},
	{
		"name": "HOLSI",
		"latitude": "34-15-25 N",
		"longitude": "114-0-51 W",
		"state": "ARIZONA",
		"artcc": "ZLA",
		"type": "RNAV",
		"updated": "08/01/2005"
	},
	{
		"name": "HOLTZ",
		"latitude": "33-38-40.38 N",
		"longitude": "118-20-34.79 W",
		"state": "CALIFORNIA",
		"artcc": "ZLA",
		"type": "RNAV",
		"updated": "10/01/2002"
	},
	{
		"name": "HOLUK",
		"latitude": "36-44-42.8 N",
		"longitude": "113-31-59.2 W",
		"state": "ARIZONA",
		"artcc": "ZLA",
		"type": "RNAV",
		"updated": "11/04/2010"
	},
	{
		"name": "HOLVI",
		"latitude": "33-12-41.39 N",
		"longitude": "117-23-22.11 W",
		"state": "CALIFORNIA",
		"artcc": "ZLA",
		"type": "RNAV",
		"updated": "10/04/2016"
	},
	{
		"name": "HOMAD",
		"latitude": "32-54-16.75 N",
		"longitude": "116-58-53.41 W",
		"state": "CALIFORNIA",
		"artcc": "ZLA",
		"type": "MR",
		"updated": "NKX*TACAN*076.53/9.01"
	},
	{
		"name": "HOMER",
		"latitude": "33-44-45.8 N",
		"longitude": "116-58-25.95 W",
		"state": "CALIFORNIA",
		"artcc": "ZLA",
		"type": "RNAV",
		"updated": "01/05/2017"
	},
	{
		"name": "HOMLY",
		"latitude": "33-11-58.77 N",
		"longitude": "117-4-17.7 W",
		"state": "CALIFORNIA",
		"artcc": "ZLA",
		"type": "RP",
		"updated": "OCN*VORTAC*082.92/17.59"
	},
	{
		"name": "HONRA",
		"latitude": "33-22-54.83 N",
		"longitude": "117-15-39.79 W",
		"state": "CALIFORNIA",
		"artcc": "ZLA",
		"type": "MR",
		"updated": "NFG*TACAN*031.40/9.00"
	},
	{
		"name": "HONUL",
		"latitude": "34-40-15.23 N",
		"longitude": "118-28-47.84 W",
		"state": "CALIFORNIA",
		"artcc": "ZLA",
		"type": "RNAV",
		"updated": "08/16/2006"
	},
	{
		"name": "HONZK",
		"latitude": "35-6-16.49 N",
		"longitude": "119-51-13.84 W",
		"state": "CALIFORNIA",
		"artcc": "ZLA",
		"type": "RNAV",
		"updated": "12/15/2017"
	},
	{
		"name": "HOPEB",
		"latitude": "37-28-20.28 N",
		"longitude": "113-11-47.88 W",
		"state": "UTAH",
		"artcc": "ZLA",
		"type": "RP",
		"updated": "EHK*VOR/DME*182.00/19.85"
	},
	{
		"name": "HOPIL",
		"latitude": "33-20-46.11 N",
		"longitude": "117-18-10.32 W",
		"state": "CALIFORNIA",
		"artcc": "ZLA",
		"type": "MR",
		"updated": "NFG*TACAN*031.40/6.00"
	},
	{
		"name": "HOPLI",
		"latitude": "34-2-52.27 N",
		"longitude": "116-20-8.21 W",
		"state": "CALIFORNIA",
		"artcc": "ZLA",
		"type": "RNAV",
		"updated": "09/20/2016"
	},
	{
		"name": "HOPPE",
		"latitude": "35-40-50.24 N",
		"longitude": "115-7-1.15 W",
		"state": "NEVADA",
		"artcc": "ZLA",
		"type": "MR",
		"updated": "LAS*VORTAC*160.00/24.00"
	},
	{
		"name": "HOPUN",
		"latitude": "34-4-35.37 N",
		"longitude": "117-54-44.51 W",
		"state": "CALIFORNIA",
		"artcc": "ZLA",
		"type": "RP",
		"updated": "POM*VORTAC*254.00/6.25"
	},
	{
		"name": "HORGA",
		"latitude": "33-15-30.65 N",
		"longitude": "116-21-4.41 W",
		"state": "CALIFORNIA",
		"artcc": "ZLA",
		"type": "RNAV",
		"updated": "02/13/2008"
	},
	{
		"name": "HOSER",
		"latitude": "37-44-56.62 N",
		"longitude": "116-45-15.83 W",
		"state": "NEVADA",
		"artcc": "ZLA",
		"type": "MW",
		"updated": "04/13/2012"
	},
	{
		"name": "HOTIG",
		"latitude": "32-51-21.69 N",
		"longitude": "117-12-13.02 W",
		"state": "CALIFORNIA",
		"artcc": "ZLA",
		"type": "RNAV",
		"updated": "10/27/2014"
	},
	{
		"name": "HOTIL",
		"latitude": "35-35-19.03 N",
		"longitude": "119-14-37.4 W",
		"state": "CALIFORNIA",
		"artcc": "ZLA",
		"type": "RNAV",
		"updated": "02/13/2006"
	},
	{
		"name": "HOVGA",
		"latitude": "35-28-46.44 N",
		"longitude": "119-6-41.22 W",
		"state": "CALIFORNIA",
		"artcc": "ZLA",
		"type": "RNAV",
		"updated": "06/25/2010"
	},
	{
		"name": "HOYMI",
		"latitude": "35-24-24.84 N",
		"longitude": "119-1-25.06 W",
		"state": "CALIFORNIA",
		"artcc": "ZLA",
		"type": "RNAV",
		"updated": "06/10/2010"
	},
	{
		"name": "HOYQU",
		"latitude": "34-3-17.86 N",
		"longitude": "117-31-3.84 W",
		"state": "CALIFORNIA",
		"artcc": "ZLA",
		"type": "RNAV",
		"updated": "02/23/2017"
	},
	{
		"name": "HOYTS",
		"latitude": "34-29-29.62 N",
		"longitude": "120-18-12.7 W",
		"state": "CALIFORNIA",
		"artcc": "ZLA",
		"type": "MR",
		"updated": "VBG*TACAN*122.00/20.00"
	},
	{
		"name": "HRVEE",
		"latitude": "33-56-20.39 N",
		"longitude": "117-20-21.73 W",
		"state": "CALIFORNIA",
		"artcc": "ZLA",
		"type": "RNAV",
		"updated": "03/02/2017"
	},
	{
		"name": "HSKER",
		"latitude": "32-50-40 N",
		"longitude": "116-36-24 W",
		"state": "CALIFORNIA",
		"artcc": "ZLA",
		"type": "RNAV",
		"updated": "09/11/2016"
	},
	{
		"name": "HTCHR",
		"latitude": "33-33-30.3 N",
		"longitude": "117-53-27.97 W",
		"state": "CALIFORNIA",
		"artcc": "ZLA",
		"type": "RNAV",
		"updated": "11/22/2017"
	},
	{
		"name": "HUBNO",
		"latitude": "34-55-15.29 N",
		"longitude": "117-51-11.98 W",
		"state": "CALIFORNIA",
		"artcc": "ZLA",
		"type": "MR",
		"updated": "EDW*VORTAC*223.00/7.00"
	},
	{
		"name": "HUBON",
		"latitude": "37-31-48.54 N",
		"longitude": "116-35-26.49 W",
		"state": "NEVADA",
		"artcc": "ZLA",
		"type": "MR",
		"updated": "TQQ*VORTAC*134.00/18.00"
	},
	{
		"name": "HUBRD",
		"latitude": "33-15-36 N",
		"longitude": "117-34-35.61 W",
		"state": "CALIFORNIA",
		"artcc": "ZLA",
		"type": "RP",
		"updated": "SXC*VORTAC*084.00/42.96"
	},
	{
		"name": "HUGDI",
		"latitude": "33-29-36.21 N",
		"longitude": "117-0-47.05 W",
		"state": "CALIFORNIA",
		"artcc": "ZLA",
		"type": "MR",
		"updated": "RIV*TACAN*138.00/28.00"
	},
	{
		"name": "HUGER",
		"latitude": "37-49-19.08 N",
		"longitude": "116-47-34.66 W",
		"state": "NEVADA",
		"artcc": "ZLA",
		"type": "MR",
		"updated": "TQQ*VORTAC*325.00/2.00"
	},
	{
		"name": "HUGOX",
		"latitude": "32-42-42.03 N",
		"longitude": "114-33-4.68 W",
		"state": "ARIZONA",
		"artcc": "ZLA",
		"type": "MR",
		"updated": "NYL*TACAN*028.00/5.00"
	},
	{
		"name": "HUGSO",
		"latitude": "33-53-5.91 N",
		"longitude": "116-33-24.91 W",
		"state": "CALIFORNIA",
		"artcc": "ZLA",
		"type": "RNAV",
		"updated": "01/25/2005"
	},
	{
		"name": "HUKEM",
		"latitude": "33-48-42.14 N",
		"longitude": "117-46-56.98 W",
		"state": "CALIFORNIA",
		"artcc": "ZLA",
		"type": "RP",
		"updated": "SLI*VORTAC*067.80"
	},
	{
		"name": "HUKVO",
		"latitude": "33-7-40.09 N",
		"longitude": "117-4-21.64 W",
		"state": "CALIFORNIA",
		"artcc": "ZLA",
		"type": "MR",
		"updated": "NKX*TACAN*003.00/16.00"
	},
	{
		"name": "HULPU",
		"latitude": "36-24-20.74 N",
		"longitude": "114-50-43.74 W",
		"state": "NEVADA",
		"artcc": "ZLA",
		"type": "MR",
		"updated": "LSV*TACAN*030.00/13.00"
	},
	{
		"name": "HUMAN",
		"latitude": "33-38-26.94 N",
		"longitude": "117-9-8.03 W",
		"state": "CALIFORNIA",
		"artcc": "ZLA",
		"type": "RNAV",
		"updated": "10/07/2003"
	},
	{
		"name": "HUMIT",
		"latitude": "33-43-37.24 N",
		"longitude": "117-2-16.26 W",
		"state": "CALIFORNIA",
		"artcc": "ZLA",
		"type": "RNAV",
		"updated": "10/07/2003"
	},
	{
		"name": "HUNAN",
		"latitude": "33-20-44.88 N",
		"longitude": "118-18-16.11 W",
		"state": "CALIFORNIA",
		"artcc": "ZLA",
		"type": "RNAV",
		"updated": "01/07/2016"
	},
	{
		"name": "HUNDA",
		"latitude": "33-57-34.99 N",
		"longitude": "118-9-43.64 W",
		"state": "CALIFORNIA",
		"artcc": "ZLA",
		"type": "RP",
		"updated": "LAX*LD*071.01/13.08"
	},
	{
		"name": "HUNEY",
		"latitude": "34-36-42.49 N",
		"longitude": "117-10-29.18 W",
		"state": "CALIFORNIA",
		"artcc": "ZLA",
		"type": "RNAV",
		"updated": "04/10/2000"
	},
	{
		"name": "HUNKU",
		"latitude": "37-21-53.88 N",
		"longitude": "113-48-42.19 W",
		"state": "UTAH",
		"artcc": "ZLA",
		"type": "RP",
		"updated": "MMM*VORTAC*015.93/42.12"
	},
	{
		"name": "HUPKO",
		"latitude": "32-33-17.97 N",
		"longitude": "117-15-0.34 W",
		"state": "CALIFORNIA",
		"artcc": "ZLA",
		"type": "RP",
		"updated": "NZY*TACAN*178.00/9.00"
	},
	{
		"name": "HUPLA",
		"latitude": "34-11-54.7 N",
		"longitude": "118-56-35.3 W",
		"state": "CALIFORNIA",
		"artcc": "ZLA",
		"type": "RP",
		"updated": "FIM*VORTAC*183.00"
	},
	{
		"name": "HURDI",
		"latitude": "34-6-56.31 N",
		"longitude": "115-44-9.17 W",
		"state": "CALIFORNIA",
		"artcc": "ZLA",
		"type": "RNAV",
		"updated": "01/02/2009"
	},
	{
		"name": "HURIM",
		"latitude": "34-42-36.69 N",
		"longitude": "118-20-2.04 W",
		"state": "CALIFORNIA",
		"artcc": "ZLA",
		"type": "RNAV",
		"updated": "08/16/2006"
	},
	{
		"name": "HURLR",
		"latitude": "33-59-57.33 N",
		"longitude": "117-54-44.42 W",
		"state": "CALIFORNIA",
		"artcc": "ZLA",
		"type": "RP",
		"updated": "HQB*LD*071.00/26.50"
	},
	{
		"name": "HUROR",
		"latitude": "36-53-28.06 N",
		"longitude": "112-35-17.96 W",
		"state": "ARIZONA",
		"artcc": "ZLA",
		"type": "RNAV",
		"updated": "02/17/2005"
	},
	{
		"name": "HURSI",
		"latitude": "33-10-13.58 N",
		"longitude": "117-23-17.22 W",
		"state": "CALIFORNIA",
		"artcc": "ZLA",
		"type": "RP",
		"updated": "SXC*VORTAC*088.00/58.33"
	},
	{
		"name": "HUSET",
		"latitude": "33-8-23.6 N",
		"longitude": "117-12-28.39 W",
		"state": "CALIFORNIA",
		"artcc": "ZLA",
		"type": "RP",
		"updated": "CRQ*LD*065.14/4.16"
	},
	{
		"name": "HUSOL",
		"latitude": "36-9-34 N",
		"longitude": "115-8-35 W",
		"state": "NEVADA",
		"artcc": "ZLA",
		"type": "WP",
		"updated": "07/09/2001"
	},
	{
		"name": "HUSTS",
		"latitude": "36-2-52.68 N",
		"longitude": "115-14-7.55 W",
		"state": "NEVADA",
		"artcc": "ZLA",
		"type": "MR",
		"updated": "LSV*TACAN*209.00/15.60"
	},
	{
		"name": "HUULK",
		"latitude": "34-35-27.3 N",
		"longitude": "118-36-11.39 W",
		"state": "CALIFORNIA",
		"artcc": "ZLA",
		"type": "RNAV",
		"updated": "03/26/2018"
	},
	{
		"name": "HUULL",
		"latitude": "34-12-5.81 N",
		"longitude": "120-3-57.13 W",
		"state": "OFFSHORE PACIFIC",
		"artcc": "ZLA",
		"type": "RNAV",
		"updated": "02/28/2017"
	},
	{
		"name": "HUVEL",
		"latitude": "32-51-14.98 N",
		"longitude": "117-12-10.96 W",
		"state": "CALIFORNIA",
		"artcc": "ZLA",
		"type": "MW",
		"updated": "10/27/2014"
	},
	{
		"name": "HVANI",
		"latitude": "33-56-19.55 N",
		"longitude": "117-25-57.75 W",
		"state": "CALIFORNIA",
		"artcc": "ZLA",
		"type": "RNAV",
		"updated": "03/02/2017"
	}
]
