	{
		"name": "IBAXE",
		"latitude": "33-55-5.55 N",
		"longitude": "117-28-11.69 W",
		"state": "CALIFORNIA",
		"artcc": "ZLA",
		"type": "RNAV",
		"updated": "02/14/2017",
	},
	{
		"name": "IBOVE",
		"latitude": "33-10-10.92 N",
		"longitude": "117-1-17.87 W",
		"state": "CALIFORNIA",
		"artcc": "ZLA",
		"type": "RNAV",
		"updated": "09/04/2001",
	},
	{
		"name": "IBUGE",
		"latitude": "33-5-42.98 N",
		"longitude": "117-28-59.37 W",
		"state": "CALIFORNIA",
		"artcc": "ZLA",
		"type": "RNAV",
		"updated": "09/20/2001",
	},
	{
		"name": "IBWEN",
		"latitude": "34-57-41.85 N",
		"longitude": "118-51-40.97 W",
		"state": "CALIFORNIA",
		"artcc": "ZLA",
		"type": "RP",
		"updated": "LHS*VORTAC*304.99/21.82",
	},
	{
		"name": "ICATI",
		"latitude": "32-34-48.08 N",
		"longitude": "114-26-46.49 W",
		"state": "ARIZONA",
		"artcc": "ZLA",
		"type": "MW",
		"updated": "04/12/2018",
	},
	{
		"name": "ICILO",
		"latitude": "34-4-56.68 N",
		"longitude": "117-43-7.89 W",
		"state": "CALIFORNIA",
		"artcc": "ZLA",
		"type": "RNAV",
		"updated": "02/14/2017",
	},
	{
		"name": "ICINA",
		"latitude": "35-15-17.3 N",
		"longitude": "117-51-22.49 W",
		"state": "CALIFORNIA",
		"artcc": "ZLA",
		"type": "RNAV",
		"updated": "01/14/2005",
	},
	{
		"name": "ICIYE",
		"latitude": "33-57-54.68 N",
		"longitude": "117-30-38.01 W",
		"state": "CALIFORNIA",
		"artcc": "ZLA",
		"type": "RNAV",
		"updated": "06/01/2006",
	},
	{
		"name": "ICUGA",
		"latitude": "33-4-19.02 N",
		"longitude": "116-57-35.17 W",
		"state": "CALIFORNIA",
		"artcc": "ZLA",
		"type": "RNAV",
		"updated": "07/20/2011",
	},
	{
		"name": "ICWEB",
		"latitude": "34-7-19.2 N",
		"longitude": "117-40-59.83 W",
		"state": "CALIFORNIA",
		"artcc": "ZLA",
		"type": "RNAV",
		"updated": "02/14/2017",
	},
	{
		"name": "IDIME",
		"latitude": "33-0-53.94 N",
		"longitude": "116-48-52.59 W",
		"state": "CALIFORNIA",
		"artcc": "ZLA",
		"type": "MR",
		"updated": "MZB*VORTAC*041.00/25.00",
	},
	{
		"name": "IFEYE",
		"latitude": "36-24-56.04 N",
		"longitude": "114-47-49.32 W",
		"state": "NEVADA",
		"artcc": "ZLA",
		"type": "RNAV",
		"updated": "01/22/2016",
	},
	{
		"name": "IFHEJ",
		"latitude": "32-39-35.89 N",
		"longitude": "116-53-17 W",
		"state": "CALIFORNIA",
		"artcc": "ZLA",
		"type": "RP",
		"updated": "PGY*VORTAC*043.21/5.49",
	},
	{
		"name": "IFIJU",
		"latitude": "33-57-55.61 N",
		"longitude": "118-15-6.11 W",
		"state": "CALIFORNIA",
		"artcc": "ZLA",
		"type": "RNAV",
		"updated": "03/02/2017",
	},
	{
		"name": "IFLEV",
		"latitude": "33-26-16.81 N",
		"longitude": "117-13-32.31 W",
		"state": "CALIFORNIA",
		"artcc": "ZLA",
		"type": "WP",
		"updated": "11/02/1998",
	},
	{
		"name": "IFSOX",
		"latitude": "32-41-42.05 N",
		"longitude": "117-23-1.7 W",
		"state": "CALIFORNIA",
		"artcc": "ZLA",
		"type": "RP",
		"updated": "OCN*VORTAC*162.09",
	},
	{
		"name": "IGAXY",
		"latitude": "34-12-26.74 N",
		"longitude": "118-21-59.76 W",
		"state": "CALIFORNIA",
		"artcc": "ZLA",
		"type": "RNAV",
		"updated": "03/21/2016",
	},
	{
		"name": "IGIRE",
		"latitude": "33-2-40.51 N",
		"longitude": "114-40-17.2 W",
		"state": "ARIZONA",
		"artcc": "ZLA",
		"type": "MR",
		"updated": "NYL*TACAN*342.00/24.00",
	},
	{
		"name": "IGOTT",
		"latitude": "32-2-0 N",
		"longitude": "120-22-42 W",
		"state": "OFFSHORE PACIFIC",
		"artcc": "ZLA",
		"type": "RNAV",
		"updated": "06/13/2017",
	},
	{
		"name": "IGUPE",
		"latitude": "33-56-24.88 N",
		"longitude": "118-31-2.16 W",
		"state": "CALIFORNIA",
		"artcc": "ZLA",
		"type": "RNAV",
		"updated": "08/11/2008",
	},
	{
		"name": "IKAYE",
		"latitude": "34-8-35 N",
		"longitude": "119-0-37 W",
		"state": "CALIFORNIA",
		"artcc": "ZLA",
		"type": "RP",
		"updated": "VTU*VOR/DME*034.34/2.57",
	},
	{
		"name": "IKRIY",
		"latitude": "36-2-15.13 N",
		"longitude": "115-28-22.37 W",
		"state": "NEVADA",
		"artcc": "ZLA",
		"type": "CN",
		"updated": "09/29/2006",
	},
	{
		"name": "ILEAN",
		"latitude": "34-12-38.78 N",
		"longitude": "118-51-35 W",
		"state": "CALIFORNIA",
		"artcc": "ZLA",
		"type": "RP",
		"updated": "SMO*VOR/DME*286.00",
	},
	{
		"name": "ILREF",
		"latitude": "33-39-1.08 N",
		"longitude": "114-36-54.95 W",
		"state": "CALIFORNIA",
		"artcc": "ZLA",
		"type": "RP",
		"updated": "BLH*VORTAC*052.00/8.00",
	},
	{
		"name": "ILUTY",
		"latitude": "35-13-45.38 N",
		"longitude": "118-56-45.56 W",
		"state": "CALIFORNIA",
		"artcc": "ZLA",
		"type": "CN",
		"updated": "12/21/1999",
	},
	{
		"name": "IMANE",
		"latitude": "34-1-14.64 N",
		"longitude": "117-43-35.3 W",
		"state": "CALIFORNIA",
		"artcc": "ZLA",
		"type": "RNAV",
		"updated": "03/13/2017",
	},
	{
		"name": "IMEFY",
		"latitude": "34-7-44.55 N",
		"longitude": "118-11-4.65 W",
		"state": "CALIFORNIA",
		"artcc": "ZLA",
		"type": "RP",
		"updated": "PDZ*VORTAC*095.95/35.00",
	},
	{
		"name": "IMITE",
		"latitude": "33-27-41.31 N",
		"longitude": "118-23-2.89 W",
		"state": "CALIFORNIA",
		"artcc": "ZLA",
		"type": "RNAV",
		"updated": "12/23/2015",
	},
	{
		"name": "IMSIJ",
		"latitude": "34-35-51.52 N",
		"longitude": "117-40-56.39 W",
		"state": "CALIFORNIA",
		"artcc": "ZLA",
		"type": "RP",
		"updated": "PMD*VORTAC*081.00/19.00",
	},
	{
		"name": "INISH",
		"latitude": "33-45-14.08 N",
		"longitude": "118-32-28.76 W",
		"state": "CALIFORNIA",
		"artcc": "ZLA",
		"type": "RP",
		"updated": "LAX*VORTAC*192.00/12.04",
	},
	{
		"name": "IPHIW",
		"latitude": "34-0-33.6 N",
		"longitude": "116-27-26.4 W",
		"state": "CALIFORNIA",
		"artcc": "ZLA",
		"type": "RP",
		"updated": "TNP*VORTAC*245.00/34.82",
	},
	{
		"name": "IPIHO",
		"latitude": "34-13-24 N",
		"longitude": "118-34-26.4 W",
		"state": "CALIFORNIA",
		"artcc": "ZLA",
		"type": "RP",
		"updated": "LAX*VORTAC*322.89/18.77",
	},
	{
		"name": "IPPOD",
		"latitude": "37-24-30.65 N",
		"longitude": "113-14-36.33 W",
		"state": "UTAH",
		"artcc": "ZLA",
		"type": "RP",
		"updated": "SGU*LD*018.15/24.92",
	},
	{
		"name": "IPUMY",
		"latitude": "36-1-51.82 N",
		"longitude": "115-22-31.18 W",
		"state": "NEVADA",
		"artcc": "ZLA",
		"type": "RP",
		"updated": "BLD*VORTAC*260.00/25.00",
	},
	{
		"name": "IRAVE",
		"latitude": "37-36-34.95 N",
		"longitude": "116-38-53.41 W",
		"state": "NEVADA",
		"artcc": "ZLA",
		"type": "MR",
		"updated": "TQQ*VORTAC*134.00/12.50",
	},
	{
		"name": "IRDUQ",
		"latitude": "35-6-35.07 N",
		"longitude": "114-7-13.83 W",
		"state": "ARIZONA",
		"artcc": "ZLA",
		"type": "RNAV",
		"updated": "04/28/2009",
	},
	{
		"name": "IREEN",
		"latitude": "36-13-25.77 N",
		"longitude": "115-2-39.27 W",
		"state": "NEVADA",
		"artcc": "ZLA",
		"type": "MR",
		"updated": "LAS*VORTAC*018.00/10.30",
	},
	{
		"name": "IRISH",
		"latitude": "36-2-16.44 N",
		"longitude": "114-46-14.06 W",
		"state": "NEVADA",
		"artcc": "ZLA",
		"type": "RP",
		"updated": "LAS*VORTAC*082.42/19.10",
	},
	{
		"name": "IRNMN",
		"latitude": "34-15-20.56 N",
		"longitude": "118-53-38.57 W",
		"state": "CALIFORNIA",
		"artcc": "ZLA",
		"type": "RNAV",
		"updated": "03/01/2017",
	},
	{
		"name": "IRONN",
		"latitude": "33-56-43.16 N",
		"longitude": "116-57-47.1 W",
		"state": "CALIFORNIA",
		"artcc": "ZLA",
		"type": "RNAV",
		"updated": "02/27/2017",
	},
	{
		"name": "IRQEV",
		"latitude": "37-1-1.5 N",
		"longitude": "113-31-13.84 W",
		"state": "UTAH",
		"artcc": "ZLA",
		"type": "RNAV",
		"updated": "11/09/2010",
	},
	{
		"name": "IRUYI",
		"latitude": "33-58-30.69 N",
		"longitude": "117-42-39.21 W",
		"state": "CALIFORNIA",
		"artcc": "ZLA",
		"type": "RNAV",
		"updated": "07/11/2005",
	},
	{
		"name": "ISADY",
		"latitude": "35-57-8.26 N",
		"longitude": "119-0-10.22 W",
		"state": "CALIFORNIA",
		"artcc": "ZLA",
		"type": "WP",
		"updated": "11/02/1998",
	},
	{
		"name": "ISARE",
		"latitude": "35-16-52.93 N",
		"longitude": "118-52-33.63 W",
		"state": "CALIFORNIA",
		"artcc": "ZLA",
		"type": "RNAV",
		"updated": "02/08/2017",
	},
	{
		"name": "ISAYA",
		"latitude": "32-37-50.51 N",
		"longitude": "114-38-10.07 W",
		"state": "ARIZONA",
		"artcc": "ZLA",
		"type": "MR",
		"updated": "NYL*TACAN*219.00/1.50",
	},
	{
		"name": "ISEMN",
		"latitude": "32-36-53.7 N",
		"longitude": "116-48-18.95 W",
		"state": "CALIFORNIA",
		"artcc": "ZLA",
		"type": "RNAV",
		"updated": "12/27/2016",
	},
	{
		"name": "ISOKE",
		"latitude": "32-49-52.35 N",
		"longitude": "116-59-27.32 W",
		"state": "CALIFORNIA",
		"artcc": "ZLA",
		"type": "RNAV",
		"updated": "02/23/2018",
	},
	{
		"name": "ITAHL",
		"latitude": "36-8-15 N",
		"longitude": "114-59-58.82 W",
		"state": "NEVADA",
		"artcc": "ZLA",
		"type": "RNAV",
		"updated": "11/14/2016",
	},
	{
		"name": "ITAVE",
		"latitude": "37-41-47.28 N",
		"longitude": "116-42-39.66 W",
		"state": "NEVADA",
		"artcc": "ZLA",
		"type": "MR",
		"updated": "TQQ*VORTAC*134.00/6.50",
	},
	{
		"name": "ITEGY",
		"latitude": "36-49-52.22 N",
		"longitude": "113-41-48.84 W",
		"state": "ARIZONA",
		"artcc": "ZLA",
		"type": "WP",
		"updated": "11/02/1998",
	},
	{
		"name": "ITFEL",
		"latitude": "35-48-45.71 N",
		"longitude": "115-8-11.56 W",
		"state": "NEVADA",
		"artcc": "ZLA",
		"type": "RNAV",
		"updated": "03/10/2005",
	},
	{
		"name": "ITOGE",
		"latitude": "37-46-33.47 N",
		"longitude": "116-46-7.51 W",
		"state": "NEVADA",
		"artcc": "ZLA",
		"type": "RNAV",
		"updated": "TQQ*VORTAC*134.00/1.00",
	},
	{
		"name": "ITSME",
		"latitude": "34-4-30.08 N",
		"longitude": "118-0-17.31 W",
		"state": "CALIFORNIA",
		"artcc": "ZLA",
		"type": "RP",
		"updated": "POM*VORTAC*254.00",
	},
	{
		"name": "IVECU",
		"latitude": "35-39-55.1 N",
		"longitude": "119-3-54.41 W",
		"state": "CALIFORNIA",
		"artcc": "ZLA",
		"type": "RP",
		"updated": "TTE*VOR/DME*172.30/15.00",
	},
	{
		"name": "IVINS",
		"latitude": "34-22-19.84 N",
		"longitude": "118-54-23.15 W",
		"state": "CALIFORNIA",
		"artcc": "ZLA",
		"type": "RNAV",
		"updated": "12/27/2016",
	},
	{
		"name": "IVLEC",
		"latitude": "35-34-2.29 N",
		"longitude": "112-11-14.54 W",
		"state": "ARIZONA",
		"artcc": "ZLA",
		"type": "WP",
		"updated": "11/02/1998",
	},
	{
		"name": "IWMIB",
		"latitude": "34-34-36 N",
		"longitude": "118-52-19.2 W",
		"state": "CALIFORNIA",
		"artcc": "ZLA",
		"type": "RP",
		"updated": "PMD*VORTAC*250.55/40.16",
	},
	{
		"name": "IWMUD",
		"latitude": "33-38-14.65 N",
		"longitude": "118-4-31.54 W",
		"state": "CALIFORNIA",
		"artcc": "ZLA",
		"type": "RNAV",
		"updated": "11/02/2001",
	},
	{
		"name": "IXEKE",
		"latitude": "37-3-32.21 N",
		"longitude": "113-29-53.5 W",
		"state": "UTAH",
		"artcc": "ZLA",
		"type": "RP",
		"updated": "SGU*LD*018.15/0.68",
	},
	{
		"name": "IXIGE",
		"latitude": "34-43-8.6 N",
		"longitude": "117-50-26.27 W",
		"state": "CALIFORNIA",
		"artcc": "ZLA",
		"type": "RNAV",
		"updated": "03/14/2018",
	},
	{
		"name": "IXUXY",
		"latitude": "36-50-5.44 N",
		"longitude": "113-38-19.54 W",
		"state": "ARIZONA",
		"artcc": "ZLA",
		"type": "RP",
		"updated": "UTI*VOR/DME*196.00/12.40",
	},
	{
		"name": "IYIRI",
		"latitude": "33-43-23.16 N",
		"longitude": "116-17-26.93 W",
		"state": "CALIFORNIA",
		"artcc": "ZLA",
		"type": "CN",
		"updated": "08/10/2006",
	},
	{
		"name": "IYLAG",
		"latitude": "36-59-35.04 N",
		"longitude": "113-35-35.85 W",
		"state": "ARIZONA",
		"artcc": "ZLA",
		"type": "RNAV",
		"updated": "02/23/2000",
	},
	{
		"name": "IYOBE",
		"latitude": "34-17-23.66 N",
		"longitude": "119-45-28.26 W",
		"state": "CALIFORNIA",
		"artcc": "ZLA",
		"type": "RNAV",
		"updated": "02/29/2008",
	},
	{
		"name": "IZOMO",
		"latitude": "37-16-51.25 N",
		"longitude": "113-20-12.3 W",
		"state": "UTAH",
		"artcc": "ZLA",
		"type": "RP",
		"updated": "SGU*LD*018.15/16.07",
	},
