[
	{
		"name": "KA18M",
		"latitude": "33-0-0 N",
		"longitude": "114-0-0 W",
		"state": "ARIZONA",
		"artcc": "ZLA",
		"type": "NRS",
		"updated": "03/05/2005"
	},
	{
		"name": "KA21M",
		"latitude": "33-30-0 N",
		"longitude": "114-0-0 W",
		"state": "ARIZONA",
		"artcc": "ZLA",
		"type": "NRS",
		"updated": "03/05/2005"
	},
	{
		"name": "KA24M",
		"latitude": "34-0-0 N",
		"longitude": "114-0-0 W",
		"state": "ARIZONA",
		"artcc": "ZLA",
		"type": "NRS",
		"updated": "03/05/2005"
	},
	{
		"name": "KACCY",
		"latitude": "35-48-49.17 N",
		"longitude": "115-14-50.56 W",
		"state": "NEVADA",
		"artcc": "ZLA",
		"type": "RP",
		"updated": "LAS*VORTAC*180.01/16.50"
	},
	{
		"name": "KACIR",
		"latitude": "36-59-30.88 N",
		"longitude": "112-14-22.01 W",
		"state": "ARIZONA",
		"artcc": "ZLA",
		"type": "RP",
		"updated": "BCE*VORTAC*160.76/41.90"
	},
	{
		"name": "KADDY",
		"latitude": "35-44-32.66 N",
		"longitude": "114-23-0.71 W",
		"state": "ARIZONA",
		"artcc": "ZLA",
		"type": "RP",
		"updated": "BLD*VORTAC*107.82/27.90"
	},
	{
		"name": "KADYN",
		"latitude": "34-10-18.69 N",
		"longitude": "117-6-8 W",
		"state": "CALIFORNIA",
		"artcc": "ZLA",
		"type": "RNAV",
		"updated": "12/27/2016"
	},
	{
		"name": "KAKAE",
		"latitude": "34-59-54.71 N",
		"longitude": "117-53-37.29 W",
		"state": "CALIFORNIA",
		"artcc": "ZLA",
		"type": "MR",
		"updated": "EDW*VORTAC*262.00/8.00"
	},
	{
		"name": "KALEA",
		"latitude": "34-2-44.23 N",
		"longitude": "117-18-48.78 W",
		"state": "CALIFORNIA",
		"artcc": "ZLA",
		"type": "RNAV",
		"updated": "03/03/2017"
	},
	{
		"name": "KANEC",
		"latitude": "33-10-22.04 N",
		"longitude": "117-0-7.98 W",
		"state": "CALIFORNIA",
		"artcc": "ZLA",
		"type": "RNAV",
		"updated": "10/01/2004"
	},
	{
		"name": "KAOSS",
		"latitude": "34-8-4.5 N",
		"longitude": "117-16-18.3 W",
		"state": "CALIFORNIA",
		"artcc": "ZLA",
		"type": "RNAV",
		"updated": "12/27/2016"
	},
	{
		"name": "KARGE",
		"latitude": "34-7-23.89 N",
		"longitude": "114-30-12.39 W",
		"state": "CALIFORNIA",
		"artcc": "ZLA",
		"type": "RP",
		"updated": "PKE*VORTAC*066.78/8.99"
	},
	{
		"name": "KARLB",
		"latitude": "33-35-24.77 N",
		"longitude": "117-54-30.42 W",
		"state": "CALIFORNIA",
		"artcc": "ZLA",
		"type": "RNAV",
		"updated": "03/03/2017"
	},
	{
		"name": "KARNY",
		"latitude": "35-24-11.5 N",
		"longitude": "118-50-39 W",
		"state": "CALIFORNIA",
		"artcc": "ZLA",
		"type": "RNAV",
		"updated": "12/27/2016"
	},
	{
		"name": "KARRO",
		"latitude": "33-15-53.24 N",
		"longitude": "116-22-27.34 W",
		"state": "CALIFORNIA",
		"artcc": "ZLA",
		"type": "RP",
		"updated": "JLI*VORTAC*040.00/13.00"
	},
	{
		"name": "KARVR",
		"latitude": "33-30-33 N",
		"longitude": "117-41-12 W",
		"state": "CALIFORNIA",
		"artcc": "ZLA",
		"type": "RNAV",
		"updated": "11/16/2017"
	},
	{
		"name": "KATIE",
		"latitude": "35-35-1.88 N",
		"longitude": "117-37-40.33 W",
		"state": "CALIFORNIA",
		"artcc": "ZLA",
		"type": "MW",
		"updated": "02/25/2015"
	},
	{
		"name": "KAYNN",
		"latitude": "33-31-5.6 N",
		"longitude": "118-19-55.3 W",
		"state": "CALIFORNIA",
		"artcc": "ZLA",
		"type": "RNAV",
		"updated": "03/03/2017"
	},
	{
		"name": "KAYOH",
		"latitude": "33-46-49.2 N",
		"longitude": "117-35-24.52 W",
		"state": "CALIFORNIA",
		"artcc": "ZLA",
		"type": "RP",
		"updated": "SLI*VORTAC*075.31/23.24"
	},
	{
		"name": "KAYTU",
		"latitude": "35-54-46.69 N",
		"longitude": "115-8-9.31 W",
		"state": "NEVADA",
		"artcc": "ZLA",
		"type": "RNAV",
		"updated": "01/19/2011"
	},
	{
		"name": "KECFO",
		"latitude": "36-56-16.94 N",
		"longitude": "113-34-14.18 W",
		"state": "ARIZONA",
		"artcc": "ZLA",
		"type": "RP",
		"updated": "UTI*VOR/DME*196.00/5.40"
	},
	{
		"name": "KEGGS",
		"latitude": "34-0-30.41 N",
		"longitude": "118-17-58.53 W",
		"state": "CALIFORNIA",
		"artcc": "ZLA",
		"type": "RNAV",
		"updated": "11/16/2017"
	},
	{
		"name": "KELEN",
		"latitude": "35-7-24.47 N",
		"longitude": "118-41-17.53 W",
		"state": "CALIFORNIA",
		"artcc": "ZLA",
		"type": "RP",
		"updated": "EHF*VORTAC*123.00/29.52"
	},
	{
		"name": "KELPS",
		"latitude": "33-19-27.12 N",
		"longitude": "117-30-54.19 W",
		"state": "CALIFORNIA",
		"artcc": "ZLA",
		"type": "RP",
		"updated": "OCN*VORTAC*300.66/7.00"
	},
	{
		"name": "KELTE",
		"latitude": "33-58-36.6 N",
		"longitude": "117-2-55.18 W",
		"state": "CALIFORNIA",
		"artcc": "ZLA",
		"type": "RNAV",
		"updated": "11/06/2014"
	},
	{
		"name": "KEMBE",
		"latitude": "37-1-35.93 N",
		"longitude": "113-8-42.16 W",
		"state": "UTAH",
		"artcc": "ZLA",
		"type": "RNAV",
		"updated": "07/31/2017"
	},
	{
		"name": "KENRE",
		"latitude": "34-4-4.13 N",
		"longitude": "117-51-26.05 W",
		"state": "CALIFORNIA",
		"artcc": "ZLA",
		"type": "RNAV",
		"updated": "08/02/2007"
	},
	{
		"name": "KENUQ",
		"latitude": "36-8-36.15 N",
		"longitude": "115-0-4.21 W",
		"state": "NEVADA",
		"artcc": "ZLA",
		"type": "WP",
		"updated": "11/02/1998"
	},
	{
		"name": "KENZO",
		"latitude": "33-55-42.51 N",
		"longitude": "117-54-5.93 W",
		"state": "CALIFORNIA",
		"artcc": "ZLA",
		"type": "RNAV",
		"updated": "01/24/2017"
	},
	{
		"name": "KEPEC",
		"latitude": "35-58-16.64 N",
		"longitude": "115-33-48.74 W",
		"state": "NEVADA",
		"artcc": "ZLA",
		"type": "RNAV",
		"updated": "06/01/2012"
	},
	{
		"name": "KERNL",
		"latitude": "32-55-46.8 N",
		"longitude": "117-31-13.1 W",
		"state": "CALIFORNIA",
		"artcc": "ZLA",
		"type": "RNAV",
		"updated": "12/29/2016"
	},
	{
		"name": "KEVNS",
		"latitude": "36-7-4.63 N",
		"longitude": "115-1-30.96 W",
		"state": "NEVADA",
		"artcc": "ZLA",
		"type": "RNAV",
		"updated": "04/29/2010"
	},
	{
		"name": "KEVVI",
		"latitude": "34-3-52.14 N",
		"longitude": "118-45-8.94 W",
		"state": "CALIFORNIA",
		"artcc": "ZLA",
		"type": "RNAV",
		"updated": "03/01/2017"
	},
	{
		"name": "KEYRO",
		"latitude": "35-16-32.51 N",
		"longitude": "118-34-52.79 W",
		"state": "CALIFORNIA",
		"artcc": "ZLA",
		"type": "RNAV",
		"updated": "02/09/2018"
	},
	{
		"name": "KGRDN",
		"latitude": "35-45-28.8 N",
		"longitude": "114-59-45.33 W",
		"state": "NEVADA",
		"artcc": "ZLA",
		"type": "RNAV",
		"updated": "05/13/2011"
	},
	{
		"name": "KIBSE",
		"latitude": "35-56-20.52 N",
		"longitude": "115-14-40.95 W",
		"state": "NEVADA",
		"artcc": "ZLA",
		"type": "RNAV",
		"updated": "07/12/2017"
	},
	{
		"name": "KIDDS",
		"latitude": "36-6-47.48 N",
		"longitude": "114-53-49.12 W",
		"state": "NEVADA",
		"artcc": "ZLA",
		"type": "RP",
		"updated": "LAS*VORTAC*066.00/12.94"
	},
	{
		"name": "KIGGE",
		"latitude": "36-18-45.06 N",
		"longitude": "115-19-23.3 W",
		"state": "NEVADA",
		"artcc": "ZLA",
		"type": "RP",
		"updated": "HWG*LD*NW CRS/9.35"
	},
	{
		"name": "KIHMY",
		"latitude": "36-22-0.4 N",
		"longitude": "115-16-59.4 W",
		"state": "NEVADA",
		"artcc": "ZLA",
		"type": "WP",
		"updated": "11/02/1998"
	},
	{
		"name": "KIIRK",
		"latitude": "34-58-29.59 N",
		"longitude": "117-44-50.32 W",
		"state": "CALIFORNIA",
		"artcc": "ZLA",
		"type": "MW",
		"updated": "11/22/2016"
	},
	{
		"name": "KIJCO",
		"latitude": "33-3-13.94 N",
		"longitude": "117-0-53.99 W",
		"state": "CALIFORNIA",
		"artcc": "ZLA",
		"type": "RNAV",
		"updated": "04/21/2009"
	},
	{
		"name": "KIKII",
		"latitude": "35-26-39.99 N",
		"longitude": "120-27-25.02 W",
		"state": "CALIFORNIA",
		"artcc": "ZLA",
		"type": "RP",
		"updated": "PRB*VORTAC*132.58/16.00"
	},
	{
		"name": "KILIE",
		"latitude": "33-59-11.79 N",
		"longitude": "118-48-24.97 W",
		"state": "CALIFORNIA",
		"artcc": "ZLA",
		"type": "RNAV",
		"updated": "09/28/2016"
	},
	{
		"name": "KIMDE",
		"latitude": "33-51-29.16 N",
		"longitude": "117-14-36.23 W",
		"state": "CALIFORNIA",
		"artcc": "ZLA",
		"type": "MR",
		"updated": "RIV*TACAN*/3.30"
	},
	{
		"name": "KIMME",
		"latitude": "35-59-43 N",
		"longitude": "114-49-50 W",
		"state": "NEVADA",
		"artcc": "ZLA",
		"type": "RNAV",
		"updated": "06/01/2012"
	},
	{
		"name": "KIMMO",
		"latitude": "34-24-36.57 N",
		"longitude": "118-25-2.17 W",
		"state": "CALIFORNIA",
		"artcc": "ZLA",
		"type": "RP",
		"updated": "LHS*VORTAC*139.12/18.16"
	},
	{
		"name": "KINCE",
		"latitude": "34-39-55.3 N",
		"longitude": "120-27-6.76 W",
		"state": "CALIFORNIA",
		"artcc": "ZLA",
		"type": "RP",
		"updated": "GVO*VORTAC*278.30/19.59"
	},
	{
		"name": "KITCH",
		"latitude": "36-15-12.01 N",
		"longitude": "115-0-55.55 W",
		"state": "NEVADA",
		"artcc": "ZLA",
		"type": "MR",
		"updated": "LSV*TACAN*030.01/0.70"
	},
	{
		"name": "KITEC",
		"latitude": "34-6-40.27 N",
		"longitude": "118-47-27.79 W",
		"state": "CALIFORNIA",
		"artcc": "ZLA",
		"type": "RNAV",
		"updated": "10/18/2006"
	},
	{
		"name": "KITEE",
		"latitude": "36-0-36.04 N",
		"longitude": "115-0-1.69 W",
		"state": "NEVADA",
		"artcc": "ZLA",
		"type": "RNAV",
		"updated": "04/18/2017"
	},
	{
		"name": "KIWEE",
		"latitude": "34-49-0.67 N",
		"longitude": "120-39-57.08 W",
		"state": "CALIFORNIA",
		"artcc": "ZLA",
		"type": "MR",
		"updated": "VBG*TACAN*307.00/6.50"
	},
	{
		"name": "KL09G",
		"latitude": "31-30-0 N",
		"longitude": "120-0-0 W",
		"state": "OFFSHORE PACIFIC",
		"artcc": "ZLA",
		"type": "NRS",
		"updated": "03/05/2005"
	},
	{
		"name": "KL12G",
		"latitude": "32-0-0 N",
		"longitude": "120-0-0 W",
		"state": "OFFSHORE PACIFIC",
		"artcc": "ZLA",
		"type": "NRS",
		"updated": "03/05/2005"
	},
	{
		"name": "KL15G",
		"latitude": "32-30-0 N",
		"longitude": "120-0-0 W",
		"state": "OFFSHORE PACIFIC",
		"artcc": "ZLA",
		"type": "NRS",
		"updated": "03/05/2005"
	},
	{
		"name": "KL15I",
		"latitude": "32-30-0 N",
		"longitude": "118-0-0 W",
		"state": "OFFSHORE PACIFIC",
		"artcc": "ZLA",
		"type": "NRS",
		"updated": "03/05/2005"
	},
	{
		"name": "KL15M",
		"latitude": "32-30-0 N",
		"longitude": "114-0-0 W",
		"state": "ARIZONA",
		"artcc": "ZLA",
		"type": "NRS",
		"updated": "03/05/2005"
	},
	{
		"name": "KL18E",
		"latitude": "33-0-0 N",
		"longitude": "122-0-0 W",
		"state": "OFFSHORE PACIFIC",
		"artcc": "ZLA",
		"type": "NRS",
		"updated": "03/05/2005"
	},
	{
		"name": "KL18G",
		"latitude": "33-0-0 N",
		"longitude": "120-0-0 W",
		"state": "OFFSHORE PACIFIC",
		"artcc": "ZLA",
		"type": "NRS",
		"updated": "03/05/2005"
	},
	{
		"name": "KL18I",
		"latitude": "33-0-0 N",
		"longitude": "118-0-0 W",
		"state": "OFFSHORE PACIFIC",
		"artcc": "ZLA",
		"type": "NRS",
		"updated": "03/05/2005"
	},
	{
		"name": "KL18K",
		"latitude": "33-0-0 N",
		"longitude": "116-0-0 W",
		"state": "CALIFORNIA",
		"artcc": "ZLA",
		"type": "NRS",
		"updated": "03/05/2005"
	},
	{
		"name": "KL21E",
		"latitude": "33-30-0 N",
		"longitude": "122-0-0 W",
		"state": "OFFSHORE PACIFIC",
		"artcc": "ZLA",
		"type": "NRS",
		"updated": "03/05/2005"
	},
	{
		"name": "KL21G",
		"latitude": "33-30-0 N",
		"longitude": "120-0-0 W",
		"state": "OFFSHORE PACIFIC",
		"artcc": "ZLA",
		"type": "NRS",
		"updated": "03/05/2005"
	},
	{
		"name": "KL21I",
		"latitude": "33-30-0 N",
		"longitude": "118-0-0 W",
		"state": "CALIFORNIA",
		"artcc": "ZLA",
		"type": "NRS",
		"updated": "03/05/2005"
	},
	{
		"name": "KL21K",
		"latitude": "33-30-0 N",
		"longitude": "116-0-0 W",
		"state": "CALIFORNIA",
		"artcc": "ZLA",
		"type": "NRS",
		"updated": "03/05/2005"
	},
	{
		"name": "KL24E",
		"latitude": "34-0-0 N",
		"longitude": "122-0-0 W",
		"state": "OFFSHORE PACIFIC",
		"artcc": "ZLA",
		"type": "NRS",
		"updated": "03/05/2005"
	},
	{
		"name": "KL24G",
		"latitude": "34-0-0 N",
		"longitude": "120-0-0 W",
		"state": "CALIFORNIA",
		"artcc": "ZLA",
		"type": "NRS",
		"updated": "03/05/2005"
	},
	{
		"name": "KL24I",
		"latitude": "34-0-0 N",
		"longitude": "118-0-0 W",
		"state": "CALIFORNIA",
		"artcc": "ZLA",
		"type": "NRS",
		"updated": "03/05/2005"
	},
	{
		"name": "KL24K",
		"latitude": "34-0-0 N",
		"longitude": "116-0-0 W",
		"state": "CALIFORNIA",
		"artcc": "ZLA",
		"type": "NRS",
		"updated": "03/05/2005"
	},
	{
		"name": "KL27E",
		"latitude": "34-30-0 N",
		"longitude": "122-0-0 W",
		"state": "OFFSHORE PACIFIC",
		"artcc": "ZLA",
		"type": "NRS",
		"updated": "03/05/2005"
	},
	{
		"name": "KL27G",
		"latitude": "34-30-0 N",
		"longitude": "120-0-0 W",
		"state": "CALIFORNIA",
		"artcc": "ZLA",
		"type": "NRS",
		"updated": "03/05/2005"
	},
	{
		"name": "KL27I",
		"latitude": "34-30-0 N",
		"longitude": "118-0-0 W",
		"state": "CALIFORNIA",
		"artcc": "ZLA",
		"type": "NRS",
		"updated": "03/05/2005"
	},
	{
		"name": "KL27K",
		"latitude": "34-30-0 N",
		"longitude": "116-0-0 W",
		"state": "CALIFORNIA",
		"artcc": "ZLA",
		"type": "NRS",
		"updated": "03/05/2005"
	},
	{
		"name": "KL30E",
		"latitude": "35-0-0 N",
		"longitude": "122-0-0 W",
		"state": "OFFSHORE PACIFIC",
		"artcc": "ZLA",
		"type": "NRS",
		"updated": "03/05/2005"
	},
	{
		"name": "KL30G",
		"latitude": "35-0-0 N",
		"longitude": "120-0-0 W",
		"state": "CALIFORNIA",
		"artcc": "ZLA",
		"type": "NRS",
		"updated": "03/05/2005"
	},
	{
		"name": "KL30I",
		"latitude": "35-0-0 N",
		"longitude": "118-0-0 W",
		"state": "CALIFORNIA",
		"artcc": "ZLA",
		"type": "NRS",
		"updated": "03/05/2005"
	},
	{
		"name": "KL30K",
		"latitude": "35-0-0 N",
		"longitude": "116-0-0 W",
		"state": "CALIFORNIA",
		"artcc": "ZLA",
		"type": "NRS",
		"updated": "03/05/2005"
	},
	{
		"name": "KL30M",
		"latitude": "35-0-0 N",
		"longitude": "114-0-0 W",
		"state": "ARIZONA",
		"artcc": "ZLA",
		"type": "NRS",
		"updated": "03/05/2005"
	},
	{
		"name": "KL33G",
		"latitude": "35-30-0 N",
		"longitude": "120-0-0 W",
		"state": "CALIFORNIA",
		"artcc": "ZLA",
		"type": "NRS",
		"updated": "03/05/2005"
	},
	{
		"name": "KL33I",
		"latitude": "35-30-0 N",
		"longitude": "118-0-0 W",
		"state": "CALIFORNIA",
		"artcc": "ZLA",
		"type": "NRS",
		"updated": "03/05/2005"
	},
	{
		"name": "KL33K",
		"latitude": "35-30-0 N",
		"longitude": "116-0-0 W",
		"state": "CALIFORNIA",
		"artcc": "ZLA",
		"type": "NRS",
		"updated": "03/05/2005"
	},
	{
		"name": "KL33M",
		"latitude": "35-30-0 N",
		"longitude": "114-0-0 W",
		"state": "ARIZONA",
		"artcc": "ZLA",
		"type": "NRS",
		"updated": "03/05/2005"
	},
	{
		"name": "KL33O",
		"latitude": "35-30-0 N",
		"longitude": "112-0-0 W",
		"state": "ARIZONA",
		"artcc": "ZLA",
		"type": "NRS",
		"updated": "03/05/2005"
	},
	{
		"name": "KL36I",
		"latitude": "36-0-0 N",
		"longitude": "118-0-0 W",
		"state": "CALIFORNIA",
		"artcc": "ZLA",
		"type": "NRS",
		"updated": "03/05/2005"
	},
	{
		"name": "KL36K",
		"latitude": "36-0-0 N",
		"longitude": "116-0-0 W",
		"state": "CALIFORNIA",
		"artcc": "ZLA",
		"type": "NRS",
		"updated": "03/05/2005"
	},
	{
		"name": "KL36M",
		"latitude": "36-0-0 N",
		"longitude": "114-0-0 W",
		"state": "ARIZONA",
		"artcc": "ZLA",
		"type": "NRS",
		"updated": "03/05/2005"
	},
	{
		"name": "KL36O",
		"latitude": "36-0-0 N",
		"longitude": "112-0-0 W",
		"state": "ARIZONA",
		"artcc": "ZLA",
		"type": "NRS",
		"updated": "03/05/2005"
	},
	{
		"name": "KL39I",
		"latitude": "36-30-0 N",
		"longitude": "118-0-0 W",
		"state": "CALIFORNIA",
		"artcc": "ZLA",
		"type": "NRS",
		"updated": "03/05/2005"
	},
	{
		"name": "KL39K",
		"latitude": "36-30-0 N",
		"longitude": "116-0-0 W",
		"state": "NEVADA",
		"artcc": "ZLA",
		"type": "NRS",
		"updated": "03/05/2005"
	},
	{
		"name": "KL39M",
		"latitude": "36-30-0 N",
		"longitude": "114-0-0 W",
		"state": "ARIZONA",
		"artcc": "ZLA",
		"type": "NRS",
		"updated": "03/05/2005"
	},
	{
		"name": "KL39O",
		"latitude": "36-30-0 N",
		"longitude": "112-0-0 W",
		"state": "ARIZONA",
		"artcc": "ZLA",
		"type": "NRS",
		"updated": "03/05/2005"
	},
	{
		"name": "KL42I",
		"latitude": "37-0-0 N",
		"longitude": "118-0-0 W",
		"state": "CALIFORNIA",
		"artcc": "ZLA",
		"type": "NRS",
		"updated": "03/05/2005"
	},
	{
		"name": "KL42K",
		"latitude": "37-0-0 N",
		"longitude": "116-0-0 W",
		"state": "NEVADA",
		"artcc": "ZLA",
		"type": "NRS",
		"updated": "03/05/2005"
	},
	{
		"name": "KL42M",
		"latitude": "37-0-0 N",
		"longitude": "114-0-0 W",
		"state": "UTAH",
		"artcc": "ZLA",
		"type": "NRS",
		"updated": "03/05/2005"
	},
	{
		"name": "KL42O",
		"latitude": "37-0-0 N",
		"longitude": "112-0-0 W",
		"state": "UTAH",
		"artcc": "ZLA",
		"type": "NRS",
		"updated": "03/05/2005"
	},
	{
		"name": "KL45K",
		"latitude": "37-30-0 N",
		"longitude": "116-0-0 W",
		"state": "NEVADA",
		"artcc": "ZLA",
		"type": "NRS",
		"updated": "03/05/2005"
	},
	{
		"name": "KL45M",
		"latitude": "37-30-0 N",
		"longitude": "114-0-0 W",
		"state": "UTAH",
		"artcc": "ZLA",
		"type": "NRS",
		"updated": "03/05/2005"
	},
	{
		"name": "KLEVR",
		"latitude": "33-41-47.7 N",
		"longitude": "117-56-45.74 W",
		"state": "CALIFORNIA",
		"artcc": "ZLA",
		"type": "RNAV",
		"updated": "02/27/2017"
	},
	{
		"name": "KLIFF",
		"latitude": "36-39-7.44 N",
		"longitude": "111-39-1.05 W",
		"state": "ARIZONA",
		"artcc": "ZLA",
		"type": "RP",
		"updated": "TBC*VORTAC*315.00"
	},
	{
		"name": "KLIPP",
		"latitude": "33-46-24.42 N",
		"longitude": "117-53-51.92 W",
		"state": "CALIFORNIA",
		"artcc": "ZLA",
		"type": "RNAV",
		"updated": "09/20/2016"
	},
	{
		"name": "KLIPR",
		"latitude": "33-55-46.22 N",
		"longitude": "118-26-19.6 W",
		"state": "CALIFORNIA",
		"artcc": "ZLA",
		"type": "RNAV",
		"updated": "03/01/2018"
	},
	{
		"name": "KLNCH",
		"latitude": "33-39-0.25 N",
		"longitude": "117-43-57.93 W",
		"state": "CALIFORNIA",
		"artcc": "ZLA",
		"type": "RNAV",
		"updated": "03/03/2017"
	},
	{
		"name": "KLOMN",
		"latitude": "32-46-43.94 N",
		"longitude": "117-3-51.83 W",
		"state": "CALIFORNIA",
		"artcc": "ZLA",
		"type": "RNAV",
		"updated": "12/27/2016"
	},
	{
		"name": "KNDAL",
		"latitude": "33-55-24.94 N",
		"longitude": "117-24-8.46 W",
		"state": "CALIFORNIA",
		"artcc": "ZLA",
		"type": "RP",
		"updated": "HDF*VOR*295.18"
	},
	{
		"name": "KNGHT",
		"latitude": "34-9-24.05 N",
		"longitude": "118-20-42.35 W",
		"state": "CALIFORNIA",
		"artcc": "ZLA",
		"type": "RNAV",
		"updated": "08/30/2016"
	},
	{
		"name": "KNNZI",
		"latitude": "34-16-37.08 N",
		"longitude": "120-9-59.39 W",
		"state": "CALIFORNIA",
		"artcc": "ZLA",
		"type": "RNAV",
		"updated": "09/11/2016"
	},
	{
		"name": "KOAKS",
		"latitude": "34-45-9.66 N",
		"longitude": "120-16-42.78 W",
		"state": "CALIFORNIA",
		"artcc": "ZLA",
		"type": "RP",
		"updated": "RZS*VORTAC*286.24/29.05"
	},
	{
		"name": "KOBTE",
		"latitude": "34-47-45.78 N",
		"longitude": "118-5-34.84 W",
		"state": "CALIFORNIA",
		"artcc": "ZLA",
		"type": "MR",
		"updated": "EDW*VORTAC*223.00/21.00"
	},
	{
		"name": "KOCKA",
		"latitude": "34-9-42.38 N",
		"longitude": "119-4-22.6 W",
		"state": "CALIFORNIA",
		"artcc": "ZLA",
		"type": "MW",
		"updated": "04/09/2018"
	},
	{
		"name": "KOFAX",
		"latitude": "33-59-32.43 N",
		"longitude": "118-15-20.87 W",
		"state": "CALIFORNIA",
		"artcc": "ZLA",
		"type": "RNAV",
		"updated": "01/05/2017"
	},
	{
		"name": "KOLEE",
		"latitude": "35-27-44.66 N",
		"longitude": "118-1-33.87 W",
		"state": "CALIFORNIA",
		"artcc": "ZLA",
		"type": "RP",
		"updated": "LHS*VORTAC*015.00/54.00"
	},
	{
		"name": "KONZL",
		"latitude": "33-57-15.38 N",
		"longitude": "117-6-41.58 W",
		"state": "CALIFORNIA",
		"artcc": "ZLA",
		"type": "RP",
		"updated": "HDF*VOR*005.06"
	},
	{
		"name": "KOPLE",
		"latitude": "34-39-11.9 N",
		"longitude": "117-51-48.9 W",
		"state": "CALIFORNIA",
		"artcc": "ZLA",
		"type": "RP",
		"updated": "PMD*VORTAC*067.40/10.00"
	},
	{
		"name": "KOPRR",
		"latitude": "37-12-43.06 N",
		"longitude": "115-33-57.77 W",
		"state": "NEVADA",
		"artcc": "ZLA",
		"type": "RNAV",
		"updated": "05/11/2016"
	},
	{
		"name": "KPTIN",
		"latitude": "34-11-28.2 N",
		"longitude": "119-21-35.5 W",
		"state": "CALIFORNIA",
		"artcc": "ZLA",
		"type": "RNAV",
		"updated": "09/11/2016"
	},
	{
		"name": "KRAFF",
		"latitude": "34-17-14.39 N",
		"longitude": "119-15-37.53 W",
		"state": "CALIFORNIA",
		"artcc": "ZLA",
		"type": "MR",
		"updated": "RZS*VORTAC*103.56/28.63"
	},
	{
		"name": "KRAIN",
		"latitude": "34-0-24.63 N",
		"longitude": "117-40-58.07 W",
		"state": "CALIFORNIA",
		"artcc": "ZLA",
		"type": "RP",
		"updated": "LAX*LD*071.01/37.16"
	},
	{
		"name": "KRATZ",
		"latitude": "33-32-34.79 N",
		"longitude": "116-26-27.45 W",
		"state": "CALIFORNIA",
		"artcc": "ZLA",
		"type": "RP",
		"updated": "TRM*VORTAC*237.17/14.97"
	},
	{
		"name": "KRAUZ",
		"latitude": "33-32-49.41 N",
		"longitude": "117-46-33.53 W",
		"state": "CALIFORNIA",
		"artcc": "ZLA",
		"type": "RP",
		"updated": "POM*VORTAC*164.00/31.83"
	},
	{
		"name": "KREME",
		"latitude": "34-55-8.52 N",
		"longitude": "116-13-4.66 W",
		"state": "CALIFORNIA",
		"artcc": "ZLA",
		"type": "RNAV",
		"updated": "03/24/2014"
	},
	{
		"name": "KRINA",
		"latitude": "35-28-2.52 N",
		"longitude": "113-11-35.6 W",
		"state": "ARIZONA",
		"artcc": "ZLA",
		"type": "RNAV",
		"updated": "01/20/2016"
	},
	{
		"name": "KRMAA",
		"latitude": "32-51-53.43 N",
		"longitude": "115-20-28.24 W",
		"state": "CALIFORNIA",
		"artcc": "ZLA",
		"type": "RNAV",
		"updated": "09/11/2016"
	},
	{
		"name": "KRSPI",
		"latitude": "33-54-49.63 N",
		"longitude": "118-45-10.2 W",
		"state": "CALIFORNIA",
		"artcc": "ZLA",
		"type": "RP",
		"updated": "GPE*LD*250.99/15.76"
	},
	{
		"name": "KRUDY",
		"latitude": "35-47-59.79 N",
		"longitude": "115-19-38.24 W",
		"state": "NEVADA",
		"artcc": "ZLA",
		"type": "RP",
		"updated": "CUA*LD*193.91/19.83"
	},
	{
		"name": "KRUST",
		"latitude": "33-50-56.55 N",
		"longitude": "117-57-51.12 W",
		"state": "CALIFORNIA",
		"artcc": "ZLA",
		"type": "MR",
		"updated": "ELB*VOR/DME*297.69"
	},
	{
		"name": "KRYSS",
		"latitude": "36-30-22.16 N",
		"longitude": "114-44-11.43 W",
		"state": "NEVADA",
		"artcc": "ZLA",
		"type": "MR",
		"updated": "LSV*TACAN*029.66/21.00"
	},
	{
		"name": "KSINO",
		"latitude": "36-34-32.12 N",
		"longitude": "114-5-4.59 W",
		"state": "NEVADA",
		"artcc": "ZLA",
		"type": "RP",
		"updated": "LAS*VORTAC*045.00/60.00"
	},
	{
		"name": "KUKPE",
		"latitude": "34-38-44 N",
		"longitude": "117-50-10.38 W",
		"state": "CALIFORNIA",
		"artcc": "ZLA",
		"type": "MR",
		"updated": "PMD*VORTAC*070.63/11.30"
	},
	{
		"name": "KULVR",
		"latitude": "34-12-52.77 N",
		"longitude": "118-12-30.99 W",
		"state": "CALIFORNIA",
		"artcc": "ZLA",
		"type": "RNAV",
		"updated": "01/05/2017"
	},
	{
		"name": "KUMBA",
		"latitude": "32-45-43.18 N",
		"longitude": "116-3-13.37 W",
		"state": "CALIFORNIA",
		"artcc": "ZLA",
		"type": "RP",
		"updated": "IPL*VORTAC*257.78"
	},
	{
		"name": "KURST",
		"latitude": "34-10-45.23 N",
		"longitude": "117-24-41.17 W",
		"state": "CALIFORNIA",
		"artcc": "ZLA",
		"type": "MR",
		"updated": "POM*VORTAC*057.00"
	},
	{
		"name": "KURXO",
		"latitude": "33-57-30.61 N",
		"longitude": "118-12-44.77 W",
		"state": "CALIFORNIA",
		"artcc": "ZLA",
		"type": "RNAV",
		"updated": "01/24/2017"
	},
	{
		"name": "KUTME",
		"latitude": "36-30-17.15 N",
		"longitude": "114-44-4.53 W",
		"state": "NEVADA",
		"artcc": "ZLA",
		"type": "MR",
		"updated": "LSV*TACAN*030.00/21.00"
	},
	{
		"name": "KWANG",
		"latitude": "34-18-32.81 N",
		"longitude": "119-30-50.94 W",
		"state": "CALIFORNIA",
		"artcc": "ZLA",
		"type": "RP",
		"updated": "RZS*VORTAC*119.20"
	}
]
