	{
		"name": "LAADY",
		"latitude": "33-43-59.53 N",
		"longitude": "117-13-35.22 W",
		"state": "CALIFORNIA",
		"artcc": "ZLA",
		"type": "RP",
		"updated": "JLI*VORTAC*303.00/47.90",
	},
	{
		"name": "LAAMB",
		"latitude": "34-35-48.06 N",
		"longitude": "118-35-9.91 W",
		"state": "CALIFORNIA",
		"artcc": "ZLA",
		"type": "RP",
		"updated": "LHS*VORTAC*170.00/5.19",
	},
	{
		"name": "LAAMP",
		"latitude": "33-48-10.78 N",
		"longitude": "117-7-26.6 W",
		"state": "CALIFORNIA",
		"artcc": "ZLA",
		"type": "RNAV",
		"updated": "12/27/2016",
	},
	{
		"name": "LAATZ",
		"latitude": "34-53-37.59 N",
		"longitude": "117-54-15.95 W",
		"state": "CALIFORNIA",
		"artcc": "ZLA",
		"type": "MR",
		"updated": "EDW*VORTAC*223.00/10.00",
	},
	{
		"name": "LACIV",
		"latitude": "34-1-9.62 N",
		"longitude": "116-34-40.11 W",
		"state": "CALIFORNIA",
		"artcc": "ZLA",
		"type": "RNAV",
		"updated": "09/20/2016",
	},
	{
		"name": "LADDD",
		"latitude": "33-56-41.33 N",
		"longitude": "118-0-58.32 W",
		"state": "CALIFORNIA",
		"artcc": "ZLA",
		"type": "RNAV",
		"updated": "12/27/2016",
	},
	{
		"name": "LADGE",
		"latitude": "32-54-5.26 N",
		"longitude": "116-57-37.96 W",
		"state": "CALIFORNIA",
		"artcc": "ZLA",
		"type": "MR",
		"updated": "NKX*TACAN*067.00/10.00",
	},
	{
		"name": "LADLE",
		"latitude": "33-56-27.28 N",
		"longitude": "118-20-52.39 W",
		"state": "CALIFORNIA",
		"artcc": "ZLA",
		"type": "RP",
		"updated": "LAX*LD*071.01/3.74",
	},
	{
		"name": "LADYJ",
		"latitude": "34-4-37.9 N",
		"longitude": "118-40-18.99 W",
		"state": "CALIFORNIA",
		"artcc": "ZLA",
		"type": "RNAV",
		"updated": "01/05/2017",
	},
	{
		"name": "LAHAB",
		"latitude": "33-55-32.35 N",
		"longitude": "117-55-33.22 W",
		"state": "CALIFORNIA",
		"artcc": "ZLA",
		"type": "RP",
		"updated": "LAX*VORTAC*075.88/25.27",
	},
	{
		"name": "LAHVA",
		"latitude": "33-42-29.1 N",
		"longitude": "116-55-17.48 W",
		"state": "CALIFORNIA",
		"artcc": "ZLA",
		"type": "RNAV",
		"updated": "12/27/2016",
	},
	{
		"name": "LAKEE",
		"latitude": "33-3-26.21 N",
		"longitude": "117-8-16.36 W",
		"state": "CALIFORNIA",
		"artcc": "ZLA",
		"type": "MR",
		"updated": "JLI*VORTAC*245.00/28.26",
	},
	{
		"name": "LAKIY",
		"latitude": "35-28-33.38 N",
		"longitude": "114-39-46.08 W",
		"state": "ARIZONA",
		"artcc": "ZLA",
		"type": "RNAV",
		"updated": "04/29/2009",
	},
	{
		"name": "LAKRR",
		"latitude": "36-5-7.72 N",
		"longitude": "114-17-9.16 W",
		"state": "NEVADA",
		"artcc": "ZLA",
		"type": "RNAV",
		"updated": "01/22/2016",
	},
	{
		"name": "LAKVE",
		"latitude": "33-58-10.44 N",
		"longitude": "117-41-4.87 W",
		"state": "CALIFORNIA",
		"artcc": "ZLA",
		"type": "RNAV",
		"updated": "05/05/2008",
	},
	{
		"name": "LAMAW",
		"latitude": "32-46-34.59 N",
		"longitude": "115-36-32.7 W",
		"state": "CALIFORNIA",
		"artcc": "ZLA",
		"type": "MW",
		"updated": "06/29/2009",
	},
	{
		"name": "LAMPE",
		"latitude": "35-12-9.48 N",
		"longitude": "118-59-56.6 W",
		"state": "CALIFORNIA",
		"artcc": "ZLA",
		"type": "RP",
		"updated": "FLW*VOR/DME*065.00",
	},
	{
		"name": "LAMVE",
		"latitude": "36-2-58.95 N",
		"longitude": "115-8-6.25 W",
		"state": "NEVADA",
		"artcc": "ZLA",
		"type": "RNAV",
		"updated": "03/10/2005",
	},
	{
		"name": "LANAA",
		"latitude": "33-30-57.59 N",
		"longitude": "117-45-36.69 W",
		"state": "CALIFORNIA",
		"artcc": "ZLA",
		"type": "RNAV",
		"updated": "12/30/2016",
	},
	{
		"name": "LANAC",
		"latitude": "32-55-27.04 N",
		"longitude": "114-47-45.03 W",
		"state": "CALIFORNIA",
		"artcc": "ZLA",
		"type": "MR",
		"updated": "NYL*TACAN*317.00/19.00",
	},
	{
		"name": "LANCY",
		"latitude": "34-16-3.4 N",
		"longitude": "114-5-31.34 W",
		"state": "ARIZONA",
		"artcc": "ZLA",
		"type": "RNAV",
		"updated": "03/06/2017",
	},
	{
		"name": "LANDN",
		"latitude": "32-47-37.02 N",
		"longitude": "117-18-12.59 W",
		"state": "CALIFORNIA",
		"artcc": "ZLA",
		"type": "RNAV",
		"updated": "12/29/2016",
	},
	{
		"name": "LANDO",
		"latitude": "35-0-44.74 N",
		"longitude": "118-36-58.94 W",
		"state": "CALIFORNIA",
		"artcc": "ZLA",
		"type": "RP",
		"updated": "LAX*VORTAC*337.00/65.29",
	},
	{
		"name": "LANGE",
		"latitude": "34-22-58.69 N",
		"longitude": "118-27-37.7 W",
		"state": "CALIFORNIA",
		"artcc": "ZLA",
		"type": "RP",
		"updated": "VTU*VOR/DME*046.12",
	},
	{
		"name": "LAPIN",
		"latitude": "36-7-48.22 N",
		"longitude": "114-45-46.15 W",
		"state": "NEVADA",
		"artcc": "ZLA",
		"type": "RP",
		"updated": "LAS*VORTAC*066.00/19.54",
	},
	{
		"name": "LARRE",
		"latitude": "36-4-24.65 N",
		"longitude": "114-50-9.64 W",
		"state": "NEVADA",
		"artcc": "ZLA",
		"type": "RP",
		"updated": "BLD*VORTAC*001.06",
	},
	{
		"name": "LATPE",
		"latitude": "36-17-23.55 N",
		"longitude": "114-58-25.4 W",
		"state": "NEVADA",
		"artcc": "ZLA",
		"type": "MR",
		"updated": "LAS*VORTAC*/15.50",
	},
	{
		"name": "LATZY",
		"latitude": "33-54-51.42 N",
		"longitude": "116-33-47.61 W",
		"state": "CALIFORNIA",
		"artcc": "ZLA",
		"type": "RNAV",
		"updated": "06/15/2015",
	},
	{
		"name": "LAUER",
		"latitude": "33-25-48 N",
		"longitude": "118-42-26 W",
		"state": "CALIFORNIA",
		"artcc": "ZLA",
		"type": "RNAV",
		"updated": "01/24/2017",
	},
	{
		"name": "LAVAY",
		"latitude": "33-15-33.4 N",
		"longitude": "119-13-17.96 W",
		"state": "CALIFORNIA",
		"artcc": "ZLA",
		"type": "MR",
		"updated": "NSI*TACAN*071.00/12.00",
	},
	{
		"name": "LAXBB",
		"latitude": "33-34-3 N",
		"longitude": "118-10-40.8 W",
		"state": "CALIFORNIA",
		"artcc": "ZLA",
		"type": "RNAV",
		"updated": "03/02/2017",
	},
	{
		"name": "LAYCY",
		"latitude": "34-42-19.02 N",
		"longitude": "117-8-29.21 W",
		"state": "CALIFORNIA",
		"artcc": "ZLA",
		"type": "RNAV",
		"updated": "08/09/2006",
	},
	{
		"name": "LAYEY",
		"latitude": "33-55-28.64 N",
		"longitude": "117-18-3.6 W",
		"state": "CALIFORNIA",
		"artcc": "ZLA",
		"type": "RNAV",
		"updated": "05/31/2006",
	},
	{
		"name": "LAZES",
		"latitude": "34-0-21.04 N",
		"longitude": "118-12-54.65 W",
		"state": "CALIFORNIA",
		"artcc": "ZLA",
		"type": "RNAV",
		"updated": "01/24/2017",
	},
	{
		"name": "LDFRD",
		"latitude": "34-50-54.79 N",
		"longitude": "117-59-42.13 W",
		"state": "CALIFORNIA",
		"artcc": "ZLA",
		"type": "MW",
		"updated": "11/22/2016",
	},
	{
		"name": "LEAGE",
		"latitude": "34-3-24.38 N",
		"longitude": "117-44-36.23 W",
		"state": "CALIFORNIA",
		"artcc": "ZLA",
		"type": "RNAV",
		"updated": "02/14/2017",
	},
	{
		"name": "LEAVN",
		"latitude": "36-8-22.66 N",
		"longitude": "115-3-40.85 W",
		"state": "NEVADA",
		"artcc": "ZLA",
		"type": "RNAV",
		"updated": "04/18/2017",
	},
	{
		"name": "LEBEC",
		"latitude": "35-1-52.18 N",
		"longitude": "118-51-40.95 W",
		"state": "CALIFORNIA",
		"artcc": "ZLA",
		"type": "RP",
		"updated": "FLW*VOR/DME*078.00",
	},
	{
		"name": "LEBRR",
		"latitude": "36-8-8.62 N",
		"longitude": "115-12-1.74 W",
		"state": "NEVADA",
		"artcc": "ZLA",
		"type": "MR",
		"updated": "LAS*VORTAC*315.00/4.00",
	},
	{
		"name": "LECIK",
		"latitude": "34-12-36.33 N",
		"longitude": "119-7-42.9 W",
		"state": "CALIFORNIA",
		"artcc": "ZLA",
		"type": "RNAV",
		"updated": "10/18/2006",
	},
	{
		"name": "LECIN",
		"latitude": "34-16-0 N",
		"longitude": "119-49-25 W",
		"state": "CALIFORNIA",
		"artcc": "ZLA",
		"type": "RNAV",
		"updated": "07/03/2013",
	},
	{
		"name": "LEELN",
		"latitude": "36-4-35 N",
		"longitude": "115-16-54 W",
		"state": "NEVADA",
		"artcc": "ZLA",
		"type": "RNAV",
		"updated": "01/18/2007",
	},
	{
		"name": "LEESI",
		"latitude": "34-1-10.33 N",
		"longitude": "117-38-54.83 W",
		"state": "CALIFORNIA",
		"artcc": "ZLA",
		"type": "RNAV",
		"updated": "12/30/2016",
	},
	{
		"name": "LEFGO",
		"latitude": "36-12-18.29 N",
		"longitude": "115-11-25.96 W",
		"state": "NEVADA",
		"artcc": "ZLA",
		"type": "WP",
		"updated": "11/02/1998",
	},
	{
		"name": "LEGEY",
		"latitude": "33-59-13.63 N",
		"longitude": "119-15-27.47 W",
		"state": "CALIFORNIA",
		"artcc": "ZLA",
		"type": "MR",
		"updated": "FIM*VORTAC*205.35/29.00",
	},
	{
		"name": "LEGOZ",
		"latitude": "33-27-50.12 N",
		"longitude": "118-35-55.57 W",
		"state": "CALIFORNIA",
		"artcc": "ZLA",
		"type": "RNAV",
		"updated": "12/27/2016",
	},
	{
		"name": "LEGUE",
		"latitude": "32-51-51 N",
		"longitude": "116-50-1 W",
		"state": "CALIFORNIA",
		"artcc": "ZLA",
		"type": "RNAV",
		"updated": "12/29/2016",
	},
	{
		"name": "LEJEN",
		"latitude": "33-15-4.14 N",
		"longitude": "117-36-12.49 W",
		"state": "CALIFORNIA",
		"artcc": "ZLA",
		"type": "RNAV",
		"updated": "03/01/2018",
	},
	{
		"name": "LEMMN",
		"latitude": "34-24-53.1 N",
		"longitude": "116-48-11.95 W",
		"state": "CALIFORNIA",
		"artcc": "ZLA",
		"type": "RNAV",
		"updated": "12/27/2016",
	},
	{
		"name": "LEMNZ",
		"latitude": "36-8-14.25 N",
		"longitude": "115-7-57.07 W",
		"state": "NEVADA",
		"artcc": "ZLA",
		"type": "RNAV",
		"updated": "10/26/2005",
	},
	{
		"name": "LEMON",
		"latitude": "33-46-45.45 N",
		"longitude": "117-48-11.2 W",
		"state": "CALIFORNIA",
		"artcc": "ZLA",
		"type": "RP",
		"updated": "SLI*VORTAC*076.02",
	},
	{
		"name": "LEMSE",
		"latitude": "35-9-55.04 N",
		"longitude": "117-42-47.22 W",
		"state": "CALIFORNIA",
		"artcc": "ZLA",
		"type": "MR",
		"updated": "EDW*VORTAC*350.00/11.00",
	},
	{
		"name": "LENHO",
		"latitude": "33-55-31.51 N",
		"longitude": "117-21-24.82 W",
		"state": "CALIFORNIA",
		"artcc": "ZLA",
		"type": "RP",
		"updated": "HDF*VOR*302.21",
	},
	{
		"name": "LERBE",
		"latitude": "36-59-13.71 N",
		"longitude": "113-4-3.81 W",
		"state": "ARIZONA",
		"artcc": "ZLA",
		"type": "RNAV",
		"updated": "07/28/2017",
	},
	{
		"name": "LERDO",
		"latitude": "35-29-22.15 N",
		"longitude": "119-7-24.33 W",
		"state": "CALIFORNIA",
		"artcc": "ZLA",
		"type": "RP",
		"updated": "EHF*VORTAC*268.96",
	},
	{
		"name": "LETLE",
		"latitude": "33-57-42.81 N",
		"longitude": "117-20-50.2 W",
		"state": "CALIFORNIA",
		"artcc": "ZLA",
		"type": "RNAV",
		"updated": "11/04/2011",
	},
	{
		"name": "LETVE",
		"latitude": "33-48-46.41 N",
		"longitude": "118-0-50.47 W",
		"state": "CALIFORNIA",
		"artcc": "ZLA",
		"type": "MR",
		"updated": "SLI*VORTAC*033.96/2.70",
	},
	{
		"name": "LEYMI",
		"latitude": "33-54-36.96 N",
		"longitude": "117-46-49.75 W",
		"state": "CALIFORNIA",
		"artcc": "ZLA",
		"type": "RNAV",
		"updated": "04/12/2004",
	},
	{
		"name": "LGEND",
		"latitude": "34-8-25.91 N",
		"longitude": "118-22-51.49 W",
		"state": "CALIFORNIA",
		"artcc": "ZLA",
		"type": "RNAV",
		"updated": "08/30/2016",
	},
	{
		"name": "LIDDL",
		"latitude": "35-45-58.23 N",
		"longitude": "115-5-50.67 W",
		"state": "NEVADA",
		"artcc": "ZLA",
		"type": "RNAV",
		"updated": "04/18/2017",
	},
	{
		"name": "LIION",
		"latitude": "33-43-59.63 N",
		"longitude": "117-49-58.41 W",
		"state": "CALIFORNIA",
		"artcc": "ZLA",
		"type": "RNAV",
		"updated": "01/05/2017",
	},
	{
		"name": "LIMBO",
		"latitude": "33-45-34.43 N",
		"longitude": "118-27-0.73 W",
		"state": "CALIFORNIA",
		"artcc": "ZLA",
		"type": "RP",
		"updated": "LAX*VORTAC*170.00/10.44",
	},
	{
		"name": "LIMMA",
		"latitude": "33-56-54.46 N",
		"longitude": "118-16-24.84 W",
		"state": "CALIFORNIA",
		"artcc": "ZLA",
		"type": "RP",
		"updated": "LAX*LD*071.01/7.48",
	},
	{
		"name": "LINDN",
		"latitude": "33-58-37.34 N",
		"longitude": "117-28-53.16 W",
		"state": "CALIFORNIA",
		"artcc": "ZLA",
		"type": "RP",
		"updated": "PDZ*VORTAC*019.57",
	},
	{
		"name": "LINNE",
		"latitude": "34-21-9.85 N",
		"longitude": "114-46-19.99 W",
		"state": "CALIFORNIA",
		"artcc": "ZLA",
		"type": "RNAV",
		"updated": "09/11/2016",
	},
	{
		"name": "LITNG",
		"latitude": "33-50-45.32 N",
		"longitude": "114-54-43.84 W",
		"state": "CALIFORNIA",
		"artcc": "ZLA",
		"type": "RNAV",
		"updated": "12/27/2016",
	},
	{
		"name": "LITTS",
		"latitude": "36-6-41.63 N",
		"longitude": "115-5-26.82 W",
		"state": "NEVADA",
		"artcc": "ZLA",
		"type": "RNAV",
		"updated": "04/19/2017",
	},
	{
		"name": "LIVAQ",
		"latitude": "34-39-42.46 N",
		"longitude": "120-12-35.12 W",
		"state": "CALIFORNIA",
		"artcc": "ZLA",
		"type": "RNAV",
		"updated": "02/13/2009",
	},
	{
		"name": "LIVVI",
		"latitude": "34-22-14.87 N",
		"longitude": "117-54-52.14 W",
		"state": "CALIFORNIA",
		"artcc": "ZLA",
		"type": "RNAV",
		"updated": "12/30/2016",
	},
	{
		"name": "LIVVN",
		"latitude": "33-59-36.55 N",
		"longitude": "117-59-27.23 W",
		"state": "CALIFORNIA",
		"artcc": "ZLA",
		"type": "RP",
		"updated": "OSS*LD*071.00/22.62",
	},
	{
		"name": "LIZZE",
		"latitude": "34-4-43.78 N",
		"longitude": "117-31-9.29 W",
		"state": "CALIFORNIA",
		"artcc": "ZLA",
		"type": "RP",
		"updated": "POM*VORTAC*074.81/13.35",
	},
	{
		"name": "LLEVI",
		"latitude": "34-41-1.36 N",
		"longitude": "120-26-49.12 W",
		"state": "CALIFORNIA",
		"artcc": "ZLA",
		"type": "RNAV",
		"updated": "03/01/2017",
	},
	{
		"name": "LNDON",
		"latitude": "33-57-37.19 N",
		"longitude": "115-0-8.16 W",
		"state": "CALIFORNIA",
		"artcc": "ZLA",
		"type": "RNAV",
		"updated": "09/11/2016",
	},
	{
		"name": "LNSAY",
		"latitude": "33-8-46.2 N",
		"longitude": "117-29-8.06 W",
		"state": "CALIFORNIA",
		"artcc": "ZLA",
		"type": "RP",
		"updated": "SXC*VORTAC*091.00",
	},
	{
		"name": "LNTRN",
		"latitude": "32-55-6 N",
		"longitude": "117-18-2 W",
		"state": "CALIFORNIA",
		"artcc": "ZLA",
		"type": "RNAV",
		"updated": "12/27/2016",
	},
	{
		"name": "LOBER",
		"latitude": "34-15-47.87 N",
		"longitude": "120-5-7.65 W",
		"state": "CALIFORNIA",
		"artcc": "ZLA",
		"type": "RP",
		"updated": "FIM*VORTAC*250.00/60.11",
	},
	{
		"name": "LODZY",
		"latitude": "36-4-34.69 N",
		"longitude": "115-13-22.16 W",
		"state": "NEVADA",
		"artcc": "ZLA",
		"type": "WP",
		"updated": "11/21/2002",
	},
	{
		"name": "LOGJM",
		"latitude": "34-3-24.58 N",
		"longitude": "117-40-59.55 W",
		"state": "CALIFORNIA",
		"artcc": "ZLA",
		"type": "RNAV",
		"updated": "02/14/2017",
	},
	{
		"name": "LOGTE",
		"latitude": "33-46-23.28 N",
		"longitude": "117-10-59.18 W",
		"state": "CALIFORNIA",
		"artcc": "ZLA",
		"type": "RNAV",
		"updated": "03/10/2015",
	},
	{
		"name": "LOGVE",
		"latitude": "35-18-22.32 N",
		"longitude": "120-57-50.76 W",
		"state": "CALIFORNIA",
		"artcc": "ZLA",
		"type": "RNAV",
		"updated": "04/23/2012",
	},
	{
		"name": "LONDN",
		"latitude": "34-39-39.79 N",
		"longitude": "114-24-42.69 W",
		"state": "ARIZONA",
		"artcc": "ZLA",
		"type": "RP",
		"updated": "EED*VORTAC*138.89/7.00",
	},
	{
		"name": "LOOSN",
		"latitude": "36-8-7.48 N",
		"longitude": "114-56-24.21 W",
		"state": "NEVADA",
		"artcc": "ZLA",
		"type": "RNAV",
		"updated": "11/14/2016",
	},
	{
		"name": "LOOTS",
		"latitude": "32-57-28.01 N",
		"longitude": "116-36-37.53 W",
		"state": "CALIFORNIA",
		"artcc": "ZLA",
		"type": "MR",
		"updated": "NKX*TACAN*067.00/28.00",
	},
	{
		"name": "LOPES",
		"latitude": "35-1-54.53 N",
		"longitude": "118-42-5.05 W",
		"state": "CALIFORNIA",
		"artcc": "ZLA",
		"type": "RP",
		"updated": "LHS*VORTAC*328.65/21.78",
	},
	{
		"name": "LOWRN",
		"latitude": "34-58-12.34 N",
		"longitude": "117-36-42.6 W",
		"state": "CALIFORNIA",
		"artcc": "ZLA",
		"type": "MR",
		"updated": "EDW*VORTAC*082.00/6.00",
	},
	{
		"name": "LOYIN",
		"latitude": "40-3-2.45 N",
		"longitude": "74-6-7.4 W",
		"state": "NEW JERSEY",
		"artcc": "ZLA",
		"type": "RNAV",
		"updated": "02/28/2018",
	},
	{
		"name": "LRREN",
		"latitude": "33-35-1.79 N",
		"longitude": "117-54-0.22 W",
		"state": "CALIFORNIA",
		"artcc": "ZLA",
		"type": "RNAV",
		"updated": "11/22/2017",
	},
	{
		"name": "LRSON",
		"latitude": "34-52-59.88 N",
		"longitude": "116-19-58.65 W",
		"state": "CALIFORNIA",
		"artcc": "ZLA",
		"type": "RNAV",
		"updated": "12/27/2016",
	},
	{
		"name": "LUCER",
		"latitude": "34-29-7.69 N",
		"longitude": "116-50-42.51 W",
		"state": "CALIFORNIA",
		"artcc": "ZLA",
		"type": "RP",
		"updated": "HEC*VORTAC*210.51",
	},
	{
		"name": "LUCIG",
		"latitude": "33-41-48.99 N",
		"longitude": "118-0-19.57 W",
		"state": "CALIFORNIA",
		"artcc": "ZLA",
		"type": "RNAV",
		"updated": "06/26/2006",
	},
	{
		"name": "LUCIL",
		"latitude": "35-58-47.26 N",
		"longitude": "115-18-28.8 W",
		"state": "NEVADA",
		"artcc": "ZLA",
		"type": "MR",
		"updated": "LSV*TACAN*209.00/21.00",
	},
	{
		"name": "LUCKI",
		"latitude": "32-42-27 N",
		"longitude": "116-49-5 W",
		"state": "CALIFORNIA",
		"artcc": "ZLA",
		"type": "RNAV",
		"updated": "09/17/2008",
	},
	{
		"name": "LUCKY",
		"latitude": "36-2-19.55 N",
		"longitude": "115-50-45.09 W",
		"state": "NEVADA",
		"artcc": "ZLA",
		"type": "RP",
		"updated": "LAS*VORTAC*251.00/33.47",
	},
	{
		"name": "LUGJA",
		"latitude": "32-37-31.29 N",
		"longitude": "117-14-21.58 W",
		"state": "CALIFORNIA",
		"artcc": "ZLA",
		"type": "RNAV",
		"updated": "09/06/2016",
	},
	{
		"name": "LUHLU",
		"latitude": "34-5-6.58 N",
		"longitude": "117-8-46.96 W",
		"state": "CALIFORNIA",
		"artcc": "ZLA",
		"type": "RNAV",
		"updated": "02/16/2018",
	},
	{
		"name": "LUMPE",
		"latitude": "36-8-22.85 N",
		"longitude": "115-3-46.46 W",
		"state": "NEVADA",
		"artcc": "ZLA",
		"type": "RNAV",
		"updated": "04/19/2017",
	},
	{
		"name": "LUPEW",
		"latitude": "35-20-34.12 N",
		"longitude": "113-52-25.95 W",
		"state": "ARIZONA",
		"artcc": "ZLA",
		"type": "RNAV",
		"updated": "04/28/2009",
	},
	{
		"name": "LUQAS",
		"latitude": "33-56-4.25 N",
		"longitude": "117-16-58.39 W",
		"state": "CALIFORNIA",
		"artcc": "ZLA",
		"type": "RNAV",
		"updated": "12/27/2016",
	},
	{
		"name": "LUTYE",
		"latitude": "35-53-14.94 N",
		"longitude": "115-14-46.88 W",
		"state": "NEVADA",
		"artcc": "ZLA",
		"type": "WP",
		"updated": "11/02/1998",
	},
	{
		"name": "LUVCI",
		"latitude": "33-40-30.41 N",
		"longitude": "118-3-3.68 W",
		"state": "CALIFORNIA",
		"artcc": "ZLA",
		"type": "RNAV",
		"updated": "12/28/2016",
	},
	{
		"name": "LUVVY",
		"latitude": "34-16-37.75 N",
		"longitude": "118-36-43.92 W",
		"state": "CALIFORNIA",
		"artcc": "ZLA",
		"type": "RNAV",
		"updated": "03/02/2017",
	},
	{
		"name": "LUXOR",
		"latitude": "36-23-41.62 N",
		"longitude": "114-28-49.54 W",
		"state": "NEVADA",
		"artcc": "ZLA",
		"type": "RP",
		"updated": "LAS*VORTAC*045.00/38.00",
	},
	{
		"name": "LVELL",
		"latitude": "34-12-37.38 N",
		"longitude": "115-36-53.25 W",
		"state": "CALIFORNIA",
		"artcc": "ZLA",
		"type": "RNAV",
		"updated": "01/18/2017",
	},
	{
		"name": "LYCOM",
		"latitude": "34-0-32.71 N",
		"longitude": "117-40-56.78 W",
		"state": "CALIFORNIA",
		"artcc": "ZLA",
		"type": "RP",
		"updated": "CFN*LD*071.01/37.25",
	},
	{
		"name": "LYDEY",
		"latitude": "34-20-38 N",
		"longitude": "118-31-2 W",
		"state": "CALIFORNIA",
		"artcc": "ZLA",
		"type": "RNAV",
		"updated": "12/27/2012",
	},
	{
		"name": "LYNDI",
		"latitude": "32-41-17.6 N",
		"longitude": "116-52-47.5 W",
		"state": "CALIFORNIA",
		"artcc": "ZLA",
		"type": "RNAV",
		"updated": "04/20/2015",
	},
	{
		"name": "LYNOS",
		"latitude": "34-15-27 N",
		"longitude": "117-51-45 W",
		"state": "CALIFORNIA",
		"artcc": "ZLA",
		"type": "RNAV",
		"updated": "06/08/2017",
	},
	{
		"name": "LYNSY",
		"latitude": "35-39-37.95 N",
		"longitude": "114-45-22.15 W",
		"state": "NEVADA",
		"artcc": "ZLA",
		"type": "RP",
		"updated": "EED*VORTAC*330.57/55.35",
	},
	{
		"name": "LYNXX",
		"latitude": "34-30-44.77 N",
		"longitude": "118-35-41.91 W",
		"state": "CALIFORNIA",
		"artcc": "ZLA",
		"type": "RP",
		"updated": "LHS*VORTAC*170.00/10.25",
	},
