	{
		"name": "MAACH",
		"latitude": "35-0-50.58 N",
		"longitude": "117-30-46.07 W",
		"state": "CALIFORNIA",
		"artcc": "ZLA",
		"type": "RP",
		"updated": "EDW*VORTAC*065.00/11.00",
	},
	{
		"name": "MACEF",
		"latitude": "36-49-13.89 N",
		"longitude": "114-6-6.92 W",
		"state": "NEVADA",
		"artcc": "ZLA",
		"type": "CN",
		"updated": "12/21/1999",
	},
	{
		"name": "MACIS",
		"latitude": "34-9-1.29 N",
		"longitude": "114-16-24.58 W",
		"state": "ARIZONA",
		"artcc": "ZLA",
		"type": "RP",
		"updated": "PKE*VORTAC*066.78/20.56",
	},
	{
		"name": "MACOP",
		"latitude": "34-12-3.97 N",
		"longitude": "118-23-4.04 W",
		"state": "CALIFORNIA",
		"artcc": "ZLA",
		"type": "CN",
		"updated": "12/21/1999",
	},
	{
		"name": "MACSO",
		"latitude": "35-14-12.18 N",
		"longitude": "120-38-57.44 W",
		"state": "CALIFORNIA",
		"artcc": "ZLA",
		"type": "CN",
		"updated": "12/21/1999",
	},
	{
		"name": "MADJU",
		"latitude": "34-44-42.7 N",
		"longitude": "118-13-21.29 W",
		"state": "CALIFORNIA",
		"artcc": "ZLA",
		"type": "CN",
		"updated": "12/21/1999",
	},
	{
		"name": "MADOJ",
		"latitude": "33-48-52.36 N",
		"longitude": "118-21-0.06 W",
		"state": "CALIFORNIA",
		"artcc": "ZLA",
		"type": "CN",
		"updated": "12/21/1999",
	},
	{
		"name": "MADOO",
		"latitude": "34-38-4.27 N",
		"longitude": "120-1-51.58 W",
		"state": "CALIFORNIA",
		"artcc": "ZLA",
		"type": "RP",
		"updated": "RZS*VORTAC*286.24/14.90",
	},
	{
		"name": "MADOW",
		"latitude": "33-37-24.97 N",
		"longitude": "117-59-47.04 W",
		"state": "CALIFORNIA",
		"artcc": "ZLA",
		"type": "RP",
		"updated": "SLI*VORTAC*148.00/10.00",
	},
	{
		"name": "MADTI",
		"latitude": "33-7-37.98 N",
		"longitude": "117-16-58.85 W",
		"state": "CALIFORNIA",
		"artcc": "ZLA",
		"type": "CN",
		"updated": "12/21/1999",
	},
	{
		"name": "MAFAN",
		"latitude": "33-4-5.91 N",
		"longitude": "117-25-46.95 W",
		"state": "CALIFORNIA",
		"artcc": "ZLA",
		"type": "RP",
		"updated": "JLI*VORTAC*249.43",
	},
	{
		"name": "MAFDU",
		"latitude": "34-34-28.8 N",
		"longitude": "114-21-38.72 W",
		"state": "ARIZONA",
		"artcc": "ZLA",
		"type": "CN",
		"updated": "12/21/1999",
	},
	{
		"name": "MAFPI",
		"latitude": "33-25-17.26 N",
		"longitude": "118-24-47.21 W",
		"state": "CALIFORNIA",
		"artcc": "ZLA",
		"type": "CN",
		"updated": "12/21/1999",
	},
	{
		"name": "MAHAM",
		"latitude": "33-48-6.95 N",
		"longitude": "118-1-44.81 W",
		"state": "CALIFORNIA",
		"artcc": "ZLA",
		"type": "CN",
		"updated": "12/21/1999",
	},
	{
		"name": "MAHEB",
		"latitude": "33-53-59.67 N",
		"longitude": "117-35-52.72 W",
		"state": "CALIFORNIA",
		"artcc": "ZLA",
		"type": "CN",
		"updated": "12/21/1999",
	},
	{
		"name": "MAHID",
		"latitude": "34-25-41.57 N",
		"longitude": "119-49-19.7 W",
		"state": "CALIFORNIA",
		"artcc": "ZLA",
		"type": "CN",
		"updated": "12/21/1999",
	},
	{
		"name": "MAHKO",
		"latitude": "34-45-58.5 N",
		"longitude": "114-36-57.24 W",
		"state": "CALIFORNIA",
		"artcc": "ZLA",
		"type": "RP",
		"updated": "EED*VORTAC*255.16/7.01",
	},
	{
		"name": "MAIDD",
		"latitude": "34-51-40.67 N",
		"longitude": "119-16-36.53 W",
		"state": "CALIFORNIA",
		"artcc": "ZLA",
		"type": "RNAV",
		"updated": "12/27/2016",
	},
	{
		"name": "MAJAN",
		"latitude": "33-48-54.56 N",
		"longitude": "116-28-36.17 W",
		"state": "CALIFORNIA",
		"artcc": "ZLA",
		"type": "CN",
		"updated": "12/21/1999",
	},
	{
		"name": "MAJCU",
		"latitude": "33-48-22.02 N",
		"longitude": "118-7-47.77 W",
		"state": "CALIFORNIA",
		"artcc": "ZLA",
		"type": "RP",
		"updated": "SLI*VORTAC*275.00/4.00",
	},
	{
		"name": "MAJDA",
		"latitude": "33-37-19.65 N",
		"longitude": "116-9-21.18 W",
		"state": "CALIFORNIA",
		"artcc": "ZLA",
		"type": "CN",
		"updated": "12/21/1999",
	},
	{
		"name": "MAJEK",
		"latitude": "34-23-19.13 N",
		"longitude": "117-32-4.57 W",
		"state": "CALIFORNIA",
		"artcc": "ZLA",
		"type": "RP",
		"updated": "PMD*VORTAC*103.84/30.00",
	},
	{
		"name": "MAJGY",
		"latitude": "32-49-42.27 N",
		"longitude": "115-34-13.71 W",
		"state": "CALIFORNIA",
		"artcc": "ZLA",
		"type": "CN",
		"updated": "12/21/1999",
	},
	{
		"name": "MAJLU",
		"latitude": "34-7-29.94 N",
		"longitude": "117-24-4.47 W",
		"state": "CALIFORNIA",
		"artcc": "ZLA",
		"type": "CN",
		"updated": "12/21/1999",
	},
	{
		"name": "MAJMY",
		"latitude": "36-1-40.73 N",
		"longitude": "119-3-50.68 W",
		"state": "CALIFORNIA",
		"artcc": "ZLA",
		"type": "CN",
		"updated": "12/21/1999",
	},
	{
		"name": "MAJUZ",
		"latitude": "33-24-5.66 N",
		"longitude": "118-24-57.71 W",
		"state": "CALIFORNIA",
		"artcc": "ZLA",
		"type": "CN",
		"updated": "12/21/1999",
	},
	{
		"name": "MAKAF",
		"latitude": "41-44-9.15 N",
		"longitude": "83-39-20.75 W",
		"state": "MICHIGAN",
		"artcc": "ZLA",
		"type": "RNAV",
		"updated": "03/01/2018",
	},
	{
		"name": "MAKRS",
		"latitude": "35-40-57.95 N",
		"longitude": "120-20-38.99 W",
		"state": "CALIFORNIA",
		"artcc": "ZLA",
		"type": "RP",
		"updated": "AVE*VOR/DME*260.95/18.00",
	},
	{
		"name": "MAKZI",
		"latitude": "37-0-44.11 N",
		"longitude": "116-21-18.28 W",
		"state": "NEVADA",
		"artcc": "ZLA",
		"type": "MR",
		"updated": "LSV*TACAN*291.00/79.00",
	},
	{
		"name": "MALIT",
		"latitude": "32-28-32.13 N",
		"longitude": "119-35-28.25 W",
		"state": "OFFSHORE PACIFIC",
		"artcc": "ZLA",
		"type": "RP",
		"updated": "SXC*VORTAC*213.00/80.00",
	},
	{
		"name": "MALOW",
		"latitude": "36-9-55.79 N",
		"longitude": "115-5-46.29 W",
		"state": "NEVADA",
		"artcc": "ZLA",
		"type": "MR",
		"updated": "LAS*VORTAC*016.00/6.00",
	},
	{
		"name": "MANBY",
		"latitude": "33-39-2.59 N",
		"longitude": "117-38-35.89 W",
		"state": "CALIFORNIA",
		"artcc": "ZLA",
		"type": "RP",
		"updated": "ELB*VOR/DME*095.00/4.65",
	},
	{
		"name": "MANNZ",
		"latitude": "35-17-34.01 N",
		"longitude": "113-53-51.74 W",
		"state": "ARIZONA",
		"artcc": "ZLA",
		"type": "RNAV",
		"updated": "04/28/2009",
	},
	{
		"name": "MANPE",
		"latitude": "33-52-23.23 N",
		"longitude": "116-32-46.9 W",
		"state": "CALIFORNIA",
		"artcc": "ZLA",
		"type": "RNAV",
		"updated": "01/25/2005",
	},
	{
		"name": "MANRS",
		"latitude": "32-47-14.74 N",
		"longitude": "114-23-10.5 W",
		"state": "ARIZONA",
		"artcc": "ZLA",
		"type": "RNAV",
		"updated": "09/11/2016",
	},
	{
		"name": "MANZZ",
		"latitude": "35-10-52.6 N",
		"longitude": "120-54-52.5 W",
		"state": "OFFSHORE PACIFIC",
		"artcc": "ZLA",
		"type": "RNAV",
		"updated": "02/28/2017",
	},
	{
		"name": "MAPLB",
		"latitude": "33-52-9.35 N",
		"longitude": "117-58-55.64 W",
		"state": "CALIFORNIA",
		"artcc": "ZLA",
		"type": "CN",
		"updated": "03/07/2003",
	},
	{
		"name": "MAPNN",
		"latitude": "33-49-21.82 N",
		"longitude": "116-29-39.27 W",
		"state": "CALIFORNIA",
		"artcc": "ZLA",
		"type": "CN",
		"updated": "03/07/2003",
	},
	{
		"name": "MAPPY",
		"latitude": "33-2-16.63 N",
		"longitude": "116-54-25.97 W",
		"state": "CALIFORNIA",
		"artcc": "ZLA",
		"type": "RP",
		"updated": "JLI*VORTAC*234.33/17.32",
	},
	{
		"name": "MARCD",
		"latitude": "36-1-21.63 N",
		"longitude": "119-3-38.95 W",
		"state": "CALIFORNIA",
		"artcc": "ZLA",
		"type": "CN",
		"updated": "03/06/2003",
	},
	{
		"name": "MARIC",
		"latitude": "35-14-15.47 N",
		"longitude": "119-16-10.9 W",
		"state": "CALIFORNIA",
		"artcc": "ZLA",
		"type": "RP",
		"updated": "EHF*VORTAC*195.82/17.04",
	},
	{
		"name": "MARND",
		"latitude": "35-14-12.7 N",
		"longitude": "120-39-0.95 W",
		"state": "CALIFORNIA",
		"artcc": "ZLA",
		"type": "RP",
		"updated": "MQO*VORTAC*083.71/5.45",
	},
	{
		"name": "MARNS",
		"latitude": "34-25-38.21 N",
		"longitude": "119-49-21.58 W",
		"state": "CALIFORNIA",
		"artcc": "ZLA",
		"type": "CN",
		"updated": "03/06/2003",
	},
	{
		"name": "MARNV",
		"latitude": "34-36-26.12 N",
		"longitude": "120-4-48.52 W",
		"state": "CALIFORNIA",
		"artcc": "ZLA",
		"type": "CN",
		"updated": "03/06/2003",
	},
	{
		"name": "MARRP",
		"latitude": "33-48-52.37 N",
		"longitude": "118-20-59.97 W",
		"state": "CALIFORNIA",
		"artcc": "ZLA",
		"type": "RP",
		"updated": "LAX*VORTAC*135.00/8.20",
	},
	{
		"name": "MARUE",
		"latitude": "35-15-23 N",
		"longitude": "114-52-55 W",
		"state": "NEVADA",
		"artcc": "ZLA",
		"type": "RNAV",
		"updated": "02/11/2016",
	},
	{
		"name": "MATRX",
		"latitude": "34-20-14.78 N",
		"longitude": "118-30-6.36 W",
		"state": "CALIFORNIA",
		"artcc": "ZLA",
		"type": "RNAV",
		"updated": "08/30/2016",
	},
	{
		"name": "MATZO",
		"latitude": "37-14-45.91 N",
		"longitude": "113-16-9.48 W",
		"state": "UTAH",
		"artcc": "ZLA",
		"type": "RP",
		"updated": "EHK*VOR/DME*180.55/33.83",
	},
	{
		"name": "MAURK",
		"latitude": "34-21-23.6 N",
		"longitude": "118-41-39 W",
		"state": "CALIFORNIA",
		"artcc": "ZLA",
		"type": "RNAV",
		"updated": "12/28/2016",
	},
	{
		"name": "MAXUE",
		"latitude": "33-40-25.32 N",
		"longitude": "117-58-39.04 W",
		"state": "CALIFORNIA",
		"artcc": "ZLA",
		"type": "RP",
		"updated": "ELB*VOR/DME*255.42/12.34",
	},
	{
		"name": "MAYON",
		"latitude": "34-3-23.36 N",
		"longitude": "117-49-57.39 W",
		"state": "CALIFORNIA",
		"artcc": "ZLA",
		"type": "RP",
		"updated": "POM*VORTAC*225.00",
	},
	{
		"name": "MCHNE",
		"latitude": "33-53-47.29 N",
		"longitude": "116-31-59.04 W",
		"state": "CALIFORNIA",
		"artcc": "ZLA",
		"type": "RNAV",
		"updated": "03/02/2017",
	},
	{
		"name": "MCKYE",
		"latitude": "33-45-49.59 N",
		"longitude": "117-37-31.98 W",
		"state": "CALIFORNIA",
		"artcc": "ZLA",
		"type": "RNAV",
		"updated": "09/30/2017",
	},
	{
		"name": "MCPHR",
		"latitude": "34-7-36 N",
		"longitude": "120-42-7 W",
		"state": "OFFSHORE PACIFIC",
		"artcc": "ZLA",
		"type": "RNAV",
		"updated": "07/03/2013",
	},
	{
		"name": "MCQWN",
		"latitude": "34-3-22.42 N",
		"longitude": "115-1-8.26 W",
		"state": "CALIFORNIA",
		"artcc": "ZLA",
		"type": "RNAV",
		"updated": "01/18/2017",
	},
	{
		"name": "MDDOG",
		"latitude": "35-53-8.03 N",
		"longitude": "115-24-19.14 W",
		"state": "NEVADA",
		"artcc": "ZLA",
		"type": "RNAV",
		"updated": "01/18/2005",
	},
	{
		"name": "MDLER",
		"latitude": "34-9-49.8 N",
		"longitude": "115-41-22.04 W",
		"state": "CALIFORNIA",
		"artcc": "ZLA",
		"type": "RNAV",
		"updated": "12/28/2016",
	},
	{
		"name": "MDNYT",
		"latitude": "33-59-9.12 N",
		"longitude": "117-53-22.55 W",
		"state": "CALIFORNIA",
		"artcc": "ZLA",
		"type": "RNAV",
		"updated": "12/27/2016",
	},
	{
		"name": "MDOTS",
		"latitude": "34-39-6.26 N",
		"longitude": "119-14-33.35 W",
		"state": "CALIFORNIA",
		"artcc": "ZLA",
		"type": "RNAV",
		"updated": "03/01/2017",
	},
	{
		"name": "MDWAY",
		"latitude": "34-58-30.5 N",
		"longitude": "119-3-49.98 W",
		"state": "CALIFORNIA",
		"artcc": "ZLA",
		"type": "RNAV",
		"updated": "11/13/2017",
	},
	{
		"name": "MEADS",
		"latitude": "36-9-49.23 N",
		"longitude": "114-29-29.62 W",
		"state": "NEVADA",
		"artcc": "ZLA",
		"type": "RP",
		"updated": "LAS*VORTAC*066.00/32.87",
	},
	{
		"name": "MEANT",
		"latitude": "34-11-25.02 N",
		"longitude": "117-38-10.79 W",
		"state": "CALIFORNIA",
		"artcc": "ZLA",
		"type": "RP",
		"updated": "POM*VORTAC*033.00/10.00",
	},
	{
		"name": "MEBDE",
		"latitude": "35-18-13.63 N",
		"longitude": "114-34-14.12 W",
		"state": "ARIZONA",
		"artcc": "ZLA",
		"type": "RNAV",
		"updated": "07/18/2011",
	},
	{
		"name": "MECCA",
		"latitude": "33-32-11.47 N",
		"longitude": "116-5-40.11 W",
		"state": "CALIFORNIA",
		"artcc": "ZLA",
		"type": "RP",
		"updated": "TRM*VORTAC*135.99/6.40",
	},
	{
		"name": "MEDDI",
		"latitude": "33-6-39.42 N",
		"longitude": "116-40-43.54 W",
		"state": "CALIFORNIA",
		"artcc": "ZLA",
		"type": "RNAV",
		"updated": "04/21/2009",
	},
	{
		"name": "MEDOE",
		"latitude": "36-11-46 N",
		"longitude": "115-11-12 W",
		"state": "NEVADA",
		"artcc": "ZLA",
		"type": "RNAV",
		"updated": "01/18/2007",
	},
	{
		"name": "MEDUW",
		"latitude": "36-6-53.35 N",
		"longitude": "115-8-51.91 W",
		"state": "NEVADA",
		"artcc": "ZLA",
		"type": "RNAV",
		"updated": "01/18/2005",
	},
	{
		"name": "MEETT",
		"latitude": "34-19-2.83 N",
		"longitude": "118-18-48.13 W",
		"state": "CALIFORNIA",
		"artcc": "ZLA",
		"type": "RNAV",
		"updated": "03/01/2017",
	},
	{
		"name": "MEEUP",
		"latitude": "36-4-21.53 N",
		"longitude": "115-17-54.56 W",
		"state": "NEVADA",
		"artcc": "ZLA",
		"type": "RNAV",
		"updated": "04/29/2010",
	},
	{
		"name": "MEGOE",
		"latitude": "33-58-4.34 N",
		"longitude": "117-21-14.21 W",
		"state": "CALIFORNIA",
		"artcc": "ZLA",
		"type": "RNAV",
		"updated": "12/23/2015",
	},
	{
		"name": "MEKIE",
		"latitude": "33-54-53.33 N",
		"longitude": "117-17-32.58 W",
		"state": "CALIFORNIA",
		"artcc": "ZLA",
		"type": "MR",
		"updated": "RIV*TACAN*286.00/1.00",
	},
	{
		"name": "MELDY",
		"latitude": "33-5-21.83 N",
		"longitude": "117-41-37.78 W",
		"state": "CALIFORNIA",
		"artcc": "ZLA",
		"type": "RP",
		"updated": "OCN*VORTAC*222.00",
	},
	{
		"name": "MEMPE",
		"latitude": "34-45-28.56 N",
		"longitude": "114-9-2.1 W",
		"state": "ARIZONA",
		"artcc": "ZLA",
		"type": "RP",
		"updated": "EED*VORTAC*076.64/16.00",
	},
	{
		"name": "MENTY",
		"latitude": "34-1-31.55 N",
		"longitude": "117-2-44.71 W",
		"state": "CALIFORNIA",
		"artcc": "ZLA",
		"type": "MR",
		"updated": "PDZ*VORTAC*060.00/25.00",
	},
	{
		"name": "MERCE",
		"latitude": "33-58-50.84 N",
		"longitude": "118-7-5.76 W",
		"state": "CALIFORNIA",
		"artcc": "ZLA",
		"type": "RP",
		"updated": "OSS*LD*071.00/16.22",
	},
	{
		"name": "MERMA",
		"latitude": "33-53-44.91 N",
		"longitude": "118-42-44.49 W",
		"state": "CALIFORNIA",
		"artcc": "ZLA",
		"type": "RP",
		"updated": "LAX*VORTAC*246.00/14.18",
	},
	{
		"name": "MESAE",
		"latitude": "36-26-3 N",
		"longitude": "115-34-18 W",
		"state": "NEVADA",
		"artcc": "ZLA",
		"type": "WP",
		"updated": "07/09/2001",
	},
	{
		"name": "METUE",
		"latitude": "34-55-14.35 N",
		"longitude": "117-52-10.42 W",
		"state": "CALIFORNIA",
		"artcc": "ZLA",
		"type": "MR",
		"updated": "EDW*VORTAC*226.00/7.70",
	},
	{
		"name": "MGHEE",
		"latitude": "36-49-19.88 N",
		"longitude": "112-44-48.43 W",
		"state": "ARIZONA",
		"artcc": "ZLA",
		"type": "RNAV",
		"updated": "07/28/2017",
	},
	{
		"name": "MIBBY",
		"latitude": "32-42-59.12 N",
		"longitude": "116-53-13.47 W",
		"state": "CALIFORNIA",
		"artcc": "ZLA",
		"type": "RP",
		"updated": "JLI*VORTAC*196.00/29.60",
	},
	{
		"name": "MICHH",
		"latitude": "33-32-24 N",
		"longitude": "117-19-0 W",
		"state": "CALIFORNIA",
		"artcc": "ZLA",
		"type": "RNAV",
		"updated": "11/24/1999",
	},
	{
		"name": "MIDDS",
		"latitude": "33-40-27.26 N",
		"longitude": "117-55-32.8 W",
		"state": "CALIFORNIA",
		"artcc": "ZLA",
		"type": "RP",
		"updated": "SXC*VORTAC*039.00",
	},
	{
		"name": "MIGIN",
		"latitude": "32-46-11.76 N",
		"longitude": "114-28-35.41 W",
		"state": "ARIZONA",
		"artcc": "ZLA",
		"type": "RNAV",
		"updated": "BZA*VORTAC*075.00/6.40",
	},
	{
		"name": "MIGPE",
		"latitude": "35-28-51.44 N",
		"longitude": "117-57-16.57 W",
		"state": "CALIFORNIA",
		"artcc": "ZLA",
		"type": "RNAV",
		"updated": "04/14/2003",
	},
	{
		"name": "MIKAA",
		"latitude": "33-24-34.71 N",
		"longitude": "118-8-47.34 W",
		"state": "CALIFORNIA",
		"artcc": "ZLA",
		"type": "RNAV",
		"updated": "03/02/2017",
	},
	{
		"name": "MIKEI",
		"latitude": "34-16-1.86 N",
		"longitude": "118-47-28.9 W",
		"state": "CALIFORNIA",
		"artcc": "ZLA",
		"type": "RNAV",
		"updated": "09/26/2016",
	},
	{
		"name": "MILKI",
		"latitude": "35-42-11.6 N",
		"longitude": "113-40-51.11 W",
		"state": "ARIZONA",
		"artcc": "ZLA",
		"type": "RP",
		"updated": "PGS*VOR/DME*290.24",
	},
	{
		"name": "MINEY",
		"latitude": "35-57-43 N",
		"longitude": "114-53-59 W",
		"state": "NEVADA",
		"artcc": "ZLA",
		"type": "RNAV",
		"updated": "06/06/2010",
	},
	{
		"name": "MINGI",
		"latitude": "35-11-38.06 N",
		"longitude": "118-46-3.47 W",
		"state": "CALIFORNIA",
		"artcc": "ZLA",
		"type": "RP",
		"updated": "EHF*VORTAC*123.00/23.77",
	},
	{
		"name": "MINOE",
		"latitude": "33-30-15.37 N",
		"longitude": "117-58-38.1 W",
		"state": "CALIFORNIA",
		"artcc": "ZLA",
		"type": "RP",
		"updated": "LAX*VORTAC*123.33/34.32",
	},
	{
		"name": "MINTT",
		"latitude": "36-42-44.48 N",
		"longitude": "115-6-17.46 W",
		"state": "NEVADA",
		"artcc": "ZLA",
		"type": "MR",
		"updated": "LAS*VORTAC*349.00/38.00",
	},
	{
		"name": "MIPTE",
		"latitude": "34-3-30.55 N",
		"longitude": "118-24-2.84 W",
		"state": "CALIFORNIA",
		"artcc": "ZLA",
		"type": "RNAV",
		"updated": "12/28/2017",
	},
	{
		"name": "MIRAJ",
		"latitude": "36-18-44.37 N",
		"longitude": "114-39-35.06 W",
		"state": "NEVADA",
		"artcc": "ZLA",
		"type": "RP",
		"updated": "LAS*VORTAC*045.00/28.00",
	},
	{
		"name": "MIRLE",
		"latitude": "33-41-11.58 N",
		"longitude": "117-7-18.56 W",
		"state": "CALIFORNIA",
		"artcc": "ZLA",
		"type": "MR",
		"updated": "OCN*VORTAC*014.00",
	},
	{
		"name": "MISEN",
		"latitude": "35-6-8.46 N",
		"longitude": "116-24-13.86 W",
		"state": "CALIFORNIA",
		"artcc": "ZLA",
		"type": "RP",
		"updated": "DAG*VORTAC*030.66/12.00",
	},
	{
		"name": "MISHI",
		"latitude": "35-8-5.3 N",
		"longitude": "120-28-2.43 W",
		"state": "CALIFORNIA",
		"artcc": "ZLA",
		"type": "RP",
		"updated": "FLW*VOR/DME*259.00/29.73",
	},
	{
		"name": "MISHN",
		"latitude": "34-11-39.2 N",
		"longitude": "119-33-51.81 W",
		"state": "CALIFORNIA",
		"artcc": "ZLA",
		"type": "RNAV",
		"updated": "09/11/2016",
	},
	{
		"name": "MISIE",
		"latitude": "33-37-24.1 N",
		"longitude": "117-32-55.36 W",
		"state": "CALIFORNIA",
		"artcc": "ZLA",
		"type": "RP",
		"updated": "ELB*VOR/DME*095.00/9.66",
	},
	{
		"name": "MIVDE",
		"latitude": "35-8-20.36 N",
		"longitude": "118-1-57.35 W",
		"state": "CALIFORNIA",
		"artcc": "ZLA",
		"type": "RNAV",
		"updated": "01/14/2005",
	},
	{
		"name": "MKEEE",
		"latitude": "37-14-33.02 N",
		"longitude": "115-17-32.64 W",
		"state": "NEVADA",
		"artcc": "ZLA",
		"type": "RNAV",
		"updated": "05/11/2016",
	},
	{
		"name": "MKGEE",
		"latitude": "33-55-4 N",
		"longitude": "118-37-41 W",
		"state": "CALIFORNIA",
		"artcc": "ZLA",
		"type": "RNAV",
		"updated": "04/11/2008",
	},
	{
		"name": "MLIBU",
		"latitude": "33-59-33.54 N",
		"longitude": "118-40-38.2 W",
		"state": "CALIFORNIA",
		"artcc": "ZLA",
		"type": "RNAV",
		"updated": "01/05/2017",
	},
	{
		"name": "MLISA",
		"latitude": "34-59-58.69 N",
		"longitude": "118-14-5.94 W",
		"state": "CALIFORNIA",
		"artcc": "ZLA",
		"type": "RNAV",
		"updated": "02/09/2018",
	},
	{
		"name": "MMOTO",
		"latitude": "33-16-10.43 N",
		"longitude": "117-41-42.94 W",
		"state": "CALIFORNIA",
		"artcc": "ZLA",
		"type": "RNAV",
		"updated": "12/29/2016",
	},
	{
		"name": "MMTLY",
		"latitude": "35-39-29.51 N",
		"longitude": "119-40-49.65 W",
		"state": "CALIFORNIA",
		"artcc": "ZLA",
		"type": "RNAV",
		"updated": "12/28/2016",
	},
	{
		"name": "MNGGO",
		"latitude": "35-51-13.55 N",
		"longitude": "113-28-23.59 W",
		"state": "ARIZONA",
		"artcc": "ZLA",
		"type": "RNAV",
		"updated": "01/22/2016",
	},
	{
		"name": "MNLYT",
		"latitude": "32-52-5.31 N",
		"longitude": "117-30-31.87 W",
		"state": "CALIFORNIA",
		"artcc": "ZLA",
		"type": "RNAV",
		"updated": "12/28/2016",
	},
	{
		"name": "MNNIE",
		"latitude": "33-43-37.32 N",
		"longitude": "117-55-36.35 W",
		"state": "CALIFORNIA",
		"artcc": "ZLA",
		"type": "RNAV",
		"updated": "09/20/2016",
	},
	{
		"name": "MNROE",
		"latitude": "34-8-5.17 N",
		"longitude": "115-59-22.76 W",
		"state": "CALIFORNIA",
		"artcc": "ZLA",
		"type": "RNAV",
		"updated": "12/27/2016",
	},
	{
		"name": "MOAPA",
		"latitude": "36-33-8.23 N",
		"longitude": "114-42-4.8 W",
		"state": "NEVADA",
		"artcc": "ZLA",
		"type": "MR",
		"updated": "LAS*VORTAC*023.00/36.00",
	},
	{
		"name": "MOBBI",
		"latitude": "33-47-39.88 N",
		"longitude": "117-11-50.44 W",
		"state": "CALIFORNIA",
		"artcc": "ZLA",
		"type": "RNAV",
		"updated": "11/04/2011",
	},
	{
		"name": "MOBME",
		"latitude": "32-57-16 N",
		"longitude": "115-49-15 W",
		"state": "CALIFORNIA",
		"artcc": "ZLA",
		"type": "RNAV",
		"updated": "07/05/2005",
	},
	{
		"name": "MODME",
		"latitude": "37-41-27.11 N",
		"longitude": "116-43-31.59 W",
		"state": "NEVADA",
		"artcc": "ZLA",
		"type": "MW",
		"updated": "12/17/2007",
	},
	{
		"name": "MOHAV",
		"latitude": "35-18-14.38 N",
		"longitude": "113-34-7.05 W",
		"state": "ARIZONA",
		"artcc": "ZLA",
		"type": "RNAV",
		"updated": "12/01/2010",
	},
	{
		"name": "MOLTT",
		"latitude": "34-39-41.05 N",
		"longitude": "118-12-1.76 W",
		"state": "CALIFORNIA",
		"artcc": "ZLA",
		"type": "RP",
		"updated": "PMD*VORTAC*270.00/7.00",
	},
	{
		"name": "MOMAR",
		"latitude": "33-30-54.13 N",
		"longitude": "115-56-40.14 W",
		"state": "CALIFORNIA",
		"artcc": "ZLA",
		"type": "RP",
		"updated": "TRM*VORTAC*108.99/12.76",
	},
	{
		"name": "MOMUE",
		"latitude": "35-35-13.19 N",
		"longitude": "119-14-43 W",
		"state": "CALIFORNIA",
		"artcc": "ZLA",
		"type": "RNAV",
		"updated": "02/08/2017",
	},
	{
		"name": "MOOOS",
		"latitude": "34-3-4.69 N",
		"longitude": "118-45-38.92 W",
		"state": "CALIFORNIA",
		"artcc": "ZLA",
		"type": "RNAV",
		"updated": "01/05/2017",
	},
	{
		"name": "MORON",
		"latitude": "34-2-0.77 N",
		"longitude": "116-46-27.66 W",
		"state": "CALIFORNIA",
		"artcc": "ZLA",
		"type": "RP",
		"updated": "PSP*VORTAC*286.76/19.79",
	},
	{
		"name": "MORRI",
		"latitude": "35-6-53.21 N",
		"longitude": "117-28-27.02 W",
		"state": "CALIFORNIA",
		"artcc": "ZLA",
		"type": "RP",
		"updated": "EDW*VORTAC*043.00/15.00",
	},
	{
		"name": "MORRK",
		"latitude": "36-19-4.47 N",
		"longitude": "114-19-43.87 W",
		"state": "NEVADA",
		"artcc": "ZLA",
		"type": "RNAV",
		"updated": "05/13/2011",
	},
	{
		"name": "MORVE",
		"latitude": "34-0-18.29 N",
		"longitude": "118-27-50.44 W",
		"state": "CALIFORNIA",
		"artcc": "ZLA",
		"type": "RNAV",
		"updated": "03/20/2017",
	},
	{
		"name": "MOUSE",
		"latitude": "32-54-4.11 N",
		"longitude": "117-42-28.02 W",
		"state": "CALIFORNIA",
		"artcc": "ZLA",
		"type": "MR",
		"updated": "NKX*TACAN*262.00/28.00",
	},
	{
		"name": "MOUSS",
		"latitude": "33-44-59.22 N",
		"longitude": "117-40-20.47 W",
		"state": "CALIFORNIA",
		"artcc": "ZLA",
		"type": "RNAV",
		"updated": "12/28/2016",
	},
	{
		"name": "MOVIA",
		"latitude": "35-0-9.35 N",
		"longitude": "118-18-6.47 W",
		"state": "CALIFORNIA",
		"artcc": "ZLA",
		"type": "RNAV",
		"updated": "04/14/2003",
	},
	{
		"name": "MOVLE",
		"latitude": "33-54-12.66 N",
		"longitude": "117-16-32.46 W",
		"state": "CALIFORNIA",
		"artcc": "ZLA",
		"type": "RNAV",
		"updated": "11/04/2011",
	},
	{
		"name": "MOVVE",
		"latitude": "34-6-29.04 N",
		"longitude": "118-20-31.14 W",
		"state": "CALIFORNIA",
		"artcc": "ZLA",
		"type": "RNAV",
		"updated": "12/28/2017",
	},
	{
		"name": "MPIRE",
		"latitude": "37-33-0.09 N",
		"longitude": "113-30-24.32 W",
		"state": "UTAH",
		"artcc": "ZLA",
		"type": "RNAV",
		"updated": "11/02/2016",
	},
	{
		"name": "MRIAM",
		"latitude": "33-55-12.65 N",
		"longitude": "117-37-25.03 W",
		"state": "CALIFORNIA",
		"artcc": "ZLA",
		"type": "RNAV",
		"updated": "03/23/2017",
	},
	{
		"name": "MRVEL",
		"latitude": "33-46-35.77 N",
		"longitude": "118-13-46.05 W",
		"state": "CALIFORNIA",
		"artcc": "ZLA",
		"type": "RNAV",
		"updated": "12/28/2016",
	},
	{
		"name": "MSTRY",
		"latitude": "33-52-37.85 N",
		"longitude": "116-27-19.8 W",
		"state": "CALIFORNIA",
		"artcc": "ZLA",
		"type": "RNAV",
		"updated": "03/02/2017",
	},
	{
		"name": "MTBAL",
		"latitude": "33-36-11.93 N",
		"longitude": "116-2-32.3 W",
		"state": "CALIFORNIA",
		"artcc": "ZLA",
		"type": "RNAV",
		"updated": "12/29/2016",
	},
	{
		"name": "MUBME",
		"latitude": "33-58-2.5 N",
		"longitude": "118-15-7.09 W",
		"state": "CALIFORNIA",
		"artcc": "ZLA",
		"type": "RNAV",
		"updated": "01/24/2017",
	},
	{
		"name": "MUCEF",
		"latitude": "34-40-1.02 N",
		"longitude": "117-44-14.49 W",
		"state": "CALIFORNIA",
		"artcc": "ZLA",
		"type": "MR",
		"updated": "PMD*VORTAC*067.40/16.30",
	},
	{
		"name": "MUDGY",
		"latitude": "32-46-46.76 N",
		"longitude": "114-27-54.91 W",
		"state": "ARIZONA",
		"artcc": "ZLA",
		"type": "RP",
		"updated": "BZA*VORTAC*070.21",
	},
	{
		"name": "MUDTY",
		"latitude": "34-50-57.81 N",
		"longitude": "117-59-24.74 W",
		"state": "CALIFORNIA",
		"artcc": "ZLA",
		"type": "RP",
		"updated": "EDW*VORTAC*223.00/15.00",
	},
	{
		"name": "MUELR",
		"latitude": "33-54-52 N",
		"longitude": "118-51-58 W",
		"state": "CALIFORNIA",
		"artcc": "ZLA",
		"type": "RNAV",
		"updated": "02/13/2012",
	},
	{
		"name": "MUGIN",
		"latitude": "32-46-11.76 N",
		"longitude": "114-28-35.41 W",
		"state": "ARIZONA",
		"artcc": "ZLA",
		"type": "RP",
		"updated": "BZA*VORTAC*075.00/6.40",
	},
	{
		"name": "MUKSY",
		"latitude": "36-58-53.03 N",
		"longitude": "113-35-35.04 W",
		"state": "ARIZONA",
		"artcc": "ZLA",
		"type": "WP",
		"updated": "11/02/1998",
	},
	{
		"name": "MULCH",
		"latitude": "33-45-56.22 N",
		"longitude": "116-23-45.25 W",
		"state": "CALIFORNIA",
		"artcc": "ZLA",
		"type": "RP",
		"updated": "PSP*VORTAC*151.85",
	},
	{
		"name": "MUMSE",
		"latitude": "32-51-49.54 N",
		"longitude": "115-24-52.97 W",
		"state": "CALIFORNIA",
		"artcc": "ZLA",
		"type": "RNAV",
		"updated": "08/05/2002",
	},
	{
		"name": "MUNDE",
		"latitude": "32-56-54.23 N",
		"longitude": "117-3-35.68 W",
		"state": "CALIFORNIA",
		"artcc": "ZLA",
		"type": "MR",
		"updated": "MZB*VORTAC*025.00/13.00",
	},
	{
		"name": "MUPTT",
		"latitude": "34-44-59.63 N",
		"longitude": "119-19-42.23 W",
		"state": "CALIFORNIA",
		"artcc": "ZLA",
		"type": "RNAV",
		"updated": "03/01/2017",
	},
	{
		"name": "MURDY",
		"latitude": "35-18-58.6 N",
		"longitude": "119-2-24.6 W",
		"state": "CALIFORNIA",
		"artcc": "ZLA",
		"type": "RNAV",
		"updated": "12/28/2016",
	},
	{
		"name": "MUROC",
		"latitude": "35-0-59.61 N",
		"longitude": "117-37-5.41 W",
		"state": "CALIFORNIA",
		"artcc": "ZLA",
		"type": "MR",
		"updated": "EDW*VORTAC*055.00/6.00",
	},
	{
		"name": "MURRE",
		"latitude": "33-32-40.96 N",
		"longitude": "117-1-32.8 W",
		"state": "CALIFORNIA",
		"artcc": "ZLA",
		"type": "MR",
		"updated": "HDF*VOR*136.00",
	},
	{
		"name": "MUSEL",
		"latitude": "33-28-9.59 N",
		"longitude": "117-57-21.51 W",
		"state": "CALIFORNIA",
		"artcc": "ZLA",
		"type": "RP",
		"updated": "SXC*VORTAC*061.25",
	},
	{
		"name": "MUSIK",
		"latitude": "33-59-17.43 N",
		"longitude": "117-53-50.89 W",
		"state": "CALIFORNIA",
		"artcc": "ZLA",
		"type": "RP",
		"updated": "CFN*LD*071.01/26.45",
	},
	{
		"name": "MXIMO",
		"latitude": "34-26-46.6 N",
		"longitude": "117-42-1.29 W",
		"state": "CALIFORNIA",
		"artcc": "ZLA",
		"type": "RNAV",
		"updated": "12/27/2016",
	},
	{
		"name": "MYCAL",
		"latitude": "36-27-36.65 N",
		"longitude": "116-15-51.34 W",
		"state": "NEVADA",
		"artcc": "ZLA",
		"type": "RP",
		"updated": "BTY*VORTAC*115.00/31.00",
	},
	{
		"name": "MYKEL",
		"latitude": "35-3-0 N",
		"longitude": "120-47-0 W",
		"state": "CALIFORNIA",
		"artcc": "ZLA",
		"type": "RNAV",
		"updated": "04/17/2017",
	},
	{
		"name": "MYSTY",
		"latitude": "32-28-7.58 N",
		"longitude": "117-26-21.78 W",
		"state": "CALIFORNIA",
		"artcc": "ZLA",
		"type": "MR",
		"updated": "NZY*TACAN*208.00/18.00",
	},
