	{
		"name": "NAANC",
		"latitude": "33-55-54 N",
		"longitude": "118-38-38 W",
		"state": "CALIFORNIA",
		"artcc": "ZLA",
		"type": "RNAV",
		"updated": "12/22/2005",
	},
	{
		"name": "NABME",
		"latitude": "36-6-25.23 N",
		"longitude": "115-6-49.97 W",
		"state": "NEVADA",
		"artcc": "ZLA",
		"type": "RNAV",
		"updated": "04/19/2017",
	},
	{
		"name": "NABSE",
		"latitude": "32-52-45.89 N",
		"longitude": "117-5-17.34 W",
		"state": "CALIFORNIA",
		"artcc": "ZLA",
		"type": "MW",
		"updated": "10/28/2014",
	},
	{
		"name": "NACAT",
		"latitude": "32-38-5.47 N",
		"longitude": "114-36-49.88 W",
		"state": "ARIZONA",
		"artcc": "ZLA",
		"type": "MR",
		"updated": "BZA*VORTAC*170.00/8.00",
	},
	{
		"name": "NACIC",
		"latitude": "34-13-50.68 N",
		"longitude": "118-48-14.17 W",
		"state": "CALIFORNIA",
		"artcc": "ZLA",
		"type": "RNAV",
		"updated": "10/18/2006",
	},
	{
		"name": "NACIN",
		"latitude": "35-26-33.25 N",
		"longitude": "120-49-46.29 W",
		"state": "CALIFORNIA",
		"artcc": "ZLA",
		"type": "RNAV",
		"updated": "04/25/2012",
	},
	{
		"name": "NADDO",
		"latitude": "32-45-2.5 N",
		"longitude": "116-59-31.47 W",
		"state": "CALIFORNIA",
		"artcc": "ZLA",
		"type": "RNAV",
		"updated": "09/11/2016",
	},
	{
		"name": "NADIA",
		"latitude": "35-7-41.62 N",
		"longitude": "118-3-29.89 W",
		"state": "CALIFORNIA",
		"artcc": "ZLA",
		"type": "RNAV",
		"updated": "02/09/2018",
	},
	{
		"name": "NAFFU",
		"latitude": "34-20-11.9 N",
		"longitude": "118-32-59.34 W",
		"state": "CALIFORNIA",
		"artcc": "ZLA",
		"type": "RNAV",
		"updated": "04/09/2002",
	},
	{
		"name": "NAGVE",
		"latitude": "33-20-10.32 N",
		"longitude": "118-3-32.76 W",
		"state": "CALIFORNIA",
		"artcc": "ZLA",
		"type": "RNAV",
		"updated": "12/23/2015",
	},
	{
		"name": "NALKY",
		"latitude": "32-57-31.96 N",
		"longitude": "114-23-59.34 W",
		"state": "ARIZONA",
		"artcc": "ZLA",
		"type": "RNAV",
		"updated": "03/17/2009",
	},
	{
		"name": "NANCC",
		"latitude": "34-47-57.45 N",
		"longitude": "117-13-36.05 W",
		"state": "CALIFORNIA",
		"artcc": "ZLA",
		"type": "RNAV",
		"updated": "12/03/2008",
	},
	{
		"name": "NAPHA",
		"latitude": "33-31-39 N",
		"longitude": "118-4-18 W",
		"state": "OFFSHORE PACIFIC",
		"artcc": "ZLA",
		"type": "RNAV",
		"updated": "06/29/2009",
	},
	{
		"name": "NAPOE",
		"latitude": "34-56-59.88 N",
		"longitude": "117-48-12.73 W",
		"state": "CALIFORNIA",
		"artcc": "ZLA",
		"type": "MR",
		"updated": "EDW*VORTAC*226.00/4.00",
	},
	{
		"name": "NAPPS",
		"latitude": "34-25-30.63 N",
		"longitude": "119-57-47.19 W",
		"state": "CALIFORNIA",
		"artcc": "ZLA",
		"type": "RP",
		"updated": "GVO*VORTAC*119.00",
	},
	{
		"name": "NAPSE",
		"latitude": "36-9-34 N",
		"longitude": "114-49-14 W",
		"state": "NEVADA",
		"artcc": "ZLA",
		"type": "RNAV",
		"updated": "06/01/2004",
	},
	{
		"name": "NAPVE",
		"latitude": "34-59-36.6 N",
		"longitude": "117-50-36.05 W",
		"state": "CALIFORNIA",
		"artcc": "ZLA",
		"type": "MR",
		"updated": "EDW*VORTAC*262.00/5.50",
	},
	{
		"name": "NAROD",
		"latitude": "34-3-24.3 N",
		"longitude": "117-44-23.62 W",
		"state": "CALIFORNIA",
		"artcc": "ZLA",
		"type": "RP",
		"updated": "POM*VORTAC*103.84",
	},
	{
		"name": "NASNI",
		"latitude": "32-35-13.64 N",
		"longitude": "117-14-16.17 W",
		"state": "CALIFORNIA",
		"artcc": "ZLA",
		"type": "MR",
		"updated": "NZY*TACAN*178.00/7.00",
	},
	{
		"name": "NASTE",
		"latitude": "34-41-38.43 N",
		"longitude": "117-28-58.13 W",
		"state": "CALIFORNIA",
		"artcc": "ZLA",
		"type": "RP",
		"updated": "PMD*VORTAC*067.40/29.00",
	},
	{
		"name": "NATEE",
		"latitude": "35-37-14 N",
		"longitude": "115-22-26 W",
		"state": "NEVADA",
		"artcc": "ZLA",
		"type": "RNAV",
		"updated": "09/26/2014",
	},
	{
		"name": "NATHN",
		"latitude": "33-55-34.95 N",
		"longitude": "118-39-3.69 W",
		"state": "CALIFORNIA",
		"artcc": "ZLA",
		"type": "RP",
		"updated": "UWU*LD*250.99/10.57",
	},
	{
		"name": "NATJU",
		"latitude": "34-7-40.6 N",
		"longitude": "118-18-35.13 W",
		"state": "CALIFORNIA",
		"artcc": "ZLA",
		"type": "RNAV",
		"updated": "03/20/2017",
	},
	{
		"name": "NAVHO",
		"latitude": "35-24-25.02 N",
		"longitude": "112-26-23.53 W",
		"state": "ARIZONA",
		"artcc": "ZLA",
		"type": "RP",
		"updated": "DRK*VORTAC*348.69/42.24",
	},
	{
		"name": "NAVSE",
		"latitude": "35-13-27.62 N",
		"longitude": "113-58-52.3 W",
		"state": "ARIZONA",
		"artcc": "ZLA",
		"type": "RNAV",
		"updated": "04/28/2009",
	},
	{
		"name": "NEBER",
		"latitude": "34-54-36.67 N",
		"longitude": "116-40-55.33 W",
		"state": "CALIFORNIA",
		"artcc": "ZLA",
		"type": "RP",
		"updated": "DAG*VORTAC*223.60/6.00",
	},
	{
		"name": "NEILE",
		"latitude": "33-59-37.03 N",
		"longitude": "117-18-30.55 W",
		"state": "CALIFORNIA",
		"artcc": "ZLA",
		"type": "RNAV",
		"updated": "12/28/2016",
	},
	{
		"name": "NEKLE",
		"latitude": "34-19-47.4 N",
		"longitude": "118-30-6.26 W",
		"state": "CALIFORNIA",
		"artcc": "ZLA",
		"type": "RNAV",
		"updated": "06/14/2016",
	},
	{
		"name": "NELLE",
		"latitude": "36-8-55 N",
		"longitude": "115-0-30 W",
		"state": "NEVADA",
		"artcc": "ZLA",
		"type": "WP",
		"updated": "07/09/2001",
	},
	{
		"name": "NELLY",
		"latitude": "34-11-56.7 N",
		"longitude": "119-0-12.3 W",
		"state": "CALIFORNIA",
		"artcc": "ZLA",
		"type": "RP",
		"updated": "FIM*VORTAC*197.78",
	},
	{
		"name": "NEMMO",
		"latitude": "33-0-30.95 N",
		"longitude": "117-27-5.55 W",
		"state": "CALIFORNIA",
		"artcc": "ZLA",
		"type": "MR",
		"updated": "OCN*VORTAC*172.00/14.00",
	},
	{
		"name": "NENIE",
		"latitude": "33-46-0.16 N",
		"longitude": "116-19-12.08 W",
		"state": "CALIFORNIA",
		"artcc": "ZLA",
		"type": "RNAV",
		"updated": "12/23/2003",
	},
	{
		"name": "NEPSE",
		"latitude": "33-2-34.5 N",
		"longitude": "118-43-5.12 W",
		"state": "CALIFORNIA",
		"artcc": "ZLA",
		"type": "RNAV",
		"updated": "02/24/2016",
	},
	{
		"name": "NERDS",
		"latitude": "34-2-13.1 N",
		"longitude": "118-15-43.66 W",
		"state": "CALIFORNIA",
		"artcc": "ZLA",
		"type": "RNAV",
		"updated": "04/03/2017",
	},
	{
		"name": "NESTY",
		"latitude": "32-44-22.98 N",
		"longitude": "116-56-45.18 W",
		"state": "CALIFORNIA",
		"artcc": "ZLA",
		"type": "RP",
		"updated": "MYF*LD*100.99/11.22",
	},
	{
		"name": "NEVCI",
		"latitude": "34-12-43.33 N",
		"longitude": "119-9-51.73 W",
		"state": "CALIFORNIA",
		"artcc": "ZLA",
		"type": "RNAV",
		"updated": "10/18/2006",
	},
	{
		"name": "NEWAR",
		"latitude": "34-8-9.77 N",
		"longitude": "119-6-9.55 W",
		"state": "CALIFORNIA",
		"artcc": "ZLA",
		"type": "MR",
		"updated": "NTD*TACAN*039.54/1.23",
	},
	{
		"name": "NEWPO",
		"latitude": "33-35-55.69 N",
		"longitude": "117-55-3.01 W",
		"state": "CALIFORNIA",
		"artcc": "ZLA",
		"type": "RP",
		"updated": "SLI*VORTAC*133.09",
	},
	{
		"name": "NIBYI",
		"latitude": "34-17-33.33 N",
		"longitude": "118-34-17.79 W",
		"state": "CALIFORNIA",
		"artcc": "ZLA",
		"type": "RNAV",
		"updated": "10/05/2016",
	},
	{
		"name": "NICKK",
		"latitude": "32-45-14.03 N",
		"longitude": "115-42-22.01 W",
		"state": "CALIFORNIA",
		"artcc": "ZLA",
		"type": "RP",
		"updated": "IPL*VORTAC*257.78/10.00",
	},
	{
		"name": "NICKT",
		"latitude": "34-8-56.03 N",
		"longitude": "114-4-56.83 W",
		"state": "ARIZONA",
		"artcc": "ZLA",
		"type": "RNAV",
		"updated": "03/06/2017",
	},
	{
		"name": "NICLE",
		"latitude": "36-18-43.67 N",
		"longitude": "113-13-28.96 W",
		"state": "ARIZONA",
		"artcc": "ZLA",
		"type": "RP",
		"updated": "LAS*VORTAC*066.00/95.00",
	},
	{
		"name": "NICZU",
		"latitude": "35-55-35.51 N",
		"longitude": "115-12-37.07 W",
		"state": "NEVADA",
		"artcc": "ZLA",
		"type": "RP",
		"updated": "LAS*VORTAC*180.01/9.50",
	},
	{
		"name": "NIDSE",
		"latitude": "33-52-33 N",
		"longitude": "114-0-51 W",
		"state": "ARIZONA",
		"artcc": "ZLA",
		"type": "RNAV",
		"updated": "08/02/2005",
	},
	{
		"name": "NIKEY",
		"latitude": "33-50-40.49 N",
		"longitude": "118-29-39.28 W",
		"state": "CALIFORNIA",
		"artcc": "ZLA",
		"type": "RNAV",
		"updated": "12/27/2016",
	},
	{
		"name": "NIKKL",
		"latitude": "33-43-51.12 N",
		"longitude": "117-22-22.63 W",
		"state": "CALIFORNIA",
		"artcc": "ZLA",
		"type": "RP",
		"updated": "HDF*VOR*239.88",
	},
	{
		"name": "NINEE",
		"latitude": "34-45-39.82 N",
		"longitude": "114-16-18.82 W",
		"state": "ARIZONA",
		"artcc": "ZLA",
		"type": "RP",
		"updated": "EED*VORTAC*076.64/10.00",
	},
	{
		"name": "NINTY",
		"latitude": "35-2-50.08 N",
		"longitude": "118-56-41.4 W",
		"state": "CALIFORNIA",
		"artcc": "ZLA",
		"type": "RP",
		"updated": "EHF*VORTAC*150.00",
	},
	{
		"name": "NIPIY",
		"latitude": "35-7-33 N",
		"longitude": "115-48-42 W",
		"state": "CALIFORNIA",
		"artcc": "ZLA",
		"type": "RNAV",
		"updated": "03/24/2014",
	},
	{
		"name": "NIPKE",
		"latitude": "34-7-19.23 N",
		"longitude": "117-40-44.06 W",
		"state": "CALIFORNIA",
		"artcc": "ZLA",
		"type": "RNAV",
		"updated": "02/14/2017",
	},
	{
		"name": "NIPZO",
		"latitude": "36-1-6.84 N",
		"longitude": "115-12-10.17 W",
		"state": "NEVADA",
		"artcc": "ZLA",
		"type": "RNAV",
		"updated": "12/23/2016",
	},
	{
		"name": "NIRLE",
		"latitude": "34-37-27.54 N",
		"longitude": "120-12-24.64 W",
		"state": "CALIFORNIA",
		"artcc": "ZLA",
		"type": "RNAV",
		"updated": "05/18/2009",
	},
	{
		"name": "NITIY",
		"latitude": "34-10-37.95 N",
		"longitude": "117-18-20.13 W",
		"state": "CALIFORNIA",
		"artcc": "ZLA",
		"type": "RP",
		"updated": "POM*VORTAC*061.00",
	},
	{
		"name": "NLAND",
		"latitude": "34-16-41.9 N",
		"longitude": "118-6-41.6 W",
		"state": "CALIFORNIA",
		"artcc": "ZLA",
		"type": "RNAV",
		"updated": "08/02/2017",
	},
	{
		"name": "NNAVY",
		"latitude": "34-55-10.68 N",
		"longitude": "116-43-40.88 W",
		"state": "CALIFORNIA",
		"artcc": "ZLA",
		"type": "RNAV",
		"updated": "12/28/2016",
	},
	{
		"name": "NNEDD",
		"latitude": "34-9-2.59 N",
		"longitude": "118-0-13.66 W",
		"state": "CALIFORNIA",
		"artcc": "ZLA",
		"type": "RNAV",
		"updated": "02/27/2017",
	},
	{
		"name": "NNICE",
		"latitude": "33-28-7.67 N",
		"longitude": "117-59-26.89 W",
		"state": "CALIFORNIA",
		"artcc": "ZLA",
		"type": "RNAV",
		"updated": "12/30/2016",
	},
	{
		"name": "NNJAA",
		"latitude": "33-28-7.4 N",
		"longitude": "117-41-7.73 W",
		"state": "CALIFORNIA",
		"artcc": "ZLA",
		"type": "RNAV",
		"updated": "12/30/2016",
	},
	{
		"name": "NODIY",
		"latitude": "35-56-53.82 N",
		"longitude": "115-14-34.47 W",
		"state": "NEVADA",
		"artcc": "ZLA",
		"type": "RP",
		"updated": "CUA*LD*193.91/10.03",
	},
	{
		"name": "NODUQ",
		"latitude": "34-22-59.51 N",
		"longitude": "118-38-0.11 W",
		"state": "CALIFORNIA",
		"artcc": "ZLA",
		"type": "RNAV",
		"updated": "04/09/2002",
	},
	{
		"name": "NOGNN",
		"latitude": "37-23-11.85 N",
		"longitude": "113-19-45.83 W",
		"state": "UTAH",
		"artcc": "ZLA",
		"type": "RNAV",
		"updated": "09/17/2016",
	},
	{
		"name": "NOKDE",
		"latitude": "33-54-55.91 N",
		"longitude": "117-30-36.18 W",
		"state": "CALIFORNIA",
		"artcc": "ZLA",
		"type": "MW",
		"updated": "02/15/2012",
	},
	{
		"name": "NOOTN",
		"latitude": "36-37-32.63 N",
		"longitude": "113-20-40.25 W",
		"state": "ARIZONA",
		"artcc": "ZLA",
		"type": "RP",
		"updated": "LAS*VORTAC*054.07/93.86",
	},
	{
		"name": "NORCO",
		"latitude": "33-58-30.54 N",
		"longitude": "117-31-4.67 W",
		"state": "CALIFORNIA",
		"artcc": "ZLA",
		"type": "RP",
		"updated": "PDZ*VORTAC*355.00",
	},
	{
		"name": "NORDC",
		"latitude": "33-13-28 N",
		"longitude": "117-1-59 W",
		"state": "CALIFORNIA",
		"artcc": "ZLA",
		"type": "MW",
		"updated": "09/09/2014",
	},
	{
		"name": "NORML",
		"latitude": "33-51-22.6 N",
		"longitude": "118-22-45.13 W",
		"state": "CALIFORNIA",
		"artcc": "ZLA",
		"type": "RNAV",
		"updated": "12/27/2016",
	},
	{
		"name": "NORPE",
		"latitude": "34-2-13.1 N",
		"longitude": "118-15-43.7 W",
		"state": "CALIFORNIA",
		"artcc": "ZLA",
		"type": "RNAV",
		"updated": "01/24/2017",
	},
	{
		"name": "NORRA",
		"latitude": "36-45-33.5 N",
		"longitude": "114-16-51.91 W",
		"state": "NEVADA",
		"artcc": "ZLA",
		"type": "RP",
		"updated": "LAS*VORTAC*031.00/58.90",
	},
	{
		"name": "NORWA",
		"latitude": "33-54-1.42 N",
		"longitude": "118-3-52.47 W",
		"state": "CALIFORNIA",
		"artcc": "ZLA",
		"type": "RP",
		"updated": "LAX*VORTAC*081.00/18.45",
	},
	{
		"name": "NOVOS",
		"latitude": "32-40-33.26 N",
		"longitude": "115-20-25.84 W",
		"state": "CALIFORNIA",
		"artcc": "ZLA",
		"type": "RP",
		"updated": "IPL*VORTAC*103.13/9.56",
	},
	{
		"name": "NOXOQ",
		"latitude": "34-35-22.04 N",
		"longitude": "119-55-51.9 W",
		"state": "CALIFORNIA",
		"artcc": "ZLA",
		"type": "WP",
		"updated": "11/02/1998",
	},
	{
		"name": "NSHEE",
		"latitude": "33-23-57.7 N",
		"longitude": "116-22-59.2 W",
		"state": "CALIFORNIA",
		"artcc": "ZLA",
		"type": "RNAV",
		"updated": "09/16/2016",
	},
	{
		"name": "NTSHA",
		"latitude": "34-6-1.74 N",
		"longitude": "118-33-1.57 W",
		"state": "CALIFORNIA",
		"artcc": "ZLA",
		"type": "RNAV",
		"updated": "12/30/2016",
	},
	{
		"name": "NUDCI",
		"latitude": "33-53-6.91 N",
		"longitude": "116-33-25.79 W",
		"state": "CALIFORNIA",
		"artcc": "ZLA",
		"type": "RNAV",
		"updated": "09/20/2016",
	},
	{
		"name": "NUGEE",
		"latitude": "34-5-54.53 N",
		"longitude": "118-27-35.77 W",
		"state": "CALIFORNIA",
		"artcc": "ZLA",
		"type": "RNAV",
		"updated": "11/14/2017",
	},
	{
		"name": "NUGGE",
		"latitude": "37-7-49.77 N",
		"longitude": "114-53-17.91 W",
		"state": "NEVADA",
		"artcc": "ZLA",
		"type": "MR",
		"updated": "BLD*VORTAC*344.00/68.00",
	},
	{
		"name": "NULMN",
		"latitude": "34-44-14.14 N",
		"longitude": "117-3-55.95 W",
		"state": "CALIFORNIA",
		"artcc": "ZLA",
		"type": "RP",
		"updated": "PMD*VORTAC*067.40/49.80",
	},
	{
		"name": "NUTZO",
		"latitude": "34-7-17.41 N",
		"longitude": "117-24-30.15 W",
		"state": "CALIFORNIA",
		"artcc": "ZLA",
		"type": "RNAV",
		"updated": "02/14/2017",
	},
	{
		"name": "NWMAN",
		"latitude": "34-15-53.39 N",
		"longitude": "115-13-6.42 W",
		"state": "CALIFORNIA",
		"artcc": "ZLA",
		"type": "RNAV",
		"updated": "12/27/2016",
	},
