[
	{
		"name": "PABST",
		"latitude": "32-56-28.09 N",
		"longitude": "115-2-50.73 W",
		"state": "CALIFORNIA",
		"artcc": "ZLA",
		"type": "MR",
		"updated": "IPL*VORTAC*049.59/26.00"
	},
	{
		"name": "PACIF",
		"latitude": "33-17-9.19 N",
		"longitude": "117-44-52.92 W",
		"state": "CALIFORNIA",
		"artcc": "ZLA",
		"type": "RP",
		"updated": "POM*VORTAC*162.63/47.50"
	},
	{
		"name": "PADDR",
		"latitude": "33-35-29.88 N",
		"longitude": "118-17-0.66 W",
		"state": "CALIFORNIA",
		"artcc": "ZLA",
		"type": "RP",
		"updated": "LAX*VORTAC*145.00/21.76"
	},
	{
		"name": "PADRZ",
		"latitude": "33-11-38 N",
		"longitude": "117-51-43 W",
		"state": "CALIFORNIA",
		"artcc": "ZLA",
		"type": "RNAV",
		"updated": "12/29/2016"
	},
	{
		"name": "PAIDD",
		"latitude": "34-50-35.96 N",
		"longitude": "118-38-3.24 W",
		"state": "CALIFORNIA",
		"artcc": "ZLA",
		"type": "RNAV",
		"updated": "09/11/2016"
	},
	{
		"name": "PALAC",
		"latitude": "34-0-3.83 N",
		"longitude": "117-54-49.2 W",
		"state": "CALIFORNIA",
		"artcc": "ZLA",
		"type": "RP",
		"updated": "OSS*LD*071.00/26.50"
	},
	{
		"name": "PALAE",
		"latitude": "37-43-47.08 N",
		"longitude": "116-44-39.19 W",
		"state": "NEVADA",
		"artcc": "ZLA",
		"type": "MR",
		"updated": "TQQ*VORTAC*/4.00"
	},
	{
		"name": "PALCI",
		"latitude": "33-13-54.04 N",
		"longitude": "117-10-12.01 W",
		"state": "CALIFORNIA",
		"artcc": "ZLA",
		"type": "RNAV",
		"updated": "07/20/2011"
	},
	{
		"name": "PALLO",
		"latitude": "34-9-31.44 N",
		"longitude": "117-40-43.97 W",
		"state": "CALIFORNIA",
		"artcc": "ZLA",
		"type": "RP",
		"updated": "LAX*VORTAC*055.00/39.91"
	},
	{
		"name": "PALLY",
		"latitude": "35-41-0.54 N",
		"longitude": "115-16-55.37 W",
		"state": "NEVADA",
		"artcc": "ZLA",
		"type": "RNAV",
		"updated": "05/25/2011"
	},
	{
		"name": "PALOS",
		"latitude": "32-47-37.49 N",
		"longitude": "117-4-57.66 W",
		"state": "CALIFORNIA",
		"artcc": "ZLA",
		"type": "RP",
		"updated": "MYF*LD*100.99/3.58"
	},
	{
		"name": "PALVO",
		"latitude": "33-20-55.22 N",
		"longitude": "114-48-28.65 W",
		"state": "CALIFORNIA",
		"artcc": "ZLA",
		"type": "MR",
		"updated": "BLH*VORTAC*175.00/15.00"
	},
	{
		"name": "PAMJI",
		"latitude": "34-46-48.25 N",
		"longitude": "120-22-5.55 W",
		"state": "CALIFORNIA",
		"artcc": "ZLA",
		"type": "RNAV",
		"updated": "05/18/2009"
	},
	{
		"name": "PANAC",
		"latitude": "37-53-21.03 N",
		"longitude": "114-58-29.7 W",
		"state": "NEVADA",
		"artcc": "ZLA",
		"type": "RNAV",
		"updated": "10/28/2015"
	},
	{
		"name": "PAPAU",
		"latitude": "33-37-9.19 N",
		"longitude": "117-53-32.46 W",
		"state": "CALIFORNIA",
		"artcc": "ZLA",
		"type": "RNAV",
		"updated": "11/22/2017"
	},
	{
		"name": "PARDS",
		"latitude": "34-11-59.81 N",
		"longitude": "119-6-2.04 W",
		"state": "CALIFORNIA",
		"artcc": "ZLA",
		"type": "RNAV",
		"updated": "OXR*LS*075.53"
	},
	{
		"name": "PAROL",
		"latitude": "33-35-45.78 N",
		"longitude": "118-36-17.79 W",
		"state": "CALIFORNIA",
		"artcc": "ZLA",
		"type": "RP",
		"updated": "SXC*VORTAC*310.00/16.17"
	},
	{
		"name": "PASKO",
		"latitude": "34-12-18.59 N",
		"longitude": "117-18-50.4 W",
		"state": "CALIFORNIA",
		"artcc": "ZLA",
		"type": "RP",
		"updated": "POM*VORTAC*057.00"
	},
	{
		"name": "PASME",
		"latitude": "33-17-0.11 N",
		"longitude": "117-12-22.25 W",
		"state": "CALIFORNIA",
		"artcc": "ZLA",
		"type": "RNAV",
		"updated": "10/04/2016"
	},
	{
		"name": "PATER",
		"latitude": "34-52-0.76 N",
		"longitude": "120-24-53.36 W",
		"state": "CALIFORNIA",
		"artcc": "ZLA",
		"type": "RP",
		"updated": "SMX*LD*SE CRS/2.00"
	},
	{
		"name": "PATOK",
		"latitude": "35-1-50.01 N",
		"longitude": "114-11-26.16 W",
		"state": "ARIZONA",
		"artcc": "ZLA",
		"type": "RP",
		"updated": "EED*VORTAC*026.36/21.14"
	},
	{
		"name": "PAULA",
		"latitude": "34-16-25.82 N",
		"longitude": "118-52-8.52 W",
		"state": "CALIFORNIA",
		"artcc": "ZLA",
		"type": "RP",
		"updated": "FIM*VORTAC*158.00/5.00"
	},
	{
		"name": "PAUMA",
		"latitude": "34-0-20.26 N",
		"longitude": "116-28-54.4 W",
		"state": "CALIFORNIA",
		"artcc": "ZLA",
		"type": "RP",
		"updated": "TNP*VORTAC*245.00/36.06"
	},
	{
		"name": "PAVER",
		"latitude": "34-7-14.89 N",
		"longitude": "115-47-32.25 W",
		"state": "CALIFORNIA",
		"artcc": "ZLA",
		"type": "MR",
		"updated": "NXP*TACAN*106.00/21.00"
	},
	{
		"name": "PAWEK",
		"latitude": "36-6-49.42 N",
		"longitude": "115-8-41.57 W",
		"state": "NEVADA",
		"artcc": "ZLA",
		"type": "RNAV",
		"updated": "09/04/2003"
	},
	{
		"name": "PAYIG",
		"latitude": "33-54-45.55 N",
		"longitude": "117-14-22.36 W",
		"state": "CALIFORNIA",
		"artcc": "ZLA",
		"type": "RNAV",
		"updated": "05/31/2006"
	},
	{
		"name": "PAYLR",
		"latitude": "37-11-32.32 N",
		"longitude": "113-24-4.76 W",
		"state": "UTAH",
		"artcc": "ZLA",
		"type": "RP",
		"updated": "SGU*LD*018.15/9.92"
	},
	{
		"name": "PAYUP",
		"latitude": "36-8-26.79 N",
		"longitude": "115-5-42.39 W",
		"state": "NEVADA",
		"artcc": "ZLA",
		"type": "RNAV",
		"updated": "11/14/2016"
	},
	{
		"name": "PCIFC",
		"latitude": "34-13-45.15 N",
		"longitude": "118-50-45.59 W",
		"state": "CALIFORNIA",
		"artcc": "ZLA",
		"type": "RNAV",
		"updated": "03/02/2017"
	},
	{
		"name": "PEBLE",
		"latitude": "33-10-55.02 N",
		"longitude": "117-50-10.2 W",
		"state": "CALIFORNIA",
		"artcc": "ZLA",
		"type": "RP",
		"updated": "SXC*VORTAC*096.34/31.56"
	},
	{
		"name": "PECHS",
		"latitude": "36-52-44.44 N",
		"longitude": "112-51-25.19 W",
		"state": "ARIZONA",
		"artcc": "ZLA",
		"type": "RNAV",
		"updated": "07/28/2017"
	},
	{
		"name": "PECIN",
		"latitude": "34-3-23.5 N",
		"longitude": "117-51-9.02 W",
		"state": "CALIFORNIA",
		"artcc": "ZLA",
		"type": "RNAV",
		"updated": "05/07/2008"
	},
	{
		"name": "PECOX",
		"latitude": "33-56-7.64 N",
		"longitude": "117-19-57.98 W",
		"state": "CALIFORNIA",
		"artcc": "ZLA",
		"type": "RP",
		"updated": "PDZ*VORTAC*069.00/9.90"
	},
	{
		"name": "PEEER",
		"latitude": "33-59-44.23 N",
		"longitude": "118-41-22.04 W",
		"state": "CALIFORNIA",
		"artcc": "ZLA",
		"type": "RNAV",
		"updated": "02/15/2008"
	},
	{
		"name": "PEELR",
		"latitude": "33-36-39.62 N",
		"longitude": "116-20-12.96 W",
		"state": "CALIFORNIA",
		"artcc": "ZLA",
		"type": "RNAV",
		"updated": "01/05/2017"
	},
	{
		"name": "PEGRS",
		"latitude": "35-18-46.49 N",
		"longitude": "120-39-23.28 W",
		"state": "CALIFORNIA",
		"artcc": "ZLA",
		"type": "RP",
		"updated": "RZS*VORTAC*304.02/65.00"
	},
	{
		"name": "PEIRC",
		"latitude": "35-0-2.83 N",
		"longitude": "116-12-2.32 W",
		"state": "CALIFORNIA",
		"artcc": "ZLA",
		"type": "RNAV",
		"updated": "03/02/2017"
	},
	{
		"name": "PENYY",
		"latitude": "32-46-11.29 N",
		"longitude": "117-1-19.17 W",
		"state": "CALIFORNIA",
		"artcc": "ZLA",
		"type": "RP",
		"updated": "MYF*LD*100.99/6.97"
	},
	{
		"name": "PEPRZ",
		"latitude": "34-40-47.34 N",
		"longitude": "119-9-26.41 W",
		"state": "CALIFORNIA",
		"artcc": "ZLA",
		"type": "RNAV",
		"updated": "12/23/2016"
	},
	{
		"name": "PEPSE",
		"latitude": "34-57-35.21 N",
		"longitude": "117-30-40.38 W",
		"state": "CALIFORNIA",
		"artcc": "ZLA",
		"type": "MW",
		"updated": "EDW*VORTAC*082.00/11.00"
	},
	{
		"name": "PERCH",
		"latitude": "33-52-3.04 N",
		"longitude": "119-9-27.37 W",
		"state": "CALIFORNIA",
		"artcc": "ZLA",
		"type": "RP",
		"updated": "VTU*VOR/DME*185.02/15.78"
	},
	{
		"name": "PERIS",
		"latitude": "33-43-0.77 N",
		"longitude": "117-11-56.02 W",
		"state": "CALIFORNIA",
		"artcc": "ZLA",
		"type": "RP",
		"updated": "OCN*VORTAC*006.00"
	},
	{
		"name": "PESOZ",
		"latitude": "33-28-37.31 N",
		"longitude": "117-55-57.56 W",
		"state": "CALIFORNIA",
		"artcc": "ZLA",
		"type": "RNAV",
		"updated": "12/23/2016"
	},
	{
		"name": "PETIS",
		"latitude": "34-3-23.3 N",
		"longitude": "117-21-58.01 W",
		"state": "CALIFORNIA",
		"artcc": "ZLA",
		"type": "RP",
		"updated": "HDF*VOR*317.77"
	},
	{
		"name": "PETYR",
		"latitude": "33-54-54.48 N",
		"longitude": "118-3-43.59 W",
		"state": "CALIFORNIA",
		"artcc": "ZLA",
		"type": "RNAV",
		"updated": "04/06/2018"
	},
	{
		"name": "PEVEE",
		"latitude": "33-41-50 N",
		"longitude": "118-31-15 W",
		"state": "CALIFORNIA",
		"artcc": "ZLA",
		"type": "RNAV",
		"updated": "12/22/2005"
	},
	{
		"name": "PEWKI",
		"latitude": "34-12-5.7 N",
		"longitude": "119-19-5.52 W",
		"state": "CALIFORNIA",
		"artcc": "ZLA",
		"type": "RNAV",
		"updated": "01/23/2007"
	},
	{
		"name": "PEXOE",
		"latitude": "35-25-5.83 N",
		"longitude": "117-44-14.58 W",
		"state": "CALIFORNIA",
		"artcc": "ZLA",
		"type": "RNAV",
		"updated": "01/14/2005"
	},
	{
		"name": "PEYON",
		"latitude": "34-40-11.42 N",
		"longitude": "114-26-10.02 W",
		"state": "ARIZONA",
		"artcc": "ZLA",
		"type": "RNAV",
		"updated": "08/02/2012"
	},
	{
		"name": "PEZLA",
		"latitude": "35-57-17 N",
		"longitude": "115-10-7 W",
		"state": "NEVADA",
		"artcc": "ZLA",
		"type": "WP",
		"updated": "07/09/2001"
	},
	{
		"name": "PFILA",
		"latitude": "34-1-12.69 N",
		"longitude": "117-41-50.18 W",
		"state": "CALIFORNIA",
		"artcc": "ZLA",
		"type": "RP",
		"updated": "HQB*LD*071.00/37.30"
	},
	{
		"name": "PGRAC",
		"latitude": "35-2-55.61 N",
		"longitude": "118-10-52.37 W",
		"state": "CALIFORNIA",
		"artcc": "ZLA",
		"type": "RNAV",
		"updated": "05/10/2011"
	},
	{
		"name": "PHIYA",
		"latitude": "33-52-13.73 N",
		"longitude": "116-58-53.48 W",
		"state": "CALIFORNIA",
		"artcc": "ZLA",
		"type": "RNAV",
		"updated": "12/23/2016"
	},
	{
		"name": "PHRED",
		"latitude": "33-38-44.7 N",
		"longitude": "114-7-18.3 W",
		"state": "ARIZONA",
		"artcc": "ZLA",
		"type": "RNAV",
		"updated": "02/23/2017"
	},
	{
		"name": "PHUNN",
		"latitude": "33-19-22.31 N",
		"longitude": "118-5-53.82 W",
		"state": "OFFSHORE PACIFIC",
		"artcc": "ZLA",
		"type": "RNAV",
		"updated": "02/28/2017"
	},
	{
		"name": "PHYLI",
		"latitude": "36-57-28.02 N",
		"longitude": "113-52-57.36 W",
		"state": "ARIZONA",
		"artcc": "ZLA",
		"type": "RP",
		"updated": "MMM*VORTAC*043.17/22.11"
	},
	{
		"name": "PIBAE",
		"latitude": "35-31-23.39 N",
		"longitude": "117-35-37.72 W",
		"state": "CALIFORNIA",
		"artcc": "ZLA",
		"type": "MW",
		"updated": "02/25/2015"
	},
	{
		"name": "PIBBB",
		"latitude": "33-40-28.61 N",
		"longitude": "117-55-33.38 W",
		"state": "CALIFORNIA",
		"artcc": "ZLA",
		"type": "RNAV",
		"updated": "09/30/2017"
	},
	{
		"name": "PICOY",
		"latitude": "35-29-8.71 N",
		"longitude": "117-40-49.19 W",
		"state": "CALIFORNIA",
		"artcc": "ZLA",
		"type": "MW",
		"updated": "07/09/2010"
	},
	{
		"name": "PIEZZ",
		"latitude": "33-0-33.89 N",
		"longitude": "116-35-14.81 W",
		"state": "CALIFORNIA",
		"artcc": "ZLA",
		"type": "RNAV",
		"updated": "09/16/2016"
	},
	{
		"name": "PIGGN",
		"latitude": "33-35-0 N",
		"longitude": "117-29-0 W",
		"state": "CALIFORNIA",
		"artcc": "ZLA",
		"type": "RNAV",
		"updated": "05/17/2007"
	},
	{
		"name": "PIIXR",
		"latitude": "36-36-29.27 N",
		"longitude": "113-45-2.4 W",
		"state": "ARIZONA",
		"artcc": "ZLA",
		"type": "RNAV",
		"updated": "01/22/2016"
	},
	{
		"name": "PIJIN",
		"latitude": "33-52-3.19 N",
		"longitude": "118-19-42.8 W",
		"state": "CALIFORNIA",
		"artcc": "ZLA",
		"type": "RNAV",
		"updated": "03/02/2017"
	},
	{
		"name": "PILCU",
		"latitude": "34-39-49.05 N",
		"longitude": "120-19-42.75 W",
		"state": "CALIFORNIA",
		"artcc": "ZLA",
		"type": "RNAV",
		"updated": "02/13/2009"
	},
	{
		"name": "PILLO",
		"latitude": "32-46-13.39 N",
		"longitude": "116-28-6.86 W",
		"state": "CALIFORNIA",
		"artcc": "ZLA",
		"type": "RP",
		"updated": "IPL*VORTAC*257.78"
	},
	{
		"name": "PIONE",
		"latitude": "34-5-40.11 N",
		"longitude": "116-44-19.65 W",
		"state": "CALIFORNIA",
		"artcc": "ZLA",
		"type": "RP",
		"updated": "LAX*VORTAC*068.00/85.00"
	},
	{
		"name": "PIRMD",
		"latitude": "36-4-24.61 N",
		"longitude": "115-15-11 W",
		"state": "NEVADA",
		"artcc": "ZLA",
		"type": "RNAV",
		"updated": "09/04/2003"
	},
	{
		"name": "PIRME",
		"latitude": "36-6-18.68 N",
		"longitude": "115-9-11.78 W",
		"state": "NEVADA",
		"artcc": "ZLA",
		"type": "RNAV",
		"updated": "07/12/2017"
	},
	{
		"name": "PIRRO",
		"latitude": "34-2-7.61 N",
		"longitude": "117-52-34.8 W",
		"state": "CALIFORNIA",
		"artcc": "ZLA",
		"type": "RP",
		"updated": "POM*VORTAC*225.00/5.14"
	},
	{
		"name": "PIRUE",
		"latitude": "34-29-48.31 N",
		"longitude": "118-59-54.03 W",
		"state": "CALIFORNIA",
		"artcc": "ZLA",
		"type": "RP",
		"updated": "LHS*VORTAC*227.00"
	},
	{
		"name": "PIRYT",
		"latitude": "34-26-0.55 N",
		"longitude": "118-47-1.6 W",
		"state": "CALIFORNIA",
		"artcc": "ZLA",
		"type": "RNAV",
		"updated": "09/11/2016"
	},
	{
		"name": "PISMO",
		"latitude": "35-15-45.2 N",
		"longitude": "121-2-44.69 W",
		"state": "CALIFORNIA",
		"artcc": "ZLA",
		"type": "RP",
		"updated": "GLJ*VOR*289.90"
	},
	{
		"name": "PITBL",
		"latitude": "34-23-1.57 N",
		"longitude": "119-4-24.26 W",
		"state": "CALIFORNIA",
		"artcc": "ZLA",
		"type": "RNAV",
		"updated": "09/11/2016"
	},
	{
		"name": "PIUTE",
		"latitude": "36-30-40.95 N",
		"longitude": "116-5-41.32 W",
		"state": "NEVADA",
		"artcc": "ZLA",
		"type": "RP",
		"updated": "INS*TACAN*242.99/20.99"
	},
	{
		"name": "PLAYY",
		"latitude": "34-17-59.34 N",
		"longitude": "117-27-52.81 W",
		"state": "CALIFORNIA",
		"artcc": "ZLA",
		"type": "RNAV",
		"updated": "12/30/2016"
	},
	{
		"name": "PLEAT",
		"latitude": "34-13-25.71 N",
		"longitude": "118-59-41.26 W",
		"state": "CALIFORNIA",
		"artcc": "ZLA",
		"type": "RP",
		"updated": "VTU*VOR/DME*007.68"
	},
	{
		"name": "PLLUT",
		"latitude": "33-12-43 N",
		"longitude": "118-58-23 W",
		"state": "CALIFORNIA",
		"artcc": "ZLA",
		"type": "RNAV",
		"updated": "02/13/2012"
	},
	{
		"name": "PLNDL",
		"latitude": "35-50-17.43 N",
		"longitude": "111-52-40.71 W",
		"state": "ARIZONA",
		"artcc": "ZLA",
		"type": "RNAV",
		"updated": "01/22/2016"
	},
	{
		"name": "PLTAA",
		"latitude": "33-40-2.19 N",
		"longitude": "118-4-50.11 W",
		"state": "CALIFORNIA",
		"artcc": "ZLA",
		"type": "RNAV",
		"updated": "03/02/2017"
	},
	{
		"name": "PLTFM",
		"latitude": "33-59-16.5 N",
		"longitude": "118-30-8.9 W",
		"state": "CALIFORNIA",
		"artcc": "ZLA",
		"type": "RNAV",
		"updated": "03/02/2017"
	},
	{
		"name": "PLYYA",
		"latitude": "33-8-8.44 N",
		"longitude": "117-48-9.87 W",
		"state": "CALIFORNIA",
		"artcc": "ZLA",
		"type": "RNAV",
		"updated": "12/23/2016"
	},
	{
		"name": "PLZZA",
		"latitude": "33-52-19.92 N",
		"longitude": "117-52-34.18 W",
		"state": "CALIFORNIA",
		"artcc": "ZLA",
		"type": "RNAV",
		"updated": "01/05/2017"
	},
	{
		"name": "PNCHO",
		"latitude": "34-41-29.48 N",
		"longitude": "118-18-0.12 W",
		"state": "CALIFORNIA",
		"artcc": "ZLA",
		"type": "MW",
		"updated": "06/25/2008"
	},
	{
		"name": "PNDAH",
		"latitude": "33-9-42 N",
		"longitude": "117-39-56 W",
		"state": "CALIFORNIA",
		"artcc": "ZLA",
		"type": "RNAV",
		"updated": "12/30/2016"
	},
	{
		"name": "PNOBB",
		"latitude": "32-44-3.92 N",
		"longitude": "114-40-15.34 W",
		"state": "ARIZONA",
		"artcc": "ZLA",
		"type": "MR",
		"updated": "NYL*TACAN*317.00/6.00"
	},
	{
		"name": "POBME",
		"latitude": "37-28-55.23 N",
		"longitude": "112-45-31.99 W",
		"state": "UTAH",
		"artcc": "ZLA",
		"type": "RP",
		"updated": "BCE*VORTAC*225.36/25.00"
	},
	{
		"name": "POCOB",
		"latitude": "32-55-22.56 N",
		"longitude": "116-53-19.26 W",
		"state": "CALIFORNIA",
		"artcc": "ZLA",
		"type": "MW",
		"updated": "11/11/2009"
	},
	{
		"name": "POKRR",
		"latitude": "36-3-45.49 N",
		"longitude": "114-35-53.43 W",
		"state": "ARIZONA",
		"artcc": "ZLA",
		"type": "RNAV",
		"updated": "06/04/2012"
	},
	{
		"name": "POMTE",
		"latitude": "34-10-11 N",
		"longitude": "116-20-48 W",
		"state": "CALIFORNIA",
		"artcc": "ZLA",
		"type": "RNAV",
		"updated": "06/09/2005"
	},
	{
		"name": "PONDD",
		"latitude": "35-49-25.99 N",
		"longitude": "119-16-6.05 W",
		"state": "CALIFORNIA",
		"artcc": "ZLA",
		"type": "RP",
		"updated": "TTE*VOR/DME*230.20"
	},
	{
		"name": "POOLZ",
		"latitude": "36-4-25 N",
		"longitude": "115-16-55 W",
		"state": "NEVADA",
		"artcc": "ZLA",
		"type": "RNAV",
		"updated": "01/18/2007"
	},
	{
		"name": "POPPR",
		"latitude": "33-50-33.57 N",
		"longitude": "118-17-17.9 W",
		"state": "CALIFORNIA",
		"artcc": "ZLA",
		"type": "RP",
		"updated": "SMO*VOR/DME*125.00"
	},
	{
		"name": "PORPS",
		"latitude": "34-16-35.05 N",
		"longitude": "118-8-49.12 W",
		"state": "CALIFORNIA",
		"artcc": "ZLA",
		"type": "RNAV",
		"updated": "09/11/2016"
	},
	{
		"name": "POSEE",
		"latitude": "36-1-2.9 N",
		"longitude": "115-10-33.42 W",
		"state": "NEVADA",
		"artcc": "ZLA",
		"type": "RNAV",
		"updated": "05/13/2011"
	},
	{
		"name": "POVBE",
		"latitude": "33-44-26.42 N",
		"longitude": "116-25-15.17 W",
		"state": "CALIFORNIA",
		"artcc": "ZLA",
		"type": "RNAV",
		"updated": "09/01/2017"
	},
	{
		"name": "POWUP",
		"latitude": "33-56-41.25 N",
		"longitude": "117-51-6.57 W",
		"state": "CALIFORNIA",
		"artcc": "ZLA",
		"type": "RP",
		"updated": "LAX*VORTAC*073.46/28.97"
	},
	{
		"name": "POXKU",
		"latitude": "33-51-13.47 N",
		"longitude": "117-46-56.49 W",
		"state": "CALIFORNIA",
		"artcc": "ZLA",
		"type": "RP",
		"updated": "POM*VORTAC*164.00"
	},
	{
		"name": "POZOE",
		"latitude": "35-9-42.5 N",
		"longitude": "120-14-51.45 W",
		"state": "CALIFORNIA",
		"artcc": "ZLA",
		"type": "RP",
		"updated": "RZS*VORTAC*315.07/45.62"
	},
	{
		"name": "PPRRY",
		"latitude": "34-10-34.88 N",
		"longitude": "118-29-13.99 W",
		"state": "CALIFORNIA",
		"artcc": "ZLA",
		"type": "RNAV",
		"updated": "03/29/2018"
	},
	{
		"name": "PRADO",
		"latitude": "33-55-23.41 N",
		"longitude": "117-47-1.7 W",
		"state": "CALIFORNIA",
		"artcc": "ZLA",
		"type": "RP",
		"updated": "POM*VORTAC*163.99/9.30"
	},
	{
		"name": "PRFUM",
		"latitude": "35-30-24.46 N",
		"longitude": "113-56-34.85 W",
		"state": "ARIZONA",
		"artcc": "ZLA",
		"type": "RP",
		"updated": "BLD*VORTAC*107.82/53.66"
	},
	{
		"name": "PRINO",
		"latitude": "36-4-23.6 N",
		"longitude": "114-43-38.86 W",
		"state": "ARIZONA",
		"artcc": "ZLA",
		"type": "RP",
		"updated": "BLD*VORTAC*039.95"
	},
	{
		"name": "PRMNT",
		"latitude": "34-7-19.28 N",
		"longitude": "117-37-11.68 W",
		"state": "CALIFORNIA",
		"artcc": "ZLA",
		"type": "RNAV",
		"updated": "02/14/2017"
	},
	{
		"name": "PRPLE",
		"latitude": "34-52-29.65 N",
		"longitude": "119-37-6.29 W",
		"state": "CALIFORNIA",
		"artcc": "ZLA",
		"type": "RNAV",
		"updated": "12/23/2016"
	},
	{
		"name": "PRSON",
		"latitude": "32-48-45.18 N",
		"longitude": "114-38-15.19 W",
		"state": "CALIFORNIA",
		"artcc": "ZLA",
		"type": "MR",
		"updated": "BZA*VORTAC*312.68/3.19"
	},
	{
		"name": "PUBLE",
		"latitude": "34-39-17.71 N",
		"longitude": "117-9-32.55 W",
		"state": "CALIFORNIA",
		"artcc": "ZLA",
		"type": "RNAV",
		"updated": "08/09/2006"
	},
	{
		"name": "PUCCK",
		"latitude": "34-32-57 N",
		"longitude": "118-25-56 W",
		"state": "CALIFORNIA",
		"artcc": "ZLA",
		"type": "RNAV",
		"updated": "09/28/2016"
	},
	{
		"name": "PULIE",
		"latitude": "37-7-52.86 N",
		"longitude": "118-10-39.56 W",
		"state": "CALIFORNIA",
		"artcc": "ZLA",
		"type": "RNAV",
		"updated": "10/29/2007"
	},
	{
		"name": "PUMPE",
		"latitude": "33-3-24.92 N",
		"longitude": "118-29-29.05 W",
		"state": "CALIFORNIA",
		"artcc": "ZLA",
		"type": "RNAV",
		"updated": "05/07/2018"
	},
	{
		"name": "PUNIE",
		"latitude": "33-36-0.14 N",
		"longitude": "117-18-27.96 W",
		"state": "CALIFORNIA",
		"artcc": "ZLA",
		"type": "RP",
		"updated": "SXC*VORTAC*061.12/57.41"
	},
	{
		"name": "PURMS",
		"latitude": "34-7-26.4 N",
		"longitude": "118-9-52.37 W",
		"state": "CALIFORNIA",
		"artcc": "ZLA",
		"type": "RP",
		"updated": "SLI*VORTAC*330.00"
	},
	{
		"name": "PURPS",
		"latitude": "34-30-8.05 N",
		"longitude": "117-46-52.23 W",
		"state": "CALIFORNIA",
		"artcc": "ZLA",
		"type": "RP",
		"updated": "PMD*VORTAC*103.84/16.00"
	},
	{
		"name": "PURSE",
		"latitude": "35-34-54 N",
		"longitude": "115-11-53 W",
		"state": "NEVADA",
		"artcc": "ZLA",
		"type": "RNAV",
		"updated": "03/24/2014"
	},
	{
		"name": "PURSY",
		"latitude": "34-18-20.4 N",
		"longitude": "118-30-32.91 W",
		"state": "CALIFORNIA",
		"artcc": "ZLA",
		"type": "RP",
		"updated": "VNY*VOR/DME*335.00/5.00"
	},
	{
		"name": "PUSLE",
		"latitude": "35-16-19.48 N",
		"longitude": "118-4-53.84 W",
		"state": "CALIFORNIA",
		"artcc": "ZLA",
		"type": "RNAV",
		"updated": "02/09/2018"
	},
	{
		"name": "PUVOC",
		"latitude": "33-49-7.03 N",
		"longitude": "116-29-52.13 W",
		"state": "CALIFORNIA",
		"artcc": "ZLA",
		"type": "RNAV",
		"updated": "08/10/2006"
	},
	{
		"name": "PUZZL",
		"latitude": "33-21-52.78 N",
		"longitude": "118-4-6.49 W",
		"state": "CALIFORNIA",
		"artcc": "ZLA",
		"type": "RNAV",
		"updated": "02/27/2017"
	},
	{
		"name": "PYPES",
		"latitude": "33-54-0.43 N",
		"longitude": "118-26-39.29 W",
		"state": "CALIFORNIA",
		"artcc": "ZLA",
		"type": "RNAV",
		"updated": "03/02/2017"
	},
	{
		"name": "PYRAS",
		"latitude": "33-8-20.71 N",
		"longitude": "118-14-54 W",
		"state": "CALIFORNIA",
		"artcc": "ZLA",
		"type": "MR",
		"updated": "OCN*VORTAC*246.95/42.26"
	},
	{
		"name": "PZUKY",
		"latitude": "34-15-13.55 N",
		"longitude": "117-14-37.77 W",
		"state": "CALIFORNIA",
		"artcc": "ZLA",
		"type": "RNAV",
		"updated": "04/17/2018"
	}
]
