[
	{
		"name": "QEWTI",
		"latitude": "33-53-31.2 N",
		"longitude": "117-52-33.14 W",
		"state": "CALIFORNIA",
		"artcc": "ZLA",
		"type": "RP",
		"updated": "FUL*LE*NE CRS/5.65"
	},
	{
		"name": "QEZAZ",
		"latitude": "42-22-29.21 N",
		"longitude": "73-41-13.96 W",
		"state": "NEW YORK",
		"artcc": "ZLA",
		"type": "RNAV",
		"updated": "01/02/2018"
	},
	{
		"name": "QGATE",
		"latitude": "33-42-31.68 N",
		"longitude": "118-13-22.02 W",
		"state": "CALIFORNIA",
		"artcc": "ZLA",
		"type": "RNAV",
		"updated": "12/23/2016"
	},
	{
		"name": "QMARY",
		"latitude": "33-45-41.01 N",
		"longitude": "118-10-0.09 W",
		"state": "CALIFORNIA",
		"artcc": "ZLA",
		"type": "RNAV",
		"updated": "03/02/2017"
	},
	{
		"name": "QUNTN",
		"latitude": "33-6-47.46 N",
		"longitude": "117-44-29.13 W",
		"state": "CALIFORNIA",
		"artcc": "ZLA",
		"type": "MR",
		"updated": "OCN*VORTAC*230.00/18.00"
	},
	{
		"name": "QURTT",
		"latitude": "33-12-0.8 N",
		"longitude": "114-50-9.04 W",
		"state": "CALIFORNIA",
		"artcc": "ZLA",
		"type": "MR",
		"updated": "BLH*VORTAC*175.00/24.00"
	},
	{
		"name": "QUTIP",
		"latitude": "33-46-14.81 N",
		"longitude": "115-24-36.17 W",
		"state": "CALIFORNIA",
		"artcc": "ZLA",
		"type": "RNAV",
		"updated": "02/27/2017"
	},
	{
		"name": "QUXEP",
		"latitude": "37-15-25.22 N",
		"longitude": "113-37-11.54 W",
		"state": "UTAH",
		"artcc": "ZLA",
		"type": "RNAV",
		"updated": "02/23/2000"
	}
]
