[
	{
		"name": "RABBL",
		"latitude": "35-10-46 N",
		"longitude": "118-39-38.76 W",
		"state": "CALIFORNIA",
		"artcc": "ZLA",
		"type": "RNAV",
		"updated": "06/26/2017"
	},
	{
		"name": "RABME",
		"latitude": "35-16-41.55 N",
		"longitude": "117-52-18.36 W",
		"state": "CALIFORNIA",
		"artcc": "ZLA",
		"type": "RNAV",
		"updated": "01/14/2005"
	},
	{
		"name": "RABRE",
		"latitude": "33-11-36.71 N",
		"longitude": "117-1-27.72 W",
		"state": "CALIFORNIA",
		"artcc": "ZLA",
		"type": "MR",
		"updated": "OCN*VORTAC*083.00/20.00"
	},
	{
		"name": "RACES",
		"latitude": "36-3-43.36 N",
		"longitude": "114-59-37.18 W",
		"state": "NEVADA",
		"artcc": "ZLA",
		"type": "RP",
		"updated": "LAS*VORTAC*082.41/8.15"
	},
	{
		"name": "RACIY",
		"latitude": "35-39-47.02 N",
		"longitude": "117-49-21.12 W",
		"state": "CALIFORNIA",
		"artcc": "ZLA",
		"type": "WP",
		"updated": "09/20/1995"
	},
	{
		"name": "RACOG",
		"latitude": "34-39-6.14 N",
		"longitude": "114-25-17.93 W",
		"state": "ARIZONA",
		"artcc": "ZLA",
		"type": "RNAV",
		"updated": "08/01/2012"
	},
	{
		"name": "RADOS",
		"latitude": "33-21-34.07 N",
		"longitude": "114-43-3.81 W",
		"state": "CALIFORNIA",
		"artcc": "ZLA",
		"type": "MR",
		"updated": "BLH*VORTAC*157.22/14.34"
	},
	{
		"name": "RAFFS",
		"latitude": "33-57-17.23 N",
		"longitude": "118-44-1.9 W",
		"state": "CALIFORNIA",
		"artcc": "ZLA",
		"type": "RP",
		"updated": "LAX*VORTAC*260.00/15.12"
	},
	{
		"name": "RAFII",
		"latitude": "34-14-26.88 N",
		"longitude": "117-19-54.42 W",
		"state": "CALIFORNIA",
		"artcc": "ZLA",
		"type": "RNAV",
		"updated": "02/14/2017"
	},
	{
		"name": "RAHKY",
		"latitude": "35-7-16.15 N",
		"longitude": "120-57-59.89 W",
		"state": "CALIFORNIA",
		"artcc": "ZLA",
		"type": "MR",
		"updated": "VBG*TACAN*307.00/30.00"
	},
	{
		"name": "RAIDE",
		"latitude": "32-53-52.34 N",
		"longitude": "117-0-13.59 W",
		"state": "CALIFORNIA",
		"artcc": "ZLA",
		"type": "MW",
		"updated": "10/28/2014"
	},
	{
		"name": "RAJEE",
		"latitude": "33-47-47.81 N",
		"longitude": "117-25-40.55 W",
		"state": "CALIFORNIA",
		"artcc": "ZLA",
		"type": "RNAV",
		"updated": "12/30/2016"
	},
	{
		"name": "RAKVE",
		"latitude": "35-12-11.36 N",
		"longitude": "117-53-37.26 W",
		"state": "CALIFORNIA",
		"artcc": "ZLA",
		"type": "RNAV",
		"updated": "01/14/2005"
	},
	{
		"name": "RAMIE",
		"latitude": "34-13-23.43 N",
		"longitude": "115-39-45.13 W",
		"state": "CALIFORNIA",
		"artcc": "ZLA",
		"type": "MR",
		"updated": "NXP*TACAN*086.00/25.00"
	},
	{
		"name": "RAMON",
		"latitude": "33-0-32.88 N",
		"longitude": "116-57-26.95 W",
		"state": "CALIFORNIA",
		"artcc": "ZLA",
		"type": "MR",
		"updated": "NKX*TACAN*038.00/13.00"
	},
	{
		"name": "RANDS",
		"latitude": "35-25-3.93 N",
		"longitude": "117-51-5.03 W",
		"state": "CALIFORNIA",
		"artcc": "ZLA",
		"type": "MR",
		"updated": "NID*TACAN*192.00/18.00"
	},
	{
		"name": "RANVE",
		"latitude": "36-11-16.3 N",
		"longitude": "115-4-44.18 W",
		"state": "NEVADA",
		"artcc": "ZLA",
		"type": "RNAV",
		"updated": "10/16/2006"
	},
	{
		"name": "RAPLE",
		"latitude": "34-46-47.23 N",
		"longitude": "118-10-0 W",
		"state": "CALIFORNIA",
		"artcc": "ZLA",
		"type": "MR",
		"updated": "EDW*VORTAC*236.00/24.70"
	},
	{
		"name": "RAVON",
		"latitude": "34-5-20.54 N",
		"longitude": "117-19-31.15 W",
		"state": "CALIFORNIA",
		"artcc": "ZLA",
		"type": "RP",
		"updated": "POM*VORTAC*073.00/23.00"
	},
	{
		"name": "RAYVE",
		"latitude": "34-23-9.39 N",
		"longitude": "118-22-2.5 W",
		"state": "CALIFORNIA",
		"artcc": "ZLA",
		"type": "RNAV",
		"updated": "12/23/2016"
	},
	{
		"name": "RBELL",
		"latitude": "36-4-34.51 N",
		"longitude": "115-15-8.75 W",
		"state": "NEVADA",
		"artcc": "ZLA",
		"type": "RNAV",
		"updated": "09/04/2003"
	},
	{
		"name": "RBOTO",
		"latitude": "34-58-17.81 N",
		"longitude": "120-40-37.39 W",
		"state": "OFFSHORE PACIFIC",
		"artcc": "ZLA",
		"type": "RNAV",
		"updated": "02/28/2017"
	},
	{
		"name": "RCHEE",
		"latitude": "33-55-32.85 N",
		"longitude": "119-18-24.99 W",
		"state": "CALIFORNIA",
		"artcc": "ZLA",
		"type": "MR",
		"updated": "NTD*TACAN*206.00/15.00"
	},
	{
		"name": "RCHEL",
		"latitude": "34-34-37.76 N",
		"longitude": "119-4-28.71 W",
		"state": "CALIFORNIA",
		"artcc": "ZLA",
		"type": "RNAV",
		"updated": "03/02/2017"
	},
	{
		"name": "RCKYY",
		"latitude": "34-0-22.77 N",
		"longitude": "118-33-31.9 W",
		"state": "CALIFORNIA",
		"artcc": "ZLA",
		"type": "RNAV",
		"updated": "12/30/2016"
	},
	{
		"name": "RDHOT",
		"latitude": "35-35-33.31 N",
		"longitude": "120-21-36.43 W",
		"state": "CALIFORNIA",
		"artcc": "ZLA",
		"type": "RNAV",
		"updated": "12/23/2016"
	},
	{
		"name": "REALL",
		"latitude": "34-3-13.68 N",
		"longitude": "119-11-50.89 W",
		"state": "CALIFORNIA",
		"artcc": "ZLA",
		"type": "RNAV",
		"updated": "03/02/2017"
	},
	{
		"name": "REANS",
		"latitude": "34-5-40.84 N",
		"longitude": "117-2-41.41 W",
		"state": "CALIFORNIA",
		"artcc": "ZLA",
		"type": "RP",
		"updated": "POM*VORTAC*073.28/37.00"
	},
	{
		"name": "RECCO",
		"latitude": "33-9-15.41 N",
		"longitude": "116-56-51.64 W",
		"state": "CALIFORNIA",
		"artcc": "ZLA",
		"type": "RP",
		"updated": "JLI*VORTAC*257.70/18.24"
	},
	{
		"name": "REDDE",
		"latitude": "35-39-35.48 N",
		"longitude": "120-17-42.14 W",
		"state": "CALIFORNIA",
		"artcc": "ZLA",
		"type": "RP",
		"updated": "ROM*VOR*132.00"
	},
	{
		"name": "REDIN",
		"latitude": "32-57-3.86 N",
		"longitude": "117-23-59.05 W",
		"state": "CALIFORNIA",
		"artcc": "ZLA",
		"type": "RP",
		"updated": "OCN*VORTAC*162.00/17.36"
	},
	{
		"name": "REEBO",
		"latitude": "32-42-27.17 N",
		"longitude": "117-4-57.05 W",
		"state": "CALIFORNIA",
		"artcc": "ZLA",
		"type": "RP",
		"updated": "PGY*VORTAC*304.04"
	},
	{
		"name": "REEDR",
		"latitude": "33-56-56.5 N",
		"longitude": "118-16-33.1 W",
		"state": "CALIFORNIA",
		"artcc": "ZLA",
		"type": "RP",
		"updated": "LAX*VORTAC*068.00/7.85"
	},
	{
		"name": "REELY",
		"latitude": "36-5-9.8 N",
		"longitude": "114-24-43.16 W",
		"state": "ARIZONA",
		"artcc": "ZLA",
		"type": "RNAV",
		"updated": "05/25/2011"
	},
	{
		"name": "REESR",
		"latitude": "34-44-11.51 N",
		"longitude": "119-10-33.25 W",
		"state": "CALIFORNIA",
		"artcc": "ZLA",
		"type": "RNAV",
		"updated": "03/02/2017"
	},
	{
		"name": "REGGO",
		"latitude": "33-7-59.33 N",
		"longitude": "116-39-26.76 W",
		"state": "CALIFORNIA",
		"artcc": "ZLA",
		"type": "RNAV",
		"updated": "12/23/2016"
	},
	{
		"name": "REKVE",
		"latitude": "34-30-40.24 N",
		"longitude": "114-18-57.14 W",
		"state": "ARIZONA",
		"artcc": "ZLA",
		"type": "RNAV",
		"updated": "12/11/2008"
	},
	{
		"name": "RELIN",
		"latitude": "36-4-25.27 N",
		"longitude": "115-0-59.87 W",
		"state": "NEVADA",
		"artcc": "ZLA",
		"type": "RP",
		"updated": "BLD*VORTAC*287.12"
	},
	{
		"name": "REMOE",
		"latitude": "34-25-57.86 N",
		"longitude": "118-41-2.64 W",
		"state": "CALIFORNIA",
		"artcc": "ZLA",
		"type": "RNAV",
		"updated": "06/14/2016"
	},
	{
		"name": "REMPS",
		"latitude": "33-53-34.2 N",
		"longitude": "117-54-13.48 W",
		"state": "CALIFORNIA",
		"artcc": "ZLA",
		"type": "MR",
		"updated": "ELB*VOR/DME*312.42"
	},
	{
		"name": "RENET",
		"latitude": "33-55-23.58 N",
		"longitude": "119-19-19.55 W",
		"state": "CALIFORNIA",
		"artcc": "ZLA",
		"type": "MR",
		"updated": "SXC*VORTAC*291.25/55.85"
	},
	{
		"name": "RENTE",
		"latitude": "34-14-53.8 N",
		"longitude": "118-29-38.46 W",
		"state": "CALIFORNIA",
		"artcc": "ZLA",
		"type": "RNAV",
		"updated": "06/14/2016"
	},
	{
		"name": "RENTT",
		"latitude": "36-4-12.14 N",
		"longitude": "113-38-18.19 W",
		"state": "ARIZONA",
		"artcc": "ZLA",
		"type": "RP",
		"updated": "LAS*VORTAC*075.00/74.00"
	},
	{
		"name": "RESNE",
		"latitude": "33-36-59.42 N",
		"longitude": "114-41-46.89 W",
		"state": "CALIFORNIA",
		"artcc": "ZLA",
		"type": "RNAV",
		"updated": "03/19/2003"
	},
	{
		"name": "RESOR",
		"latitude": "34-23-24.22 N",
		"longitude": "116-57-40.79 W",
		"state": "CALIFORNIA",
		"artcc": "ZLA",
		"type": "RP",
		"updated": "PDZ*VORTAC*029.90/40.00"
	},
	{
		"name": "RETOE",
		"latitude": "32-55-13.24 N",
		"longitude": "116-50-37.99 W",
		"state": "CALIFORNIA",
		"artcc": "ZLA",
		"type": "MR",
		"updated": "NKX*TACAN*067.00/16.00"
	},
	{
		"name": "REVLY",
		"latitude": "33-13-2.38 N",
		"longitude": "117-21-21.16 W",
		"state": "CALIFORNIA",
		"artcc": "ZLA",
		"type": "WP",
		"updated": "11/02/1998"
	},
	{
		"name": "REYES",
		"latitude": "34-39-31.42 N",
		"longitude": "119-8-3.56 W",
		"state": "CALIFORNIA",
		"artcc": "ZLA",
		"type": "RP",
		"updated": "RZS*VORTAC*060.00"
	},
	{
		"name": "REYOV",
		"latitude": "34-3-17.88 N",
		"longitude": "117-31-42.21 W",
		"state": "CALIFORNIA",
		"artcc": "ZLA",
		"type": "RNAV",
		"updated": "05/07/2008"
	},
	{
		"name": "RGAMI",
		"latitude": "34-39-10.59 N",
		"longitude": "118-23-19.39 W",
		"state": "CALIFORNIA",
		"artcc": "ZLA",
		"type": "RP",
		"updated": "04/19/2018"
	},
	{
		"name": "RGBEE",
		"latitude": "33-59-32.7 N",
		"longitude": "118-31-7.84 W",
		"state": "CALIFORNIA",
		"artcc": "ZLA",
		"type": "RNAV",
		"updated": "03/20/2017"
	},
	{
		"name": "RIBBN",
		"latitude": "33-54-9.93 N",
		"longitude": "118-44-16.41 W",
		"state": "CALIFORNIA",
		"artcc": "ZLA",
		"type": "RP",
		"updated": "IAS*LD*250.99/15.81"
	},
	{
		"name": "RICCE",
		"latitude": "33-4-31.63 N",
		"longitude": "116-47-24.25 W",
		"state": "CALIFORNIA",
		"artcc": "ZLA",
		"type": "RP",
		"updated": "JLI*VORTAC*234.33/11.00"
	},
	{
		"name": "RIDDL",
		"latitude": "34-0-7.3 N",
		"longitude": "118-27-35.28 W",
		"state": "CALIFORNIA",
		"artcc": "ZLA",
		"type": "RNAV",
		"updated": "12/29/2016"
	},
	{
		"name": "RIDME",
		"latitude": "33-1-34.44 N",
		"longitude": "118-9-47.89 W",
		"state": "CALIFORNIA",
		"artcc": "ZLA",
		"type": "MR",
		"updated": "NUC*TACAN*075.00/21.00"
	},
	{
		"name": "RIFFE",
		"latitude": "35-16-11.63 N",
		"longitude": "116-11-37.97 W",
		"state": "CALIFORNIA",
		"artcc": "ZLA",
		"type": "RP",
		"updated": "DAG*VORTAC*030.65/26.40"
	},
	{
		"name": "RIFFT",
		"latitude": "33-4-20 N",
		"longitude": "118-49-5 W",
		"state": "CALIFORNIA",
		"artcc": "ZLA",
		"type": "RNAV",
		"updated": "02/13/2012"
	},
	{
		"name": "RIGGR",
		"latitude": "33-50-14.15 N",
		"longitude": "118-24-32.84 W",
		"state": "CALIFORNIA",
		"artcc": "ZLA",
		"type": "RNAV",
		"updated": "03/02/2017"
	},
	{
		"name": "RIGLI",
		"latitude": "33-27-28.49 N",
		"longitude": "118-24-27.97 W",
		"state": "CALIFORNIA",
		"artcc": "ZLA",
		"type": "RP",
		"updated": "SXC*VORTAC*352.00/5.00"
	},
	{
		"name": "RIKII",
		"latitude": "35-30-20.91 N",
		"longitude": "115-18-5.42 W",
		"state": "CALIFORNIA",
		"artcc": "ZLA",
		"type": "RNAV",
		"updated": "01/18/2017"
	},
	{
		"name": "RIMMM",
		"latitude": "35-31-54.24 N",
		"longitude": "112-5-40.39 W",
		"state": "ARIZONA",
		"artcc": "ZLA",
		"type": "RNAV",
		"updated": "08/12/2014"
	},
	{
		"name": "RIMVE",
		"latitude": "34-29-6.38 N",
		"longitude": "120-6-48.65 W",
		"state": "CALIFORNIA",
		"artcc": "ZLA",
		"type": "RNAV",
		"updated": "02/29/2008"
	},
	{
		"name": "RINGE",
		"latitude": "35-37-4.47 N",
		"longitude": "117-38-5.37 W",
		"state": "CALIFORNIA",
		"artcc": "ZLA",
		"type": "MR",
		"updated": "NID*TACAN*133.00/5.00"
	},
	{
		"name": "RIOOS",
		"latitude": "36-11-20.81 N",
		"longitude": "114-39-43.64 W",
		"state": "NEVADA",
		"artcc": "ZLA",
		"type": "RNAV",
		"updated": "06/02/2010"
	},
	{
		"name": "RIPPL",
		"latitude": "32-47-8.51 N",
		"longitude": "116-31-30.16 W",
		"state": "CALIFORNIA",
		"artcc": "ZLA",
		"type": "RNAV",
		"updated": "09/06/2016"
	},
	{
		"name": "RIPSE",
		"latitude": "33-36-41.97 N",
		"longitude": "116-9-23.1 W",
		"state": "CALIFORNIA",
		"artcc": "ZLA",
		"type": "RNAV",
		"updated": "11/25/2002"
	},
	{
		"name": "RIRBY",
		"latitude": "34-10-16.2 N",
		"longitude": "117-19-12.6 W",
		"state": "CALIFORNIA",
		"artcc": "ZLA",
		"type": "CN",
		"updated": "10/21/2002"
	},
	{
		"name": "RIVAR",
		"latitude": "33-46-25.47 N",
		"longitude": "117-11-25.92 W",
		"state": "CALIFORNIA",
		"artcc": "ZLA",
		"type": "MR",
		"updated": "RIV*TACAN*138.00/9.00"
	},
	{
		"name": "RIVVO",
		"latitude": "36-39-10.19 N",
		"longitude": "117-6-15.26 W",
		"state": "CALIFORNIA",
		"artcc": "ZLA",
		"type": "RNAV",
		"updated": "09/21/2014"
	},
	{
		"name": "RIVYO",
		"latitude": "33-57-42.74 N",
		"longitude": "117-35-23.51 W",
		"state": "CALIFORNIA",
		"artcc": "ZLA",
		"type": "RP",
		"updated": "PDZ*VORTAC*296.12"
	},
	{
		"name": "RIYOC",
		"latitude": "33-41-29.07 N",
		"longitude": "116-11-33.06 W",
		"state": "CALIFORNIA",
		"artcc": "ZLA",
		"type": "RNAV",
		"updated": "08/10/2006"
	},
	{
		"name": "RIZIN",
		"latitude": "34-24-39.97 N",
		"longitude": "119-31-57.04 W",
		"state": "CALIFORNIA",
		"artcc": "ZLA",
		"type": "RNAV",
		"updated": "02/27/2017"
	},
	{
		"name": "RIZZN",
		"latitude": "36-7-43.68 N",
		"longitude": "115-8-10.53 W",
		"state": "NEVADA",
		"artcc": "ZLA",
		"type": "RNAV",
		"updated": "04/29/2010"
	},
	{
		"name": "RKEEE",
		"latitude": "37-4-53.11 N",
		"longitude": "115-38-37.55 W",
		"state": "NEVADA",
		"artcc": "ZLA",
		"type": "RNAV",
		"updated": "05/11/2016"
	},
	{
		"name": "RLONG",
		"latitude": "34-32-42.18 N",
		"longitude": "117-34-39.7 W",
		"state": "CALIFORNIA",
		"artcc": "ZLA",
		"type": "RNAV",
		"updated": "12/03/2008"
	},
	{
		"name": "RNCHO",
		"latitude": "33-2-50.26 N",
		"longitude": "116-25-40.49 W",
		"state": "CALIFORNIA",
		"artcc": "ZLA",
		"type": "RNAV",
		"updated": "12/23/2016"
	},
	{
		"name": "RNDAL",
		"latitude": "33-58-29.92 N",
		"longitude": "117-47-5.64 W",
		"state": "CALIFORNIA",
		"artcc": "ZLA",
		"type": "RP",
		"updated": "POM*VORTAC*164.00/6.19"
	},
	{
		"name": "RNSTO",
		"latitude": "33-58-34 N",
		"longitude": "118-39-30.57 W",
		"state": "CALIFORNIA",
		"artcc": "ZLA",
		"type": "RNAV",
		"updated": "03/20/2017"
	},
	{
		"name": "ROADE",
		"latitude": "33-53-42.15 N",
		"longitude": "116-45-25.03 W",
		"state": "CALIFORNIA",
		"artcc": "ZLA",
		"type": "RNAV",
		"updated": "12/23/2016"
	},
	{
		"name": "ROBNN",
		"latitude": "33-12-12.52 N",
		"longitude": "117-6-12.58 W",
		"state": "CALIFORNIA",
		"artcc": "ZLA",
		"type": "RP",
		"updated": "OCN*VORTAC*082.92/15.97"
	},
	{
		"name": "ROBOR",
		"latitude": "34-8-54.72 N",
		"longitude": "119-12-0.59 W",
		"state": "CALIFORNIA",
		"artcc": "ZLA",
		"type": "RP",
		"updated": "VTU*VOR/DME*270.00/7.77"
	},
	{
		"name": "ROCKX",
		"latitude": "36-12-49.11 N",
		"longitude": "115-3-34.33 W",
		"state": "NEVADA",
		"artcc": "ZLA",
		"type": "MR",
		"updated": "LSV*TACAN*210.00/2.50"
	},
	{
		"name": "RODDD",
		"latitude": "35-51-26.49 N",
		"longitude": "115-18-54.35 W",
		"state": "NEVADA",
		"artcc": "ZLA",
		"type": "RNAV",
		"updated": "01/18/2005"
	},
	{
		"name": "RODEN",
		"latitude": "32-39-59.75 N",
		"longitude": "117-35-11.63 W",
		"state": "CALIFORNIA",
		"artcc": "ZLA",
		"type": "MR",
		"updated": "NKX*TACAN*229.00/25.00"
	},
	{
		"name": "RODGE",
		"latitude": "33-32-1.36 N",
		"longitude": "116-8-17.19 W",
		"state": "CALIFORNIA",
		"artcc": "ZLA",
		"type": "RNAV",
		"updated": "11/25/2002"
	},
	{
		"name": "ROGBE",
		"latitude": "33-52-12.7 N",
		"longitude": "114-43-6.41 W",
		"state": "CALIFORNIA",
		"artcc": "ZLA",
		"type": "RP",
		"updated": "PKE*VORTAC*172.46/14.00"
	},
	{
		"name": "ROKKR",
		"latitude": "34-32-42.12 N",
		"longitude": "119-4-12 W",
		"state": "CALIFORNIA",
		"artcc": "ZLA",
		"type": "RNAV",
		"updated": "12/23/2016"
	},
	{
		"name": "ROLFY",
		"latitude": "32-49-4.69 N",
		"longitude": "114-29-57.7 W",
		"state": "ARIZONA",
		"artcc": "ZLA",
		"type": "MW",
		"updated": "04/19/2018"
	},
	{
		"name": "ROLLI",
		"latitude": "34-13-50.82 N",
		"longitude": "118-39-38.73 W",
		"state": "CALIFORNIA",
		"artcc": "ZLA",
		"type": "RNAV",
		"updated": "12/23/2016"
	},
	{
		"name": "ROMOF",
		"latitude": "35-49-0 N",
		"longitude": "118-34-58 W",
		"state": "CALIFORNIA",
		"artcc": "ZLA",
		"type": "RNAV",
		"updated": "04/08/2014"
	},
	{
		"name": "RONKY",
		"latitude": "36-39-19.88 N",
		"longitude": "114-56-6.59 W",
		"state": "NEVADA",
		"artcc": "ZLA",
		"type": "MR",
		"updated": "LSV*TACAN*358.00/25.00"
	},
	{
		"name": "RONLD",
		"latitude": "33-31-47.32 N",
		"longitude": "117-0-18.97 W",
		"state": "CALIFORNIA",
		"artcc": "ZLA",
		"type": "RP",
		"updated": "JLI*VORTAC*303.00/31.43"
	},
	{
		"name": "ROOBY",
		"latitude": "33-50-13.61 N",
		"longitude": "117-17-35.07 W",
		"state": "CALIFORNIA",
		"artcc": "ZLA",
		"type": "RNAV",
		"updated": "12/23/2016"
	},
	{
		"name": "ROPEZ",
		"latitude": "34-35-13.36 N",
		"longitude": "118-2-56.21 W",
		"state": "CALIFORNIA",
		"artcc": "ZLA",
		"type": "RNAV",
		"updated": "03/01/2017"
	},
	{
		"name": "ROPPR",
		"latitude": "35-58-16.27 N",
		"longitude": "115-18-5.99 W",
		"state": "NEVADA",
		"artcc": "ZLA",
		"type": "RNAV",
		"updated": "01/18/2005"
	},
	{
		"name": "RORBE",
		"latitude": "33-27-0 N",
		"longitude": "117-10-0 W",
		"state": "CALIFORNIA",
		"artcc": "ZLA",
		"type": "RNAV",
		"updated": "05/17/2007"
	},
	{
		"name": "ROSIE",
		"latitude": "34-51-8.73 N",
		"longitude": "118-12-23.14 W",
		"state": "CALIFORNIA",
		"artcc": "ZLA",
		"type": "MR",
		"updated": "PMD*VORTAC*317.00/15.00"
	},
	{
		"name": "ROSIN",
		"latitude": "31-56-31.52 N",
		"longitude": "120-16-6.32 W",
		"state": "OFFSHORE PACIFIC",
		"artcc": "ZLA",
		"type": "RP",
		"updated": "SXC*VORTAC*213.00/127.00"
	},
	{
		"name": "ROTHY",
		"latitude": "33-35-35.28 N",
		"longitude": "116-53-45.67 W",
		"state": "CALIFORNIA",
		"artcc": "ZLA",
		"type": "RP",
		"updated": "OCN*VORTAC*036.00"
	},
	{
		"name": "ROTSE",
		"latitude": "36-20-7.71 N",
		"longitude": "114-55-26.92 W",
		"state": "NEVADA",
		"artcc": "ZLA",
		"type": "MR",
		"updated": "LSV*TACAN*/7.32"
	},
	{
		"name": "ROUTI",
		"latitude": "35-11-3.13 N",
		"longitude": "114-1-48.2 W",
		"state": "ARIZONA",
		"artcc": "ZLA",
		"type": "RNAV",
		"updated": "04/28/2009"
	},
	{
		"name": "ROYAL",
		"latitude": "33-59-30.44 N",
		"longitude": "117-59-49.13 W",
		"state": "CALIFORNIA",
		"artcc": "ZLA",
		"type": "RP",
		"updated": "SLI*VORTAC*358.00/12.82"
	},
	{
		"name": "ROYLL",
		"latitude": "36-51-14.97 N",
		"longitude": "115-36-7.96 W",
		"state": "NEVADA",
		"artcc": "ZLA",
		"type": "RNAV",
		"updated": "05/11/2016"
	},
	{
		"name": "RRIZE",
		"latitude": "34-5-12.54 N",
		"longitude": "117-25-43.97 W",
		"state": "CALIFORNIA",
		"artcc": "ZLA",
		"type": "RP",
		"updated": "POM*VORTAC*073.28/17.86"
	},
	{
		"name": "RRJAY",
		"latitude": "33-56-25.43 N",
		"longitude": "117-6-23.51 W",
		"state": "CALIFORNIA",
		"artcc": "ZLA",
		"type": "RNAV",
		"updated": "03/02/2017"
	},
	{
		"name": "RSNAL",
		"latitude": "33-43-55.13 N",
		"longitude": "118-2-51.65 W",
		"state": "CALIFORNIA",
		"artcc": "ZLA",
		"type": "RNAV",
		"updated": "04/12/2018"
	},
	{
		"name": "RUDII",
		"latitude": "37-43-19.66 N",
		"longitude": "116-44-24.71 W",
		"state": "NEVADA",
		"artcc": "ZLA",
		"type": "MW",
		"updated": "11/04/2011"
	},
	{
		"name": "RUGBY",
		"latitude": "34-14-38 N",
		"longitude": "118-37-57 W",
		"state": "CALIFORNIA",
		"artcc": "ZLA",
		"type": "RNAV",
		"updated": "01/05/2017"
	},
	{
		"name": "RUGGS",
		"latitude": "32-30-13.95 N",
		"longitude": "114-42-1.54 W",
		"state": "ARIZONA",
		"artcc": "ZLA",
		"type": "MW",
		"updated": "08/19/2010"
	},
	{
		"name": "RUGNE",
		"latitude": "33-26-31.21 N",
		"longitude": "116-1-36.6 W",
		"state": "CALIFORNIA",
		"artcc": "ZLA",
		"type": "RP",
		"updated": "TRM*VORTAC*135.99/13.00"
	},
	{
		"name": "RUGTY",
		"latitude": "35-23-34.8 N",
		"longitude": "120-54-47.4 W",
		"state": "CALIFORNIA",
		"artcc": "ZLA",
		"type": "CN",
		"updated": "12/17/2002"
	},
	{
		"name": "RUHAR",
		"latitude": "35-59-57 N",
		"longitude": "115-15-50.4 W",
		"state": "NEVADA",
		"artcc": "ZLA",
		"type": "CN",
		"updated": "11/25/2002"
	},
	{
		"name": "RUKKI",
		"latitude": "33-53-53 N",
		"longitude": "119-25-59 W",
		"state": "CALIFORNIA",
		"artcc": "ZLA",
		"type": "RNAV",
		"updated": "03/02/2017"
	},
	{
		"name": "RUKKY",
		"latitude": "33-57-11.86 N",
		"longitude": "117-37-14.23 W",
		"state": "CALIFORNIA",
		"artcc": "ZLA",
		"type": "RNAV",
		"updated": "02/14/2017"
	},
	{
		"name": "RUMGE",
		"latitude": "32-33-54.12 N",
		"longitude": "117-3-2.13 W",
		"state": "CALIFORNIA",
		"artcc": "ZLA",
		"type": "MR",
		"updated": "NRS*TACAN*078.00/3.00"
	},
	{
		"name": "RUNNN",
		"latitude": "34-20-34.64 N",
		"longitude": "118-58-23.49 W",
		"state": "CALIFORNIA",
		"artcc": "ZLA",
		"type": "RNAV",
		"updated": "03/01/2017"
	},
	{
		"name": "RURIW",
		"latitude": "35-54-51.001 N",
		"longitude": "112-20-36 W",
		"state": "ARIZONA",
		"artcc": "ZLA",
		"type": "CN",
		"updated": "11/27/2002"
	},
	{
		"name": "RUSTT",
		"latitude": "34-2-53.62 N",
		"longitude": "117-14-32.83 W",
		"state": "CALIFORNIA",
		"artcc": "ZLA",
		"type": "RP",
		"updated": "LAX*VORTAC*068.04/59.74"
	},
	{
		"name": "RUWSU",
		"latitude": "36-16-9.6 N",
		"longitude": "114-39-17.4 W",
		"state": "NEVADA",
		"artcc": "ZLA",
		"type": "CN",
		"updated": "11/25/2002"
	},
	{
		"name": "RUXKY",
		"latitude": "36-52-45.6 N",
		"longitude": "113-46-16.2 W",
		"state": "ARIZONA",
		"artcc": "ZLA",
		"type": "CN",
		"updated": "11/25/2002"
	},
	{
		"name": "RUXNN",
		"latitude": "34-12-24.17 N",
		"longitude": "117-12-48.14 W",
		"state": "CALIFORNIA",
		"artcc": "ZLA",
		"type": "RNAV",
		"updated": "02/14/2017"
	},
	{
		"name": "RUZCO",
		"latitude": "36-14-32.68 N",
		"longitude": "115-17-7.29 W",
		"state": "NEVADA",
		"artcc": "ZLA",
		"type": "RP",
		"updated": "LAS*VORTAC*313.00/11.50"
	},
	{
		"name": "RYAAN",
		"latitude": "36-20-21.32 N",
		"longitude": "115-5-26.18 W",
		"state": "NEVADA",
		"artcc": "ZLA",
		"type": "MR",
		"updated": "MMM*VORTAC*221.00/47.00"
	},
	{
		"name": "RYAHH",
		"latitude": "32-46-37.6 N",
		"longitude": "116-51-40.57 W",
		"state": "CALIFORNIA",
		"artcc": "ZLA",
		"type": "RP",
		"updated": "PGY*VORTAC*016.82"
	},
	{
		"name": "RYDRR",
		"latitude": "34-11-10.05 N",
		"longitude": "119-3-47.38 W",
		"state": "CALIFORNIA",
		"artcc": "ZLA",
		"type": "RNAV",
		"updated": "03/01/2017"
	},
	{
		"name": "RYNNO",
		"latitude": "32-56-0.15 N",
		"longitude": "116-50-57.42 W",
		"state": "CALIFORNIA",
		"artcc": "ZLA",
		"type": "MR",
		"updated": "NKX*TACAN*064.05/15.90"
	}
]
