	{
		"name": "SADDE",
		"latitude": "34-2-20.38 N",
		"longitude": "118-45-52.68 W",
		"state": "CALIFORNIA",
		"artcc": "ZLA",
		"type": "RP",
		"updated": "VTU*VOR/DME*092.71/14.91",
	},
	{
		"name": "SADOE",
		"latitude": "35-45-35.79 N",
		"longitude": "115-3-16.04 W",
		"state": "NEVADA",
		"artcc": "ZLA",
		"type": "RNAV",
		"updated": "05/13/2011",
	},
	{
		"name": "SAFTY",
		"latitude": "37-23-30.79 N",
		"longitude": "115-55-33.46 W",
		"state": "NEVADA",
		"artcc": "ZLA",
		"type": "RNAV",
		"updated": "05/11/2016",
	},
	{
		"name": "SAGER",
		"latitude": "33-55-13.11 N",
		"longitude": "117-42-47.73 W",
		"state": "CALIFORNIA",
		"artcc": "ZLA",
		"type": "RP",
		"updated": "POM*VORTAC*143.73",
	},
	{
		"name": "SAKOH",
		"latitude": "34-10-48.04 N",
		"longitude": "117-18-35.72 W",
		"state": "CALIFORNIA",
		"artcc": "ZLA",
		"type": "RNAV",
		"updated": "02/14/2017",
	},
	{
		"name": "SAKQU",
		"latitude": "33-59-53.34 N",
		"longitude": "117-27-57.61 W",
		"state": "CALIFORNIA",
		"artcc": "ZLA",
		"type": "MR",
		"updated": "RIV*TACAN*286.00/11.00",
	},
	{
		"name": "SAKWE",
		"latitude": "35-7-10.8 N",
		"longitude": "120-41-15.6 W",
		"state": "CALIFORNIA",
		"artcc": "ZLA",
		"type": "CN",
		"updated": "12/17/2002",
	},
	{
		"name": "SALAJ",
		"latitude": "36-4-31.68 N",
		"longitude": "115-10-0.41 W",
		"state": "NEVADA",
		"artcc": "ZLA",
		"type": "WP",
		"updated": "11/02/1998",
	},
	{
		"name": "SALTD",
		"latitude": "35-27-20.52 N",
		"longitude": "117-59-2.19 W",
		"state": "CALIFORNIA",
		"artcc": "ZLA",
		"type": "RP",
		"updated": "HEC*VORTAC*283.23/84.62",
	},
	{
		"name": "SALTN",
		"latitude": "33-22-45.25 N",
		"longitude": "116-10-42.05 W",
		"state": "CALIFORNIA",
		"artcc": "ZLA",
		"type": "RP",
		"updated": "TRM*VORTAC*170.50",
	},
	{
		"name": "SALUD",
		"latitude": "32-52-43.96 N",
		"longitude": "114-43-23.72 W",
		"state": "CALIFORNIA",
		"artcc": "ZLA",
		"type": "MR",
		"updated": "BZA*VORTAC*303.51/9.00",
	},
	{
		"name": "SALWA",
		"latitude": "34-0-47.72 N",
		"longitude": "117-46-8.3 W",
		"state": "CALIFORNIA",
		"artcc": "ZLA",
		"type": "RP",
		"updated": "HQB*LD*071.00/33.70",
	},
	{
		"name": "SALYY",
		"latitude": "34-25-0.69 N",
		"longitude": "116-28-37.34 W",
		"state": "CALIFORNIA",
		"artcc": "ZLA",
		"type": "RNAV",
		"updated": "12/27/2016",
	},
	{
		"name": "SAMOS",
		"latitude": "32-47-59.73 N",
		"longitude": "116-49-6.89 W",
		"state": "CALIFORNIA",
		"artcc": "ZLA",
		"type": "RP",
		"updated": "SEE*LE*089.09/8.53",
	},
	{
		"name": "SAMPZ",
		"latitude": "32-45-18.96 N",
		"longitude": "117-16-45.82 W",
		"state": "CALIFORNIA",
		"artcc": "ZLA",
		"type": "RNAV",
		"updated": "06/22/2015",
	},
	{
		"name": "SANND",
		"latitude": "37-30-18.61 N",
		"longitude": "116-37-52.62 W",
		"state": "NEVADA",
		"artcc": "ZLA",
		"type": "MW",
		"updated": "12/17/2007",
	},
	{
		"name": "SAPME",
		"latitude": "34-51-43.16 N",
		"longitude": "117-59-32.08 W",
		"state": "CALIFORNIA",
		"artcc": "ZLA",
		"type": "MR",
		"updated": "EDW*VORTAC*226.00/14.70",
	},
	{
		"name": "SARAS",
		"latitude": "35-21-21.74 N",
		"longitude": "115-43-36.01 W",
		"state": "CALIFORNIA",
		"artcc": "ZLA",
		"type": "RP",
		"updated": "BLD*VORTAC*212.99/57.00",
	},
	{
		"name": "SARGS",
		"latitude": "32-46-54.19 N",
		"longitude": "117-23-22.34 W",
		"state": "CALIFORNIA",
		"artcc": "ZLA",
		"type": "RP",
		"updated": "OCN*VORTAC*162.03/27.52",
	},
	{
		"name": "SASSI",
		"latitude": "34-0-14.06 N",
		"longitude": "118-35-10.75 W",
		"state": "CALIFORNIA",
		"artcc": "ZLA",
		"type": "RP",
		"updated": "03/14/2018",
	},
	{
		"name": "SAUGS",
		"latitude": "34-29-47.69 N",
		"longitude": "118-28-3.8 W",
		"state": "CALIFORNIA",
		"artcc": "ZLA",
		"type": "RP",
		"updated": "LHS*VORTAC*139.12/12.41",
	},
	{
		"name": "SAVRE",
		"latitude": "35-41-45.48 N",
		"longitude": "112-24-59.56 W",
		"state": "ARIZONA",
		"artcc": "ZLA",
		"type": "RP",
		"updated": "GCN*VOR/DME*/20.62",
	},
	{
		"name": "SAYAE",
		"latitude": "32-41-23.1 N",
		"longitude": "117-0-34.5 W",
		"state": "CALIFORNIA",
		"artcc": "ZLA",
		"type": "RNAV",
		"updated": "10/04/2016",
	},
	{
		"name": "SAYOW",
		"latitude": "32-41-5.53 N",
		"longitude": "116-59-16.67 W",
		"state": "CALIFORNIA",
		"artcc": "ZLA",
		"type": "RNAV",
		"updated": "12/29/2016",
	},
	{
		"name": "SAYQO",
		"latitude": "36-20-6.15 N",
		"longitude": "115-25-19.78 W",
		"state": "NEVADA",
		"artcc": "ZLA",
		"type": "WP",
		"updated": "11/02/1998",
	},
	{
		"name": "SAYUL",
		"latitude": "32-42-25.28 N",
		"longitude": "114-53-16.39 W",
		"state": "CALIFORNIA",
		"artcc": "ZLA",
		"type": "RP",
		"updated": "BZA*VORTAC*241.84/14.88",
	},
	{
		"name": "SBONO",
		"latitude": "33-53-36.87 N",
		"longitude": "116-4-49.41 W",
		"state": "CALIFORNIA",
		"artcc": "ZLA",
		"type": "RP",
		"updated": "PSP*VORTAC*072.28/17.51",
	},
	{
		"name": "SCAMR",
		"latitude": "35-53-52.1 N",
		"longitude": "114-49-55.17 W",
		"state": "NEVADA",
		"artcc": "ZLA",
		"type": "RNAV",
		"updated": "04/19/2017",
	},
	{
		"name": "SCBBY",
		"latitude": "33-56-28.19 N",
		"longitude": "116-57-47.7 W",
		"state": "CALIFORNIA",
		"artcc": "ZLA",
		"type": "RNAV",
		"updated": "03/02/2017",
	},
	{
		"name": "SCCAT",
		"latitude": "34-47-53.81 N",
		"longitude": "117-23-18.89 W",
		"state": "CALIFORNIA",
		"artcc": "ZLA",
		"type": "RP",
		"updated": "VCV*VOR/DME*346.33/12.23",
	},
	{
		"name": "SCHLS",
		"latitude": "35-14-18.55 N",
		"longitude": "113-9-42.77 W",
		"state": "ARIZONA",
		"artcc": "ZLA",
		"type": "RNAV",
		"updated": "01/22/2016",
	},
	{
		"name": "SCHMO",
		"latitude": "34-17-23.6 N",
		"longitude": "118-29-52.64 W",
		"state": "CALIFORNIA",
		"artcc": "ZLA",
		"type": "RNAV",
		"updated": "06/14/2016",
	},
	{
		"name": "SCHOR",
		"latitude": "34-18-43 N",
		"longitude": "119-21-25 W",
		"state": "CALIFORNIA",
		"artcc": "ZLA",
		"type": "RNAV",
		"updated": "07/04/2013",
	},
	{
		"name": "SCOLE",
		"latitude": "33-27-45.8 N",
		"longitude": "114-4-54.4 W",
		"state": "ARIZONA",
		"artcc": "ZLA",
		"type": "RP",
		"updated": "BLH*VORTAC*089.00/35.00",
	},
	{
		"name": "SCORP",
		"latitude": "33-8-4.13 N",
		"longitude": "117-38-41.87 W",
		"state": "CALIFORNIA",
		"artcc": "ZLA",
		"type": "RP",
		"updated": "SXC*VORTAC*095.00",
	},
	{
		"name": "SCOTR",
		"latitude": "33-54-18.25 N",
		"longitude": "116-23-0.03 W",
		"state": "CALIFORNIA",
		"artcc": "ZLA",
		"type": "RNAV",
		"updated": "06/15/2015",
	},
	{
		"name": "SCRAP",
		"latitude": "35-32-21.78 N",
		"longitude": "119-23-25.79 W",
		"state": "CALIFORNIA",
		"artcc": "ZLA",
		"type": "RP",
		"updated": "TTE*VOR/DME*203.00/28.76",
	},
	{
		"name": "SCRET",
		"latitude": "34-19-24.37 N",
		"longitude": "118-25-57.35 W",
		"state": "CALIFORNIA",
		"artcc": "ZLA",
		"type": "RNAV",
		"updated": "08/30/2016",
	},
	{
		"name": "SCRIM",
		"latitude": "34-3-24.73 N",
		"longitude": "117-27-44.39 W",
		"state": "CALIFORNIA",
		"artcc": "ZLA",
		"type": "RP",
		"updated": "PDZ*VORTAC*007.12",
	},
	{
		"name": "SCROW",
		"latitude": "35-8-11.11 N",
		"longitude": "115-21-1.56 W",
		"state": "CALIFORNIA",
		"artcc": "ZLA",
		"type": "RNAV",
		"updated": "12/23/2016",
	},
	{
		"name": "SCRPY",
		"latitude": "33-55-50.45 N",
		"longitude": "115-35-25.79 W",
		"state": "CALIFORNIA",
		"artcc": "ZLA",
		"type": "RNAV",
		"updated": "03/02/2017",
	},
	{
		"name": "SCTRR",
		"latitude": "35-31-35.79 N",
		"longitude": "120-34-54.69 W",
		"state": "CALIFORNIA",
		"artcc": "ZLA",
		"type": "RNAV",
		"updated": "02/27/2017",
	},
	{
		"name": "SCUPI",
		"latitude": "33-22-11.93 N",
		"longitude": "117-16-29.98 W",
		"state": "CALIFORNIA",
		"artcc": "ZLA",
		"type": "MR",
		"updated": "NFG*TACAN*031.40/8.00",
	},
	{
		"name": "SEAEM",
		"latitude": "34-14-30.89 N",
		"longitude": "118-25-49.76 W",
		"state": "CALIFORNIA",
		"artcc": "ZLA",
		"type": "RNAV",
		"updated": "01/05/2017",
	},
	{
		"name": "SEAVU",
		"latitude": "33-58-20.69 N",
		"longitude": "117-29-18.55 W",
		"state": "CALIFORNIA",
		"artcc": "ZLA",
		"type": "RP",
		"updated": "POM*VORTAC*098.00/16.19",
	},
	{
		"name": "SEBBY",
		"latitude": "34-5-22.87 N",
		"longitude": "117-46-37.12 W",
		"state": "CALIFORNIA",
		"artcc": "ZLA",
		"type": "RP",
		"updated": "DAG*VORTAC*214.00/79.15",
	},
	{
		"name": "SECAN",
		"latitude": "33-16-16.57 N",
		"longitude": "115-37-5.63 W",
		"state": "CALIFORNIA",
		"artcc": "ZLA",
		"type": "RP",
		"updated": "IPL*VORTAC*336.00",
	},
	{
		"name": "SECRT",
		"latitude": "36-20-9.98 N",
		"longitude": "115-16-5.25 W",
		"state": "NEVADA",
		"artcc": "ZLA",
		"type": "MR",
		"updated": "LSV*TACAN*283.00/13.00",
	},
	{
		"name": "SEDYO",
		"latitude": "33-15-15.36 N",
		"longitude": "116-6-59.24 W",
		"state": "CALIFORNIA",
		"artcc": "ZLA",
		"type": "WP",
		"updated": "11/02/1998",
	},
	{
		"name": "SEEBE",
		"latitude": "34-11-54.7 N",
		"longitude": "118-56-35.3 W",
		"state": "CALIFORNIA",
		"artcc": "ZLA",
		"type": "RP",
		"updated": "FIM*VORTAC*183.00",
	},
	{
		"name": "SELAW",
		"latitude": "34-5-0.9 N",
		"longitude": "117-54-47.93 W",
		"state": "CALIFORNIA",
		"artcc": "ZLA",
		"type": "RP",
		"updated": "EMT*NDB*077.73",
	},
	{
		"name": "SEMPR",
		"latitude": "33-11-30.97 N",
		"longitude": "117-1-18.82 W",
		"state": "CALIFORNIA",
		"artcc": "ZLA",
		"type": "MR",
		"updated": "NFG*TACAN*092.00/19.00",
	},
	{
		"name": "SEONG",
		"latitude": "34-21-45.89 N",
		"longitude": "117-8-48.14 W",
		"state": "CALIFORNIA",
		"artcc": "ZLA",
		"type": "RNAV",
		"updated": "03/02/2017",
	},
	{
		"name": "SEPEE",
		"latitude": "33-23-51.78 N",
		"longitude": "117-5-45.66 W",
		"state": "CALIFORNIA",
		"artcc": "ZLA",
		"type": "RP",
		"updated": "PDZ*VORTAC*130.00/38.01",
	},
	{
		"name": "SERCO",
		"latitude": "34-11-31.24 N",
		"longitude": "120-19-8.34 W",
		"state": "OFFSHORE PACIFIC",
		"artcc": "ZLA",
		"type": "RNAV",
		"updated": "02/28/2017",
	},
	{
		"name": "SERUE",
		"latitude": "35-28-40.13 N",
		"longitude": "117-31-25.61 W",
		"state": "CALIFORNIA",
		"artcc": "ZLA",
		"type": "MR",
		"updated": "NID*TACAN*133.00/15.00",
	},
	{
		"name": "SESAE",
		"latitude": "36-57-33.99 N",
		"longitude": "115-46-50.99 W",
		"state": "NEVADA",
		"artcc": "ZLA",
		"type": "RNAV",
		"updated": "05/11/2016",
	},
	{
		"name": "SESDE",
		"latitude": "36-15-4.3 N",
		"longitude": "115-0-56.59 W",
		"state": "NEVADA",
		"artcc": "ZLA",
		"type": "MR",
		"updated": "LSV*TACAN*/0.60",
	},
	{
		"name": "SESPE",
		"latitude": "34-19-23.19 N",
		"longitude": "118-46-57.44 W",
		"state": "CALIFORNIA",
		"artcc": "ZLA",
		"type": "RP",
		"updated": "FIM*VORTAC*097.28/5.30",
	},
	{
		"name": "SETER",
		"latitude": "33-54-3.63 N",
		"longitude": "117-6-32.85 W",
		"state": "CALIFORNIA",
		"artcc": "ZLA",
		"type": "RP",
		"updated": "HDF*VOR*013.00",
	},
	{
		"name": "SEYKO",
		"latitude": "34-3-16.69 N",
		"longitude": "117-50-56.13 W",
		"state": "CALIFORNIA",
		"artcc": "ZLA",
		"type": "RNAV",
		"updated": "10/31/2005",
	},
	{
		"name": "SHABI",
		"latitude": "36-26-44.27 N",
		"longitude": "113-55-25.95 W",
		"state": "ARIZONA",
		"artcc": "ZLA",
		"type": "RNAV",
		"updated": "05/03/2011",
	},
	{
		"name": "SHADI",
		"latitude": "33-37-14.18 N",
		"longitude": "115-45-41.97 W",
		"state": "CALIFORNIA",
		"artcc": "ZLA",
		"type": "RP",
		"updated": "IPL*VORTAC*332.35/53.74",
	},
	{
		"name": "SHADO",
		"latitude": "36-15-49.45 N",
		"longitude": "116-13-50.79 W",
		"state": "NEVADA",
		"artcc": "ZLA",
		"type": "RP",
		"updated": "LAS*VORTAC*267.28/53.18",
	},
	{
		"name": "SHAEF",
		"latitude": "33-51-32.24 N",
		"longitude": "118-33-52.17 W",
		"state": "CALIFORNIA",
		"artcc": "ZLA",
		"type": "RNAV",
		"updated": "12/23/2016",
	},
	{
		"name": "SHAMU",
		"latitude": "33-8-53 N",
		"longitude": "117-45-58.02 W",
		"state": "CALIFORNIA",
		"artcc": "ZLA",
		"type": "RP",
		"updated": "MZB*VORTAC*293.90/35.00",
	},
	{
		"name": "SHAND",
		"latitude": "36-4-25.13 N",
		"longitude": "114-56-34.22 W",
		"state": "NEVADA",
		"artcc": "ZLA",
		"type": "RP",
		"updated": "BLD*VORTAC*305.44",
	},
	{
		"name": "SHANQ",
		"latitude": "35-42-11.26 N",
		"longitude": "115-22-55.81 W",
		"state": "NEVADA",
		"artcc": "ZLA",
		"type": "RP",
		"updated": "CUA*LD*193.91/26.22",
	},
	{
		"name": "SHARC",
		"latitude": "32-37-51.59 N",
		"longitude": "117-9-55.39 W",
		"state": "CALIFORNIA",
		"artcc": "ZLA",
		"type": "MR",
		"updated": "NZY*TACAN*135.00/5.00",
	},
	{
		"name": "SHAWK",
		"latitude": "35-4-53.65 N",
		"longitude": "118-10-31.68 W",
		"state": "CALIFORNIA",
		"artcc": "ZLA",
		"type": "RNAV",
		"updated": "05/10/2011",
	},
	{
		"name": "SHAYL",
		"latitude": "33-37-32.35 N",
		"longitude": "117-25-55.98 W",
		"state": "CALIFORNIA",
		"artcc": "ZLA",
		"type": "RNAV",
		"updated": "12/30/2016",
	},
	{
		"name": "SHEAD",
		"latitude": "35-53-44.58 N",
		"longitude": "115-58-15.99 W",
		"state": "CALIFORNIA",
		"artcc": "ZLA",
		"type": "RP",
		"updated": "BTY*VORTAC*129.00/66.00",
	},
	{
		"name": "SHEET",
		"latitude": "36-24-31.9 N",
		"longitude": "114-50-39.1 W",
		"state": "NEVADA",
		"artcc": "ZLA",
		"type": "MR",
		"updated": "LSV*TACAN*029.66/13.18",
	},
	{
		"name": "SHELF",
		"latitude": "34-24-11.2 N",
		"longitude": "120-7-37.23 W",
		"state": "CALIFORNIA",
		"artcc": "ZLA",
		"type": "MR",
		"updated": "VBG*TACAN*117.00/30.00",
	},
	{
		"name": "SHELL",
		"latitude": "33-57-45.67 N",
		"longitude": "118-9-15.77 W",
		"state": "CALIFORNIA",
		"artcc": "ZLA",
		"type": "RP",
		"updated": "CFN*LD*071.01/13.54",
	},
	{
		"name": "SHENK",
		"latitude": "41-18-29.47 N",
		"longitude": "84-56-39.11 W",
		"state": "INDIANA",
		"artcc": "ZLA",
		"type": "RP",
		"updated": "FWA*VORTAC*035.17",
	},
	{
		"name": "SHHOW",
		"latitude": "33-24-17.49 N",
		"longitude": "117-59-47.9 W",
		"state": "OFFSHORE PACIFIC",
		"artcc": "ZLA",
		"type": "RNAV",
		"updated": "02/28/2017",
	},
	{
		"name": "SHILY",
		"latitude": "33-45-18.42 N",
		"longitude": "118-31-19.26 W",
		"state": "CALIFORNIA",
		"artcc": "ZLA",
		"type": "RP",
		"updated": "VTU*VOR/DME*114.16/34.03",
	},
	{
		"name": "SHIPM",
		"latitude": "33-59-59.53 N",
		"longitude": "118-37-34.03 W",
		"state": "CALIFORNIA",
		"artcc": "ZLA",
		"type": "RNAV",
		"updated": "12/23/2016",
	},
	{
		"name": "SHIRR",
		"latitude": "33-28-30 N",
		"longitude": "117-46-30 W",
		"state": "CALIFORNIA",
		"artcc": "ZLA",
		"type": "RNAV",
		"updated": "12/02/2010",
	},
	{
		"name": "SHIVA",
		"latitude": "34-58-12.28 N",
		"longitude": "114-17-24.65 W",
		"state": "ARIZONA",
		"artcc": "ZLA",
		"type": "RNAV",
		"updated": "01/20/2016",
	},
	{
		"name": "SHIVE",
		"latitude": "33-15-58.34 N",
		"longitude": "117-51-59.82 W",
		"state": "CALIFORNIA",
		"artcc": "ZLA",
		"type": "RP",
		"updated": "OCN*VORTAC*259.00/22.64",
	},
	{
		"name": "SHMRQ",
		"latitude": "33-48-32.25 N",
		"longitude": "117-54-8.82 W",
		"state": "CALIFORNIA",
		"artcc": "ZLA",
		"type": "RNAV",
		"updated": "01/05/2017",
	},
	{
		"name": "SHOLN",
		"latitude": "34-26-51.39 N",
		"longitude": "118-59-26.98 W",
		"state": "CALIFORNIA",
		"artcc": "ZLA",
		"type": "RNAV",
		"updated": "03/02/2017",
	},
	{
		"name": "SHORS",
		"latitude": "34-47-43.61 N",
		"longitude": "118-56-7.37 W",
		"state": "CALIFORNIA",
		"artcc": "ZLA",
		"type": "RNAV",
		"updated": "01/05/2017",
	},
	{
		"name": "SHOTS",
		"latitude": "33-5-21.65 N",
		"longitude": "118-23-44.39 W",
		"state": "CALIFORNIA",
		"artcc": "ZLA",
		"type": "MR",
		"updated": "NUC*TACAN*053.00/10.00",
	},
	{
		"name": "SHRTZ",
		"latitude": "33-58-13.93 N",
		"longitude": "117-43-19.73 W",
		"state": "CALIFORNIA",
		"artcc": "ZLA",
		"type": "RNAV",
		"updated": "12/28/2016",
	},
	{
		"name": "SHTNR",
		"latitude": "35-7-28.87 N",
		"longitude": "115-34-40.22 W",
		"state": "CALIFORNIA",
		"artcc": "ZLA",
		"type": "RNAV",
		"updated": "12/28/2016",
	},
	{
		"name": "SHUSS",
		"latitude": "35-29-43.92 N",
		"longitude": "114-53-16.23 W",
		"state": "NEVADA",
		"artcc": "ZLA",
		"type": "RP",
		"updated": "GFS*VORTAC*017.91/26.03",
	},
	{
		"name": "SIERA",
		"latitude": "32-26-42.5 N",
		"longitude": "117-30-18.05 W",
		"state": "CALIFORNIA",
		"artcc": "ZLA",
		"type": "MR",
		"updated": "NKX*TACAN*200.00/31.00",
	},
	{
		"name": "SIGOY",
		"latitude": "36-59-41.25 N",
		"longitude": "112-32-20.3 W",
		"state": "ARIZONA",
		"artcc": "ZLA",
		"type": "RNAV",
		"updated": "02/17/2005",
	},
	{
		"name": "SIGRE",
		"latitude": "35-33-58.13 N",
		"longitude": "119-16-22.67 W",
		"state": "CALIFORNIA",
		"artcc": "ZLA",
		"type": "RNAV",
		"updated": "02/13/2013",
	},
	{
		"name": "SILEX",
		"latitude": "34-12-3.81 N",
		"longitude": "118-36-41.89 W",
		"state": "CALIFORNIA",
		"artcc": "ZLA",
		"type": "RP",
		"updated": "LAX*VORTAC*315.89",
	},
	{
		"name": "SIMBE",
		"latitude": "32-55-29.08 N",
		"longitude": "116-53-22.34 W",
		"state": "CALIFORNIA",
		"artcc": "ZLA",
		"type": "MW",
		"updated": "11/11/2009",
	},
	{
		"name": "SINHO",
		"latitude": "35-20-16.99 N",
		"longitude": "113-37-51.39 W",
		"state": "ARIZONA",
		"artcc": "ZLA",
		"type": "RP",
		"updated": "BLD*VORTAC*107.82/72.00",
	},
	{
		"name": "SINNN",
		"latitude": "37-3-0.84 N",
		"longitude": "111-50-28.98 W",
		"state": "UTAH",
		"artcc": "ZLA",
		"type": "RNAV",
		"updated": "11/02/2016",
	},
	{
		"name": "SIPPP",
		"latitude": "33-54-32.58 N",
		"longitude": "118-43-14.6 W",
		"state": "CALIFORNIA",
		"artcc": "ZLA",
		"type": "RNAV",
		"updated": "03/02/2017",
	},
	{
		"name": "SIRFF",
		"latitude": "33-34-0 N",
		"longitude": "119-7-0 W",
		"state": "CALIFORNIA",
		"artcc": "ZLA",
		"type": "RNAV",
		"updated": "04/08/2014",
	},
	{
		"name": "SISKL",
		"latitude": "35-47-56.8 N",
		"longitude": "114-31-55.41 W",
		"state": "ARIZONA",
		"artcc": "ZLA",
		"type": "RP",
		"updated": "BLD*VORTAC*111.00/20.00",
	},
	{
		"name": "SISOY",
		"latitude": "34-45-30.77 N",
		"longitude": "118-9-11.02 W",
		"state": "CALIFORNIA",
		"artcc": "ZLA",
		"type": "RNAV",
		"updated": "08/16/2006",
	},
	{
		"name": "SITEE",
		"latitude": "36-17-41.02 N",
		"longitude": "114-37-54.47 W",
		"state": "NEVADA",
		"artcc": "ZLA",
		"type": "RNAV",
		"updated": "11/02/2016",
	},
	{
		"name": "SIZLR",
		"latitude": "34-34-45.43 N",
		"longitude": "118-1-29.41 W",
		"state": "CALIFORNIA",
		"artcc": "ZLA",
		"type": "RNAV",
		"updated": "12/23/2016",
	},
	{
		"name": "SKATE",
		"latitude": "32-31-14.72 N",
		"longitude": "117-23-23.61 W",
		"state": "CALIFORNIA",
		"artcc": "ZLA",
		"type": "MR",
		"updated": "NZY*TACAN*208.00/14.00",
	},
	{
		"name": "SKEBR",
		"latitude": "35-45-25.77 N",
		"longitude": "115-34-32.06 W",
		"state": "NEVADA",
		"artcc": "ZLA",
		"type": "RP",
		"updated": "LAS*VORTAC*211.48/28.00",
	},
	{
		"name": "SKIFF",
		"latitude": "34-11-53.72 N",
		"longitude": "119-14-52.53 W",
		"state": "CALIFORNIA",
		"artcc": "ZLA",
		"type": "RP",
		"updated": "VTU*VOR/DME*281.82",
	},
	{
		"name": "SKKEE",
		"latitude": "34-38-9.89 N",
		"longitude": "118-0-46.08 W",
		"state": "CALIFORNIA",
		"artcc": "ZLA",
		"type": "RP",
		"updated": "PMD*VORTAC*/2.54",
	},
	{
		"name": "SKOLL",
		"latitude": "34-1-19.2 N",
		"longitude": "117-41-54.95 W",
		"state": "CALIFORNIA",
		"artcc": "ZLA",
		"type": "RP",
		"updated": "OSS*LD*071.00/37.30",
	},
	{
		"name": "SKWRL",
		"latitude": "34-3-29.58 N",
		"longitude": "118-34-43.76 W",
		"state": "CALIFORNIA",
		"artcc": "ZLA",
		"type": "RNAV",
		"updated": "12/30/2016",
	},
	{
		"name": "SKYES",
		"latitude": "33-22-8 N",
		"longitude": "117-4-19.85 W",
		"state": "CALIFORNIA",
		"artcc": "ZLA",
		"type": "MR",
		"updated": "PDZ*VORTAC*130.00",
	},
	{
		"name": "SLACR",
		"latitude": "34-3-19.58 N",
		"longitude": "117-38-54.42 W",
		"state": "CALIFORNIA",
		"artcc": "ZLA",
		"type": "RNAV",
		"updated": "12/23/2016",
	},
	{
		"name": "SLAER",
		"latitude": "33-20-42.85 N",
		"longitude": "118-11-49.83 W",
		"state": "CALIFORNIA",
		"artcc": "ZLA",
		"type": "RNAV",
		"updated": "12/23/2016",
	},
	{
		"name": "SLAPP",
		"latitude": "34-27-50.14 N",
		"longitude": "118-19-54.07 W",
		"state": "CALIFORNIA",
		"artcc": "ZLA",
		"type": "RP",
		"updated": "LHS*VORTAC*122.13",
	},
	{
		"name": "SLEEZ",
		"latitude": "33-26-53.24 N",
		"longitude": "117-54-43.98 W",
		"state": "CALIFORNIA",
		"artcc": "ZLA",
		"type": "RP",
		"updated": "LAX*VORTAC*123.00/39.00",
	},
	{
		"name": "SLLRS",
		"latitude": "34-47-35.45 N",
		"longitude": "115-27-38.41 W",
		"state": "CALIFORNIA",
		"artcc": "ZLA",
		"type": "RNAV",
		"updated": "12/23/2016",
	},
	{
		"name": "SLOTS",
		"latitude": "36-22-48.82 N",
		"longitude": "115-25-9.89 W",
		"state": "NEVADA",
		"artcc": "ZLA",
		"type": "MR",
		"updated": "LAS*VORTAC*310.00/22.00",
	},
	{
		"name": "SLPPR",
		"latitude": "33-42-8.42 N",
		"longitude": "117-22-23.69 W",
		"state": "CALIFORNIA",
		"artcc": "ZLA",
		"type": "RNAV",
		"updated": "12/23/2016",
	},
	{
		"name": "SLVIR",
		"latitude": "37-13-6.09 N",
		"longitude": "116-1-11.89 W",
		"state": "NEVADA",
		"artcc": "ZLA",
		"type": "RNAV",
		"updated": "05/11/2016",
	},
	{
		"name": "SMASH",
		"latitude": "34-46-27.55 N",
		"longitude": "116-1-25.94 W",
		"state": "CALIFORNIA",
		"artcc": "ZLA",
		"type": "RNAV",
		"updated": "04/06/2018",
	},
	{
		"name": "SMEGL",
		"latitude": "34-6-39.28 N",
		"longitude": "117-50-36.78 W",
		"state": "CALIFORNIA",
		"artcc": "ZLA",
		"type": "RNAV",
		"updated": "02/27/2017",
	},
	{
		"name": "SMKEE",
		"latitude": "36-54-7.57 N",
		"longitude": "115-37-14.8 W",
		"state": "NEVADA",
		"artcc": "ZLA",
		"type": "RNAV",
		"updated": "05/11/2016",
	},
	{
		"name": "SNAKE",
		"latitude": "33-50-51.37 N",
		"longitude": "117-45-34.74 W",
		"state": "CALIFORNIA",
		"artcc": "ZLA",
		"type": "RP",
		"updated": "SLI*VORTAC*060.29",
	},
	{
		"name": "SNAKS",
		"latitude": "33-55-19.29 N",
		"longitude": "118-33-12.26 W",
		"state": "CALIFORNIA",
		"artcc": "ZLA",
		"type": "RNAV",
		"updated": "09/26/2016",
	},
	{
		"name": "SNAXX",
		"latitude": "34-8-22.24 N",
		"longitude": "120-58-38.76 W",
		"state": "OFFSHORE PACIFIC",
		"artcc": "ZLA",
		"type": "RNAV",
		"updated": "02/28/2017",
	},
	{
		"name": "SNDDR",
		"latitude": "33-53-57.79 N",
		"longitude": "117-19-54.52 W",
		"state": "CALIFORNIA",
		"artcc": "ZLA",
		"type": "RNAV",
		"updated": "12/23/2016",
	},
	{
		"name": "SNEAK",
		"latitude": "33-41-56 N",
		"longitude": "117-7-50 W",
		"state": "CALIFORNIA",
		"artcc": "ZLA",
		"type": "MW",
		"updated": "08/29/2014",
	},
	{
		"name": "SNNAK",
		"latitude": "33-55-21.24 N",
		"longitude": "117-57-51.06 W",
		"state": "CALIFORNIA",
		"artcc": "ZLA",
		"type": "RNAV",
		"updated": "01/24/2017",
	},
	{
		"name": "SNSHN",
		"latitude": "34-7-6.75 N",
		"longitude": "117-50-25.18 W",
		"state": "CALIFORNIA",
		"artcc": "ZLA",
		"type": "RNAV",
		"updated": "12/30/2016",
	},
	{
		"name": "SNSTT",
		"latitude": "33-12-8.21 N",
		"longitude": "116-38-39.14 W",
		"state": "CALIFORNIA",
		"artcc": "ZLA",
		"type": "RNAV",
		"updated": "12/23/2016",
	},
	{
		"name": "SNYPR",
		"latitude": "33-26-22 N",
		"longitude": "118-18-0.1 W",
		"state": "CALIFORNIA",
		"artcc": "ZLA",
		"type": "RNAV",
		"updated": "03/02/2017",
	},
	{
		"name": "SODSE",
		"latitude": "33-34-19.26 N",
		"longitude": "114-24-11.97 W",
		"state": "ARIZONA",
		"artcc": "ZLA",
		"type": "RP",
		"updated": "BLH*VORTAC*080.49/18.00",
	},
	{
		"name": "SOEHL",
		"latitude": "33-55-5.52 N",
		"longitude": "117-31-47.58 W",
		"state": "CALIFORNIA",
		"artcc": "ZLA",
		"type": "RNAV",
		"updated": "12/30/2016",
	},
	{
		"name": "SOFII",
		"latitude": "32-50-39.95 N",
		"longitude": "115-29-13.34 W",
		"state": "CALIFORNIA",
		"artcc": "ZLA",
		"type": "RNAV",
		"updated": "09/11/2016",
	},
	{
		"name": "SOGGI",
		"latitude": "34-30-10.79 N",
		"longitude": "116-40-41.79 W",
		"state": "CALIFORNIA",
		"artcc": "ZLA",
		"type": "RP",
		"updated": "PSP*VORTAC*329.00/39.88",
	},
	{
		"name": "SOJSU",
		"latitude": "35-17-22.2 N",
		"longitude": "120-55-7.2 W",
		"state": "CALIFORNIA",
		"artcc": "ZLA",
		"type": "CN",
		"updated": "12/17/2002",
	},
	{
		"name": "SOLAY",
		"latitude": "33-31-15.26 N",
		"longitude": "116-46-48.6 W",
		"state": "CALIFORNIA",
		"artcc": "ZLA",
		"type": "RNAV",
		"updated": "12/23/2016",
	},
	{
		"name": "SOLED",
		"latitude": "34-27-46.65 N",
		"longitude": "118-9-11.68 W",
		"state": "CALIFORNIA",
		"artcc": "ZLA",
		"type": "RP",
		"updated": "LHS*VORTAC*107.00",
	},
	{
		"name": "SONIQ",
		"latitude": "35-8-26.53 N",
		"longitude": "117-25-19.26 W",
		"state": "CALIFORNIA",
		"artcc": "ZLA",
		"type": "MW",
		"updated": "02/03/2009",
	},
	{
		"name": "SOSHA",
		"latitude": "35-36-18 N",
		"longitude": "118-53-3 W",
		"state": "CALIFORNIA",
		"artcc": "ZLA",
		"type": "RNAV",
		"updated": "12/23/2016",
	},
	{
		"name": "SOSOY",
		"latitude": "35-59-20.32 N",
		"longitude": "115-13-10.92 W",
		"state": "NEVADA",
		"artcc": "ZLA",
		"type": "RP",
		"updated": "CUA*LD*193.91/7.34",
	},
	{
		"name": "SOSYY",
		"latitude": "34-29-9.6 N",
		"longitude": "120-5-24.6 W",
		"state": "CALIFORNIA",
		"artcc": "ZLA",
		"type": "CN",
		"updated": "12/17/2002",
	},
	{
		"name": "SPEEK",
		"latitude": "34-44-2.29 N",
		"longitude": "120-24-35.73 W",
		"state": "CALIFORNIA",
		"artcc": "ZLA",
		"type": "RNAV",
		"updated": "09/11/2016",
	},
	{
		"name": "SPERG",
		"latitude": "34-32-36.89 N",
		"longitude": "117-23-9.58 W",
		"state": "CALIFORNIA",
		"artcc": "ZLA",
		"type": "RNAV",
		"updated": "12/03/2008",
	},
	{
		"name": "SPERR",
		"latitude": "35-17-0 N",
		"longitude": "121-8-0 W",
		"state": "CALIFORNIA",
		"artcc": "ZLA",
		"type": "RNAV",
		"updated": "04/08/2014",
	},
	{
		"name": "SPIKE",
		"latitude": "33-53-26.35 N",
		"longitude": "117-57-27.52 W",
		"state": "CALIFORNIA",
		"artcc": "ZLA",
		"type": "RP",
		"updated": "LAX*VORTAC*081.00",
	},
	{
		"name": "SPLNT",
		"latitude": "35-5-15 N",
		"longitude": "120-22-21.51 W",
		"state": "CALIFORNIA",
		"artcc": "ZLA",
		"type": "RNAV",
		"updated": "02/27/2017",
	},
	{
		"name": "SPRET",
		"latitude": "34-9-45.97 N",
		"longitude": "115-52-44.7 W",
		"state": "CALIFORNIA",
		"artcc": "ZLA",
		"type": "MR",
		"updated": "NXP*TACAN*106.00/16.00",
	},
	{
		"name": "SPRRW",
		"latitude": "33-54-14.75 N",
		"longitude": "118-42-51.97 W",
		"state": "CALIFORNIA",
		"artcc": "ZLA",
		"type": "RNAV",
		"updated": "01/05/2017",
	},
	{
		"name": "SPUNG",
		"latitude": "33-25-22 N",
		"longitude": "118-9-40 W",
		"state": "OFFSHORE PACIFIC",
		"artcc": "ZLA",
		"type": "RNAV",
		"updated": "07/06/2009",
	},
	{
		"name": "SPYDE",
		"latitude": "33-33-4 N",
		"longitude": "117-56-2 W",
		"state": "CALIFORNIA",
		"artcc": "ZLA",
		"type": "RNAV",
		"updated": "12/23/2016",
	},
	{
		"name": "SQUID",
		"latitude": "34-11-6.34 N",
		"longitude": "119-23-16.38 W",
		"state": "CALIFORNIA",
		"artcc": "ZLA",
		"type": "RP",
		"updated": "RZS*VORTAC*121.49",
	},
	{
		"name": "SRIMP",
		"latitude": "34-22-18.23 N",
		"longitude": "120-9-47.61 W",
		"state": "CALIFORNIA",
		"artcc": "ZLA",
		"type": "MR",
		"updated": "VBG*TACAN*122.00/30.00",
	},
	{
		"name": "SRRFR",
		"latitude": "33-59-24.09 N",
		"longitude": "115-15-55.37 W",
		"state": "CALIFORNIA",
		"artcc": "ZLA",
		"type": "RNAV",
		"updated": "09/11/2016",
	},
	{
		"name": "SRRRA",
		"latitude": "34-20-52.55 N",
		"longitude": "119-56-24.63 W",
		"state": "CALIFORNIA",
		"artcc": "ZLA",
		"type": "RNAV",
		"updated": "09/11/2016",
	},
	{
		"name": "SSETH",
		"latitude": "34-44-8.66 N",
		"longitude": "117-0-58.77 W",
		"state": "CALIFORNIA",
		"artcc": "ZLA",
		"type": "RNAV",
		"updated": "12/27/2016",
	},
	{
		"name": "SSKUL",
		"latitude": "36-51-3 N",
		"longitude": "116-17-42.6 W",
		"state": "NEVADA",
		"artcc": "ZLA",
		"type": "RNAV",
		"updated": "05/11/2016",
	},
	{
		"name": "STAAG",
		"latitude": "34-3-17.69 N",
		"longitude": "117-40-46.08 W",
		"state": "CALIFORNIA",
		"artcc": "ZLA",
		"type": "RNAV",
		"updated": "02/16/2017",
	},
	{
		"name": "STAAV",
		"latitude": "36-12-1.16 N",
		"longitude": "114-46-58.24 W",
		"state": "NEVADA",
		"artcc": "ZLA",
		"type": "RNAV",
		"updated": "10/05/2016",
	},
	{
		"name": "STABO",
		"latitude": "34-0-8.94 N",
		"longitude": "118-16-53.87 W",
		"state": "CALIFORNIA",
		"artcc": "ZLA",
		"type": "RP",
		"updated": "LAX*VORTAC*046.00/9.00",
	},
	{
		"name": "STADD",
		"latitude": "35-40-0.93 N",
		"longitude": "119-43-57.63 W",
		"state": "CALIFORNIA",
		"artcc": "ZLA",
		"type": "RNAV",
		"updated": "03/01/2017",
	},
	{
		"name": "STARI",
		"latitude": "34-6-43.9 N",
		"longitude": "115-40-10.36 W",
		"state": "CALIFORNIA",
		"artcc": "ZLA",
		"type": "MR",
		"updated": "TNP*VORTAC*075.00/5.00",
	},
	{
		"name": "STAXS",
		"latitude": "32-52-16.7 N",
		"longitude": "116-32-17.69 W",
		"state": "CALIFORNIA",
		"artcc": "ZLA",
		"type": "RNAV",
		"updated": "01/09/2017",
	},
	{
		"name": "STAYY",
		"latitude": "33-34-59.41 N",
		"longitude": "117-29-1.23 W",
		"state": "CALIFORNIA",
		"artcc": "ZLA",
		"type": "RNAV",
		"updated": "11/22/2017",
	},
	{
		"name": "STEBN",
		"latitude": "35-34-51.27 N",
		"longitude": "119-8-55.97 W",
		"state": "CALIFORNIA",
		"artcc": "ZLA",
		"type": "RNAV",
		"updated": "10/07/2015",
	},
	{
		"name": "STEPN",
		"latitude": "32-48-41 N",
		"longitude": "117-12-32 W",
		"state": "CALIFORNIA",
		"artcc": "ZLA",
		"type": "RNAV",
		"updated": "11/21/2017",
	},
	{
		"name": "STIGR",
		"latitude": "35-20-22.88 N",
		"longitude": "119-11-54.97 W",
		"state": "CALIFORNIA",
		"artcc": "ZLA",
		"type": "RP",
		"updated": "EHF*VORTAC*195.82/10.00",
	},
	{
		"name": "STLTH",
		"latitude": "34-55-41.91 N",
		"longitude": "117-27-8.68 W",
		"state": "CALIFORNIA",
		"artcc": "ZLA",
		"type": "MW",
		"updated": "03/12/2018",
	},
	{
		"name": "STOFF",
		"latitude": "37-25-6.54 N",
		"longitude": "116-32-30.52 W",
		"state": "NEVADA",
		"artcc": "ZLA",
		"type": "MR",
		"updated": "TQQ*VORTAC*137.00/25.00",
	},
	{
		"name": "STOKD",
		"latitude": "35-29-0.57 N",
		"longitude": "120-49-5.68 W",
		"state": "CALIFORNIA",
		"artcc": "ZLA",
		"type": "RNAV",
		"updated": "02/27/2017",
	},
	{
		"name": "STOMN",
		"latitude": "34-13-17.36 N",
		"longitude": "117-12-12.1 W",
		"state": "CALIFORNIA",
		"artcc": "ZLA",
		"type": "RNAV",
		"updated": "03/02/2017",
	},
	{
		"name": "STOWN",
		"latitude": "33-58-17.18 N",
		"longitude": "116-9-18.36 W",
		"state": "CALIFORNIA",
		"artcc": "ZLA",
		"type": "RP",
		"updated": "PSP*VORTAC*053.03/15.00",
	},
	{
		"name": "STRAS",
		"latitude": "34-37-26.79 N",
		"longitude": "118-0-51.75 W",
		"state": "CALIFORNIA",
		"artcc": "ZLA",
		"type": "RP",
		"updated": "PMD*VORTAC*085.10/2.49",
	},
	{
		"name": "STREL",
		"latitude": "33-34-17.5 N",
		"longitude": "117-53-57.6 W",
		"state": "CALIFORNIA",
		"artcc": "ZLA",
		"type": "RNAV",
		"updated": "12/02/2010",
	},
	{
		"name": "STRIP",
		"latitude": "36-20-35.83 N",
		"longitude": "115-16-28.93 W",
		"state": "NEVADA",
		"artcc": "ZLA",
		"type": "MR",
		"updated": "INS*TACAN*112.00/24.00",
	},
	{
		"name": "STRKS",
		"latitude": "33-58-10.6 N",
		"longitude": "117-2-40.31 W",
		"state": "CALIFORNIA",
		"artcc": "ZLA",
		"type": "RNAV",
		"updated": "03/02/2017",
	},
	{
		"name": "STRTO",
		"latitude": "36-10-15.06 N",
		"longitude": "115-6-56.3 W",
		"state": "NEVADA",
		"artcc": "ZLA",
		"type": "WP",
		"updated": "07/09/2001",
	},
	{
		"name": "STRYK",
		"latitude": "36-25-37.4 N",
		"longitude": "115-30-42.25 W",
		"state": "NEVADA",
		"artcc": "ZLA",
		"type": "MR",
		"updated": "LSV*TACAN*283.00/26.00",
	},
	{
		"name": "STYFF",
		"latitude": "33-31-18 N",
		"longitude": "118-27-56.4 W",
		"state": "CALIFORNIA",
		"artcc": "ZLA",
		"type": "RNAV",
		"updated": "03/02/2017",
	},
	{
		"name": "STYME",
		"latitude": "36-50-0 N",
		"longitude": "116-0-0 W",
		"state": "NEVADA",
		"artcc": "ZLA",
		"type": "RNAV",
		"updated": "05/11/2016",
	},
	{
		"name": "SUANA",
		"latitude": "34-13-23.64 N",
		"longitude": "118-43-14.68 W",
		"state": "CALIFORNIA",
		"artcc": "ZLA",
		"type": "RP",
		"updated": "VNY*VOR/DME*255.00/11.40",
	},
	{
		"name": "SUBMR",
		"latitude": "33-22-17.5 N",
		"longitude": "117-43-29.09 W",
		"state": "CALIFORNIA",
		"artcc": "ZLA",
		"type": "RP",
		"updated": "ELB*VOR/DME*165.00/18.24",
	},
	{
		"name": "SUDDO",
		"latitude": "34-23-2 N",
		"longitude": "120-7-43.7 W",
		"state": "OFFSHORE PACIFIC",
		"artcc": "ZLA",
		"type": "RP",
		"updated": "RZS*VORTAC*233.13",
	},
	{
		"name": "SUDME",
		"latitude": "33-48-55.92 N",
		"longitude": "118-0-21.16 W",
		"state": "CALIFORNIA",
		"artcc": "ZLA",
		"type": "RNAV",
		"updated": "02/19/2016",
	},
	{
		"name": "SUDOC",
		"latitude": "34-1-21.32 N",
		"longitude": "117-28-47.97 W",
		"state": "CALIFORNIA",
		"artcc": "ZLA",
		"type": "RP",
		"updated": "PDZ*VORTAC*006.77",
	},
	{
		"name": "SUKNE",
		"latitude": "33-29-41.5 N",
		"longitude": "118-18-54.38 W",
		"state": "CALIFORNIA",
		"artcc": "ZLA",
		"type": "RNAV",
		"updated": "12/23/2015",
	},
	{
		"name": "SULZU",
		"latitude": "34-18-14.4 N",
		"longitude": "118-3-0 W",
		"state": "CALIFORNIA",
		"artcc": "ZLA",
		"type": "RP",
		"updated": "POM*VORTAC*300.99/18.81",
	},
	{
		"name": "SUMMR",
		"latitude": "33-55-20.57 N",
		"longitude": "119-0-59.94 W",
		"state": "CALIFORNIA",
		"artcc": "ZLA",
		"type": "RNAV",
		"updated": "10/16/2017",
	},
	{
		"name": "SUMXY",
		"latitude": "34-17-48.47 N",
		"longitude": "118-28-12.37 W",
		"state": "CALIFORNIA",
		"artcc": "ZLA",
		"type": "RNAV",
		"updated": "03/21/2016",
	},
	{
		"name": "SUNST",
		"latitude": "36-0-37 N",
		"longitude": "115-4-51 W",
		"state": "NEVADA",
		"artcc": "ZLA",
		"type": "RNAV",
		"updated": "09/04/2003",
	},
	{
		"name": "SUNYY",
		"latitude": "36-38-54.44 N",
		"longitude": "112-50-47.99 W",
		"state": "ARIZONA",
		"artcc": "ZLA",
		"type": "RNAV",
		"updated": "09/17/2016",
	},
	{
		"name": "SUPNY",
		"latitude": "34-9-2.4 N",
		"longitude": "119-44-47.4 W",
		"state": "CALIFORNIA",
		"artcc": "ZLA",
		"type": "CN",
		"updated": "12/17/2002",
	},
	{
		"name": "SUTIE",
		"latitude": "33-57-47.09 N",
		"longitude": "118-16-30.03 W",
		"state": "CALIFORNIA",
		"artcc": "ZLA",
		"type": "RP",
		"updated": "HQB*LD*071.00/8.27",
	},
	{
		"name": "SUVIE",
		"latitude": "36-21-33.93 N",
		"longitude": "114-48-17.11 W",
		"state": "NEVADA",
		"artcc": "ZLA",
		"type": "RP",
		"updated": "LAS*VORTAC*030.70/24.04",
	},
	{
		"name": "SUZSI",
		"latitude": "36-2-15 N",
		"longitude": "114-31-18 W",
		"state": "ARIZONA",
		"artcc": "ZLA",
		"type": "RNAV",
		"updated": "09/04/2003",
	},
	{
		"name": "SUZZQ",
		"latitude": "34-41-44.59 N",
		"longitude": "117-23-15.13 W",
		"state": "CALIFORNIA",
		"artcc": "ZLA",
		"type": "RP",
		"updated": "VCV*VOR/DME*/6.08",
	},
	{
		"name": "SVERE",
		"latitude": "36-7-8.06 N",
		"longitude": "115-8-43.51 W",
		"state": "NEVADA",
		"artcc": "ZLA",
		"type": "RNAV",
		"updated": "04/19/2017",
	},
	{
		"name": "SWABB",
		"latitude": "32-31-39.3 N",
		"longitude": "117-11-54.02 W",
		"state": "CALIFORNIA",
		"artcc": "ZLA",
		"type": "MR",
		"updated": "NRS*TACAN*230.00/5.00",
	},
	{
		"name": "SWAMI",
		"latitude": "33-21-28.87 N",
		"longitude": "118-4-47.83 W",
		"state": "CALIFORNIA",
		"artcc": "ZLA",
		"type": "RNAV",
		"updated": "12/27/2016",
	},
	{
		"name": "SWAMM",
		"latitude": "34-18-55.15 N",
		"longitude": "119-33-13.28 W",
		"state": "CALIFORNIA",
		"artcc": "ZLA",
		"type": "RNAV",
		"updated": "09/11/2016",
	},
	{
		"name": "SWIIM",
		"latitude": "34-39-12.84 N",
		"longitude": "118-40-18.59 W",
		"state": "CALIFORNIA",
		"artcc": "ZLA",
		"type": "RNAV",
		"updated": "09/09/2016",
	},
	{
		"name": "SWOLF",
		"latitude": "32-55-8.71 N",
		"longitude": "117-16-49.7 W",
		"state": "CALIFORNIA",
		"artcc": "ZLA",
		"type": "MR",
		"updated": "NKX*TACAN*283.00/7.00",
	},
	{
		"name": "SWWAG",
		"latitude": "33-6-50.87 N",
		"longitude": "117-22-2.69 W",
		"state": "CALIFORNIA",
		"artcc": "ZLA",
		"type": "RNAV",
		"updated": "10/04/2016",
	},
	{
		"name": "SYMON",
		"latitude": "34-9-54.29 N",
		"longitude": "118-48-38.95 W",
		"state": "CALIFORNIA",
		"artcc": "ZLA",
		"type": "RP",
		"updated": "FIM*VORTAC*148.00/12.00",
	},
