	{
		"name": "UBABE",
		"latitude": "33-54-55.63 N",
		"longitude": "115-44-30.86 W",
		"state": "CALIFORNIA",
		"artcc": "ZLA",
		"type": "RP",
		"updated": "PSP*VORTAC*072.28/34.46",
	},
	{
		"name": "UCANN",
		"latitude": "34-54-29.21 N",
		"longitude": "119-29-37.51 W",
		"state": "CALIFORNIA",
		"artcc": "ZLA",
		"type": "RNAV",
		"updated": "03/02/2017",
	},
	{
		"name": "UCARA",
		"latitude": "33-54-57.03 N",
		"longitude": "116-32-49.29 W",
		"state": "CALIFORNIA",
		"artcc": "ZLA",
		"type": "RNAV",
		"updated": "01/25/2005",
	},
	{
		"name": "UCASU",
		"latitude": "35-3-16.3 N",
		"longitude": "118-10-20.42 W",
		"state": "CALIFORNIA",
		"artcc": "ZLA",
		"type": "RNAV",
		"updated": "02/09/2018",
	},
	{
		"name": "UCAYI",
		"latitude": "34-13-34.86 N",
		"longitude": "114-14-49.17 W",
		"state": "CALIFORNIA",
		"artcc": "ZLA",
		"type": "RNAV",
		"updated": "12/11/2008",
	},
	{
		"name": "UCUDO",
		"latitude": "34-1-10.18 N",
		"longitude": "117-29-25.35 W",
		"state": "CALIFORNIA",
		"artcc": "ZLA",
		"type": "RNAV",
		"updated": "02/19/2009",
	},
	{
		"name": "UDHAY",
		"latitude": "33-31-23.46 N",
		"longitude": "117-11-59.99 W",
		"state": "CALIFORNIA",
		"artcc": "ZLA",
		"type": "WP",
		"updated": "11/02/1998",
	},
	{
		"name": "UGBOY",
		"latitude": "35-38-42.66 N",
		"longitude": "112-9-2.28 W",
		"state": "ARIZONA",
		"artcc": "ZLA",
		"type": "WP",
		"updated": "11/02/1998",
	},
	{
		"name": "UGEXY",
		"latitude": "36-57-54.62 N",
		"longitude": "113-32-38.58 W",
		"state": "ARIZONA",
		"artcc": "ZLA",
		"type": "RNAV",
		"updated": "11/19/2010",
	},
	{
		"name": "UGIVE",
		"latitude": "34-4-48.87 N",
		"longitude": "117-43-15.02 W",
		"state": "CALIFORNIA",
		"artcc": "ZLA",
		"type": "RNAV",
		"updated": "02/28/2017",
	},
	{
		"name": "UGONE",
		"latitude": "35-0-11.58 N",
		"longitude": "118-15-5.41 W",
		"state": "CALIFORNIA",
		"artcc": "ZLA",
		"type": "RNAV",
		"updated": "02/09/2018",
	},
	{
		"name": "UGORE",
		"latitude": "34-54-7.83 N",
		"longitude": "117-54-20.81 W",
		"state": "CALIFORNIA",
		"artcc": "ZLA",
		"type": "MR",
		"updated": "EDW*VORTAC*226.00/13.00",
	},
	{
		"name": "UGOYA",
		"latitude": "32-34-28.54 N",
		"longitude": "117-0-11.21 W",
		"state": "CALIFORNIA",
		"artcc": "ZLA",
		"type": "RNAV",
		"updated": "05/18/2006",
	},
	{
		"name": "UHILL",
		"latitude": "36-53-47.67 N",
		"longitude": "117-13-36.4 W",
		"state": "CALIFORNIA",
		"artcc": "ZLA",
		"type": "RNAV",
		"updated": "09/21/2014",
	},
	{
		"name": "UIYQW",
		"latitude": "33-36-53.79 N",
		"longitude": "114-42-21.18 W",
		"state": "CALIFORNIA",
		"artcc": "ZLA",
		"type": "CN",
		"updated": "10/27/2011",
	},
	{
		"name": "ULEYE",
		"latitude": "35-23-2.45 N",
		"longitude": "118-59-45.65 W",
		"state": "CALIFORNIA",
		"artcc": "ZLA",
		"type": "RNAV",
		"updated": "06/11/2010",
	},
	{
		"name": "ULUYI",
		"latitude": "33-41-52.81 N",
		"longitude": "118-8-34.44 W",
		"state": "CALIFORNIA",
		"artcc": "ZLA",
		"type": "CN",
		"updated": "07/20/2011",
	},
	{
		"name": "UMBER",
		"latitude": "34-28-49.23 N",
		"longitude": "118-30-57.69 W",
		"state": "CALIFORNIA",
		"artcc": "ZLA",
		"type": "RP",
		"updated": "VNY*VOR/DME*340.51/15.40",
	},
	{
		"name": "UMKOW",
		"latitude": "35-8-0.42 N",
		"longitude": "118-58-25.76 W",
		"state": "CALIFORNIA",
		"artcc": "ZLA",
		"type": "RNAV",
		"updated": "10/28/2013",
	},
	{
		"name": "UMVEW",
		"latitude": "35-30-4.78 N",
		"longitude": "119-11-9.33 W",
		"state": "CALIFORNIA",
		"artcc": "ZLA",
		"type": "RP",
		"updated": "EHF*VORTAC*269.05/4.46",
	},
	{
		"name": "UNCAL",
		"latitude": "34-41-43.44 N",
		"longitude": "117-22-52.04 W",
		"state": "CALIFORNIA",
		"artcc": "ZLA",
		"type": "RP",
		"updated": "VCV*VOR/DME*350.14/6.08",
	},
	{
		"name": "UNCIA",
		"latitude": "34-12-3.98 N",
		"longitude": "118-23-4.08 W",
		"state": "CALIFORNIA",
		"artcc": "ZLA",
		"type": "RP",
		"updated": "VNY*VOR/DME*089.06/5.50",
	},
	{
		"name": "UNLAY",
		"latitude": "33-59-52.85 N",
		"longitude": "117-43-35.21 W",
		"state": "CALIFORNIA",
		"artcc": "ZLA",
		"type": "RNAV",
		"updated": "02/27/2017",
	},
	{
		"name": "UNPAS",
		"latitude": "35-17-46.84 N",
		"longitude": "114-38-25.96 W",
		"state": "NEVADA",
		"artcc": "ZLA",
		"type": "RP",
		"updated": "EED*VORTAC*330.57/32.81",
	},
	{
		"name": "UPDOC",
		"latitude": "34-12-33.29 N",
		"longitude": "118-18-10.17 W",
		"state": "CALIFORNIA",
		"artcc": "ZLA",
		"type": "RNAV",
		"updated": "09/11/2016",
	},
	{
		"name": "URGED",
		"latitude": "34-46-28.93 N",
		"longitude": "118-15-49.9 W",
		"state": "CALIFORNIA",
		"artcc": "ZLA",
		"type": "RP",
		"updated": "LHS*VORTAC*055.37",
	},
	{
		"name": "URIAH",
		"latitude": "37-30-10.26 N",
		"longitude": "113-42-9.54 W",
		"state": "UTAH",
		"artcc": "ZLA",
		"type": "RP",
		"updated": "MMM*VORTAC*015.93/51.89",
	},
	{
		"name": "URIJI",
		"latitude": "33-14-26.61 N",
		"longitude": "116-47-7.17 W",
		"state": "CALIFORNIA",
		"artcc": "ZLA",
		"type": "RNAV",
		"updated": "07/20/2011",
	},
	{
		"name": "USATE",
		"latitude": "34-14-5.7 N",
		"longitude": "118-58-21.33 W",
		"state": "CALIFORNIA",
		"artcc": "ZLA",
		"type": "MR",
		"updated": "NTD*TACAN*036.00/10.00",
	},
	{
		"name": "USCUP",
		"latitude": "35-12-6.77 N",
		"longitude": "114-56-53.59 W",
		"state": "CALIFORNIA",
		"artcc": "ZLA",
		"type": "RP",
		"updated": "GFS*VORTAC*054.26/12.00",
	},
	{
		"name": "UTIBY",
		"latitude": "36-39-51.53 N",
		"longitude": "113-35-35.29 W",
		"state": "ARIZONA",
		"artcc": "ZLA",
		"type": "WP",
		"updated": "11/02/1998",
	},
	{
		"name": "UVICA",
		"latitude": "34-12-9.14 N",
		"longitude": "119-28-20.13 W",
		"state": "CALIFORNIA",
		"artcc": "ZLA",
		"type": "RNAV",
		"updated": "06/17/2011",
	},
	{
		"name": "UWEJO",
		"latitude": "34-37-45.66 N",
		"longitude": "118-12-50.53 W",
		"state": "CALIFORNIA",
		"artcc": "ZLA",
		"type": "RNAV",
		"updated": "03/14/2018",
	},
	{
		"name": "UYITA",
		"latitude": "37-4-35.45 N",
		"longitude": "113-29-36.66 W",
		"state": "UTAH",
		"artcc": "ZLA",
		"type": "RNAV",
		"updated": "11/05/2010",
	},
	{
		"name": "UYOCA",
		"latitude": "32-54-28.92 N",
		"longitude": "116-57-58.72 W",
		"state": "CALIFORNIA",
		"artcc": "ZLA",
		"type": "MW",
		"updated": "10/28/2014",
	},
	{
		"name": "UYURE",
		"latitude": "33-46-52.82 N",
		"longitude": "118-12-52.97 W",
		"state": "CALIFORNIA",
		"artcc": "ZLA",
		"type": "CN",
		"updated": "07/20/2011",
	},
	{
		"name": "UYUVE",
		"latitude": "37-6-33.89 N",
		"longitude": "113-27-41.7 W",
		"state": "UTAH",
		"artcc": "ZLA",
		"type": "RP",
		"updated": "SGU*LD*018.15/4.18",
	},
	{
		"name": "UZOHO",
		"latitude": "33-58-54.36 N",
		"longitude": "117-36-26.55 W",
		"state": "CALIFORNIA",
		"artcc": "ZLA",
		"type": "RNAV",
		"updated": "06/15/2010",
	},
