[
	{
		"name": "WABBT",
		"latitude": "34-22-4.18 N",
		"longitude": "118-34-27.06 W",
		"state": "CALIFORNIA",
		"artcc": "ZLA",
		"type": "RNAV",
		"updated": "12/28/2016"
	},
	{
		"name": "WADUP",
		"latitude": "34-0-11.3 N",
		"longitude": "117-13-44.83 W",
		"state": "CALIFORNIA",
		"artcc": "ZLA",
		"type": "RNAV",
		"updated": "12/27/2016"
	},
	{
		"name": "WAGAV",
		"latitude": "33-15-53.62 N",
		"longitude": "117-6-13.02 W",
		"state": "CALIFORNIA",
		"artcc": "ZLA",
		"type": "RNAV",
		"updated": "01/19/2017"
	},
	{
		"name": "WAGBI",
		"latitude": "34-6-46.73 N",
		"longitude": "118-19-29.84 W",
		"state": "CALIFORNIA",
		"artcc": "ZLA",
		"type": "RP",
		"updated": "SMO*VOR/DME*031.83/9.00"
	},
	{
		"name": "WAGJI",
		"latitude": "34-33-51.35 N",
		"longitude": "114-58-1.17 W",
		"state": "CALIFORNIA",
		"artcc": "ZLA",
		"type": "CN",
		"updated": "03/09/2018"
	},
	{
		"name": "WAKER",
		"latitude": "34-1-53.8 N",
		"longitude": "118-50-0.06 W",
		"state": "CALIFORNIA",
		"artcc": "ZLA",
		"type": "RP",
		"updated": "SMO*VOR/DME*259.00/18.83"
	},
	{
		"name": "WAKMI",
		"latitude": "32-58-45.49 N",
		"longitude": "115-26-37.93 W",
		"state": "CALIFORNIA",
		"artcc": "ZLA",
		"type": "RNAV",
		"updated": "08/05/2002"
	},
	{
		"name": "WAKOT",
		"latitude": "32-47-19.1 N",
		"longitude": "115-35-43.73 W",
		"state": "CALIFORNIA",
		"artcc": "ZLA",
		"type": "MR",
		"updated": "IPL*VORTAC*284.47"
	},
	{
		"name": "WALCI",
		"latitude": "32-50-22.21 N",
		"longitude": "114-29-48.47 W",
		"state": "CALIFORNIA",
		"artcc": "ZLA",
		"type": "RNAV",
		"updated": "03/17/2009"
	},
	{
		"name": "WALLY",
		"latitude": "34-5-57.01 N",
		"longitude": "118-5-27.21 W",
		"state": "CALIFORNIA",
		"artcc": "ZLA",
		"type": "RP",
		"updated": "PDZ*VORTAC*276.32/30.00"
	},
	{
		"name": "WANED",
		"latitude": "33-30-46.48 N",
		"longitude": "115-56-25.56 W",
		"state": "CALIFORNIA",
		"artcc": "ZLA",
		"type": "RP",
		"updated": "TRM*VORTAC*108.99/13.00"
	},
	{
		"name": "WAREK",
		"latitude": "33-13-39.42 N",
		"longitude": "116-40-46.71 W",
		"state": "CALIFORNIA",
		"artcc": "ZLA",
		"type": "MR",
		"updated": "OCN*VORTAC*076.00"
	},
	{
		"name": "WARNE",
		"latitude": "33-21-9.23 N",
		"longitude": "116-24-5.45 W",
		"state": "CALIFORNIA",
		"artcc": "ZLA",
		"type": "RP",
		"updated": "JLI*VORTAC*021.10/15.73"
	},
	{
		"name": "WARNT",
		"latitude": "33-1-21.83 N",
		"longitude": "116-53-42.21 W",
		"state": "CALIFORNIA",
		"artcc": "ZLA",
		"type": "MR",
		"updated": "NKX*TACAN*043.00/16.00"
	},
	{
		"name": "WARRN",
		"latitude": "34-54-3.95 N",
		"longitude": "120-44-55.78 W",
		"state": "CALIFORNIA",
		"artcc": "ZLA",
		"type": "MR",
		"updated": "VBG*TACAN*307.00/13.00"
	},
	{
		"name": "WARTT",
		"latitude": "32-46-19.74 N",
		"longitude": "114-18-22.98 W",
		"state": "ARIZONA",
		"artcc": "ZLA",
		"type": "RP",
		"updated": "BZA*VORTAC*075.00/15.00"
	},
	{
		"name": "WARVA",
		"latitude": "33-55-26.12 N",
		"longitude": "118-18-44.41 W",
		"state": "CALIFORNIA",
		"artcc": "ZLA",
		"type": "RP",
		"updated": "LAX*VORTAC*/6.00"
	},
	{
		"name": "WASAK",
		"latitude": "34-5-26.3 N",
		"longitude": "116-31-31.23 W",
		"state": "CALIFORNIA",
		"artcc": "ZLA",
		"type": "RNAV",
		"updated": "09/20/2016"
	},
	{
		"name": "WASGA",
		"latitude": "32-49-17.21 N",
		"longitude": "115-38-36.77 W",
		"state": "CALIFORNIA",
		"artcc": "ZLA",
		"type": "RP",
		"updated": "NJK*TACAN*097.00/2.00"
	},
	{
		"name": "WASIR",
		"latitude": "32-38-14.08 N",
		"longitude": "117-13-57.5 W",
		"state": "CALIFORNIA",
		"artcc": "ZLA",
		"type": "MR",
		"updated": "NZY*TACAN*178.00/4.00"
	},
	{
		"name": "WASTE",
		"latitude": "36-4-35.14 N",
		"longitude": "115-4-25.72 W",
		"state": "NEVADA",
		"artcc": "ZLA",
		"type": "RNAV",
		"updated": "06/02/2010"
	},
	{
		"name": "WATKN",
		"latitude": "34-30-47.22 N",
		"longitude": "120-16-43.04 W",
		"state": "CALIFORNIA",
		"artcc": "ZLA",
		"type": "MR",
		"updated": "VBG*TACAN*117.00/20.00"
	},
	{
		"name": "WATLA",
		"latitude": "37-21-12.75 N",
		"longitude": "113-17-1.22 W",
		"state": "UTAH",
		"artcc": "ZLA",
		"type": "RP",
		"updated": "SGU*LD*018.15/21.11"
	},
	{
		"name": "WATLU",
		"latitude": "37-46-33.68 N",
		"longitude": "116-46-7.18 W",
		"state": "NEVADA",
		"artcc": "ZLA",
		"type": "MR",
		"updated": "TQQ*VORTAC*/1.00"
	},
	{
		"name": "WATSS",
		"latitude": "34-16-24.81 N",
		"longitude": "118-19-4.41 W",
		"state": "CALIFORNIA",
		"artcc": "ZLA",
		"type": "RNAV",
		"updated": "03/02/2017"
	},
	{
		"name": "WAVUD",
		"latitude": "33-57-3.1 N",
		"longitude": "118-14-58.64 W",
		"state": "CALIFORNIA",
		"artcc": "ZLA",
		"type": "RNAV",
		"updated": "01/24/2017"
	},
	{
		"name": "WAVVS",
		"latitude": "34-12-48.94 N",
		"longitude": "119-4-28.15 W",
		"state": "CALIFORNIA",
		"artcc": "ZLA",
		"type": "RNAV",
		"updated": "10/18/2006"
	},
	{
		"name": "WAXIE",
		"latitude": "37-0-8.83 N",
		"longitude": "115-42-13.72 W",
		"state": "NEVADA",
		"artcc": "ZLA",
		"type": "RNAV",
		"updated": "05/11/2016"
	},
	{
		"name": "WAYLE",
		"latitude": "33-32-6.35 N",
		"longitude": "117-0-44.4 W",
		"state": "CALIFORNIA",
		"artcc": "ZLA",
		"type": "MR",
		"updated": "HDF*VOR*135.00"
	},
	{
		"name": "WAYVE",
		"latitude": "34-34-22.35 N",
		"longitude": "118-30-44.47 W",
		"state": "CALIFORNIA",
		"artcc": "ZLA",
		"type": "RNAV",
		"updated": "09/11/2016"
	},
	{
		"name": "WBERG",
		"latitude": "33-43-27.29 N",
		"longitude": "115-31-36.16 W",
		"state": "CALIFORNIA",
		"artcc": "ZLA",
		"type": "RNAV",
		"updated": "09/11/2016"
	},
	{
		"name": "WEBAT",
		"latitude": "37-10-36.15 N",
		"longitude": "118-2-51.74 W",
		"state": "CALIFORNIA",
		"artcc": "ZLA",
		"type": "RNAV",
		"updated": "10/29/2007"
	},
	{
		"name": "WEBES",
		"latitude": "34-37-56.86 N",
		"longitude": "117-10-0.77 W",
		"state": "CALIFORNIA",
		"artcc": "ZLA",
		"type": "RNAV",
		"updated": "01/20/2004"
	},
	{
		"name": "WEBSO",
		"latitude": "36-10-26.73 N",
		"longitude": "115-6-2.57 W",
		"state": "NEVADA",
		"artcc": "ZLA",
		"type": "MR",
		"updated": "LSV*TACAN*209.00/5.60"
	},
	{
		"name": "WEBUK",
		"latitude": "33-3-29.42 N",
		"longitude": "118-29-15.58 W",
		"state": "CALIFORNIA",
		"artcc": "ZLA",
		"type": "MR",
		"updated": "NUC*TACAN*053.00/5.00"
	},
	{
		"name": "WEBUL",
		"latitude": "37-45-9.06 N",
		"longitude": "116-45-22.4 W",
		"state": "NEVADA",
		"artcc": "ZLA",
		"type": "MW",
		"updated": "06/21/2007"
	},
	{
		"name": "WEEDD",
		"latitude": "33-54-9.4 N",
		"longitude": "117-8-46.96 W",
		"state": "CALIFORNIA",
		"artcc": "ZLA",
		"type": "RNAV",
		"updated": "02/16/2018"
	},
	{
		"name": "WEELL",
		"latitude": "34-20-14.6 N",
		"longitude": "114-18-29.5 W",
		"state": "CALIFORNIA",
		"artcc": "ZLA",
		"type": "RNAV",
		"updated": "12/27/2016"
	},
	{
		"name": "WEESL",
		"latitude": "34-52-44.93 N",
		"longitude": "118-46-36.79 W",
		"state": "CALIFORNIA",
		"artcc": "ZLA",
		"type": "RNAV",
		"updated": "09/09/2016"
	},
	{
		"name": "WEEZL",
		"latitude": "33-47-27.35 N",
		"longitude": "119-0-55.9 W",
		"state": "CALIFORNIA",
		"artcc": "ZLA",
		"type": "RP",
		"updated": "VTU*VOR/DME*160.00/19.49"
	},
	{
		"name": "WEILR",
		"latitude": "33-54-37.56 N",
		"longitude": "118-29-27.35 W",
		"state": "CALIFORNIA",
		"artcc": "ZLA",
		"type": "RNAV",
		"updated": "12/28/2016"
	},
	{
		"name": "WEKRA",
		"latitude": "34-45-9.66 N",
		"longitude": "120-16-6.42 W",
		"state": "CALIFORNIA",
		"artcc": "ZLA",
		"type": "RNAV",
		"updated": "02/19/2016"
	},
	{
		"name": "WELDR",
		"latitude": "34-8-13.09 N",
		"longitude": "117-19-45.27 W",
		"state": "CALIFORNIA",
		"artcc": "ZLA",
		"type": "RNAV",
		"updated": "03/01/2017"
	},
	{
		"name": "WELLZ",
		"latitude": "33-56-6.32 N",
		"longitude": "118-4-14.48 W",
		"state": "CALIFORNIA",
		"artcc": "ZLA",
		"type": "RP",
		"updated": "LAX*VORTAC*074.53/18.04"
	},
	{
		"name": "WELMI",
		"latitude": "34-48-17.81 N",
		"longitude": "118-4-33.19 W",
		"state": "CALIFORNIA",
		"artcc": "ZLA",
		"type": "MR",
		"updated": "EDW*VORTAC*223.00/20.00"
	},
	{
		"name": "WELPO",
		"latitude": "36-5-16.57 N",
		"longitude": "115-32-55.23 W",
		"state": "NEVADA",
		"artcc": "ZLA",
		"type": "RNAV",
		"updated": "05/13/2011"
	},
	{
		"name": "WELUM",
		"latitude": "35-22-56 N",
		"longitude": "114-55-59 W",
		"state": "NEVADA",
		"artcc": "ZLA",
		"type": "RNAV",
		"updated": "03/24/2014"
	},
	{
		"name": "WEMDO",
		"latitude": "33-45-55.9 N",
		"longitude": "117-48-42.59 W",
		"state": "CALIFORNIA",
		"artcc": "ZLA",
		"type": "RNAV",
		"updated": "07/20/2011"
	},
	{
		"name": "WEMIR",
		"latitude": "33-48-34.57 N",
		"longitude": "116-7-37.33 W",
		"state": "CALIFORNIA",
		"artcc": "ZLA",
		"type": "RNAV",
		"updated": "08/10/2006"
	},
	{
		"name": "WEMPA",
		"latitude": "33-55-2.96 N",
		"longitude": "116-28-57.23 W",
		"state": "CALIFORNIA",
		"artcc": "ZLA",
		"type": "RNAV",
		"updated": "01/25/2005"
	},
	{
		"name": "WENAV",
		"latitude": "34-17-17.89 N",
		"longitude": "116-8-23.89 W",
		"state": "CALIFORNIA",
		"artcc": "ZLA",
		"type": "MR",
		"updated": "NXP*TACAN*106.00/1.00"
	},
	{
		"name": "WENOD",
		"latitude": "34-47-51.9 N",
		"longitude": "117-22-19.67 W",
		"state": "CALIFORNIA",
		"artcc": "ZLA",
		"type": "RP",
		"updated": "VCV*VOR/DME*350.14/12.23"
	},
	{
		"name": "WENTI",
		"latitude": "35-30-42.67 N",
		"longitude": "119-9-14.75 W",
		"state": "CALIFORNIA",
		"artcc": "ZLA",
		"type": "RNAV",
		"updated": "02/28/2017"
	},
	{
		"name": "WENVA",
		"latitude": "33-54-1.26 N",
		"longitude": "117-10-35.65 W",
		"state": "CALIFORNIA",
		"artcc": "ZLA",
		"type": "RNAV",
		"updated": "05/31/2006"
	},
	{
		"name": "WERLE",
		"latitude": "33-52-38.3 N",
		"longitude": "117-29-44.01 W",
		"state": "CALIFORNIA",
		"artcc": "ZLA",
		"type": "RP",
		"updated": "SLI*VORTAC*063.46"
	},
	{
		"name": "WESIN",
		"latitude": "33-34-23.76 N",
		"longitude": "117-14-29.8 W",
		"state": "CALIFORNIA",
		"artcc": "ZLA",
		"type": "RP",
		"updated": "PDZ*VORTAC*130.00/25.20"
	},
	{
		"name": "WESKI",
		"latitude": "34-11-58.13 N",
		"longitude": "118-29-23.3 W",
		"state": "CALIFORNIA",
		"artcc": "ZLA",
		"type": "RNAV",
		"updated": "03/16/2016"
	},
	{
		"name": "WETAX",
		"latitude": "36-6-34.21 N",
		"longitude": "115-6-41.26 W",
		"state": "NEVADA",
		"artcc": "ZLA",
		"type": "RNAV",
		"updated": "04/19/2017"
	},
	{
		"name": "WETET",
		"latitude": "34-5-17.77 N",
		"longitude": "119-21-32.87 W",
		"state": "CALIFORNIA",
		"artcc": "ZLA",
		"type": "MR",
		"updated": "NTD*TACAN*248.00/12.00"
	},
	{
		"name": "WEVET",
		"latitude": "33-52-0.76 N",
		"longitude": "118-27-56.18 W",
		"state": "CALIFORNIA",
		"artcc": "ZLA",
		"type": "RNAV",
		"updated": "10/10/2012"
	},
	{
		"name": "WEVIM",
		"latitude": "32-52-49.28 N",
		"longitude": "117-5-34.07 W",
		"state": "CALIFORNIA",
		"artcc": "ZLA",
		"type": "MR",
		"updated": "NKX*TACAN*066.54/3.20"
	},
	{
		"name": "WGGNR",
		"latitude": "34-14-16 N",
		"longitude": "119-12-3 W",
		"state": "CALIFORNIA",
		"artcc": "ZLA",
		"type": "RNAV",
		"updated": "02/13/2012"
	},
	{
		"name": "WHAAT",
		"latitude": "35-59-0 N",
		"longitude": "114-59-30 W",
		"state": "NEVADA",
		"artcc": "ZLA",
		"type": "RNAV",
		"updated": "07/21/2011"
	},
	{
		"name": "WHDDN",
		"latitude": "33-58-37.56 N",
		"longitude": "117-37-34.76 W",
		"state": "CALIFORNIA",
		"artcc": "ZLA",
		"type": "RNAV",
		"updated": "12/27/2016"
	},
	{
		"name": "WHETO",
		"latitude": "33-57-27.92 N",
		"longitude": "116-36-51.22 W",
		"state": "CALIFORNIA",
		"artcc": "ZLA",
		"type": "RP",
		"updated": "PSP*VORTAC*286.76/10.61"
	},
	{
		"name": "WHIGG",
		"latitude": "35-30-28.53 N",
		"longitude": "115-31-25.09 W",
		"state": "CALIFORNIA",
		"artcc": "ZLA",
		"type": "RP",
		"updated": "BLD*VORTAC*212.99/43.51"
	},
	{
		"name": "WHSKY",
		"latitude": "36-9-12 N",
		"longitude": "114-55-34 W",
		"state": "NEVADA",
		"artcc": "ZLA",
		"type": "WP",
		"updated": "07/09/2001"
	},
	{
		"name": "WHYME",
		"latitude": "35-43-57.24 N",
		"longitude": "115-23-39.05 W",
		"state": "NEVADA",
		"artcc": "ZLA",
		"type": "RNAV",
		"updated": "05/25/2011"
	},
	{
		"name": "WIDAD",
		"latitude": "34-3-12.16 N",
		"longitude": "117-22-35.51 W",
		"state": "CALIFORNIA",
		"artcc": "ZLA",
		"type": "RNAV",
		"updated": "02/19/2009"
	},
	{
		"name": "WIGGS",
		"latitude": "32-28-16.26 N",
		"longitude": "114-33-10.87 W",
		"state": "ARIZONA",
		"artcc": "ZLA",
		"type": "MW",
		"updated": "08/19/2010"
	},
	{
		"name": "WIILD",
		"latitude": "33-30-17.34 N",
		"longitude": "117-13-59.88 W",
		"state": "CALIFORNIA",
		"artcc": "ZLA",
		"type": "RNAV",
		"updated": "11/22/2017"
	},
	{
		"name": "WIJUT",
		"latitude": "33-29-16 N",
		"longitude": "117-21-6 W",
		"state": "CALIFORNIA",
		"artcc": "ZLA",
		"type": "RNAV",
		"updated": "06/08/2017"
	},
	{
		"name": "WIJYI",
		"latitude": "35-1-16.85 N",
		"longitude": "118-34-24.61 W",
		"state": "CALIFORNIA",
		"artcc": "ZLA",
		"type": "RP",
		"updated": "EHF*VORTAC*123.00/37.85"
	},
	{
		"name": "WILEY",
		"latitude": "36-53-25.45 N",
		"longitude": "115-39-45.57 W",
		"state": "NEVADA",
		"artcc": "ZLA",
		"type": "RNAV",
		"updated": "05/11/2016"
	},
	{
		"name": "WILIE",
		"latitude": "36-16-23.44 N",
		"longitude": "114-59-36.1 W",
		"state": "NEVADA",
		"artcc": "ZLA",
		"type": "MR",
		"updated": "LSV*TACAN*030.00/2.30"
	},
	{
		"name": "WILKS",
		"latitude": "35-52-48.62 N",
		"longitude": "115-8-18.06 W",
		"state": "NEVADA",
		"artcc": "ZLA",
		"type": "MR",
		"updated": "LAS*VORTAC*160.00/12.00"
	},
	{
		"name": "WILLW",
		"latitude": "35-57-0.77 N",
		"longitude": "114-52-40.97 W",
		"state": "NEVADA",
		"artcc": "ZLA",
		"type": "RNAV",
		"updated": "09/04/2003"
	},
	{
		"name": "WILMA",
		"latitude": "33-46-16.17 N",
		"longitude": "118-15-34.16 W",
		"state": "CALIFORNIA",
		"artcc": "ZLA",
		"type": "RP",
		"updated": "LAX*VORTAC*123.33/12.98"
	},
	{
		"name": "WILOG",
		"latitude": "35-21-9.68 N",
		"longitude": "118-57-42.49 W",
		"state": "CALIFORNIA",
		"artcc": "ZLA",
		"type": "RNAV",
		"updated": "02/28/2017"
	},
	{
		"name": "WILSE",
		"latitude": "36-7-14.24 N",
		"longitude": "115-8-27.35 W",
		"state": "NEVADA",
		"artcc": "ZLA",
		"type": "RNAV",
		"updated": "04/19/2017"
	},
	{
		"name": "WIMRI",
		"latitude": "34-42-58.03 N",
		"longitude": "120-33-36.59 W",
		"state": "CALIFORNIA",
		"artcc": "ZLA",
		"type": "MR",
		"updated": "VBG*TACAN*117.00/1.50"
	},
	{
		"name": "WINCH",
		"latitude": "35-4-24.53 N",
		"longitude": "120-39-46.08 W",
		"state": "CALIFORNIA",
		"artcc": "ZLA",
		"type": "RP",
		"updated": "MQO*VORTAC*140.01/11.72"
	},
	{
		"name": "WINDS",
		"latitude": "35-51-23.35 N",
		"longitude": "114-35-55.81 W",
		"state": "ARIZONA",
		"artcc": "ZLA",
		"type": "RP",
		"updated": "MMM*VORTAC*180.00"
	},
	{
		"name": "WINIE",
		"latitude": "34-9-36.46 N",
		"longitude": "119-4-29.4 W",
		"state": "CALIFORNIA",
		"artcc": "ZLA",
		"type": "MR",
		"updated": "NTD*TACAN*034.76/3.22"
	},
	{
		"name": "WIPAK",
		"latitude": "32-59-30.77 N",
		"longitude": "117-9-31.47 W",
		"state": "CALIFORNIA",
		"artcc": "ZLA",
		"type": "MR",
		"updated": "MZB*VORTAC*360.00/13.00"
	},
	{
		"name": "WIPAM",
		"latitude": "33-7-34.68 N",
		"longitude": "117-32-1.39 W",
		"state": "CALIFORNIA",
		"artcc": "ZLA",
		"type": "MR",
		"updated": "OCN*VORTAC*205.50/9.00"
	},
	{
		"name": "WIRUS",
		"latitude": "35-10-13.09 N",
		"longitude": "117-55-35.08 W",
		"state": "CALIFORNIA",
		"artcc": "ZLA",
		"type": "RNAV",
		"updated": "01/14/2005"
	},
	{
		"name": "WISIR",
		"latitude": "34-6-12.93 N",
		"longitude": "115-36-58.76 W",
		"state": "CALIFORNIA",
		"artcc": "ZLA",
		"type": "RNAV",
		"updated": "01/02/2009"
	},
	{
		"name": "WISTO",
		"latitude": "36-35-23.25 N",
		"longitude": "114-56-58.61 W",
		"state": "NEVADA",
		"artcc": "ZLA",
		"type": "MR",
		"updated": "LSV*TACAN*358.00/21.00"
	},
	{
		"name": "WISUP",
		"latitude": "33-55-19.15 N",
		"longitude": "117-43-8.07 W",
		"state": "CALIFORNIA",
		"artcc": "ZLA",
		"type": "RP",
		"updated": "POM*VORTAC*145.03"
	},
	{
		"name": "WITLA",
		"latitude": "35-58-41.89 N",
		"longitude": "115-21-3 W",
		"state": "NEVADA",
		"artcc": "ZLA",
		"type": "RNAV",
		"updated": "06/06/2010"
	},
	{
		"name": "WITZZ",
		"latitude": "33-56-35.7 N",
		"longitude": "117-44-55.41 W",
		"state": "CALIFORNIA",
		"artcc": "ZLA",
		"type": "RNAV",
		"updated": "01/24/2017"
	},
	{
		"name": "WIXIL",
		"latitude": "34-14-6.23 N",
		"longitude": "115-44-29.96 W",
		"state": "CALIFORNIA",
		"artcc": "ZLA",
		"type": "MR",
		"updated": "NXP*TACAN*086.00/21.00"
	},
	{
		"name": "WIZKY",
		"latitude": "32-49-0.81 N",
		"longitude": "117-50-39.84 W",
		"state": "CALIFORNIA",
		"artcc": "ZLA",
		"type": "MR",
		"updated": "NKX*TACAN*250.00/35.00"
	},
	{
		"name": "WLKKR",
		"latitude": "34-22-22.95 N",
		"longitude": "118-38-49.68 W",
		"state": "CALIFORNIA",
		"artcc": "ZLA",
		"type": "RNAV",
		"updated": "03/02/2017"
	},
	{
		"name": "WLNUT",
		"latitude": "34-0-22.6 N",
		"longitude": "117-50-26.38 W",
		"state": "CALIFORNIA",
		"artcc": "ZLA",
		"type": "RP",
		"updated": "HQB*LD*071.00/30.10"
	},
	{
		"name": "WNCHL",
		"latitude": "35-0-25.46 N",
		"longitude": "116-11-1.54 W",
		"state": "CALIFORNIA",
		"artcc": "ZLA",
		"type": "RNAV",
		"updated": "12/28/2016"
	},
	{
		"name": "WNDFL",
		"latitude": "33-50-55.1 N",
		"longitude": "118-27-16.28 W",
		"state": "CALIFORNIA",
		"artcc": "ZLA",
		"type": "RP",
		"updated": "04/17/2018"
	},
	{
		"name": "WNFLD",
		"latitude": "32-47-52.83 N",
		"longitude": "117-18-57.49 W",
		"state": "CALIFORNIA",
		"artcc": "ZLA",
		"type": "RNAV",
		"updated": "03/22/2018"
	},
	{
		"name": "WNNDE",
		"latitude": "36-7-40.71 N",
		"longitude": "115-8-24.68 W",
		"state": "NEVADA",
		"artcc": "ZLA",
		"type": "RNAV",
		"updated": "04/29/2010"
	},
	{
		"name": "WNNDY",
		"latitude": "34-27-41.68 N",
		"longitude": "118-34-36.3 W",
		"state": "CALIFORNIA",
		"artcc": "ZLA",
		"type": "RNAV",
		"updated": "02/28/2017"
	},
	{
		"name": "WODIN",
		"latitude": "37-19-20 N",
		"longitude": "117-5-25 W",
		"state": "NEVADA",
		"artcc": "ZLA",
		"type": "RNAV",
		"updated": "06/09/2005"
	},
	{
		"name": "WODON",
		"latitude": "32-46-30.64 N",
		"longitude": "116-44-26.38 W",
		"state": "CALIFORNIA",
		"artcc": "ZLA",
		"type": "RP",
		"updated": "PDZ*VORTAC*134.69"
	},
	{
		"name": "WODOR",
		"latitude": "33-25-19.47 N",
		"longitude": "117-5-1.37 W",
		"state": "CALIFORNIA",
		"artcc": "ZLA",
		"type": "MR",
		"updated": "OCN*VORTAC*042.00/20.00"
	},
	{
		"name": "WODUN",
		"latitude": "33-20-50.4 N",
		"longitude": "117-18-5.3 W",
		"state": "CALIFORNIA",
		"artcc": "ZLA",
		"type": "MR",
		"updated": "NFG*TACAN*031.40/6.10"
	},
	{
		"name": "WOGIG",
		"latitude": "35-9-4.44 N",
		"longitude": "119-19-47.13 W",
		"state": "CALIFORNIA",
		"artcc": "ZLA",
		"type": "RP",
		"updated": "EHF*VORTAC*195.82/23.00"
	},
	{
		"name": "WOGIX",
		"latitude": "32-40-4.56 N",
		"longitude": "114-36-14.62 W",
		"state": "ARIZONA",
		"artcc": "ZLA",
		"type": "MR",
		"updated": "BZA*VORTAC*166.54/6.00"
	},
	{
		"name": "WOKIL",
		"latitude": "33-7-22.31 N",
		"longitude": "119-15-39.45 W",
		"state": "CALIFORNIA",
		"artcc": "ZLA",
		"type": "MR",
		"updated": "NSI*TACAN*112.00/12.00"
	},
	{
		"name": "WOKRO",
		"latitude": "33-45-43.15 N",
		"longitude": "117-46-17.55 W",
		"state": "CALIFORNIA",
		"artcc": "ZLA",
		"type": "RP",
		"updated": "ELB*VOR/DME*324.54/5.53"
	},
	{
		"name": "WOMIM",
		"latitude": "36-50-22.89 N",
		"longitude": "113-36-2.94 W",
		"state": "ARIZONA",
		"artcc": "ZLA",
		"type": "RNAV",
		"updated": "11/19/2010"
	},
	{
		"name": "WOMIX",
		"latitude": "34-34-4.97 N",
		"longitude": "120-21-16.49 W",
		"state": "CALIFORNIA",
		"artcc": "ZLA",
		"type": "MR",
		"updated": "VBG*TACAN*117.00/15.00"
	},
	{
		"name": "WOOLI",
		"latitude": "34-39-36.84 N",
		"longitude": "117-51-53.44 W",
		"state": "CALIFORNIA",
		"artcc": "ZLA",
		"type": "RP",
		"updated": "PMD*VORTAC*065.00/10.00"
	},
	{
		"name": "WOPMA",
		"latitude": "35-32-52.83 N",
		"longitude": "115-28-11.29 W",
		"state": "CALIFORNIA",
		"artcc": "ZLA",
		"type": "RP",
		"updated": "BLD*VORTAC*212.99/39.95"
	},
	{
		"name": "WOPOS",
		"latitude": "32-45-49.07 N",
		"longitude": "116-37-10.41 W",
		"state": "CALIFORNIA",
		"artcc": "ZLA",
		"type": "RP",
		"updated": "SEE*LE*089.08/18.83"
	},
	{
		"name": "WOPPR",
		"latitude": "34-2-58 N",
		"longitude": "118-46-52.16 W",
		"state": "CALIFORNIA",
		"artcc": "ZLA",
		"type": "RNAV",
		"updated": "01/05/2017"
	},
	{
		"name": "WOTEX",
		"latitude": "34-9-24.45 N",
		"longitude": "119-4-37.92 W",
		"state": "CALIFORNIA",
		"artcc": "ZLA",
		"type": "MR",
		"updated": "NTD*TACAN*036.00/3.00"
	},
	{
		"name": "WOTOK",
		"latitude": "34-29-24.6 N",
		"longitude": "118-52-31.27 W",
		"state": "CALIFORNIA",
		"artcc": "ZLA",
		"type": "RP",
		"updated": "FIM*VORTAC*347.11/8.00"
	},
	{
		"name": "WOTRO",
		"latitude": "35-10-7.89 N",
		"longitude": "113-19-15.68 W",
		"state": "ARIZONA",
		"artcc": "ZLA",
		"type": "RP",
		"updated": "DRK*VORTAC*290.20/50.00"
	},
	{
		"name": "WOXEL",
		"latitude": "32-52-48.89 N",
		"longitude": "117-5-26.71 W",
		"state": "CALIFORNIA",
		"artcc": "ZLA",
		"type": "MR",
		"updated": "NKX*TACAN*067.00/3.30"
	},
	{
		"name": "WRASH",
		"latitude": "34-0-2.48 N",
		"longitude": "118-35-12.63 W",
		"state": "CALIFORNIA",
		"artcc": "ZLA",
		"type": "RNAV",
		"updated": "01/05/2017"
	},
	{
		"name": "WRING",
		"latitude": "35-30-47.36 N",
		"longitude": "118-52-29.86 W",
		"state": "CALIFORNIA",
		"artcc": "ZLA",
		"type": "RP",
		"updated": "TTE*VOR/DME*147.39/25.00"
	},
	{
		"name": "WRNER",
		"latitude": "34-8-59.77 N",
		"longitude": "118-33-37.2 W",
		"state": "CALIFORNIA",
		"artcc": "ZLA",
		"type": "RNAV",
		"updated": "08/30/2016"
	},
	{
		"name": "WROBN",
		"latitude": "34-0-26.89 N",
		"longitude": "118-29-40.1 W",
		"state": "CALIFORNIA",
		"artcc": "ZLA",
		"type": "RNAV",
		"updated": "03/02/2017"
	},
	{
		"name": "WRSTL",
		"latitude": "33-34-33.8 N",
		"longitude": "117-26-52.9 W",
		"state": "CALIFORNIA",
		"artcc": "ZLA",
		"type": "RNAV",
		"updated": "12/23/2016"
	},
	{
		"name": "WRYAN",
		"latitude": "33-51-26.88 N",
		"longitude": "118-13-49.45 W",
		"state": "CALIFORNIA",
		"artcc": "ZLA",
		"type": "RNAV",
		"updated": "09/21/2016"
	},
	{
		"name": "WSKEE",
		"latitude": "36-54-38 N",
		"longitude": "116-6-47.99 W",
		"state": "NEVADA",
		"artcc": "ZLA",
		"type": "RNAV",
		"updated": "05/11/2016"
	},
	{
		"name": "WTTCH",
		"latitude": "33-55-33.39 N",
		"longitude": "115-38-48.4 W",
		"state": "CALIFORNIA",
		"artcc": "ZLA",
		"type": "RNAV",
		"updated": "12/23/2016"
	},
	{
		"name": "WUDUS",
		"latitude": "34-5-8.71 N",
		"longitude": "117-39-48.76 W",
		"state": "CALIFORNIA",
		"artcc": "ZLA",
		"type": "RNAV",
		"updated": "07/20/2011"
	},
	{
		"name": "WUGIT",
		"latitude": "34-36-38.97 N",
		"longitude": "117-55-28.8 W",
		"state": "CALIFORNIA",
		"artcc": "ZLA",
		"type": "RP",
		"updated": "PMD*VORTAC*085.10/7.00"
	},
	{
		"name": "WUJEG",
		"latitude": "33-58-36.5 N",
		"longitude": "117-59-51.9 W",
		"state": "CALIFORNIA",
		"artcc": "ZLA",
		"type": "CN",
		"updated": "03/08/2018"
	},
	{
		"name": "WUNAD",
		"latitude": "33-38-17.86 N",
		"longitude": "117-53-33.09 W",
		"state": "CALIFORNIA",
		"artcc": "ZLA",
		"type": "RP",
		"updated": "SLI*VORTAC*121.88"
	},
	{
		"name": "WUNAK",
		"latitude": "34-3-24.84 N",
		"longitude": "117-32-32.76 W",
		"state": "CALIFORNIA",
		"artcc": "ZLA",
		"type": "RP",
		"updated": "ONT*LD*077.98/4.17"
	},
	{
		"name": "WUNUB",
		"latitude": "33-9-6.66 N",
		"longitude": "117-8-0.13 W",
		"state": "CALIFORNIA",
		"artcc": "ZLA",
		"type": "RP",
		"updated": "CRQ*LD*065.14/7.98"
	},
	{
		"name": "WUPEB",
		"latitude": "34-7-15.49 N",
		"longitude": "118-18-52.86 W",
		"state": "CALIFORNIA",
		"artcc": "ZLA",
		"type": "RNAV",
		"updated": "12/17/2013"
	},
	{
		"name": "WURLL",
		"latitude": "34-41-33.87 N",
		"longitude": "120-16-36.17 W",
		"state": "CALIFORNIA",
		"artcc": "ZLA",
		"type": "RNAV",
		"updated": "03/02/2017"
	},
	{
		"name": "WURMO",
		"latitude": "34-15-13 N",
		"longitude": "114-41-26 W",
		"state": "CALIFORNIA",
		"artcc": "ZLA",
		"type": "RNAV",
		"updated": "01/19/2017"
	},
	{
		"name": "WURUD",
		"latitude": "34-2-56.66 N",
		"longitude": "118-24-25.12 W",
		"state": "CALIFORNIA",
		"artcc": "ZLA",
		"type": "RP",
		"updated": "SMO*VOR/DME*031.83/3.40"
	},
	{
		"name": "WUTFY",
		"latitude": "35-6-53.77 N",
		"longitude": "119-11-25.84 W",
		"state": "CALIFORNIA",
		"artcc": "ZLA",
		"type": "RNAV",
		"updated": "10/28/2013"
	},
	{
		"name": "WUTVI",
		"latitude": "34-52-27.39 N",
		"longitude": "120-26-40.01 W",
		"state": "CALIFORNIA",
		"artcc": "ZLA",
		"type": "RNAV",
		"updated": "02/19/2016"
	},
	{
		"name": "WUVAG",
		"latitude": "34-14-33.38 N",
		"longitude": "118-34-3.97 W",
		"state": "CALIFORNIA",
		"artcc": "ZLA",
		"type": "RNAV",
		"updated": "07/20/2011"
	},
	{
		"name": "WUVER",
		"latitude": "33-39-5.64 N",
		"longitude": "114-28-53.88 W",
		"state": "ARIZONA",
		"artcc": "ZLA",
		"type": "RNAV",
		"updated": "10/28/2011"
	},
	{
		"name": "WUXAK",
		"latitude": "34-25-50 N",
		"longitude": "118-27-9 W",
		"state": "CALIFORNIA",
		"artcc": "ZLA",
		"type": "RNAV",
		"updated": "04/24/2013"
	},
	{
		"name": "WYNDI",
		"latitude": "32-56-7.39 N",
		"longitude": "117-43-40.31 W",
		"state": "CALIFORNIA",
		"artcc": "ZLA",
		"type": "MR",
		"updated": "MZB*VORTAC*275.00/27.00"
	},
	{
		"name": "WYNNR",
		"latitude": "35-7-3.75 N",
		"longitude": "120-12-54.39 W",
		"state": "CALIFORNIA",
		"artcc": "ZLA",
		"type": "RP",
		"updated": "FLW*VOR/DME*259.00/17.27"
	},
	{
		"name": "WYVIL",
		"latitude": "33-49-5.91 N",
		"longitude": "117-19-9.98 W",
		"state": "CALIFORNIA",
		"artcc": "ZLA",
		"type": "RP",
		"updated": "JLI*VORTAC*303.00/54.80"
	},
	{
		"name": "WYYNN",
		"latitude": "36-23-3.72 N",
		"longitude": "114-27-28.22 W",
		"state": "NEVADA",
		"artcc": "ZLA",
		"type": "RNAV",
		"updated": "11/02/2016"
	},
	{
		"name": "WYZEE",
		"latitude": "35-41-45.92 N",
		"longitude": "115-30-12.69 W",
		"state": "CALIFORNIA",
		"artcc": "ZLA",
		"type": "RNAV",
		"updated": "12/30/2016"
	}
]
