[
	{
		"name": "YAAPY",
		"latitude": "34-39-53 N",
		"longitude": "118-7-50 W",
		"state": "CALIFORNIA",
		"artcc": "ZLA",
		"type": "RNAV",
		"updated": "12/23/2016"
	},
	{
		"name": "YAFFS",
		"latitude": "34-0-15.31 N",
		"longitude": "117-43-37.29 W",
		"state": "CALIFORNIA",
		"artcc": "ZLA",
		"type": "RNAV",
		"updated": "02/16/2017"
	},
	{
		"name": "YAGIS",
		"latitude": "34-14-18.17 N",
		"longitude": "118-59-3.7 W",
		"state": "CALIFORNIA",
		"artcc": "ZLA",
		"type": "MR",
		"updated": "NTD*TACAN*/9.72"
	},
	{
		"name": "YAGUS",
		"latitude": "33-53-15.35 N",
		"longitude": "116-10-28.74 W",
		"state": "CALIFORNIA",
		"artcc": "ZLA",
		"type": "RNAV",
		"updated": "09/20/2016"
	},
	{
		"name": "YAPKI",
		"latitude": "32-34-59.01 N",
		"longitude": "117-6-20.5 W",
		"state": "CALIFORNIA",
		"artcc": "ZLA",
		"type": "RNAV",
		"updated": "08/21/2013"
	},
	{
		"name": "YATZE",
		"latitude": "33-53-49.49 N",
		"longitude": "116-39-26.31 W",
		"state": "CALIFORNIA",
		"artcc": "ZLA",
		"type": "RNAV",
		"updated": "02/28/2017"
	},
	{
		"name": "YAYGR",
		"latitude": "34-51-8.68 N",
		"longitude": "117-59-14.93 W",
		"state": "CALIFORNIA",
		"artcc": "ZLA",
		"type": "RNAV",
		"updated": "03/08/2018"
	},
	{
		"name": "YCDIL",
		"latitude": "33-52-12.1 N",
		"longitude": "116-25-47.1 W",
		"state": "CALIFORNIA",
		"artcc": "ZLA",
		"type": "CN",
		"updated": "03/21/2002"
	},
	{
		"name": "YEBUN",
		"latitude": "34-11-59.18 N",
		"longitude": "118-30-48.98 W",
		"state": "CALIFORNIA",
		"artcc": "ZLA",
		"type": "RNAV",
		"updated": "07/20/2011"
	},
	{
		"name": "YELAH",
		"latitude": "34-51-15 N",
		"longitude": "116-38-40.9 W",
		"state": "CALIFORNIA",
		"artcc": "ZLA",
		"type": "RNAV",
		"updated": "03/02/2017"
	},
	{
		"name": "YETDO",
		"latitude": "33-3-12.64 N",
		"longitude": "114-26-19.99 W",
		"state": "ARIZONA",
		"artcc": "ZLA",
		"type": "RNAV",
		"updated": "03/17/2009"
	},
	{
		"name": "YETTS",
		"latitude": "34-1-22.06 N",
		"longitude": "117-43-25.91 W",
		"state": "CALIFORNIA",
		"artcc": "ZLA",
		"type": "RNAV",
		"updated": "02/16/2017"
	},
	{
		"name": "YEWRU",
		"latitude": "34-37-38.44 N",
		"longitude": "120-10-45.28 W",
		"state": "CALIFORNIA",
		"artcc": "ZLA",
		"type": "WP",
		"updated": "11/02/1998"
	},
	{
		"name": "YEYUY",
		"latitude": "37-3-20.59 N",
		"longitude": "113-30-0.23 W",
		"state": "UTAH",
		"artcc": "ZLA",
		"type": "RNAV",
		"updated": "11/09/2010"
	},
	{
		"name": "YITUN",
		"latitude": "34-11-55.67 N",
		"longitude": "118-29-11.18 W",
		"state": "CALIFORNIA",
		"artcc": "ZLA",
		"type": "RP",
		"updated": "VNY*VOR/DME*155.00/1.53"
	},
	{
		"name": "YOCEP",
		"latitude": "32-58-56.95 N",
		"longitude": "114-38-36.73 W",
		"state": "CALIFORNIA",
		"artcc": "ZLA",
		"type": "RP",
		"updated": "BZA*VORTAC*336.91/13.00"
	},
	{
		"name": "YOCUL",
		"latitude": "34-6-41.13 N",
		"longitude": "116-24-5.07 W",
		"state": "CALIFORNIA",
		"artcc": "ZLA",
		"type": "RNAV",
		"updated": "09/20/2016"
	},
	{
		"name": "YOLKS",
		"latitude": "34-47-33.31 N",
		"longitude": "120-26-21.32 W",
		"state": "CALIFORNIA",
		"artcc": "ZLA",
		"type": "RNAV",
		"updated": "02/19/2016"
	},
	{
		"name": "YOLYY",
		"latitude": "34-6-43.71 N",
		"longitude": "119-0-34.19 W",
		"state": "CALIFORNIA",
		"artcc": "ZLA",
		"type": "RNAV",
		"updated": "09/28/2016"
	},
	{
		"name": "YONNI",
		"latitude": "34-28-52.5 N",
		"longitude": "120-5-24.12 W",
		"state": "CALIFORNIA",
		"artcc": "ZLA",
		"type": "RP",
		"updated": "RZS*VORTAC*249.98"
	},
	{
		"name": "YORBA",
		"latitude": "33-54-38.05 N",
		"longitude": "117-46-42.7 W",
		"state": "CALIFORNIA",
		"artcc": "ZLA",
		"type": "RP",
		"updated": "SLI*VORTAC*046.00/15.80"
	},
	{
		"name": "YORBS",
		"latitude": "34-24-7.71 N",
		"longitude": "119-2-35.65 W",
		"state": "CALIFORNIA",
		"artcc": "ZLA",
		"type": "RNAV",
		"updated": "03/02/2017"
	},
	{
		"name": "YORRK",
		"latitude": "34-52-3.23 N",
		"longitude": "113-55-58.14 W",
		"state": "ARIZONA",
		"artcc": "ZLA",
		"type": "RNAV",
		"updated": "01/20/2016"
	},
	{
		"name": "YOSST",
		"latitude": "35-54-54.79 N",
		"longitude": "115-17-29.23 W",
		"state": "NEVADA",
		"artcc": "ZLA",
		"type": "RNAV",
		"updated": "04/29/2010"
	},
	{
		"name": "YOUBE",
		"latitude": "34-13-2.61 N",
		"longitude": "118-58-26.09 W",
		"state": "CALIFORNIA",
		"artcc": "ZLA",
		"type": "RP",
		"updated": "VTU*VOR/DME*016.52"
	},
	{
		"name": "YTBNG",
		"latitude": "34-7-43.94 N",
		"longitude": "118-21-4.74 W",
		"state": "CALIFORNIA",
		"artcc": "ZLA",
		"type": "CN",
		"updated": "03/08/2018"
	},
	{
		"name": "YUCCA",
		"latitude": "34-6-12.58 N",
		"longitude": "116-31-15.49 W",
		"state": "CALIFORNIA",
		"artcc": "ZLA",
		"type": "RP",
		"updated": "PSP*VORTAC*329.00/14.71"
	},
	{
		"name": "YUCUC",
		"latitude": "34-3-17.56 N",
		"longitude": "117-24-47.7 W",
		"state": "CALIFORNIA",
		"artcc": "ZLA",
		"type": "RP",
		"updated": "PDZ*VORTAC*020.43/10.04"
	},
	{
		"name": "YUFAP",
		"latitude": "33-48-50.45 N",
		"longitude": "118-32-1.23 W",
		"state": "CALIFORNIA",
		"artcc": "ZLA",
		"type": "RNAV",
		"updated": "10/10/2012"
	},
	{
		"name": "YUGKU",
		"latitude": "34-42-20.97 N",
		"longitude": "118-30-21.55 W",
		"state": "CALIFORNIA",
		"artcc": "ZLA",
		"type": "RNAV",
		"updated": "03/14/2018"
	},
	{
		"name": "YUMMI",
		"latitude": "34-32-2.11 N",
		"longitude": "118-39-19.61 W",
		"state": "CALIFORNIA",
		"artcc": "ZLA",
		"type": "RNAV",
		"updated": "01/05/2017"
	},
	{
		"name": "YUTOO",
		"latitude": "34-38-36.46 N",
		"longitude": "119-16-8.63 W",
		"state": "CALIFORNIA",
		"artcc": "ZLA",
		"type": "RNAV",
		"updated": "12/23/2016"
	}
]
