	{
		"name": "ZABES",
		"latitude": "36-1-36.59 N",
		"longitude": "115-11-53.11 W",
		"state": "NEVADA",
		"artcc": "ZLA",
		"type": "RP",
		"updated": "CUA*LD*193.91/4.84",
	},
	{
		"name": "ZABSA",
		"latitude": "34-51-4.7 N",
		"longitude": "116-35-5.23 W",
		"state": "CALIFORNIA",
		"artcc": "ZLA",
		"type": "RNAV",
		"updated": "11/03/2015",
	},
	{
		"name": "ZACKS",
		"latitude": "34-23-9.23 N",
		"longitude": "119-42-44.47 W",
		"state": "CALIFORNIA",
		"artcc": "ZLA",
		"type": "RP",
		"updated": "RZS*VORTAC*144.53",
	},
	{
		"name": "ZAGAN",
		"latitude": "35-23-25.14 N",
		"longitude": "117-52-32.09 W",
		"state": "CALIFORNIA",
		"artcc": "ZLA",
		"type": "RP",
		"updated": "NID*TACAN*193.00/20.00",
	},
	{
		"name": "ZAGVI",
		"latitude": "34-16-39.02 N",
		"longitude": "117-20-20.22 W",
		"state": "CALIFORNIA",
		"artcc": "ZLA",
		"type": "RNAV",
		"updated": "03/08/2018",
	},
	{
		"name": "ZAINY",
		"latitude": "36-39-24.73 N",
		"longitude": "113-54-3.5 W",
		"state": "ARIZONA",
		"artcc": "ZLA",
		"type": "RNAV",
		"updated": "01/22/2016",
	},
	{
		"name": "ZAKES",
		"latitude": "33-18-28.75 N",
		"longitude": "117-20-50.74 W",
		"state": "CALIFORNIA",
		"artcc": "ZLA",
		"type": "MR",
		"updated": "NFG*TACAN*031.40/2.80",
	},
	{
		"name": "ZALIG",
		"latitude": "32-48-44.91 N",
		"longitude": "115-38-51.56 W",
		"state": "CALIFORNIA",
		"artcc": "ZLA",
		"type": "MR",
		"updated": "IPL*VORTAC*284.47/8.00",
	},
	{
		"name": "ZALJE",
		"latitude": "34-55-38.24 N",
		"longitude": "118-26-59.55 W",
		"state": "CALIFORNIA",
		"artcc": "ZLA",
		"type": "RP",
		"updated": "PMD*VORTAC*298.00/26.04",
	},
	{
		"name": "ZALUR",
		"latitude": "33-37-34.42 N",
		"longitude": "117-5-49.2 W",
		"state": "CALIFORNIA",
		"artcc": "ZLA",
		"type": "MR",
		"updated": "RIV*TACAN*138.00/19.00",
	},
	{
		"name": "ZAMER",
		"latitude": "33-11-18.09 N",
		"longitude": "119-22-33.83 W",
		"state": "CALIFORNIA",
		"artcc": "ZLA",
		"type": "MR",
		"updated": "NSI*TACAN*112.00/5.00",
	},
	{
		"name": "ZANAN",
		"latitude": "33-50-24.31 N",
		"longitude": "118-23-38.41 W",
		"state": "CALIFORNIA",
		"artcc": "ZLA",
		"type": "RNAV",
		"updated": "10/10/2012",
	},
	{
		"name": "ZANAS",
		"latitude": "34-13-56.02 N",
		"longitude": "116-3-53.99 W",
		"state": "CALIFORNIA",
		"artcc": "ZLA",
		"type": "MR",
		"updated": "NXP*TACAN*116.00/6.00",
	},
	{
		"name": "ZANAV",
		"latitude": "33-57-39.72 N",
		"longitude": "118-18-51.18 W",
		"state": "CALIFORNIA",
		"artcc": "ZLA",
		"type": "RNAV",
		"updated": "06/11/2008",
	},
	{
		"name": "ZANIG",
		"latitude": "33-9-25.82 N",
		"longitude": "117-1-37.25 W",
		"state": "CALIFORNIA",
		"artcc": "ZLA",
		"type": "RP",
		"updated": "JLI*VORTAC*257.70/22.24",
	},
	{
		"name": "ZANIR",
		"latitude": "33-55-37.68 N",
		"longitude": "118-14-37.85 W",
		"state": "CALIFORNIA",
		"artcc": "ZLA",
		"type": "RP",
		"updated": "LAX*VORTAC*/9.40",
	},
	{
		"name": "ZAPPP",
		"latitude": "33-34-57.3 N",
		"longitude": "118-0-18.53 W",
		"state": "OFFSHORE PACIFIC",
		"artcc": "ZLA",
		"type": "RNAV",
		"updated": "02/28/2017",
	},
	{
		"name": "ZAPSU",
		"latitude": "33-13-15.83 N",
		"longitude": "119-26-1.25 W",
		"state": "CALIFORNIA",
		"artcc": "ZLA",
		"type": "MR",
		"updated": "NSI*TACAN*109.00/1.50",
	},
	{
		"name": "ZAPUD",
		"latitude": "32-39-21.42 N",
		"longitude": "117-6-22.62 W",
		"state": "CALIFORNIA",
		"artcc": "ZLA",
		"type": "MR",
		"updated": "PGY*VORTAC*279.00/7.00",
	},
	{
		"name": "ZARED",
		"latitude": "36-55-6.78 N",
		"longitude": "112-56-2.03 W",
		"state": "ARIZONA",
		"artcc": "ZLA",
		"type": "RNAV",
		"updated": "07/28/2017",
	},
	{
		"name": "ZAROW",
		"latitude": "33-54-38.41 N",
		"longitude": "117-46-41.85 W",
		"state": "CALIFORNIA",
		"artcc": "ZLA",
		"type": "RP",
		"updated": "FUL*LE*NE CRS/10.65",
	},
	{
		"name": "ZARTI",
		"latitude": "35-4-35.49 N",
		"longitude": "118-42-36.78 W",
		"state": "CALIFORNIA",
		"artcc": "ZLA",
		"type": "RP",
		"updated": "TTE*VOR/DME*147.02/52.37",
	},
	{
		"name": "ZASOG",
		"latitude": "33-18-32.64 N",
		"longitude": "116-36-58.71 W",
		"state": "CALIFORNIA",
		"artcc": "ZLA",
		"type": "RNAV",
		"updated": "07/20/2011",
	},
	{
		"name": "ZASON",
		"latitude": "33-17-19.95 N",
		"longitude": "117-22-7.15 W",
		"state": "CALIFORNIA",
		"artcc": "ZLA",
		"type": "MR",
		"updated": "NFG*TACAN*025.50/3.80",
	},
	{
		"name": "ZATES",
		"latitude": "35-27-18 N",
		"longitude": "114-6-54 W",
		"state": "ARIZONA",
		"artcc": "ZLA",
		"type": "RNAV",
		"updated": "03/16/2011",
	},
	{
		"name": "ZATPO",
		"latitude": "34-8-28.17 N",
		"longitude": "119-5-53.17 W",
		"state": "CALIFORNIA",
		"artcc": "ZLA",
		"type": "MR",
		"updated": "NTD*TACAN*036.00/1.60",
	},
	{
		"name": "ZAVAN",
		"latitude": "33-13-49.7 N",
		"longitude": "117-16-9.62 W",
		"state": "CALIFORNIA",
		"artcc": "ZLA",
		"type": "RNAV",
		"updated": "07/20/2011",
	},
	{
		"name": "ZAVOP",
		"latitude": "33-50-45.38 N",
		"longitude": "118-16-27.69 W",
		"state": "CALIFORNIA",
		"artcc": "ZLA",
		"type": "RNAV",
		"updated": "11/19/2014",
	},
	{
		"name": "ZEBLU",
		"latitude": "34-3-24.57 N",
		"longitude": "117-24-47.69 W",
		"state": "CALIFORNIA",
		"artcc": "ZLA",
		"type": "RP",
		"updated": "PDZ*VORTAC*020.05",
	},
	{
		"name": "ZEBNU",
		"latitude": "33-9-33.64 N",
		"longitude": "117-19-4.12 W",
		"state": "CALIFORNIA",
		"artcc": "ZLA",
		"type": "RP",
		"updated": "OCN*VORTAC*119.04/7.00",
	},
	{
		"name": "ZEDAB",
		"latitude": "34-7-25 N",
		"longitude": "115-48-56.18 W",
		"state": "CALIFORNIA",
		"artcc": "ZLA",
		"type": "RNAV",
		"updated": "01/02/2009",
	},
	{
		"name": "ZEDUL",
		"latitude": "36-5-24 N",
		"longitude": "114-59-40 W",
		"state": "NEVADA",
		"artcc": "ZLA",
		"type": "WP",
		"updated": "07/09/2001",
	},
	{
		"name": "ZEGAX",
		"latitude": "35-19-35.54 N",
		"longitude": "120-47-52.61 W",
		"state": "CALIFORNIA",
		"artcc": "ZLA",
		"type": "RP",
		"updated": "MQO*VORTAC*321.05",
	},
	{
		"name": "ZEKIR",
		"latitude": "32-37-47.65 N",
		"longitude": "117-2-0.89 W",
		"state": "CALIFORNIA",
		"artcc": "ZLA",
		"type": "MR",
		"updated": "PGY*VORTAC*279.00/3.00",
	},
	{
		"name": "ZELAB",
		"latitude": "34-6-42.72 N",
		"longitude": "115-28-7.73 W",
		"state": "CALIFORNIA",
		"artcc": "ZLA",
		"type": "MR",
		"updated": "TNP*VORTAC*075.00/15.00",
	},
	{
		"name": "ZELMA",
		"latitude": "34-46-59.99 N",
		"longitude": "115-19-47.51 W",
		"state": "CALIFORNIA",
		"artcc": "ZLA",
		"type": "RP",
		"updated": "EED*VORTAC*256.65",
	},
	{
		"name": "ZELOT",
		"latitude": "35-52-10 N",
		"longitude": "112-2-20 W",
		"state": "ARIZONA",
		"artcc": "ZLA",
		"type": "RNAV",
		"updated": "08/03/2005",
	},
	{
		"name": "ZEMEP",
		"latitude": "34-14-33.44 N",
		"longitude": "118-34-3.98 W",
		"state": "CALIFORNIA",
		"artcc": "ZLA",
		"type": "RNAV",
		"updated": "09/28/2016",
	},
	{
		"name": "ZENAB",
		"latitude": "34-37-48.71 N",
		"longitude": "118-8-43.35 W",
		"state": "CALIFORNIA",
		"artcc": "ZLA",
		"type": "RNAV",
		"updated": "03/14/2018",
	},
	{
		"name": "ZENAP",
		"latitude": "33-34-52.12 N",
		"longitude": "117-24-12.06 W",
		"state": "CALIFORNIA",
		"artcc": "ZLA",
		"type": "RP",
		"updated": "ELB*VOR/DME*095.00/17.37",
	},
	{
		"name": "ZENPA",
		"latitude": "32-52-28.08 N",
		"longitude": "117-7-10.86 W",
		"state": "CALIFORNIA",
		"artcc": "ZLA",
		"type": "MR",
		"updated": "NKX*TACAN*078.96/1.80",
	},
	{
		"name": "ZENSU",
		"latitude": "34-2-58.52 N",
		"longitude": "119-11-28.08 W",
		"state": "CALIFORNIA",
		"artcc": "ZLA",
		"type": "MR",
		"updated": "NTD*TACAN*206.00/5.60",
	},
	{
		"name": "ZEPPE",
		"latitude": "34-26-29.9 N",
		"longitude": "118-58-30.76 W",
		"state": "CALIFORNIA",
		"artcc": "ZLA",
		"type": "RNAV",
		"updated": "12/23/2016",
	},
	{
		"name": "ZEPVU",
		"latitude": "33-53-21.49 N",
		"longitude": "118-17-3.02 W",
		"state": "CALIFORNIA",
		"artcc": "ZLA",
		"type": "RNAV",
		"updated": "04/26/2007",
	},
	{
		"name": "ZERAN",
		"latitude": "33-55-9.82 N",
		"longitude": "118-33-26.08 W",
		"state": "CALIFORNIA",
		"artcc": "ZLA",
		"type": "RNAV",
		"updated": "08/11/2008",
	},
	{
		"name": "ZEREK",
		"latitude": "34-5-20.8 N",
		"longitude": "117-44-5.05 W",
		"state": "CALIFORNIA",
		"artcc": "ZLA",
		"type": "RNAV",
		"updated": "07/20/2011",
	},
	{
		"name": "ZERGI",
		"latitude": "33-59-52.03 N",
		"longitude": "119-22-56.57 W",
		"state": "CALIFORNIA",
		"artcc": "ZLA",
		"type": "MR",
		"updated": "NTD*TACAN*228.00/15.00",
	},
	{
		"name": "ZEROS",
		"latitude": "32-59-35.43 N",
		"longitude": "115-30-19.9 W",
		"state": "CALIFORNIA",
		"artcc": "ZLA",
		"type": "RNAV",
		"updated": "08/05/2002",
	},
	{
		"name": "ZETOV",
		"latitude": "33-44-32.03 N",
		"longitude": "117-49-35.85 W",
		"state": "CALIFORNIA",
		"artcc": "ZLA",
		"type": "RNAV",
		"updated": "09/20/2016",
	},
	{
		"name": "ZEXUG",
		"latitude": "34-15-52.44 N",
		"longitude": "118-30-1.45 W",
		"state": "CALIFORNIA",
		"artcc": "ZLA",
		"type": "RP",
		"updated": "VNY*VOR/DME*335.00/2.50",
	},
	{
		"name": "ZIDOM",
		"latitude": "34-27-13.86 N",
		"longitude": "118-35-40.65 W",
		"state": "CALIFORNIA",
		"artcc": "ZLA",
		"type": "RP",
		"updated": "VNY*VOR/DME*324.69/14.68",
	},
	{
		"name": "ZIGGY",
		"latitude": "34-7-11.29 N",
		"longitude": "117-17-17.89 W",
		"state": "CALIFORNIA",
		"artcc": "ZLA",
		"type": "RP",
		"updated": "HDF*VOR*332.00",
	},
	{
		"name": "ZIGUL",
		"latitude": "34-6-12.77 N",
		"longitude": "119-8-25.84 W",
		"state": "CALIFORNIA",
		"artcc": "ZLA",
		"type": "MR",
		"updated": "NTD*TACAN*206.00/1.50",
	},
	{
		"name": "ZIKAT",
		"latitude": "32-52-32.87 N",
		"longitude": "117-7-4.63 W",
		"state": "CALIFORNIA",
		"artcc": "ZLA",
		"type": "MR",
		"updated": "NKX*TACAN*067.00/1.90",
	},
	{
		"name": "ZIKEG",
		"latitude": "34-17-28.13 N",
		"longitude": "116-8-40.02 W",
		"state": "CALIFORNIA",
		"artcc": "ZLA",
		"type": "MR",
		"updated": "TNP*VORTAC*285.00/21.50",
	},
	{
		"name": "ZILBA",
		"latitude": "33-44-49.78 N",
		"longitude": "118-15-14.02 W",
		"state": "CALIFORNIA",
		"artcc": "ZLA",
		"type": "RP",
		"updated": "SLI*VORTAC*242.80",
	},
	{
		"name": "ZILLI",
		"latitude": "33-41-12 N",
		"longitude": "118-40-2 W",
		"state": "CALIFORNIA",
		"artcc": "ZLA",
		"type": "RNAV",
		"updated": "02/13/2012",
	},
	{
		"name": "ZIMLO",
		"latitude": "33-57-32.08 N",
		"longitude": "118-18-57.6 W",
		"state": "CALIFORNIA",
		"artcc": "ZLA",
		"type": "RNAV",
		"updated": "06/11/2008",
	},
	{
		"name": "ZIMRU",
		"latitude": "33-55-19.56 N",
		"longitude": "118-33-9.08 W",
		"state": "CALIFORNIA",
		"artcc": "ZLA",
		"type": "RNAV",
		"updated": "08/11/2008",
	},
	{
		"name": "ZINAX",
		"latitude": "36-23-25.44 N",
		"longitude": "114-51-3.09 W",
		"state": "NEVADA",
		"artcc": "ZLA",
		"type": "MR",
		"updated": "LSV*TACAN*032.00/12.15",
	},
	{
		"name": "ZIPAD",
		"latitude": "32-33-55.13 N",
		"longitude": "117-1-51.14 W",
		"state": "CALIFORNIA",
		"artcc": "ZLA",
		"type": "MR",
		"updated": "NRS*TACAN*078.00/4.00",
	},
	{
		"name": "ZIPPP",
		"latitude": "32-35-59.35 N",
		"longitude": "116-58-24.18 W",
		"state": "CALIFORNIA",
		"artcc": "ZLA",
		"type": "RNAV",
		"updated": "12/23/2016",
	},
	{
		"name": "ZIPRR",
		"latitude": "35-2-44.53 N",
		"longitude": "120-33-42.86 W",
		"state": "CALIFORNIA",
		"artcc": "ZLA",
		"type": "RNAV",
		"updated": "03/01/2017",
	},
	{
		"name": "ZIQOR",
		"latitude": "34-27-49.73 N",
		"longitude": "119-41-11.93 W",
		"state": "CALIFORNIA",
		"artcc": "ZLA",
		"type": "RP",
		"updated": "RZS*VORTAC*109.19/5.00",
	},
	{
		"name": "ZIRDI",
		"latitude": "34-33-8.35 N",
		"longitude": "120-22-21.69 W",
		"state": "CALIFORNIA",
		"artcc": "ZLA",
		"type": "MR",
		"updated": "VBG*TACAN*/15.00",
	},
	{
		"name": "ZIRLU",
		"latitude": "32-47-21.96 N",
		"longitude": "116-45-38.13 W",
		"state": "CALIFORNIA",
		"artcc": "ZLA",
		"type": "RP",
		"updated": "SEE*LE*089.08/11.53",
	},
	{
		"name": "ZIRVA",
		"latitude": "35-16-23.91 N",
		"longitude": "120-42-15.16 W",
		"state": "CALIFORNIA",
		"artcc": "ZLA",
		"type": "RNAV",
		"updated": "04/25/2012",
	},
	{
		"name": "ZISDI",
		"latitude": "34-7-59.18 N",
		"longitude": "118-11-39.57 W",
		"state": "CALIFORNIA",
		"artcc": "ZLA",
		"type": "RP",
		"updated": "SMO*VOR/DME*045.56/15.01",
	},
	{
		"name": "ZITOV",
		"latitude": "34-9-39.51 N",
		"longitude": "118-14-25.04 W",
		"state": "CALIFORNIA",
		"artcc": "ZLA",
		"type": "RNAV",
		"updated": "12/17/2013",
	},
	{
		"name": "ZIVSI",
		"latitude": "35-36-31.75 N",
		"longitude": "114-7-58.99 W",
		"state": "ARIZONA",
		"artcc": "ZLA",
		"type": "RP",
		"updated": "BLD*VORTAC*107.82/42.53",
	},
	{
		"name": "ZIXAP",
		"latitude": "35-2-5.33 N",
		"longitude": "117-37-44.03 W",
		"state": "CALIFORNIA",
		"artcc": "ZLA",
		"type": "MR",
		"updated": "EDW*VORTAC*043.39/6.00",
	},
	{
		"name": "ZOBAN",
		"latitude": "32-41-5.52 N",
		"longitude": "117-13-11.69 W",
		"state": "CALIFORNIA",
		"artcc": "ZLA",
		"type": "MW",
		"updated": "05/15/2009",
	},
	{
		"name": "ZOGOV",
		"latitude": "36-52-5.03 N",
		"longitude": "113-35-16.8 W",
		"state": "ARIZONA",
		"artcc": "ZLA",
		"type": "RNAV",
		"updated": "11/19/2010",
	},
	{
		"name": "ZOINK",
		"latitude": "33-51-28.7 N",
		"longitude": "116-16-39.81 W",
		"state": "CALIFORNIA",
		"artcc": "ZLA",
		"type": "RNAV",
		"updated": "03/01/2017",
	},
	{
		"name": "ZOKAV",
		"latitude": "33-57-55.12 N",
		"longitude": "119-16-12.06 W",
		"state": "CALIFORNIA",
		"artcc": "ZLA",
		"type": "MR",
		"updated": "NTD*TACAN*206.00/12.00",
	},
	{
		"name": "ZOKVU",
		"latitude": "33-3-51.88 N",
		"longitude": "118-28-9.36 W",
		"state": "CALIFORNIA",
		"artcc": "ZLA",
		"type": "MR",
		"updated": "NUC*TACAN*053.00/6.00",
	},
	{
		"name": "ZOLOK",
		"latitude": "32-40-40.61 N",
		"longitude": "117-13-18.78 W",
		"state": "CALIFORNIA",
		"artcc": "ZLA",
		"type": "MR",
		"updated": "NZY*TACAN*180.00/1.50",
	},
	{
		"name": "ZOLPA",
		"latitude": "32-43-52.92 N",
		"longitude": "117-10-50.25 W",
		"state": "CALIFORNIA",
		"artcc": "ZLA",
		"type": "MR",
		"updated": "UBR*LE*095.00/1.30",
	},
	{
		"name": "ZONAL",
		"latitude": "35-28-9.3 N",
		"longitude": "120-49-53.94 W",
		"state": "CALIFORNIA",
		"artcc": "ZLA",
		"type": "RP",
		"updated": "RZS*VORTAC*304.02/77.71",
	},
	{
		"name": "ZONAS",
		"latitude": "32-47-44.1 N",
		"longitude": "115-32-58.33 W",
		"state": "CALIFORNIA",
		"artcc": "ZLA",
		"type": "RP",
		"updated": "NJK*TACAN*097.00/7.00",
	},
	{
		"name": "ZONEG",
		"latitude": "33-58-35.37 N",
		"longitude": "117-22-7.39 W",
		"state": "CALIFORNIA",
		"artcc": "ZLA",
		"type": "RNAV",
		"updated": "12/23/2015",
	},
	{
		"name": "ZOOLU",
		"latitude": "32-36-29.97 N",
		"longitude": "117-41-21.82 W",
		"state": "CALIFORNIA",
		"artcc": "ZLA",
		"type": "RP",
		"updated": "PGY*VORTAC*256.00/36.00",
	},
	{
		"name": "ZOOMM",
		"latitude": "33-57-9.41 N",
		"longitude": "117-54-8.91 W",
		"state": "CALIFORNIA",
		"artcc": "ZLA",
		"type": "RNAV",
		"updated": "12/30/2016",
	},
	{
		"name": "ZOPEX",
		"latitude": "32-41-23.1 N",
		"longitude": "117-12-3.1 W",
		"state": "CALIFORNIA",
		"artcc": "ZLA",
		"type": "MR",
		"updated": "PGY*VORTAC*279.00/12.20",
	},
	{
		"name": "ZORAN",
		"latitude": "34-51-0 N",
		"longitude": "120-48-0 W",
		"state": "CALIFORNIA",
		"artcc": "ZLA",
		"type": "RNAV",
		"updated": "04/17/2017",
	},
	{
		"name": "ZOREN",
		"latitude": "34-36-17.46 N",
		"longitude": "117-45-45.43 W",
		"state": "CALIFORNIA",
		"artcc": "ZLA",
		"type": "RP",
		"updated": "EDW*VORTAC*168.76/22.66",
	},
	{
		"name": "ZORGI",
		"latitude": "34-18-49.7 N",
		"longitude": "116-12-35.51 W",
		"state": "CALIFORNIA",
		"artcc": "ZLA",
		"type": "MR",
		"updated": "TNP*VORTAC*284.00/25.00",
	},
	{
		"name": "ZOVPU",
		"latitude": "36-46-38.62 N",
		"longitude": "113-46-46.92 W",
		"state": "ARIZONA",
		"artcc": "ZLA",
		"type": "RP",
		"updated": "MMM*VORTAC*072.69/24.00",
	},
	{
		"name": "ZOXUB",
		"latitude": "34-43-29.04 N",
		"longitude": "120-26-5.82 W",
		"state": "CALIFORNIA",
		"artcc": "ZLA",
		"type": "RNAV",
		"updated": "02/19/2016",
	},
	{
		"name": "ZUCKI",
		"latitude": "32-48-54.2 N",
		"longitude": "114-36-42.78 W",
		"state": "CALIFORNIA",
		"artcc": "ZLA",
		"type": "MW",
		"updated": "04/13/2018",
	},
	{
		"name": "ZUDEG",
		"latitude": "35-29-50.42 N",
		"longitude": "119-9-53.43 W",
		"state": "CALIFORNIA",
		"artcc": "ZLA",
		"type": "RP",
		"updated": "EHF*VORTAC*269.05/3.40",
	},
	{
		"name": "ZUDID",
		"latitude": "35-16-31.8 N",
		"longitude": "117-59-45.14 W",
		"state": "CALIFORNIA",
		"artcc": "ZLA",
		"type": "RNAV",
		"updated": "05/18/2017",
	},
	{
		"name": "ZUKEM",
		"latitude": "33-21-9.69 N",
		"longitude": "117-14-14.2 W",
		"state": "CALIFORNIA",
		"artcc": "ZLA",
		"type": "MR",
		"updated": "NFG*TACAN*045.00/8.84",
	},
	{
		"name": "ZUKPO",
		"latitude": "34-21-8.85 N",
		"longitude": "118-36-31.89 W",
		"state": "CALIFORNIA",
		"artcc": "ZLA",
		"type": "CN",
		"updated": "08/14/2008",
	},
	{
		"name": "ZUMOD",
		"latitude": "35-19-3.51 N",
		"longitude": "114-34-17.88 W",
		"state": "ARIZONA",
		"artcc": "ZLA",
		"type": "RNAV",
		"updated": "08/14/2006",
	},
	{
		"name": "ZUNGU",
		"latitude": "33-20-46.93 N",
		"longitude": "115-55-3.65 W",
		"state": "CALIFORNIA",
		"artcc": "ZLA",
		"type": "RP",
		"updated": "TRM*VORTAC*131.13/20.80",
	},
	{
		"name": "ZUPET",
		"latitude": "33-6-51.26 N",
		"longitude": "118-19-19.27 W",
		"state": "CALIFORNIA",
		"artcc": "ZLA",
		"type": "MR",
		"updated": "NUC*TACAN*053.00/14.00",
	},
	{
		"name": "ZUPNI",
		"latitude": "35-13-52.42 N",
		"longitude": "118-56-28.3 W",
		"state": "CALIFORNIA",
		"artcc": "ZLA",
		"type": "RP",
		"updated": "EHF*VORTAC*139.17/17.00",
	},
	{
		"name": "ZUPOL",
		"latitude": "34-12-2 N",
		"longitude": "120-26-34 W",
		"state": "CALIFORNIA",
		"artcc": "ZLA",
		"type": "RNAV",
		"updated": "07/04/2013",
	},
	{
		"name": "ZURSA",
		"latitude": "32-44-11.71 N",
		"longitude": "117-12-7.78 W",
		"state": "CALIFORNIA",
		"artcc": "ZLA",
		"type": "MR",
		"updated": "SAN*LD*275.00/1.46",
	},
	{
		"name": "ZUSED",
		"latitude": "33-39-28.27 N",
		"longitude": "117-52-48.47 W",
		"state": "CALIFORNIA",
		"artcc": "ZLA",
		"type": "RP",
		"updated": "SNA*LD*195.91/0.47",
	},
	{
		"name": "ZUSEN",
		"latitude": "34-57-11.55 N",
		"longitude": "117-55-56.22 W",
		"state": "CALIFORNIA",
		"artcc": "ZLA",
		"type": "MR",
		"updated": "EDW*VORTAC*245.00/10.00",
	},
	{
		"name": "ZUSIS",
		"latitude": "33-37-57.72 N",
		"longitude": "114-35-50.96 W",
		"state": "CALIFORNIA",
		"artcc": "ZLA",
		"type": "RNAV",
		"updated": "11/01/2011",
	},
	{
		"name": "ZUSTA",
		"latitude": "34-16-17.75 N",
		"longitude": "116-6-18.5 W",
		"state": "CALIFORNIA",
		"artcc": "ZLA",
		"type": "MR",
		"updated": "NXP*TACAN*106.00/3.00",
	},
	{
		"name": "ZUSUR",
		"latitude": "35-8-11.82 N",
		"longitude": "118-5-8.2 W",
		"state": "CALIFORNIA",
		"artcc": "ZLA",
		"type": "RNAV",
		"updated": "01/14/2005",
	},
	{
		"name": "ZUUMA",
		"latitude": "34-16-37.95 N",
		"longitude": "118-58-40.98 W",
		"state": "CALIFORNIA",
		"artcc": "ZLA",
		"type": "RNAV",
		"updated": "03/01/2017",
	},
	{
		"name": "ZUVEL",
		"latitude": "33-44-7.33 N",
		"longitude": "116-15-31.36 W",
		"state": "CALIFORNIA",
		"artcc": "ZLA",
		"type": "RP",
		"updated": "TRM*VORTAC*309.51/8.10",
	},
	{
		"name": "ZUVID",
		"latitude": "35-47-59.64 N",
		"longitude": "115-32-46.03 W",
		"state": "NEVADA",
		"artcc": "ZLA",
		"type": "RNAV",
		"updated": "05/25/2011",
	},
	{
		"name": "ZUWNI",
		"latitude": "34-25-24.35 N",
		"longitude": "118-52-41.99 W",
		"state": "CALIFORNIA",
		"artcc": "ZLA",
		"type": "RP",
		"updated": "VNY*VOR/DME*287.05",
	},
	{
		"name": "ZUXAX",
		"latitude": "33-8-14.56 N",
		"longitude": "117-13-24.54 W",
		"state": "CALIFORNIA",
		"artcc": "ZLA",
		"type": "RNAV",
		"updated": "07/20/2011",
	},
	{
		"name": "ZUXOS",
		"latitude": "36-51-10 N",
		"longitude": "112-59-21 W",
		"state": "ARIZONA",
		"artcc": "ZLA",
		"type": "RNAV",
		"updated": "07/28/2017",
	},
	{
		"name": "ZZOOO",
		"latitude": "32-37-53.24 N",
		"longitude": "117-14-44.98 W",
		"state": "OFFSHORE PACIFIC",
		"artcc": "ZLA",
		"type": "RNAV",
		"updated": "09/16/2016",
	},
	{
		"name": "ZZYZX",
		"latitude": "35-39-53.52 N",
		"longitude": "114-51-54.99 W",
		"state": "NEVADA",
		"artcc": "ZLA",
		"type": "RNAV",
		"updated": "01/22/2016",
	},
