	{
		"name": "AARTA",
		"latitude": "34-36-21.29 N",
		"longitude": "87-16-24.75 W",
		"state": "ALABAMA",
		"artcc": "ZME",
		"type": "RNAV",
		"updated": "08/01/2012",
	},
	{
		"name": "ACALE",
		"latitude": "35-36-31.54 N",
		"longitude": "90-6-48 W",
		"state": "ARKANSAS",
		"artcc": "ZME",
		"type": "RNAV",
		"updated": "10/02/2006",
	},
	{
		"name": "ACEDI",
		"latitude": "36-55-14.3 N",
		"longitude": "88-56-21.86 W",
		"state": "KENTUCKY",
		"artcc": "ZME",
		"type": "RNAV",
		"updated": "07/19/2006",
	},
	{
		"name": "ACIWA",
		"latitude": "37-5-34.11 N",
		"longitude": "90-18-54.46 W",
		"state": "MISSOURI",
		"artcc": "ZME",
		"type": "RNAV",
		"updated": "06/08/2007",
	},
	{
		"name": "ACKEE",
		"latitude": "35-11-3.96 N",
		"longitude": "87-50-3.24 W",
		"state": "TENNESSEE",
		"artcc": "ZME",
		"type": "RNAV",
		"updated": "09/14/2012",
	},
	{
		"name": "ACOVO",
		"latitude": "33-20-26.84 N",
		"longitude": "88-50-45.02 W",
		"state": "MISSISSIPPI",
		"artcc": "ZME",
		"type": "RNAV",
		"updated": "08/10/2010",
	},
	{
		"name": "ACZUP",
		"latitude": "32-7-41.21 N",
		"longitude": "88-47-33.96 W",
		"state": "MISSISSIPPI",
		"artcc": "ZME",
		"type": "RP",
		"updated": "MEI*VORTAC*172.76/15.00",
	},
	{
		"name": "ADAAY",
		"latitude": "35-47-41.34 N",
		"longitude": "86-14-6.3 W",
		"state": "TENNESSEE",
		"artcc": "ZME",
		"type": "RNAV",
		"updated": "09/20/2012",
	},
	{
		"name": "ADIVE",
		"latitude": "32-2-51.26 N",
		"longitude": "90-57-29.68 W",
		"state": "MISSISSIPPI",
		"artcc": "ZME",
		"type": "RNAV",
		"updated": "11/30/2012",
	},
	{
		"name": "ADOFO",
		"latitude": "35-4-39.2 N",
		"longitude": "88-13-53.74 W",
		"state": "TENNESSEE",
		"artcc": "ZME",
		"type": "RNAV",
		"updated": "05/27/2009",
	},
	{
		"name": "ADOKE",
		"latitude": "36-26-27.73 N",
		"longitude": "93-7-59.32 W",
		"state": "ARKANSAS",
		"artcc": "ZME",
		"type": "RNAV",
		"updated": "02/25/2003",
	},
	{
		"name": "ADUCA",
		"latitude": "33-24-45.84 N",
		"longitude": "91-22-15.16 W",
		"state": "ARKANSAS",
		"artcc": "ZME",
		"type": "RNAV",
		"updated": "10/27/2011",
	},
	{
		"name": "ADULT",
		"latitude": "34-34-44.3 N",
		"longitude": "89-30-59.57 W",
		"state": "MISSISSIPPI",
		"artcc": "ZME",
		"type": "RP",
		"updated": "HLI*VORTAC*181.95/11.50",
	},
	{
		"name": "AFPAM",
		"latitude": "36-24-56.86 N",
		"longitude": "92-58-26.5 W",
		"state": "ARKANSAS",
		"artcc": "ZME",
		"type": "RNAV",
		"updated": "03/10/2009",
	},
	{
		"name": "AGEES",
		"latitude": "36-13-1.37 N",
		"longitude": "86-6-53.23 W",
		"state": "TENNESSEE",
		"artcc": "ZME",
		"type": "RP",
		"updated": "BNA*VORTAC*082.00/28.10",
	},
	{
		"name": "AGETE",
		"latitude": "33-30-18.03 N",
		"longitude": "92-9-28.56 W",
		"state": "ARKANSAS",
		"artcc": "ZME",
		"type": "CN",
		"updated": "12/04/2014",
	},
	{
		"name": "AGFEF",
		"latitude": "35-51-5.03 N",
		"longitude": "92-0-54.09 W",
		"state": "ARKANSAS",
		"artcc": "ZME",
		"type": "CN",
		"updated": "02/06/2012",
	},
	{
		"name": "AGISY",
		"latitude": "36-3-0.27 N",
		"longitude": "87-37-35.05 W",
		"state": "TENNESSEE",
		"artcc": "ZME",
		"type": "RNAV",
		"updated": "07/25/2011",
	},
	{
		"name": "AGOME",
		"latitude": "36-11-24 N",
		"longitude": "91-38-1.17 W",
		"state": "ARKANSAS",
		"artcc": "ZME",
		"type": "RNAV",
		"updated": "05/07/2007",
	},
	{
		"name": "AGOTE",
		"latitude": "34-55-9.51 N",
		"longitude": "91-2-54.23 W",
		"state": "ARKANSAS",
		"artcc": "ZME",
		"type": "RP",
		"updated": "UJM*VOR/DME*317.22",
	},
	{
		"name": "AGTOW",
		"latitude": "33-40-42.99 N",
		"longitude": "92-44-58.39 W",
		"state": "ARKANSAS",
		"artcc": "ZME",
		"type": "CN",
		"updated": "02/06/2012",
	},
	{
		"name": "AGUBY",
		"latitude": "33-2-50.02 N",
		"longitude": "89-2-30.28 W",
		"state": "MISSISSIPPI",
		"artcc": "ZME",
		"type": "RNAV",
		"updated": "12/17/2015",
	},
	{
		"name": "AGUDY",
		"latitude": "35-28-26.86 N",
		"longitude": "92-4-34.51 W",
		"state": "ARKANSAS",
		"artcc": "ZME",
		"type": "CN",
		"updated": "02/06/2012",
	},
	{
		"name": "AGURY",
		"latitude": "36-1-45.79 N",
		"longitude": "85-43-25.06 W",
		"state": "TENNESSEE",
		"artcc": "ZME",
		"type": "RNAV",
		"updated": "04/17/2013",
	},
	{
		"name": "AGVUW",
		"latitude": "35-59-56.42 N",
		"longitude": "89-49-55.88 W",
		"state": "ARKANSAS",
		"artcc": "ZME",
		"type": "RNAV",
		"updated": "03/25/2008",
	},
	{
		"name": "AHASI",
		"latitude": "34-38-21.34 N",
		"longitude": "92-14-28.54 W",
		"state": "ARKANSAS",
		"artcc": "ZME",
		"type": "CN",
		"updated": "12/04/2014",
	},
	{
		"name": "AHEWY",
		"latitude": "34-23-24.83 N",
		"longitude": "92-42-29.52 W",
		"state": "ARKANSAS",
		"artcc": "ZME",
		"type": "RNAV",
		"updated": "02/03/2012",
	},
	{
		"name": "AHIMY",
		"latitude": "34-36-15.06 N",
		"longitude": "91-34-42.52 W",
		"state": "ARKANSAS",
		"artcc": "ZME",
		"type": "WP",
		"updated": "11/02/1998",
	},
	{
		"name": "AHINO",
		"latitude": "35-56-12.75 N",
		"longitude": "86-22-27.87 W",
		"state": "TENNESSEE",
		"artcc": "ZME",
		"type": "RNAV",
		"updated": "02/09/2018",
	},
	{
		"name": "AHOYE",
		"latitude": "36-45-7.9 N",
		"longitude": "88-57-45.75 W",
		"state": "KENTUCKY",
		"artcc": "ZME",
		"type": "RP",
		"updated": "CGI*VOR/DME*136.00/40.87",
	},
	{
		"name": "AHUCA",
		"latitude": "36-39-27.12 N",
		"longitude": "85-42-47.79 W",
		"state": "KENTUCKY",
		"artcc": "ZME",
		"type": "RNAV",
		"updated": "04/15/2013",
	},
	{
		"name": "AIRBE",
		"latitude": "36-44-12.72 N",
		"longitude": "87-24-48.32 W",
		"state": "KENTUCKY",
		"artcc": "ZME",
		"type": "RNAV",
		"updated": "11/20/2017",
	},
	{
		"name": "AJEHO",
		"latitude": "33-34-40.91 N",
		"longitude": "90-59-14.06 W",
		"state": "MISSISSIPPI",
		"artcc": "ZME",
		"type": "RNAV",
		"updated": "01/14/2009",
	},
	{
		"name": "AJIMO",
		"latitude": "34-44-47.74 N",
		"longitude": "92-15-24.31 W",
		"state": "ARKANSAS",
		"artcc": "ZME",
		"type": "RNAV",
		"updated": "02/09/2018",
	},
	{
		"name": "AKALY",
		"latitude": "32-31-49.2 N",
		"longitude": "90-6-42.97 W",
		"state": "MISSISSIPPI",
		"artcc": "ZME",
		"type": "RNAV",
		"updated": "11/30/2012",
	},
	{
		"name": "AKAYI",
		"latitude": "33-58-15 N",
		"longitude": "90-27-25.79 W",
		"state": "MISSISSIPPI",
		"artcc": "ZME",
		"type": "RP",
		"updated": "GLH*VOR/DME*040.33/37.54",
	},
	{
		"name": "AKIDY",
		"latitude": "33-16-40.8 N",
		"longitude": "91-20-8.57 W",
		"state": "ARKANSAS",
		"artcc": "ZME",
		"type": "RNAV",
		"updated": "01/26/2017",
	},
	{
		"name": "AKINS",
		"latitude": "35-28-4.6 N",
		"longitude": "94-40-34.74 W",
		"state": "OKLAHOMA",
		"artcc": "ZME",
		"type": "RP",
		"updated": "PGO*VORTAC*352.00",
	},
	{
		"name": "AKRMN",
		"latitude": "33-21-39.64 N",
		"longitude": "89-6-27.62 W",
		"state": "MISSISSIPPI",
		"artcc": "ZME",
		"type": "RNAV",
		"updated": "12/17/2015",
	},
	{
		"name": "AKUFF",
		"latitude": "36-15-25.62 N",
		"longitude": "86-37-54.14 W",
		"state": "TENNESSEE",
		"artcc": "ZME",
		"type": "RP",
		"updated": "BNA*VORTAC*/7.65",
	},
	{
		"name": "ALBER",
		"latitude": "34-22-21.9 N",
		"longitude": "86-19-38.07 W",
		"state": "ALABAMA",
		"artcc": "ZME",
		"type": "RP",
		"updated": "RQZ*VORTAC*147.06/29.62",
	},
	{
		"name": "ALIDE",
		"latitude": "35-8-52.03 N",
		"longitude": "90-11-38.86 W",
		"state": "ARKANSAS",
		"artcc": "ZME",
		"type": "RNAV",
		"updated": "06/10/2008",
	},
	{
		"name": "ALLEE",
		"latitude": "33-48-23.3 N",
		"longitude": "88-37-25.89 W",
		"state": "MISSISSIPPI",
		"artcc": "ZME",
		"type": "MR",
		"updated": "IGB*VORTAC*340.00/20.00",
	},
	{
		"name": "ALLEN",
		"latitude": "32-24-46.74 N",
		"longitude": "90-7-5.3 W",
		"state": "MISSISSIPPI",
		"artcc": "ZME",
		"type": "RP",
		"updated": "MHZ*VORTAC*217.46",
	},
	{
		"name": "ALMND",
		"latitude": "35-42-10.64 N",
		"longitude": "91-47-51.55 W",
		"state": "ARKANSAS",
		"artcc": "ZME",
		"type": "RP",
		"updated": "BVX*LE*258.80/7.94",
	},
	{
		"name": "ALMOW",
		"latitude": "34-55-53.89 N",
		"longitude": "92-13-55.05 W",
		"state": "ARKANSAS",
		"artcc": "ZME",
		"type": "RNAV",
		"updated": "01/31/2011",
	},
	{
		"name": "ALORE",
		"latitude": "35-25-23.31 N",
		"longitude": "86-14-37.27 W",
		"state": "TENNESSEE",
		"artcc": "ZME",
		"type": "RNAV",
		"updated": "06/29/2011",
	},
	{
		"name": "ALTEE",
		"latitude": "34-53-3 N",
		"longitude": "92-15-40.46 W",
		"state": "ARKANSAS",
		"artcc": "ZME",
		"type": "MW",
		"updated": "09/04/2009",
	},
	{
		"name": "ALUWO",
		"latitude": "35-41-16.96 N",
		"longitude": "85-36-39.59 W",
		"state": "TENNESSEE",
		"artcc": "ZME",
		"type": "RNAV",
		"updated": "01/16/2001",
	},
	{
		"name": "ALWUB",
		"latitude": "35-29-43.41 N",
		"longitude": "87-16-42.56 W",
		"state": "TENNESSEE",
		"artcc": "ZME",
		"type": "RNAV",
		"updated": "11/02/2009",
	},
	{
		"name": "AMIKE",
		"latitude": "35-32-33.92 N",
		"longitude": "93-57-23.11 W",
		"state": "ARKANSAS",
		"artcc": "ZME",
		"type": "RP",
		"updated": "FSM*VORTAC*052.00/18.00",
	},
	{
		"name": "AMIVE",
		"latitude": "35-11-0.54 N",
		"longitude": "86-4-58.49 W",
		"state": "TENNESSEE",
		"artcc": "ZME",
		"type": "RNAV",
		"updated": "04/27/2018",
	},
	{
		"name": "AMLAZ",
		"latitude": "35-15-34.68 N",
		"longitude": "88-12-8.5 W",
		"state": "TENNESSEE",
		"artcc": "ZME",
		"type": "RNAV",
		"updated": "05/27/2009",
	},
	{
		"name": "AMOJO",
		"latitude": "35-23-49.86 N",
		"longitude": "85-22-0.58 W",
		"state": "TENNESSEE",
		"artcc": "ZME",
		"type": "RNAV",
		"updated": "01/16/2001",
	},
	{
		"name": "AMOPE",
		"latitude": "36-10-52.97 N",
		"longitude": "93-58-52.29 W",
		"state": "ARKANSAS",
		"artcc": "ZME",
		"type": "RNAV",
		"updated": "09/17/2015",
	},
	{
		"name": "AMUJE",
		"latitude": "34-58-4.58 N",
		"longitude": "85-39-9.42 W",
		"state": "ALABAMA",
		"artcc": "ZME",
		"type": "RNAV",
		"updated": "08/18/2017",
	},
	{
		"name": "AMUXY",
		"latitude": "34-27-27.35 N",
		"longitude": "86-47-25.44 W",
		"state": "ALABAMA",
		"artcc": "ZME",
		"type": "RNAV",
		"updated": "08/21/2009",
	},
	{
		"name": "ANPIY",
		"latitude": "32-54-1.1 N",
		"longitude": "91-21-32.49 W",
		"state": "LOUISIANA",
		"artcc": "ZME",
		"type": "RP",
		"updated": "GLH*VOR/DME*203.00/41.85",
	},
	{
		"name": "ANSWA",
		"latitude": "34-44-27.48 N",
		"longitude": "91-46-32.86 W",
		"state": "ARKANSAS",
		"artcc": "ZME",
		"type": "RNAV",
		"updated": "01/10/2012",
	},
	{
		"name": "ANTUH",
		"latitude": "31-33-10.56 N",
		"longitude": "88-25-36.47 W",
		"state": "ALABAMA",
		"artcc": "ZME",
		"type": "CN",
		"updated": "12/04/2014",
	},
	{
		"name": "APAGE",
		"latitude": "36-29-6.96 N",
		"longitude": "94-15-46.32 W",
		"state": "ARKANSAS",
		"artcc": "ZME",
		"type": "RNAV",
		"updated": "09/17/2015",
	},
	{
		"name": "APATY",
		"latitude": "36-15-59.71 N",
		"longitude": "86-23-14.41 W",
		"state": "TENNESSEE",
		"artcc": "ZME",
		"type": "RNAV",
		"updated": "06/16/2015",
	},
	{
		"name": "APSUW",
		"latitude": "35-27-33.86 N",
		"longitude": "86-12-8.84 W",
		"state": "TENNESSEE",
		"artcc": "ZME",
		"type": "RNAV",
		"updated": "01/16/2001",
	},
	{
		"name": "APUKE",
		"latitude": "36-58-14.22 N",
		"longitude": "90-2-14.35 W",
		"state": "MISSOURI",
		"artcc": "ZME",
		"type": "RNAV",
		"updated": "06/12/2008",
	},
	{
		"name": "ARCHE",
		"latitude": "36-5-13.46 N",
		"longitude": "88-3-30 W",
		"state": "TENNESSEE",
		"artcc": "ZME",
		"type": "RNAV",
		"updated": "07/14/2009",
	},
	{
		"name": "ARDER",
		"latitude": "35-0-5.49 N",
		"longitude": "86-52-47.68 W",
		"state": "TENNESSEE",
		"artcc": "ZME",
		"type": "RP",
		"updated": "RQZ*VORTAC*313.29/17.24",
	},
	{
		"name": "AREDY",
		"latitude": "36-3-54.19 N",
		"longitude": "85-51-30.46 W",
		"state": "TENNESSEE",
		"artcc": "ZME",
		"type": "RNAV",
		"updated": "01/16/2001",
	},
	{
		"name": "AREGE",
		"latitude": "34-41-15.41 N",
		"longitude": "91-34-30.78 W",
		"state": "ARKANSAS",
		"artcc": "ZME",
		"type": "WP",
		"updated": "11/02/1998",
	},
	{
		"name": "AREIC",
		"latitude": "35-32-12.52 N",
		"longitude": "92-22-10.34 W",
		"state": "ARKANSAS",
		"artcc": "ZME",
		"type": "RNAV",
		"updated": "06/03/2016",
	},
	{
		"name": "ARIGY",
		"latitude": "34-32-7.71 N",
		"longitude": "91-20-49.9 W",
		"state": "ARKANSAS",
		"artcc": "ZME",
		"type": "RNAV",
		"updated": "05/06/2011",
	},
	{
		"name": "ARKEZ",
		"latitude": "36-13-15.02 N",
		"longitude": "94-16-59.32 W",
		"state": "ARKANSAS",
		"artcc": "ZME",
		"type": "RP",
		"updated": "DAK*VOR/DME*331.71",
	},
	{
		"name": "ARONN",
		"latitude": "33-48-36.84 N",
		"longitude": "88-55-2.24 W",
		"state": "MISSISSIPPI",
		"artcc": "ZME",
		"type": "MR",
		"updated": "CBM*VORTAC*293.00/26.00",
	},
	{
		"name": "ARUKY",
		"latitude": "33-2-58.5 N",
		"longitude": "90-29-3.1 W",
		"state": "MISSISSIPPI",
		"artcc": "ZME",
		"type": "RNAV",
		"updated": "11/15/2012",
	},
	{
		"name": "ARUMM",
		"latitude": "36-40-8.49 N",
		"longitude": "86-45-1.68 W",
		"state": "KENTUCKY",
		"artcc": "ZME",
		"type": "RNAV",
		"updated": "05/09/2016",
	},
	{
		"name": "ARURE",
		"latitude": "36-21-44.56 N",
		"longitude": "89-40-45.09 W",
		"state": "MISSOURI",
		"artcc": "ZME",
		"type": "RNAV",
		"updated": "07/21/2008",
	},
	{
		"name": "ARUVE",
		"latitude": "35-59-43.8 N",
		"longitude": "85-32-39.28 W",
		"state": "TENNESSEE",
		"artcc": "ZME",
		"type": "RNAV",
		"updated": "01/27/2016",
	},
	{
		"name": "ARVES",
		"latitude": "34-45-35.74 N",
		"longitude": "86-41-2.82 W",
		"state": "ALABAMA",
		"artcc": "ZME",
		"type": "MR",
		"updated": "RQZ*VORTAC*226.04",
	},
	{
		"name": "ARZOH",
		"latitude": "36-39-57.4 N",
		"longitude": "90-4-36.46 W",
		"state": "MISSOURI",
		"artcc": "ZME",
		"type": "RNAV",
		"updated": "09/03/2009",
	},
	{
		"name": "ASAME",
		"latitude": "35-28-26.73 N",
		"longitude": "87-49-4.32 W",
		"state": "TENNESSEE",
		"artcc": "ZME",
		"type": "RNAV",
		"updated": "07/25/2011",
	},
	{
		"name": "ASEGE",
		"latitude": "36-15-23.42 N",
		"longitude": "89-43-36.78 W",
		"state": "MISSOURI",
		"artcc": "ZME",
		"type": "RP",
		"updated": "MAW*VORTAC*150.40/20.00",
	},
	{
		"name": "ASSUR",
		"latitude": "35-32-23.27 N",
		"longitude": "89-51-39.41 W",
		"state": "TENNESSEE",
		"artcc": "ZME",
		"type": "RNAV",
		"updated": "06/14/2012",
	},
	{
		"name": "ASUGE",
		"latitude": "35-53-46.51 N",
		"longitude": "88-51-21.19 W",
		"state": "TENNESSEE",
		"artcc": "ZME",
		"type": "RNAV",
		"updated": "07/26/2016",
	},
	{
		"name": "ASUKE",
		"latitude": "36-29-53.03 N",
		"longitude": "93-10-15.82 W",
		"state": "MISSOURI",
		"artcc": "ZME",
		"type": "RNAV",
		"updated": "03/10/2009",
	},
	{
		"name": "ASUME",
		"latitude": "35-48-18.01 N",
		"longitude": "92-47-56.3 W",
		"state": "ARKANSAS",
		"artcc": "ZME",
		"type": "RNAV",
		"updated": "11/19/2015",
	},
	{
		"name": "ATEDE",
		"latitude": "35-5-11.63 N",
		"longitude": "94-29-6.13 W",
		"state": "OKLAHOMA",
		"artcc": "ZME",
		"type": "RNAV",
		"updated": "07/11/2001",
	},
	{
		"name": "ATERS",
		"latitude": "34-39-26.33 N",
		"longitude": "91-51-29.35 W",
		"state": "ARKANSAS",
		"artcc": "ZME",
		"type": "RP",
		"updated": "LIT*VORTAC*089.28/16.00",
	},
	{
		"name": "ATHEN",
		"latitude": "34-27-46.4 N",
		"longitude": "86-56-59.55 W",
		"state": "ALABAMA",
		"artcc": "ZME",
		"type": "RNAV",
		"updated": "05/22/2007",
	},
	{
		"name": "ATKNS",
		"latitude": "35-53-50.03 N",
		"longitude": "86-45-13.08 W",
		"state": "TENNESSEE",
		"artcc": "ZME",
		"type": "RP",
		"updated": "SYI*VOR/DME*323.68/25.29",
	},
	{
		"name": "ATUYO",
		"latitude": "34-44-40.15 N",
		"longitude": "86-56-35.6 W",
		"state": "ALABAMA",
		"artcc": "ZME",
		"type": "RP",
		"updated": "RQZ*VORTAC*256.41",
	},
	{
		"name": "ATWUS",
		"latitude": "35-14-6.86 N",
		"longitude": "86-31-22.1 W",
		"state": "TENNESSEE",
		"artcc": "ZME",
		"type": "RP",
		"updated": "SYI*VOR/DME*192.86/20.00",
	},
	{
		"name": "AUSEN",
		"latitude": "35-9-6.59 N",
		"longitude": "87-47-31.29 W",
		"state": "TENNESSEE",
		"artcc": "ZME",
		"type": "WP",
		"updated": "MSL*VORTAC*330.00/30.50",
	},
	{
		"name": "AUTMN",
		"latitude": "34-36-41.51 N",
		"longitude": "90-37-41.75 W",
		"state": "ARKANSAS",
		"artcc": "ZME",
		"type": "RNAV",
		"updated": "01/10/2012",
	},
	{
		"name": "AVADE",
		"latitude": "35-3-33.14 N",
		"longitude": "90-0-23.69 W",
		"state": "TENNESSEE",
		"artcc": "ZME",
		"type": "RNAV",
		"updated": "09/30/2013",
	},
	{
		"name": "AVARR",
		"latitude": "36-47-55.14 N",
		"longitude": "92-23-35.4 W",
		"state": "MISSOURI",
		"artcc": "ZME",
		"type": "RP",
		"updated": "DGD*VORTAC*118.91/26.89",
	},
	{
		"name": "AVONS",
		"latitude": "33-16-6.02 N",
		"longitude": "91-15-11.01 W",
		"state": "ARKANSAS",
		"artcc": "ZME",
		"type": "RP",
		"updated": "GLH*VOR/DME*217.68/20.44",
	},
	{
		"name": "AVOTE",
		"latitude": "36-47-58.81 N",
		"longitude": "89-47-19.91 W",
		"state": "MISSOURI",
		"artcc": "ZME",
		"type": "RP",
		"updated": "MAW*VORTAC*018.95/15.80",
	},
	{
		"name": "AWFAJ",
		"latitude": "34-17-38.63 N",
		"longitude": "93-14-1.44 W",
		"state": "ARKANSAS",
		"artcc": "ZME",
		"type": "RNAV",
		"updated": "09/27/2004",
	},
	{
		"name": "AWHOG",
		"latitude": "34-46-47.95 N",
		"longitude": "92-20-36.69 W",
		"state": "ARKANSAS",
		"artcc": "ZME",
		"type": "RP",
		"updated": "ORK*LE*SW CRS/6.09",
	},
	{
		"name": "AWIJE",
		"latitude": "35-32-42.41 N",
		"longitude": "94-33-38.1 W",
		"state": "OKLAHOMA",
		"artcc": "ZME",
		"type": "RP",
		"updated": "FSM*VORTAC*296.62/17.00",
	},
	{
		"name": "AWPOJ",
		"latitude": "34-16-58.88 N",
		"longitude": "86-24-59.84 W",
		"state": "ALABAMA",
		"artcc": "ZME",
		"type": "CN",
		"updated": "12/04/2014",
	},
	{
		"name": "AXALE",
		"latitude": "34-30-28.11 N",
		"longitude": "92-30-56.56 W",
		"state": "ARKANSAS",
		"artcc": "ZME",
		"type": "RP",
		"updated": "SUZ*LD*198.98/6.17",
	},
	{
		"name": "AXMIX",
		"latitude": "33-34-49.9 N",
		"longitude": "90-58-55.52 W",
		"state": "MISSISSIPPI",
		"artcc": "ZME",
		"type": "RNAV",
		"updated": "01/14/2009",
	},
	{
		"name": "AXXAN",
		"latitude": "37-14-37.86 N",
		"longitude": "86-51-51.17 W",
		"state": "KENTUCKY",
		"artcc": "ZME",
		"type": "WP",
		"updated": "12/09/1998",
	},
	{
		"name": "AXXEL",
		"latitude": "36-4-26.33 N",
		"longitude": "88-20-18.08 W",
		"state": "TENNESSEE",
		"artcc": "ZME",
		"type": "RP",
		"updated": "BWG*VORTAC*239.37/105.00",
	},
	{
		"name": "AYATO",
		"latitude": "35-55-51.72 N",
		"longitude": "90-40-40.64 W",
		"state": "ARKANSAS",
		"artcc": "ZME",
		"type": "RNAV",
		"updated": "12/22/2003",
	},
	{
		"name": "AYECU",
		"latitude": "35-57-49.66 N",
		"longitude": "89-26-30.89 W",
		"state": "TENNESSEE",
		"artcc": "ZME",
		"type": "RNAV",
		"updated": "05/03/2011",
	},
	{
		"name": "AYELI",
		"latitude": "36-0-58.96 N",
		"longitude": "86-55-39.19 W",
		"state": "TENNESSEE",
		"artcc": "ZME",
		"type": "RNAV",
		"updated": "05/06/2016",
	},
	{
		"name": "AYERR",
		"latitude": "35-8-24.81 N",
		"longitude": "89-50-3.18 W",
		"state": "TENNESSEE",
		"artcc": "ZME",
		"type": "RNAV",
		"updated": "01/31/2012",
	},
	{
		"name": "AYGOR",
		"latitude": "35-3-27.82 N",
		"longitude": "86-42-23.41 W",
		"state": "TENNESSEE",
		"artcc": "ZME",
		"type": "RNAV",
		"updated": "05/06/2016",
	},
	{
		"name": "AYKIN",
		"latitude": "35-46-32.25 N",
		"longitude": "85-54-58.26 W",
		"state": "TENNESSEE",
		"artcc": "ZME",
		"type": "RNAV",
		"updated": "05/06/2016",
	},
	{
		"name": "AYODO",
		"latitude": "36-9-6.73 N",
		"longitude": "89-14-37.04 W",
		"state": "TENNESSEE",
		"artcc": "ZME",
		"type": "RNAV",
		"updated": "05/05/2011",
	},
	{
		"name": "AYOTE",
		"latitude": "34-42-42.57 N",
		"longitude": "87-37-3.54 W",
		"state": "ALABAMA",
		"artcc": "ZME",
		"type": "RP",
		"updated": "MSL*VORTAC*271.76/6.25",
	},
	{
		"name": "AYUDI",
		"latitude": "34-12-31.33 N",
		"longitude": "88-43-40.29 W",
		"state": "MISSISSIPPI",
		"artcc": "ZME",
		"type": "RNAV",
		"updated": "11/10/2009",
	},
	{
		"name": "AYUWU",
		"latitude": "35-33-15.64 N",
		"longitude": "94-15-0.4 W",
		"state": "ARKANSAS",
		"artcc": "ZME",
		"type": "RP",
		"updated": "FSM*VORTAC*359.00/10.00",
	},
	{
		"name": "AZCUF",
		"latitude": "36-43-13.93 N",
		"longitude": "88-17-24.86 W",
		"state": "KENTUCKY",
		"artcc": "ZME",
		"type": "RNAV",
		"updated": "10/25/2011",
	},
	{
		"name": "AZMAY",
		"latitude": "33-46-14.05 N",
		"longitude": "89-53-4.1 W",
		"state": "MISSISSIPPI",
		"artcc": "ZME",
		"type": "RNAV",
		"updated": "03/21/2013",
	},
	{
		"name": "AZONE",
		"latitude": "35-1-27.7 N",
		"longitude": "89-7-51.62 W",
		"state": "TENNESSEE",
		"artcc": "ZME",
		"type": "RNAV",
		"updated": "01/31/2012",
	},
