	{
		"name": "CABAS",
		"latitude": "34-37-33.15 N",
		"longitude": "87-18-8.33 W",
		"state": "ALABAMA",
		"artcc": "ZME",
		"type": "RNAV",
		"updated": "08/01/2012",
	},
	{
		"name": "CABGA",
		"latitude": "33-48-44.9 N",
		"longitude": "88-35-55.15 W",
		"state": "MISSISSIPPI",
		"artcc": "ZME",
		"type": "MR",
		"updated": "CBM*VORTAC*322.00/13.00",
	},
	{
		"name": "CABUM",
		"latitude": "35-58-20.06 N",
		"longitude": "87-40-56.08 W",
		"state": "TENNESSEE",
		"artcc": "ZME",
		"type": "RNAV",
		"updated": "07/25/2011",
	},
	{
		"name": "CABUV",
		"latitude": "35-10-30.98 N",
		"longitude": "86-43-27.75 W",
		"state": "TENNESSEE",
		"artcc": "ZME",
		"type": "RNAV",
		"updated": "05/06/2016",
	},
	{
		"name": "CABVI",
		"latitude": "33-39-11.06 N",
		"longitude": "88-35-51.69 W",
		"state": "MISSISSIPPI",
		"artcc": "ZME",
		"type": "MR",
		"updated": "CBM*VORTAC*275.00/8.00",
	},
	{
		"name": "CACAC",
		"latitude": "34-21-7.11 N",
		"longitude": "92-1-31.22 W",
		"state": "ARKANSAS",
		"artcc": "ZME",
		"type": "RP",
		"updated": "PBF*VOR/DME*318.00/8.00",
	},
	{
		"name": "CACAL",
		"latitude": "35-36-57.76 N",
		"longitude": "92-39-18.46 W",
		"state": "ARKANSAS",
		"artcc": "ZME",
		"type": "RNAV",
		"updated": "09/11/2003",
	},
	{
		"name": "CACEE",
		"latitude": "32-26-17.44 N",
		"longitude": "88-17-40.1 W",
		"state": "ALABAMA",
		"artcc": "ZME",
		"type": "RP",
		"updated": "GCV*VORTAC*001.92",
	},
	{
		"name": "CADAN",
		"latitude": "36-18-2.04 N",
		"longitude": "93-0-1.9 W",
		"state": "ARKANSAS",
		"artcc": "ZME",
		"type": "RP",
		"updated": "HRO*VOR/DME*091.82/10.37",
	},
	{
		"name": "CADBO",
		"latitude": "33-55-24.7 N",
		"longitude": "88-6-21.69 W",
		"state": "ALABAMA",
		"artcc": "ZME",
		"type": "RNAV",
		"updated": "05/05/2009",
	},
	{
		"name": "CADEM",
		"latitude": "35-26-12.71 N",
		"longitude": "87-45-46.21 W",
		"state": "TENNESSEE",
		"artcc": "ZME",
		"type": "RNAV",
		"updated": "07/25/2011",
	},
	{
		"name": "CADOS",
		"latitude": "37-2-5.69 N",
		"longitude": "89-9-13.56 W",
		"state": "KENTUCKY",
		"artcc": "ZME",
		"type": "RP",
		"updated": "MWA*VOR/DME*185.00",
	},
	{
		"name": "CADUS",
		"latitude": "34-56-24.54 N",
		"longitude": "89-59-6.36 W",
		"state": "MISSISSIPPI",
		"artcc": "ZME",
		"type": "RP",
		"updated": "OHN*LD*179.99/6.70",
	},
	{
		"name": "CAGAC",
		"latitude": "36-3-56.32 N",
		"longitude": "89-20-4.88 W",
		"state": "TENNESSEE",
		"artcc": "ZME",
		"type": "RNAV",
		"updated": "05/03/2011",
	},
	{
		"name": "CAGAK",
		"latitude": "36-31-7.16 N",
		"longitude": "88-19-4.46 W",
		"state": "KENTUCKY",
		"artcc": "ZME",
		"type": "RNAV",
		"updated": "03/17/2010",
	},
	{
		"name": "CAGBI",
		"latitude": "36-58-50.5 N",
		"longitude": "89-8-17.06 W",
		"state": "MISSOURI",
		"artcc": "ZME",
		"type": "RNAV",
		"updated": "04/26/2013",
	},
	{
		"name": "CAGIK",
		"latitude": "35-42-54.55 N",
		"longitude": "88-43-29.27 W",
		"state": "TENNESSEE",
		"artcc": "ZME",
		"type": "RNAV",
		"updated": "07/26/2016",
	},
	{
		"name": "CAGIS",
		"latitude": "36-21-40.99 N",
		"longitude": "89-46-56.5 W",
		"state": "MISSOURI",
		"artcc": "ZME",
		"type": "RNAV",
		"updated": "07/21/2008",
	},
	{
		"name": "CAGUD",
		"latitude": "35-13-18.98 N",
		"longitude": "94-25-16.92 W",
		"state": "ARKANSAS",
		"artcc": "ZME",
		"type": "RNAV",
		"updated": "03/28/2010",
	},
	{
		"name": "CAKEK",
		"latitude": "36-21-11.15 N",
		"longitude": "88-30-41.25 W",
		"state": "TENNESSEE",
		"artcc": "ZME",
		"type": "RNAV",
		"updated": "08/02/2013",
	},
	{
		"name": "CAKPI",
		"latitude": "32-36-42.01 N",
		"longitude": "88-32-33.57 W",
		"state": "MISSISSIPPI",
		"artcc": "ZME",
		"type": "MR",
		"updated": "NMM*TACAN*005.74/2.00",
	},
	{
		"name": "CALAY",
		"latitude": "34-51-59.6 N",
		"longitude": "92-1-18.55 W",
		"state": "ARKANSAS",
		"artcc": "ZME",
		"type": "RP",
		"updated": "LIT*VORTAC*029.69/13.77",
	},
	{
		"name": "CALET",
		"latitude": "35-57-6.19 N",
		"longitude": "86-26-52.48 W",
		"state": "TENNESSEE",
		"artcc": "ZME",
		"type": "RP",
		"updated": "BNA*VORTAC*135.85/16.00",
	},
	{
		"name": "CAMIK",
		"latitude": "34-27-48.28 N",
		"longitude": "89-1-5.15 W",
		"state": "MISSISSIPPI",
		"artcc": "ZME",
		"type": "RNAV",
		"updated": "08/20/2007",
	},
	{
		"name": "CAMOE",
		"latitude": "33-9-58.89 N",
		"longitude": "90-3-22.34 W",
		"state": "MISSISSIPPI",
		"artcc": "ZME",
		"type": "RP",
		"updated": "SQS*VORTAC*145.00/21.00",
	},
	{
		"name": "CAMPA",
		"latitude": "35-59-45.79 N",
		"longitude": "94-7-17.03 W",
		"state": "ARKANSAS",
		"artcc": "ZME",
		"type": "RP",
		"updated": "RZC*VORTAC*176.00/15.00",
	},
	{
		"name": "CANEY",
		"latitude": "34-11-34.78 N",
		"longitude": "93-0-31.29 W",
		"state": "ARKANSAS",
		"artcc": "ZME",
		"type": "RP",
		"updated": "LIT*VORTAC*230.00/50.32",
	},
	{
		"name": "CANOD",
		"latitude": "36-39-4.54 N",
		"longitude": "90-5-35.26 W",
		"state": "MISSOURI",
		"artcc": "ZME",
		"type": "RP",
		"updated": "MAW*VORTAC*300.33/10.50",
	},
	{
		"name": "CANPA",
		"latitude": "34-26-25.46 N",
		"longitude": "86-46-11 W",
		"state": "ALABAMA",
		"artcc": "ZME",
		"type": "RNAV",
		"updated": "01/28/2004",
	},
	{
		"name": "CAPEB",
		"latitude": "35-0-58.53 N",
		"longitude": "94-37-11.14 W",
		"state": "OKLAHOMA",
		"artcc": "ZME",
		"type": "RP",
		"updated": "PGO*VORTAC*354.49/20.12",
	},
	{
		"name": "CAPOW",
		"latitude": "36-4-6.19 N",
		"longitude": "86-35-41.42 W",
		"state": "TENNESSEE",
		"artcc": "ZME",
		"type": "RP",
		"updated": "BNA*VORTAC*135.19/6.00",
	},
	{
		"name": "CARAP",
		"latitude": "36-28-49.62 N",
		"longitude": "85-58-21.34 W",
		"state": "TENNESSEE",
		"artcc": "ZME",
		"type": "RNAV",
		"updated": "09/24/2012",
	},
	{
		"name": "CARIN",
		"latitude": "34-27-14.98 N",
		"longitude": "90-53-13.05 W",
		"state": "ARKANSAS",
		"artcc": "ZME",
		"type": "RNAV",
		"updated": "05/08/2011",
	},
	{
		"name": "CARIP",
		"latitude": "35-15-33.76 N",
		"longitude": "91-43-27.1 W",
		"state": "ARKANSAS",
		"artcc": "ZME",
		"type": "RNAV",
		"updated": "07/25/2005",
	},
	{
		"name": "CARUX",
		"latitude": "37-1-54.32 N",
		"longitude": "88-48-26.5 W",
		"state": "KENTUCKY",
		"artcc": "ZME",
		"type": "RNAV",
		"updated": "12/21/2017",
	},
	{
		"name": "CASKS",
		"latitude": "35-46-17.99 N",
		"longitude": "93-50-22.5 W",
		"state": "ARKANSAS",
		"artcc": "ZME",
		"type": "RP",
		"updated": "RZC*VORTAC*150.17/31.58",
	},
	{
		"name": "CASLN",
		"latitude": "34-32-54.51 N",
		"longitude": "89-45-54.57 W",
		"state": "MISSISSIPPI",
		"artcc": "ZME",
		"type": "RNAV",
		"updated": "09/30/2013",
	},
	{
		"name": "CASOT",
		"latitude": "36-16-25.19 N",
		"longitude": "88-45-17.17 W",
		"state": "TENNESSEE",
		"artcc": "ZME",
		"type": "RP",
		"updated": "PXV*VORTAC*202.96/110.00",
	},
	{
		"name": "CATEX",
		"latitude": "36-15-35.74 N",
		"longitude": "93-57-26.58 W",
		"state": "ARKANSAS",
		"artcc": "ZME",
		"type": "RP",
		"updated": "RZC*VORTAC*080.15/8.00",
	},
	{
		"name": "CATGO",
		"latitude": "34-22-42.6 N",
		"longitude": "86-19-40.08 W",
		"state": "ALABAMA",
		"artcc": "ZME",
		"type": "RNAV",
		"updated": "03/06/2017",
	},
	{
		"name": "CATIP",
		"latitude": "36-47-20.48 N",
		"longitude": "86-43-52.18 W",
		"state": "KENTUCKY",
		"artcc": "ZME",
		"type": "RNAV",
		"updated": "05/09/2016",
	},
	{
		"name": "CATIS",
		"latitude": "36-3-40.86 N",
		"longitude": "85-33-28.1 W",
		"state": "TENNESSEE",
		"artcc": "ZME",
		"type": "RNAV",
		"updated": "01/27/2016",
	},
	{
		"name": "CATOV",
		"latitude": "36-20-43.59 N",
		"longitude": "93-11-42.52 W",
		"state": "ARKANSAS",
		"artcc": "ZME",
		"type": "RNAV",
		"updated": "09/17/2015",
	},
	{
		"name": "CATTI",
		"latitude": "31-36-13.21 N",
		"longitude": "89-4-49.6 W",
		"state": "MISSISSIPPI",
		"artcc": "ZME",
		"type": "RP",
		"updated": "GCV*VORTAC*309.91/43.00",
	},
	{
		"name": "CATVU",
		"latitude": "34-55-55.31 N",
		"longitude": "88-58-36.03 W",
		"state": "MISSISSIPPI",
		"artcc": "ZME",
		"type": "RNAV",
		"updated": "12/08/2006",
	},
	{
		"name": "CAVEK",
		"latitude": "36-26-56.68 N",
		"longitude": "93-14-9.42 W",
		"state": "ARKANSAS",
		"artcc": "ZME",
		"type": "RNAV",
		"updated": "02/25/2003",
	},
	{
		"name": "CAVIK",
		"latitude": "34-54-0.44 N",
		"longitude": "89-31-22.8 W",
		"state": "MISSISSIPPI",
		"artcc": "ZME",
		"type": "RNAV",
		"updated": "06/16/2016",
	},
	{
		"name": "CAVOD",
		"latitude": "32-12-12.07 N",
		"longitude": "90-56-1.74 W",
		"state": "MISSISSIPPI",
		"artcc": "ZME",
		"type": "RNAV",
		"updated": "11/23/2012",
	},
	{
		"name": "CAVPU",
		"latitude": "34-34-34.5 N",
		"longitude": "86-39-42.44 W",
		"state": "ALABAMA",
		"artcc": "ZME",
		"type": "MW",
		"updated": "12/10/2015",
	},
	{
		"name": "CAVTO",
		"latitude": "35-39-48.62 N",
		"longitude": "89-2-28.42 W",
		"state": "TENNESSEE",
		"artcc": "ZME",
		"type": "RNAV",
		"updated": "10/06/2015",
	},
	{
		"name": "CAXOV",
		"latitude": "34-24-45.51 N",
		"longitude": "89-32-2.01 W",
		"state": "MISSISSIPPI",
		"artcc": "ZME",
		"type": "RP",
		"updated": "HLI*VORTAC*181.95/21.50",
	},
	{
		"name": "CAYAD",
		"latitude": "32-12-41.86 N",
		"longitude": "90-3-32.19 W",
		"state": "MISSISSIPPI",
		"artcc": "ZME",
		"type": "RP",
		"updated": "MHZ*VORTAC*172.13/13.48",
	},
	{
		"name": "CAYAP",
		"latitude": "33-19-27.01 N",
		"longitude": "87-39-8.35 W",
		"state": "ALABAMA",
		"artcc": "ZME",
		"type": "RP",
		"updated": "LDK*VORTAC*301.00/7.00",
	},
	{
		"name": "CAYRA",
		"latitude": "36-35-47.57 N",
		"longitude": "90-38-44.15 W",
		"state": "MISSOURI",
		"artcc": "ZME",
		"type": "RNAV",
		"updated": "07/27/2004",
	},
	{
		"name": "CEASE",
		"latitude": "36-3-55 N",
		"longitude": "85-51-28 W",
		"state": "TENNESSEE",
		"artcc": "ZME",
		"type": "RNAV",
		"updated": "12/09/2015",
	},
	{
		"name": "CEBDA",
		"latitude": "36-18-55.05 N",
		"longitude": "86-37-51.09 W",
		"state": "TENNESSEE",
		"artcc": "ZME",
		"type": "RP",
		"updated": "BNA*VORTAC*015.75/11.00",
	},
	{
		"name": "CEBVU",
		"latitude": "34-39-10.11 N",
		"longitude": "92-21-53.56 W",
		"state": "ARKANSAS",
		"artcc": "ZME",
		"type": "RNAV",
		"updated": "09/15/2008",
	},
	{
		"name": "CECAB",
		"latitude": "34-30-29.73 N",
		"longitude": "86-47-5.98 W",
		"state": "ALABAMA",
		"artcc": "ZME",
		"type": "RP",
		"updated": "DCU*VOR/DME*138.57",
	},
	{
		"name": "CECAR",
		"latitude": "33-30-13.88 N",
		"longitude": "90-44-41.52 W",
		"state": "MISSISSIPPI",
		"artcc": "ZME",
		"type": "RP",
		"updated": "GLH*VOR/DME*091.57/12.00",
	},
	{
		"name": "CECAV",
		"latitude": "33-54-31.09 N",
		"longitude": "87-34-12.22 W",
		"state": "ALABAMA",
		"artcc": "ZME",
		"type": "RNAV",
		"updated": "02/27/2012",
	},
	{
		"name": "CEDAS",
		"latitude": "34-33-36.5 N",
		"longitude": "89-8-10.29 W",
		"state": "MISSISSIPPI",
		"artcc": "ZME",
		"type": "RNAV",
		"updated": "12/08/2006",
	},
	{
		"name": "CEDEN",
		"latitude": "34-56-18.93 N",
		"longitude": "89-58-25.45 W",
		"state": "MISSISSIPPI",
		"artcc": "ZME",
		"type": "RNAV",
		"updated": "10/15/2013",
	},
	{
		"name": "CEDIK",
		"latitude": "35-51-20.32 N",
		"longitude": "95-0-29.12 W",
		"state": "OKLAHOMA",
		"artcc": "ZME",
		"type": "RNAV",
		"updated": "04/28/2008",
	},
	{
		"name": "CEDKA",
		"latitude": "36-40-5.77 N",
		"longitude": "89-21-36.91 W",
		"state": "MISSOURI",
		"artcc": "ZME",
		"type": "RNAV",
		"updated": "10/28/2013",
	},
	{
		"name": "CEDVA",
		"latitude": "36-10-9.47 N",
		"longitude": "89-56-38.23 W",
		"state": "MISSOURI",
		"artcc": "ZME",
		"type": "RNAV",
		"updated": "11/03/2014",
	},
	{
		"name": "CEGEM",
		"latitude": "35-1-25.67 N",
		"longitude": "88-37-6.38 W",
		"state": "MISSISSIPPI",
		"artcc": "ZME",
		"type": "RNAV",
		"updated": "12/28/2007",
	},
	{
		"name": "CEKBI",
		"latitude": "32-15-47.49 N",
		"longitude": "90-3-33.63 W",
		"state": "MISSISSIPPI",
		"artcc": "ZME",
		"type": "RNAV",
		"updated": "07/18/2013",
	},
	{
		"name": "CEKSU",
		"latitude": "33-31-34.72 N",
		"longitude": "88-13-7.6 W",
		"state": "ALABAMA",
		"artcc": "ZME",
		"type": "MR",
		"updated": "CBM*VORTAC*122.00/13.00",
	},
	{
		"name": "CELED",
		"latitude": "35-7-14.98 N",
		"longitude": "94-36-1.84 W",
		"state": "OKLAHOMA",
		"artcc": "ZME",
		"type": "RNAV",
		"updated": "06/30/2003",
	},
	{
		"name": "CELES",
		"latitude": "37-13-55.41 N",
		"longitude": "87-35-33.72 W",
		"state": "KENTUCKY",
		"artcc": "ZME",
		"type": "RNAV",
		"updated": "03/25/2009",
	},
	{
		"name": "CEMTO",
		"latitude": "34-38-40.65 N",
		"longitude": "89-1-53.52 W",
		"state": "MISSISSIPPI",
		"artcc": "ZME",
		"type": "RNAV",
		"updated": "08/20/2007",
	},
	{
		"name": "CEMUK",
		"latitude": "36-14-32.42 N",
		"longitude": "92-19-57.57 W",
		"state": "ARKANSAS",
		"artcc": "ZME",
		"type": "RP",
		"updated": "HRO*VOR/DME*091.82/42.96",
	},
	{
		"name": "CEMVU",
		"latitude": "35-26-7.89 N",
		"longitude": "87-22-40.11 W",
		"state": "TENNESSEE",
		"artcc": "ZME",
		"type": "RNAV",
		"updated": "11/02/2009",
	},
	{
		"name": "CENOK",
		"latitude": "33-15-11.3 N",
		"longitude": "88-22-32.78 W",
		"state": "MISSISSIPPI",
		"artcc": "ZME",
		"type": "RNAV",
		"updated": "06/30/2017",
	},
	{
		"name": "CENOP",
		"latitude": "35-45-30.64 N",
		"longitude": "86-11-54.29 W",
		"state": "TENNESSEE",
		"artcc": "ZME",
		"type": "RP",
		"updated": "SYI*VOR/DME*045.92/16.65",
	},
	{
		"name": "CEPAX",
		"latitude": "36-11-47.5 N",
		"longitude": "86-46-3.81 W",
		"state": "TENNESSEE",
		"artcc": "ZME",
		"type": "RNAV",
		"updated": "07/14/2009",
	},
	{
		"name": "CERAH",
		"latitude": "36-34-50.35 N",
		"longitude": "86-28-25.33 W",
		"state": "TENNESSEE",
		"artcc": "ZME",
		"type": "RNAV",
		"updated": "09/17/2012",
	},
	{
		"name": "CERCY",
		"latitude": "35-7-21.03 N",
		"longitude": "91-45-41.72 W",
		"state": "ARKANSAS",
		"artcc": "ZME",
		"type": "RP",
		"updated": "DSY*LD*S CRS/6.07",
	},
	{
		"name": "CERKA",
		"latitude": "35-47-41.56 N",
		"longitude": "95-12-8.42 W",
		"state": "OKLAHOMA",
		"artcc": "ZME",
		"type": "RNAV",
		"updated": "06/16/2008",
	},
	{
		"name": "CESAG",
		"latitude": "35-30-1.53 N",
		"longitude": "86-5-29.14 W",
		"state": "TENNESSEE",
		"artcc": "ZME",
		"type": "RNAV",
		"updated": "07/25/2011",
	},
	{
		"name": "CESAM",
		"latitude": "34-56-50.56 N",
		"longitude": "88-51-1.12 W",
		"state": "MISSISSIPPI",
		"artcc": "ZME",
		"type": "RNAV",
		"updated": "12/04/2013",
	},
	{
		"name": "CESEX",
		"latitude": "35-16-22.98 N",
		"longitude": "91-22-57.71 W",
		"state": "ARKANSAS",
		"artcc": "ZME",
		"type": "RNAV",
		"updated": "10/19/2017",
	},
	{
		"name": "CESMA",
		"latitude": "31-42-19 N",
		"longitude": "90-6-25.43 W",
		"state": "MISSISSIPPI",
		"artcc": "ZME",
		"type": "RNAV",
		"updated": "05/20/2013",
	},
	{
		"name": "CESPA",
		"latitude": "33-35-24.63 N",
		"longitude": "88-20-25.58 W",
		"state": "MISSISSIPPI",
		"artcc": "ZME",
		"type": "MR",
		"updated": "CBM*VORTAC*122.00/5.80",
	},
	{
		"name": "CESRO",
		"latitude": "34-18-56.68 N",
		"longitude": "88-5-27.64 W",
		"state": "ALABAMA",
		"artcc": "ZME",
		"type": "RNAV",
		"updated": "05/05/2009",
	},
	{
		"name": "CETEC",
		"latitude": "32-26-25.9 N",
		"longitude": "91-1-45.35 W",
		"state": "MISSISSIPPI",
		"artcc": "ZME",
		"type": "RNAV",
		"updated": "07/29/2016",
	},
	{
		"name": "CEVSI",
		"latitude": "34-7-13.75 N",
		"longitude": "89-0-13.74 W",
		"state": "MISSISSIPPI",
		"artcc": "ZME",
		"type": "RP",
		"updated": "OTB*VOR/DME*235.00/12.00",
	},
	{
		"name": "CEVUT",
		"latitude": "33-35-46.47 N",
		"longitude": "88-23-16.2 W",
		"state": "MISSISSIPPI",
		"artcc": "ZME",
		"type": "MW",
		"updated": "10/06/2008",
	},
	{
		"name": "CEXOP",
		"latitude": "33-37-36.76 N",
		"longitude": "88-25-20.05 W",
		"state": "MISSISSIPPI",
		"artcc": "ZME",
		"type": "MR",
		"updated": "CBM*VORTAC*137.00/1.20",
	},
	{
		"name": "CEZXI",
		"latitude": "34-54-4.04 N",
		"longitude": "92-7-53.53 W",
		"state": "ARKANSAS",
		"artcc": "ZME",
		"type": "RNAV",
		"updated": "10/30/2001",
	},
	{
		"name": "CFBCL",
		"latitude": "35-41-6.07 N",
		"longitude": "91-55-6.49 W",
		"state": "ARKANSAS",
		"artcc": "ZME",
		"type": "CN",
		"updated": "01/26/2012",
	},
	{
		"name": "CFBCQ",
		"latitude": "34-32-4.6 N",
		"longitude": "93-57-7.65 W",
		"state": "ARKANSAS",
		"artcc": "ZME",
		"type": "CN",
		"updated": "01/26/2012",
	},
	{
		"name": "CFBGP",
		"latitude": "35-25-10.87 N",
		"longitude": "89-0-17.88 W",
		"state": "TENNESSEE",
		"artcc": "ZME",
		"type": "CN",
		"updated": "04/16/2012",
	},
	{
		"name": "CFBMV",
		"latitude": "32-34-16.74 N",
		"longitude": "90-19-54.34 W",
		"state": "MISSISSIPPI",
		"artcc": "ZME",
		"type": "CN",
		"updated": "07/08/2013",
	},
	{
		"name": "CFBNL",
		"latitude": "35-1-29.43 N",
		"longitude": "91-47-17.61 W",
		"state": "ARKANSAS",
		"artcc": "ZME",
		"type": "CN",
		"updated": "01/26/2012",
	},
	{
		"name": "CFBSN",
		"latitude": "34-36-25.3 N",
		"longitude": "89-46-59.65 W",
		"state": "MISSISSIPPI",
		"artcc": "ZME",
		"type": "CN",
		"updated": "11/03/2013",
	},
	{
		"name": "CFBUJ",
		"latitude": "34-15-51.58 N",
		"longitude": "88-39-47.4 W",
		"state": "MISSISSIPPI",
		"artcc": "ZME",
		"type": "CN",
		"updated": "11/01/1999",
	},
	{
		"name": "CFBXL",
		"latitude": "32-8-42.64 N",
		"longitude": "91-1-26.56 W",
		"state": "LOUISIANA",
		"artcc": "ZME",
		"type": "CN",
		"updated": "07/29/2016",
	},
	{
		"name": "CFCEO",
		"latitude": "34-44-43.33 N",
		"longitude": "86-49-34.46 W",
		"state": "ALABAMA",
		"artcc": "ZME",
		"type": "CN",
		"updated": "04/06/2001",
	},
	{
		"name": "CFCJK",
		"latitude": "34-32-4.84 N",
		"longitude": "93-57-7.64 W",
		"state": "ARKANSAS",
		"artcc": "ZME",
		"type": "CN",
		"updated": "09/06/2017",
	},
	{
		"name": "CFDDE",
		"latitude": "36-9-52.55 N",
		"longitude": "93-56-30.89 W",
		"state": "ARKANSAS",
		"artcc": "ZME",
		"type": "CN",
		"updated": "12/04/2014",
	},
	{
		"name": "CFDRQ",
		"latitude": "32-47-38.36 N",
		"longitude": "90-12-28.82 W",
		"state": "MISSISSIPPI",
		"artcc": "ZME",
		"type": "CN",
		"updated": "07/08/2013",
	},
	{
		"name": "CFERU",
		"latitude": "36-17-2.55 N",
		"longitude": "87-25-21.52 W",
		"state": "TENNESSEE",
		"artcc": "ZME",
		"type": "CN",
		"updated": "10/06/2000",
	},
	{
		"name": "CFFJB",
		"latitude": "36-12-4.13 N",
		"longitude": "86-40-57.78 W",
		"state": "TENNESSEE",
		"artcc": "ZME",
		"type": "CN",
		"updated": "06/03/2014",
	},
	{
		"name": "CFFJC",
		"latitude": "36-12-17.36 N",
		"longitude": "86-42-24.43 W",
		"state": "TENNESSEE",
		"artcc": "ZME",
		"type": "CN",
		"updated": "06/03/2014",
	},
	{
		"name": "CFFJD",
		"latitude": "36-12-16.96 N",
		"longitude": "86-42-22.79 W",
		"state": "TENNESSEE",
		"artcc": "ZME",
		"type": "CN",
		"updated": "06/03/2014",
	},
	{
		"name": "CFFJF",
		"latitude": "36-10-32.48 N",
		"longitude": "86-35-10.12 W",
		"state": "TENNESSEE",
		"artcc": "ZME",
		"type": "CN",
		"updated": "06/03/2014",
	},
	{
		"name": "CFFJG",
		"latitude": "36-10-45.31 N",
		"longitude": "86-36-27.69 W",
		"state": "TENNESSEE",
		"artcc": "ZME",
		"type": "CN",
		"updated": "09/14/2012",
	},
	{
		"name": "CFFJH",
		"latitude": "36-10-34.33 N",
		"longitude": "86-35-17.11 W",
		"state": "TENNESSEE",
		"artcc": "ZME",
		"type": "CN",
		"updated": "06/03/2014",
	},
	{
		"name": "CFFSP",
		"latitude": "35-4-54.33 N",
		"longitude": "88-37-35.11 W",
		"state": "TENNESSEE",
		"artcc": "ZME",
		"type": "CN",
		"updated": "02/28/2017",
	},
	{
		"name": "CFFYI",
		"latitude": "36-14-25.54 N",
		"longitude": "90-42-52.31 W",
		"state": "ARKANSAS",
		"artcc": "ZME",
		"type": "CN",
		"updated": "12/04/2014",
	},
	{
		"name": "CFGBF",
		"latitude": "36-11-33.31 N",
		"longitude": "89-0-41.3 W",
		"state": "TENNESSEE",
		"artcc": "ZME",
		"type": "CN",
		"updated": "01/29/2013",
	},
	{
		"name": "CFNQR",
		"latitude": "36-56-2.25 N",
		"longitude": "88-55-25.36 W",
		"state": "KENTUCKY",
		"artcc": "ZME",
		"type": "CN",
		"updated": "06/18/2012",
	},
	{
		"name": "CFPVH",
		"latitude": "34-24-20.5 N",
		"longitude": "91-35-10.52 W",
		"state": "ARKANSAS",
		"artcc": "ZME",
		"type": "CN",
		"updated": "05/08/2017",
	},
	{
		"name": "CFVGF",
		"latitude": "36-48-55.02 N",
		"longitude": "87-19-7.17 W",
		"state": "KENTUCKY",
		"artcc": "ZME",
		"type": "CN",
		"updated": "11/17/2017",
	},
	{
		"name": "CFVGN",
		"latitude": "36-25-47.76 N",
		"longitude": "87-21-24.01 W",
		"state": "TENNESSEE",
		"artcc": "ZME",
		"type": "CN",
		"updated": "07/21/2016",
	},
	{
		"name": "CFVTB",
		"latitude": "36-2-14.88 N",
		"longitude": "86-38-37.35 W",
		"state": "TENNESSEE",
		"artcc": "ZME",
		"type": "CN",
		"updated": "05/29/2014",
	},
	{
		"name": "CFVTC",
		"latitude": "36-3-10.95 N",
		"longitude": "86-39-17.96 W",
		"state": "TENNESSEE",
		"artcc": "ZME",
		"type": "CN",
		"updated": "09/14/2012",
	},
	{
		"name": "CFVTD",
		"latitude": "36-2-33.92 N",
		"longitude": "86-39-42.81 W",
		"state": "TENNESSEE",
		"artcc": "ZME",
		"type": "CN",
		"updated": "05/29/2014",
	},
	{
		"name": "CFVTF",
		"latitude": "36-2-17 N",
		"longitude": "86-38-36.48 W",
		"state": "TENNESSEE",
		"artcc": "ZME",
		"type": "CN",
		"updated": "05/29/2014",
	},
	{
		"name": "CFVTG",
		"latitude": "36-4-4.9 N",
		"longitude": "86-45-35.26 W",
		"state": "TENNESSEE",
		"artcc": "ZME",
		"type": "CN",
		"updated": "05/29/2014",
	},
	{
		"name": "CFVTH",
		"latitude": "36-3-10.23 N",
		"longitude": "86-45-43.69 W",
		"state": "TENNESSEE",
		"artcc": "ZME",
		"type": "CN",
		"updated": "05/29/2014",
	},
	{
		"name": "CFVTJ",
		"latitude": "36-3-15.92 N",
		"longitude": "86-45-46.4 W",
		"state": "TENNESSEE",
		"artcc": "ZME",
		"type": "CN",
		"updated": "05/29/2014",
	},
	{
		"name": "CFVTK",
		"latitude": "36-1-37.57 N",
		"longitude": "86-39-51.83 W",
		"state": "TENNESSEE",
		"artcc": "ZME",
		"type": "CN",
		"updated": "05/29/2014",
	},
	{
		"name": "CFVTL",
		"latitude": "36-1-56.34 N",
		"longitude": "86-39-22.96 W",
		"state": "TENNESSEE",
		"artcc": "ZME",
		"type": "CN",
		"updated": "05/29/2014",
	},
	{
		"name": "CFVTM",
		"latitude": "36-3-47.6 N",
		"longitude": "86-44-29.25 W",
		"state": "TENNESSEE",
		"artcc": "ZME",
		"type": "CN",
		"updated": "05/29/2014",
	},
	{
		"name": "CFVTN",
		"latitude": "36-6-49.41 N",
		"longitude": "86-35-3.89 W",
		"state": "TENNESSEE",
		"artcc": "ZME",
		"type": "CN",
		"updated": "09/14/2012",
	},
	{
		"name": "CFVTP",
		"latitude": "36-4-9.28 N",
		"longitude": "86-45-27.51 W",
		"state": "TENNESSEE",
		"artcc": "ZME",
		"type": "CN",
		"updated": "05/29/2014",
	},
	{
		"name": "CHADM",
		"latitude": "36-18-55.01 N",
		"longitude": "85-48-43.52 W",
		"state": "TENNESSEE",
		"artcc": "ZME",
		"type": "RNAV",
		"updated": "09/17/2012",
	},
	{
		"name": "CHANN",
		"latitude": "34-53-26.8 N",
		"longitude": "92-12-31.11 W",
		"state": "ARKANSAS",
		"artcc": "ZME",
		"type": "RP",
		"updated": "LRF*TACAN*236.00/3.00",
	},
	{
		"name": "CHARR",
		"latitude": "35-17-13.16 N",
		"longitude": "93-57-51.12 W",
		"state": "ARKANSAS",
		"artcc": "ZME",
		"type": "RP",
		"updated": "FSM*VORTAC*104.85/16.26",
	},
	{
		"name": "CHEKA",
		"latitude": "36-10-21.79 N",
		"longitude": "87-59-5.27 W",
		"state": "TENNESSEE",
		"artcc": "ZME",
		"type": "RNAV",
		"updated": "07/14/2009",
	},
	{
		"name": "CHESO",
		"latitude": "35-35-22.52 N",
		"longitude": "94-14-43.22 W",
		"state": "ARKANSAS",
		"artcc": "ZME",
		"type": "RP",
		"updated": "OKM*VOR/DME*086.00/79.50",
	},
	{
		"name": "CHETO",
		"latitude": "34-56-30.01 N",
		"longitude": "90-0-44.6 W",
		"state": "MISSISSIPPI",
		"artcc": "ZME",
		"type": "RNAV",
		"updated": "02/10/2012",
	},
	{
		"name": "CHEZY",
		"latitude": "36-8-39.55 N",
		"longitude": "86-47-57.6 W",
		"state": "TENNESSEE",
		"artcc": "ZME",
		"type": "RNAV",
		"updated": "09/24/2012",
	},
	{
		"name": "CHIEF",
		"latitude": "36-25-24.18 N",
		"longitude": "92-23-10.3 W",
		"state": "ARKANSAS",
		"artcc": "ZME",
		"type": "RNAV",
		"updated": "01/09/2009",
	},
	{
		"name": "CHLDR",
		"latitude": "34-53-36.62 N",
		"longitude": "90-48-4.7 W",
		"state": "ARKANSAS",
		"artcc": "ZME",
		"type": "RNAV",
		"updated": "01/11/2012",
	},
	{
		"name": "CHNUK",
		"latitude": "36-49-38.12 N",
		"longitude": "87-18-14.82 W",
		"state": "KENTUCKY",
		"artcc": "ZME",
		"type": "MW",
		"updated": "11/17/2017",
	},
	{
		"name": "CHPPY",
		"latitude": "35-53-10.19 N",
		"longitude": "86-8-29.58 W",
		"state": "TENNESSEE",
		"artcc": "ZME",
		"type": "RNAV",
		"updated": "09/17/2012",
	},
	{
		"name": "CHRLS",
		"latitude": "36-24-9.43 N",
		"longitude": "90-5-57.7 W",
		"state": "ARKANSAS",
		"artcc": "ZME",
		"type": "RNAV",
		"updated": "09/03/2009",
	},
	{
		"name": "CHSNE",
		"latitude": "35-48-34.32 N",
		"longitude": "87-31-39.6 W",
		"state": "TENNESSEE",
		"artcc": "ZME",
		"type": "RNAV",
		"updated": "09/24/2012",
	},
	{
		"name": "CIAAA",
		"latitude": "31-43-16.24 N",
		"longitude": "90-13-37.57 W",
		"state": "MISSISSIPPI",
		"artcc": "ZME",
		"type": "RP",
		"updated": "MCB*VORTAC*000.65/25.00",
	},
	{
		"name": "CIBDA",
		"latitude": "34-27-18.38 N",
		"longitude": "89-52-25.95 W",
		"state": "MISSISSIPPI",
		"artcc": "ZME",
		"type": "RP",
		"updated": "PMU*LE*010.75/6.02",
	},
	{
		"name": "CICAB",
		"latitude": "37-15-28.52 N",
		"longitude": "88-40-53.23 W",
		"state": "ILLINOIS",
		"artcc": "ZME",
		"type": "RNAV",
		"updated": "07/21/2006",
	},
	{
		"name": "CICAL",
		"latitude": "34-53-19.28 N",
		"longitude": "89-47-9.5 W",
		"state": "MISSISSIPPI",
		"artcc": "ZME",
		"type": "RP",
		"updated": "EVO*LE*180.54/6.21",
	},
	{
		"name": "CICAP",
		"latitude": "36-11-19.86 N",
		"longitude": "90-32-51.25 W",
		"state": "ARKANSAS",
		"artcc": "ZME",
		"type": "RNAV",
		"updated": "07/27/2004",
	},
	{
		"name": "CICBY",
		"latitude": "34-11-30.45 N",
		"longitude": "87-36-12.8 W",
		"state": "ALABAMA",
		"artcc": "ZME",
		"type": "RNAV",
		"updated": "07/12/2011",
	},
	{
		"name": "CICDA",
		"latitude": "33-10-19.73 N",
		"longitude": "89-46-0.84 W",
		"state": "MISSISSIPPI",
		"artcc": "ZME",
		"type": "RNAV",
		"updated": "03/07/2005",
	},
	{
		"name": "CIGDA",
		"latitude": "32-26-0.2 N",
		"longitude": "90-38-25.84 W",
		"state": "MISSISSIPPI",
		"artcc": "ZME",
		"type": "RP",
		"updated": "MHZ*VORTAC*271.06/27.46",
	},
	{
		"name": "CIGYA",
		"latitude": "36-41-42.41 N",
		"longitude": "87-23-28.54 W",
		"state": "KENTUCKY",
		"artcc": "ZME",
		"type": "MW",
		"updated": "04/08/2009",
	},
	{
		"name": "CIKOB",
		"latitude": "33-12-17.95 N",
		"longitude": "87-58-48.78 W",
		"state": "ALABAMA",
		"artcc": "ZME",
		"type": "RNAV",
		"updated": "02/25/2014",
	},
	{
		"name": "CIKPU",
		"latitude": "35-43-36.64 N",
		"longitude": "90-33-26.64 W",
		"state": "ARKANSAS",
		"artcc": "ZME",
		"type": "RP",
		"updated": "JBR*VOR/DME*170.28/9.00",
	},
	{
		"name": "CILEL",
		"latitude": "35-0-18.57 N",
		"longitude": "88-32-29.2 W",
		"state": "TENNESSEE",
		"artcc": "ZME",
		"type": "RNAV",
		"updated": "08/18/2008",
	},
	{
		"name": "CIMIV",
		"latitude": "36-0-50.19 N",
		"longitude": "86-44-36.94 W",
		"state": "TENNESSEE",
		"artcc": "ZME",
		"type": "RNAV",
		"updated": "05/29/2014",
	},
	{
		"name": "CINVO",
		"latitude": "36-27-42.12 N",
		"longitude": "94-10-2.97 W",
		"state": "ARKANSAS",
		"artcc": "ZME",
		"type": "RNAV",
		"updated": "09/17/2015",
	},
	{
		"name": "CIPOG",
		"latitude": "35-7-26.43 N",
		"longitude": "89-24-30.29 W",
		"state": "TENNESSEE",
		"artcc": "ZME",
		"type": "RNAV",
		"updated": "06/16/2011",
	},
	{
		"name": "CIPOP",
		"latitude": "34-37-56.99 N",
		"longitude": "92-15-21.27 W",
		"state": "ARKANSAS",
		"artcc": "ZME",
		"type": "RNAV",
		"updated": "10/01/2004",
	},
	{
		"name": "CIROR",
		"latitude": "35-59-53.59 N",
		"longitude": "86-39-33.9 W",
		"state": "TENNESSEE",
		"artcc": "ZME",
		"type": "RNAV",
		"updated": "09/19/2012",
	},
	{
		"name": "CIRPI",
		"latitude": "36-37-7 N",
		"longitude": "86-51-12.72 W",
		"state": "TENNESSEE",
		"artcc": "ZME",
		"type": "RNAV",
		"updated": "12/23/2011",
	},
	{
		"name": "CISAX",
		"latitude": "34-30-49.94 N",
		"longitude": "91-20-31.44 W",
		"state": "ARKANSAS",
		"artcc": "ZME",
		"type": "RNAV",
		"updated": "07/25/2005",
	},
	{
		"name": "CISIL",
		"latitude": "36-3-42.42 N",
		"longitude": "86-53-32.99 W",
		"state": "TENNESSEE",
		"artcc": "ZME",
		"type": "RNAV",
		"updated": "05/06/2016",
	},
	{
		"name": "CISOG",
		"latitude": "35-46-11 N",
		"longitude": "91-55-8.98 W",
		"state": "ARKANSAS",
		"artcc": "ZME",
		"type": "RNAV",
		"updated": "03/24/2010",
	},
	{
		"name": "CITAC",
		"latitude": "33-29-3.92 N",
		"longitude": "90-39-18.38 W",
		"state": "MISSISSIPPI",
		"artcc": "ZME",
		"type": "RP",
		"updated": "SQS*VORTAC*270.82/19.00",
	},
	{
		"name": "CITAN",
		"latitude": "35-58-24.53 N",
		"longitude": "87-41-33.37 W",
		"state": "TENNESSEE",
		"artcc": "ZME",
		"type": "RNAV",
		"updated": "06/14/2012",
	},
	{
		"name": "CITBY",
		"latitude": "36-52-17.95 N",
		"longitude": "88-34-29.07 W",
		"state": "KENTUCKY",
		"artcc": "ZME",
		"type": "RNAV",
		"updated": "04/23/2013",
	},
	{
		"name": "CITGA",
		"latitude": "36-32-25.28 N",
		"longitude": "93-54-55.27 W",
		"state": "MISSOURI",
		"artcc": "ZME",
		"type": "RP",
		"updated": "EOS*VOR/DME*118.63",
	},
	{
		"name": "CIVAK",
		"latitude": "35-51-51.25 N",
		"longitude": "86-2-37.55 W",
		"state": "TENNESSEE",
		"artcc": "ZME",
		"type": "RNAV",
		"updated": "02/27/2012",
	},
	{
		"name": "CIVAY",
		"latitude": "34-48-34.25 N",
		"longitude": "91-57-18.81 W",
		"state": "ARKANSAS",
		"artcc": "ZME",
		"type": "RNAV",
		"updated": "06/18/2010",
	},
	{
		"name": "CIVEN",
		"latitude": "36-1-28.4 N",
		"longitude": "86-35-41.5 W",
		"state": "TENNESSEE",
		"artcc": "ZME",
		"type": "RNAV",
		"updated": "05/29/2014",
	},
	{
		"name": "CIVKI",
		"latitude": "34-48-14.71 N",
		"longitude": "91-36-0.78 W",
		"state": "ARKANSAS",
		"artcc": "ZME",
		"type": "RNAV",
		"updated": "01/16/2014",
	},
	{
		"name": "CIVMU",
		"latitude": "36-1-55.23 N",
		"longitude": "86-44-2.3 W",
		"state": "TENNESSEE",
		"artcc": "ZME",
		"type": "RNAV",
		"updated": "05/29/2014",
	},
	{
		"name": "CIVOM",
		"latitude": "37-19-45.27 N",
		"longitude": "88-3-34.78 W",
		"state": "KENTUCKY",
		"artcc": "ZME",
		"type": "RNAV",
		"updated": "02/20/2014",
	},
	{
		"name": "CIVUX",
		"latitude": "36-22-29.51 N",
		"longitude": "86-11-11 W",
		"state": "TENNESSEE",
		"artcc": "ZME",
		"type": "RNAV",
		"updated": "09/15/2008",
	},
	{
		"name": "CIXIR",
		"latitude": "34-41-30.83 N",
		"longitude": "90-48-42.5 W",
		"state": "ARKANSAS",
		"artcc": "ZME",
		"type": "RNAV",
		"updated": "06/18/2013",
	},
	{
		"name": "CLAIR",
		"latitude": "36-11-29.7 N",
		"longitude": "86-47-17.97 W",
		"state": "TENNESSEE",
		"artcc": "ZME",
		"type": "RP",
		"updated": "BNA*VORTAC*305.08/6.00",
	},
	{
		"name": "CLARK",
		"latitude": "35-6-28.2 N",
		"longitude": "89-51-58.69 W",
		"state": "TENNESSEE",
		"artcc": "ZME",
		"type": "RP",
		"updated": "MEM*VORTAC*045.00/8.00",
	},
	{
		"name": "CLBRN",
		"latitude": "35-3-17.78 N",
		"longitude": "89-51-24.54 W",
		"state": "TENNESSEE",
		"artcc": "ZME",
		"type": "RP",
		"updated": "MEM*VORTAC*068.00",
	},
	{
		"name": "CLBTY",
		"latitude": "36-14-39.23 N",
		"longitude": "86-27-50.02 W",
		"state": "TENNESSEE",
		"artcc": "ZME",
		"type": "RNAV",
		"updated": "05/28/2014",
	},
	{
		"name": "CLERK",
		"latitude": "35-11-24.27 N",
		"longitude": "86-11-54.3 W",
		"state": "TENNESSEE",
		"artcc": "ZME",
		"type": "MR",
		"updated": "SYI*VOR/DME*153.00",
	},
	{
		"name": "CLOUT",
		"latitude": "33-28-59.3 N",
		"longitude": "88-52-20.2 W",
		"state": "MISSISSIPPI",
		"artcc": "ZME",
		"type": "RP",
		"updated": "OTB*VOR/DME*180.85",
	},
	{
		"name": "COCAR",
		"latitude": "34-15-49.48 N",
		"longitude": "91-56-9.53 W",
		"state": "ARKANSAS",
		"artcc": "ZME",
		"type": "RNAV",
		"updated": "02/17/2011",
	},
	{
		"name": "COCHE",
		"latitude": "36-40-56.28 N",
		"longitude": "88-35-35.32 W",
		"state": "KENTUCKY",
		"artcc": "ZME",
		"type": "RNAV",
		"updated": "04/23/2013",
	},
	{
		"name": "COCTA",
		"latitude": "35-27-43.44 N",
		"longitude": "88-14-42.98 W",
		"state": "TENNESSEE",
		"artcc": "ZME",
		"type": "RNAV",
		"updated": "03/14/2006",
	},
	{
		"name": "CODCA",
		"latitude": "36-42-51.69 N",
		"longitude": "86-46-27.36 W",
		"state": "KENTUCKY",
		"artcc": "ZME",
		"type": "RNAV",
		"updated": "12/23/2011",
	},
	{
		"name": "CODED",
		"latitude": "36-47-54.25 N",
		"longitude": "89-53-13.37 W",
		"state": "MISSOURI",
		"artcc": "ZME",
		"type": "RNAV",
		"updated": "09/03/2009",
	},
	{
		"name": "CODGA",
		"latitude": "35-21-53.86 N",
		"longitude": "88-39-15.56 W",
		"state": "TENNESSEE",
		"artcc": "ZME",
		"type": "RNAV",
		"updated": "08/18/2008",
	},
	{
		"name": "CODYB",
		"latitude": "36-47-13.06 N",
		"longitude": "91-54-15.99 W",
		"state": "MISSOURI",
		"artcc": "ZME",
		"type": "RNAV",
		"updated": "09/14/2010",
	},
	{
		"name": "COGIK",
		"latitude": "35-32-23.39 N",
		"longitude": "91-57-15.78 W",
		"state": "ARKANSAS",
		"artcc": "ZME",
		"type": "RNAV",
		"updated": "09/01/2005",
	},
	{
		"name": "COGTO",
		"latitude": "35-23-44.73 N",
		"longitude": "85-56-9.02 W",
		"state": "TENNESSEE",
		"artcc": "ZME",
		"type": "RNAV",
		"updated": "06/16/2008",
	},
	{
		"name": "COGUP",
		"latitude": "36-15-29.2 N",
		"longitude": "93-26-47.64 W",
		"state": "ARKANSAS",
		"artcc": "ZME",
		"type": "RNAV",
		"updated": "09/17/2015",
	},
	{
		"name": "COKAL",
		"latitude": "36-43-13.33 N",
		"longitude": "87-0-27.7 W",
		"state": "KENTUCKY",
		"artcc": "ZME",
		"type": "RNAV",
		"updated": "09/19/2017",
	},
	{
		"name": "COLAP",
		"latitude": "35-8-26.11 N",
		"longitude": "87-2-54.46 W",
		"state": "TENNESSEE",
		"artcc": "ZME",
		"type": "RP",
		"updated": "RQZ*VORTAC*313.29/29.00",
	},
	{
		"name": "COLBU",
		"latitude": "36-23-59.06 N",
		"longitude": "86-31-25.47 W",
		"state": "TENNESSEE",
		"artcc": "ZME",
		"type": "RNAV",
		"updated": "09/27/2011",
	},
	{
		"name": "COMAR",
		"latitude": "34-54-35.37 N",
		"longitude": "85-38-9.1 W",
		"state": "ALABAMA",
		"artcc": "ZME",
		"type": "RP",
		"updated": "RMG*VORTAC*329.38/51.56",
	},
	{
		"name": "COMBT",
		"latitude": "34-10-31.11 N",
		"longitude": "88-46-10.83 W",
		"state": "MISSISSIPPI",
		"artcc": "ZME",
		"type": "RNAV",
		"updated": "01/27/2015",
	},
	{
		"name": "CONDR",
		"latitude": "35-6-26.05 N",
		"longitude": "90-48-52.51 W",
		"state": "ARKANSAS",
		"artcc": "ZME",
		"type": "RNAV",
		"updated": "06/14/2012",
	},
	{
		"name": "CONIE",
		"latitude": "36-37-20.54 N",
		"longitude": "93-28-17.09 W",
		"state": "MISSOURI",
		"artcc": "ZME",
		"type": "RNAV",
		"updated": "09/12/2012",
	},
	{
		"name": "CONIP",
		"latitude": "36-24-24.68 N",
		"longitude": "94-38-30.53 W",
		"state": "OKLAHOMA",
		"artcc": "ZME",
		"type": "RP",
		"updated": "RZC*VORTAC*287.01/27.00",
	},
	{
		"name": "CONVO",
		"latitude": "35-1-10.1 N",
		"longitude": "86-25-4.05 W",
		"state": "TENNESSEE",
		"artcc": "ZME",
		"type": "WP",
		"updated": "11/02/1998",
	},
	{
		"name": "COOGR",
		"latitude": "35-42-30.54 N",
		"longitude": "86-44-16.81 W",
		"state": "TENNESSEE",
		"artcc": "ZME",
		"type": "RNAV",
		"updated": "09/17/2012",
	},
	{
		"name": "COOMB",
		"latitude": "33-59-19.28 N",
		"longitude": "90-31-22.49 W",
		"state": "MISSISSIPPI",
		"artcc": "ZME",
		"type": "RNAV",
		"updated": "12/15/2015",
	},
	{
		"name": "COPCO",
		"latitude": "33-38-49.01 N",
		"longitude": "91-11-11.57 W",
		"state": "ARKANSAS",
		"artcc": "ZME",
		"type": "RP",
		"updated": "MON*VOR/DME*075.00/27.00",
	},
	{
		"name": "COPEN",
		"latitude": "35-29-58.24 N",
		"longitude": "89-23-22.34 W",
		"state": "TENNESSEE",
		"artcc": "ZME",
		"type": "RNAV",
		"updated": "06/14/2012",
	},
	{
		"name": "COPUN",
		"latitude": "34-49-17.97 N",
		"longitude": "90-48-33.02 W",
		"state": "ARKANSAS",
		"artcc": "ZME",
		"type": "RNAV",
		"updated": "06/18/2013",
	},
	{
		"name": "CORRA",
		"latitude": "36-2-9.26 N",
		"longitude": "86-33-3.97 W",
		"state": "TENNESSEE",
		"artcc": "ZME",
		"type": "RNAV",
		"updated": "09/28/2012",
	},
	{
		"name": "COSAD",
		"latitude": "36-2-25.37 N",
		"longitude": "90-6-38.58 W",
		"state": "MISSOURI",
		"artcc": "ZME",
		"type": "RNAV",
		"updated": "01/27/2014",
	},
	{
		"name": "COSOB",
		"latitude": "33-35-57.61 N",
		"longitude": "88-23-35.44 W",
		"state": "MISSISSIPPI",
		"artcc": "ZME",
		"type": "MR",
		"updated": "CBM*VORTAC*138.00/3.40",
	},
	{
		"name": "COSOR",
		"latitude": "35-1-56.07 N",
		"longitude": "88-49-35.83 W",
		"state": "TENNESSEE",
		"artcc": "ZME",
		"type": "RNAV",
		"updated": "12/05/2013",
	},
	{
		"name": "COTIN",
		"latitude": "34-46-8.8 N",
		"longitude": "86-45-47.28 W",
		"state": "ALABAMA",
		"artcc": "ZME",
		"type": "RP",
		"updated": "DCU*VOR/DME*051.28",
	},
	{
		"name": "COTMU",
		"latitude": "33-29-6.5 N",
		"longitude": "90-8-31.98 W",
		"state": "MISSISSIPPI",
		"artcc": "ZME",
		"type": "RP",
		"updated": "SQS*VORTAC*076.32/6.90",
	},
	{
		"name": "COVBI",
		"latitude": "36-5-0.2 N",
		"longitude": "86-37-10.98 W",
		"state": "TENNESSEE",
		"artcc": "ZME",
		"type": "RNAV",
		"updated": "09/19/2012",
	},
	{
		"name": "COVIM",
		"latitude": "35-3-4.72 N",
		"longitude": "89-44-3.51 W",
		"state": "TENNESSEE",
		"artcc": "ZME",
		"type": "RP",
		"updated": "HLI*VORTAC*322.19",
	},
	{
		"name": "COVNO",
		"latitude": "34-14-7.88 N",
		"longitude": "92-55-3.7 W",
		"state": "ARKANSAS",
		"artcc": "ZME",
		"type": "RNAV",
		"updated": "09/17/2014",
	},
	{
		"name": "COXAX",
		"latitude": "35-52-14.4 N",
		"longitude": "90-36-25.66 W",
		"state": "ARKANSAS",
		"artcc": "ZME",
		"type": "RNAV",
		"updated": "12/22/2003",
	},
	{
		"name": "COXES",
		"latitude": "34-33-3.57 N",
		"longitude": "92-29-48.31 W",
		"state": "ARKANSAS",
		"artcc": "ZME",
		"type": "RP",
		"updated": "SUZ*LD*198.98/3.42",
	},
	{
		"name": "COXUB",
		"latitude": "36-14-50.67 N",
		"longitude": "93-49-5.26 W",
		"state": "ARKANSAS",
		"artcc": "ZME",
		"type": "RNAV",
		"updated": "10/21/2010",
	},
	{
		"name": "COYAB",
		"latitude": "36-15-24.29 N",
		"longitude": "92-38-46.32 W",
		"state": "ARKANSAS",
		"artcc": "ZME",
		"type": "RP",
		"updated": "BPK*LD*SW CRS/11.35",
	},
	{
		"name": "COYAT",
		"latitude": "36-3-48.38 N",
		"longitude": "89-7-11.11 W",
		"state": "TENNESSEE",
		"artcc": "ZME",
		"type": "RP",
		"updated": "DYR*VORTAC*071.34/10.00",
	},
	{
		"name": "COYGA",
		"latitude": "32-29-53.39 N",
		"longitude": "88-56-30.05 W",
		"state": "MISSISSIPPI",
		"artcc": "ZME",
		"type": "RP",
		"updated": "MEI*VORTAC*310.81/10.00",
	},
	{
		"name": "COYMC",
		"latitude": "35-45-13.65 N",
		"longitude": "90-33-33.28 W",
		"state": "ARKANSAS",
		"artcc": "ZME",
		"type": "RNAV",
		"updated": "01/24/2013",
	},
	{
		"name": "COYPU",
		"latitude": "36-3-53.42 N",
		"longitude": "94-0-33.02 W",
		"state": "ARKANSAS",
		"artcc": "ZME",
		"type": "RNAV",
		"updated": "09/17/2015",
	},
	{
		"name": "CPLAN",
		"latitude": "34-1-55.33 N",
		"longitude": "90-42-31.61 W",
		"state": "MISSISSIPPI",
		"artcc": "ZME",
		"type": "RNAV",
		"updated": "12/04/2013",
	},
	{
		"name": "CRAMM",
		"latitude": "34-38-11.05 N",
		"longitude": "88-53-54.88 W",
		"state": "MISSISSIPPI",
		"artcc": "ZME",
		"type": "RP",
		"updated": "HLI*VORTAC*101.99/30.65",
	},
	{
		"name": "CRAMP",
		"latitude": "36-6-57.54 N",
		"longitude": "95-19-48.37 W",
		"state": "OKLAHOMA",
		"artcc": "ZME",
		"type": "RNAV",
		"updated": "05/03/2016",
	},
	{
		"name": "CRAMR",
		"latitude": "36-15-11.02 N",
		"longitude": "86-36-40.88 W",
		"state": "TENNESSEE",
		"artcc": "ZME",
		"type": "RP",
		"updated": "SSX*LD*N CRS/9.12",
	},
	{
		"name": "CRELL",
		"latitude": "36-52-52.7 N",
		"longitude": "89-32-26.91 W",
		"state": "MISSOURI",
		"artcc": "ZME",
		"type": "RNAV",
		"updated": "05/06/2011",
	},
	{
		"name": "CRINK",
		"latitude": "34-15-52.7 N",
		"longitude": "90-6-26.13 W",
		"state": "MISSISSIPPI",
		"artcc": "ZME",
		"type": "RP",
		"updated": "UJM*VOR/DME*122.28",
	},
	{
		"name": "CRSON",
		"latitude": "35-39-36.75 N",
		"longitude": "89-30-27.31 W",
		"state": "TENNESSEE",
		"artcc": "ZME",
		"type": "RNAV",
		"updated": "06/22/2017",
	},
	{
		"name": "CTHRN",
		"latitude": "36-17-23.22 N",
		"longitude": "86-36-47.47 W",
		"state": "TENNESSEE",
		"artcc": "ZME",
		"type": "RNAV",
		"updated": "02/28/2012",
	},
	{
		"name": "CUBIN",
		"latitude": "36-11-43.92 N",
		"longitude": "90-20-8.45 W",
		"state": "ARKANSAS",
		"artcc": "ZME",
		"type": "RNAV",
		"updated": "12/22/2003",
	},
	{
		"name": "CUBOP",
		"latitude": "36-38-2.9 N",
		"longitude": "89-59-34.89 W",
		"state": "MISSOURI",
		"artcc": "ZME",
		"type": "RNAV",
		"updated": "09/03/2009",
	},
	{
		"name": "CUBRO",
		"latitude": "33-46-54.17 N",
		"longitude": "88-30-5.87 W",
		"state": "MISSISSIPPI",
		"artcc": "ZME",
		"type": "RNAV",
		"updated": "04/17/2018",
	},
	{
		"name": "CUBVA",
		"latitude": "36-25-21.06 N",
		"longitude": "92-23-10.73 W",
		"state": "ARKANSAS",
		"artcc": "ZME",
		"type": "RNAV",
		"updated": "08/07/2006",
	},
	{
		"name": "CUCAL",
		"latitude": "35-42-46.78 N",
		"longitude": "91-43-46.59 W",
		"state": "ARKANSAS",
		"artcc": "ZME",
		"type": "RP",
		"updated": "BVX*LE*258.80/4.56",
	},
	{
		"name": "CUDEN",
		"latitude": "33-23-27.98 N",
		"longitude": "88-26-0.1 W",
		"state": "MISSISSIPPI",
		"artcc": "ZME",
		"type": "MR",
		"updated": "CBM*VORTAC*179.00/15.00",
	},
	{
		"name": "CUFGO",
		"latitude": "36-52-48.61 N",
		"longitude": "90-19-17.85 W",
		"state": "MISSOURI",
		"artcc": "ZME",
		"type": "RNAV",
		"updated": "06/08/2007",
	},
	{
		"name": "CUGOS",
		"latitude": "32-23-14.11 N",
		"longitude": "88-41-19.75 W",
		"state": "MISSISSIPPI",
		"artcc": "ZME",
		"type": "RNAV",
		"updated": "07/03/2013",
	},
	{
		"name": "CUKOR",
		"latitude": "35-16-59.12 N",
		"longitude": "92-59-1.39 W",
		"state": "ARKANSAS",
		"artcc": "ZME",
		"type": "RNAV",
		"updated": "12/11/2003",
	},
	{
		"name": "CUKVA",
		"latitude": "34-59-3.57 N",
		"longitude": "85-37-45.12 W",
		"state": "ALABAMA",
		"artcc": "ZME",
		"type": "RNAV",
		"updated": "01/04/2007",
	},
	{
		"name": "CULAR",
		"latitude": "36-17-57.56 N",
		"longitude": "86-44-25.82 W",
		"state": "TENNESSEE",
		"artcc": "ZME",
		"type": "RNAV",
		"updated": "09/24/2012",
	},
	{
		"name": "CULEL",
		"latitude": "35-14-52.27 N",
		"longitude": "93-8-41.13 W",
		"state": "ARKANSAS",
		"artcc": "ZME",
		"type": "RNAV",
		"updated": "06/08/2007",
	},
	{
		"name": "CULPO",
		"latitude": "35-42-5.63 N",
		"longitude": "87-43-46.37 W",
		"state": "TENNESSEE",
		"artcc": "ZME",
		"type": "RNAV",
		"updated": "06/24/2011",
	},
	{
		"name": "CUMDI",
		"latitude": "36-25-55.03 N",
		"longitude": "86-4-12.44 W",
		"state": "TENNESSEE",
		"artcc": "ZME",
		"type": "RNAV",
		"updated": "04/18/2010",
	},
	{
		"name": "CUMLI",
		"latitude": "32-39-53.62 N",
		"longitude": "88-31-57.59 W",
		"state": "MISSISSIPPI",
		"artcc": "ZME",
		"type": "MR",
		"updated": "NMM*TACAN*009.00/5.22",
	},
	{
		"name": "CUMPI",
		"latitude": "36-14-46.05 N",
		"longitude": "88-25-1.33 W",
		"state": "TENNESSEE",
		"artcc": "ZME",
		"type": "RNAV",
		"updated": "03/17/2010",
	},
	{
		"name": "CUNEV",
		"latitude": "32-23-47.91 N",
		"longitude": "89-11-42.61 W",
		"state": "MISSISSIPPI",
		"artcc": "ZME",
		"type": "RP",
		"updated": "MHZ*VORTAC*093.55/46.00",
	},
	{
		"name": "CUNSU",
		"latitude": "36-13-45.71 N",
		"longitude": "86-38-58.58 W",
		"state": "TENNESSEE",
		"artcc": "ZME",
		"type": "RNAV",
		"updated": "06/03/2014",
	},
	{
		"name": "CUREP",
		"latitude": "35-42-19.62 N",
		"longitude": "86-3-50.72 W",
		"state": "TENNESSEE",
		"artcc": "ZME",
		"type": "RNAV",
		"updated": "05/06/2016",
	},
	{
		"name": "CURES",
		"latitude": "33-37-41.8 N",
		"longitude": "91-18-15.2 W",
		"state": "ARKANSAS",
		"artcc": "ZME",
		"type": "RP",
		"updated": "MON*VOR/DME*075.00/21.00",
	},
	{
		"name": "CURPO",
		"latitude": "36-19-33.56 N",
		"longitude": "89-59-56.24 W",
		"state": "MISSOURI",
		"artcc": "ZME",
		"type": "RP",
		"updated": "MAW*VORTAC*194.18/14.37",
	},
	{
		"name": "CUSAG",
		"latitude": "34-13-17.19 N",
		"longitude": "86-52-29.69 W",
		"state": "ALABAMA",
		"artcc": "ZME",
		"type": "RNAV",
		"updated": "02/24/2014",
	},
	{
		"name": "CUSHN",
		"latitude": "32-14-12.43 N",
		"longitude": "89-9-37.61 W",
		"state": "MISSISSIPPI",
		"artcc": "ZME",
		"type": "MR",
		"updated": "MEI*VORTAC*240.00/20.00",
	},
	{
		"name": "CUSUT",
		"latitude": "36-2-56.49 N",
		"longitude": "86-34-29.47 W",
		"state": "TENNESSEE",
		"artcc": "ZME",
		"type": "RNAV",
		"updated": "09/19/2012",
	},
	{
		"name": "CUTUM",
		"latitude": "34-54-32.3 N",
		"longitude": "92-10-28.78 W",
		"state": "ARKANSAS",
		"artcc": "ZME",
		"type": "MR",
		"updated": "LRF*TACAN*236.00/1.00",
	},
	{
		"name": "CUVDO",
		"latitude": "34-44-16.26 N",
		"longitude": "89-19-40.86 W",
		"state": "MISSISSIPPI",
		"artcc": "ZME",
		"type": "RNAV",
		"updated": "06/30/2017",
	},
	{
		"name": "CUVEN",
		"latitude": "32-6-14.51 N",
		"longitude": "90-2-21.35 W",
		"state": "MISSISSIPPI",
		"artcc": "ZME",
		"type": "RP",
		"updated": "MHZ*VORTAC*172.13/20.00",
	},
	{
		"name": "CUVID",
		"latitude": "33-52-9.31 N",
		"longitude": "89-50-44.98 W",
		"state": "MISSISSIPPI",
		"artcc": "ZME",
		"type": "RNAV",
		"updated": "05/16/2016",
	},
	{
		"name": "CUVIT",
		"latitude": "36-0-3.78 N",
		"longitude": "94-30-42.83 W",
		"state": "ARKANSAS",
		"artcc": "ZME",
		"type": "RNAV",
		"updated": "08/08/2007",
	},
	{
		"name": "CUXAN",
		"latitude": "35-22-53.41 N",
		"longitude": "94-0-36.42 W",
		"state": "ARKANSAS",
		"artcc": "ZME",
		"type": "RNAV",
		"updated": "03/25/2010",
	},
	{
		"name": "CUXEG",
		"latitude": "35-6-15.35 N",
		"longitude": "90-3-41.72 W",
		"state": "TENNESSEE",
		"artcc": "ZME",
		"type": "RP",
		"updated": "GQE*VOR/DME*121.26/25.12",
	},
	{
		"name": "CUXID",
		"latitude": "36-42-34.93 N",
		"longitude": "89-39-58.32 W",
		"state": "MISSOURI",
		"artcc": "ZME",
		"type": "RNAV",
		"updated": "05/17/2013",
	},
	{
		"name": "CUXUP",
		"latitude": "35-10-33.86 N",
		"longitude": "90-2-51.81 W",
		"state": "TENNESSEE",
		"artcc": "ZME",
		"type": "RNAV",
		"updated": "10/28/2013",
	},
	{
		"name": "CUYAG",
		"latitude": "35-57-39.82 N",
		"longitude": "86-22-15.33 W",
		"state": "TENNESSEE",
		"artcc": "ZME",
		"type": "RP",
		"updated": "SYI*VOR/DME*008.91",
	},
	{
		"name": "CUYAS",
		"latitude": "35-4-52.07 N",
		"longitude": "85-34-45.22 W",
		"state": "TENNESSEE",
		"artcc": "ZME",
		"type": "RNAV",
		"updated": "01/04/2007",
	},
	{
		"name": "CUYAY",
		"latitude": "37-22-45.62 N",
		"longitude": "87-59-11.84 W",
		"state": "KENTUCKY",
		"artcc": "ZME",
		"type": "RNAV",
		"updated": "01/10/2013",
	},
