[
	{
		"name": "DAANG",
		"latitude": "36-26-47.28 N",
		"longitude": "86-2-37.44 W",
		"state": "TENNESSEE",
		"artcc": "ZME",
		"type": "RNAV",
		"updated": "09/24/2012"
	},
	{
		"name": "DABEY",
		"latitude": "32-13-31.56 N",
		"longitude": "90-2-29.02 W",
		"state": "MISSISSIPPI",
		"artcc": "ZME",
		"type": "RP",
		"updated": "MHZ*VORTAC*/12.84"
	},
	{
		"name": "DABFA",
		"latitude": "36-30-46.08 N",
		"longitude": "86-29-46.88 W",
		"state": "TENNESSEE",
		"artcc": "ZME",
		"type": "RNAV",
		"updated": "09/27/2011"
	},
	{
		"name": "DABIE",
		"latitude": "34-31-54.5 N",
		"longitude": "87-10-0.9 W",
		"state": "ALABAMA",
		"artcc": "ZME",
		"type": "RNAV",
		"updated": "08/01/2012"
	},
	{
		"name": "DACED",
		"latitude": "34-23-12.6 N",
		"longitude": "90-40-46.34 W",
		"state": "ARKANSAS",
		"artcc": "ZME",
		"type": "RNAV",
		"updated": "05/25/2004"
	},
	{
		"name": "DACNA",
		"latitude": "35-20-1.26 N",
		"longitude": "86-20-27.65 W",
		"state": "TENNESSEE",
		"artcc": "ZME",
		"type": "RNAV",
		"updated": "06/29/2011"
	},
	{
		"name": "DAFFY",
		"latitude": "32-49-34.27 N",
		"longitude": "88-30-8.23 W",
		"state": "MISSISSIPPI",
		"artcc": "ZME",
		"type": "MR",
		"updated": "NMM*TACAN*008.32/15.00"
	},
	{
		"name": "DAGNY",
		"latitude": "35-2-1.65 N",
		"longitude": "86-31-3.93 W",
		"state": "TENNESSEE",
		"artcc": "ZME",
		"type": "WP",
		"updated": "11/02/1998"
	},
	{
		"name": "DAKNE",
		"latitude": "36-1-48.22 N",
		"longitude": "89-22-19.89 W",
		"state": "TENNESSEE",
		"artcc": "ZME",
		"type": "RNAV",
		"updated": "05/03/2011"
	},
	{
		"name": "DALEC",
		"latitude": "34-15-11.91 N",
		"longitude": "87-43-17.19 W",
		"state": "ALABAMA",
		"artcc": "ZME",
		"type": "RNAV",
		"updated": "08/10/2007"
	},
	{
		"name": "DALGE",
		"latitude": "35-18-19.44 N",
		"longitude": "89-46-8.26 W",
		"state": "TENNESSEE",
		"artcc": "ZME",
		"type": "RNAV",
		"updated": "01/31/2012"
	},
	{
		"name": "DANIL",
		"latitude": "35-7-2.54 N",
		"longitude": "93-27-26.2 W",
		"state": "ARKANSAS",
		"artcc": "ZME",
		"type": "RP",
		"updated": "PGO*VORTAC*060.95"
	},
	{
		"name": "DANLS",
		"latitude": "35-53-1.25 N",
		"longitude": "88-16-9.06 W",
		"state": "TENNESSEE",
		"artcc": "ZME",
		"type": "RNAV",
		"updated": "09/17/2012"
	},
	{
		"name": "DANNZ",
		"latitude": "35-14-3.65 N",
		"longitude": "90-13-59.83 W",
		"state": "ARKANSAS",
		"artcc": "ZME",
		"type": "RP",
		"updated": "LWR*LD*359.55/6.72"
	},
	{
		"name": "DAPLE",
		"latitude": "35-19-36.17 N",
		"longitude": "89-35-19.27 W",
		"state": "TENNESSEE",
		"artcc": "ZME",
		"type": "RP",
		"updated": "MEM*VORTAC*045.00/26.93"
	},
	{
		"name": "DASAC",
		"latitude": "35-10-3.82 N",
		"longitude": "89-47-26.04 W",
		"state": "TENNESSEE",
		"artcc": "ZME",
		"type": "RP",
		"updated": "MEM*VORTAC*045.00/13.17"
	},
	{
		"name": "DASLE",
		"latitude": "32-11-26.66 N",
		"longitude": "90-12-31.3 W",
		"state": "MISSISSIPPI",
		"artcc": "ZME",
		"type": "RNAV",
		"updated": "07/05/2013"
	},
	{
		"name": "DASWY",
		"latitude": "34-31-2.29 N",
		"longitude": "88-35-19.68 W",
		"state": "MISSISSIPPI",
		"artcc": "ZME",
		"type": "RNAV",
		"updated": "08/12/2013"
	},
	{
		"name": "DATMY",
		"latitude": "36-16-59.76 N",
		"longitude": "86-18-11.84 W",
		"state": "TENNESSEE",
		"artcc": "ZME",
		"type": "RNAV",
		"updated": "09/15/2008"
	},
	{
		"name": "DAVCA",
		"latitude": "33-42-38.11 N",
		"longitude": "91-21-43.88 W",
		"state": "ARKANSAS",
		"artcc": "ZME",
		"type": "RNAV",
		"updated": "11/02/2011"
	},
	{
		"name": "DAVDE",
		"latitude": "34-47-20.5 N",
		"longitude": "94-11-34.6 W",
		"state": "ARKANSAS",
		"artcc": "ZME",
		"type": "RNAV",
		"updated": "05/21/2003"
	},
	{
		"name": "DAVLE",
		"latitude": "36-6-3.93 N",
		"longitude": "95-28-48.24 W",
		"state": "OKLAHOMA",
		"artcc": "ZME",
		"type": "RNAV",
		"updated": "09/21/2004"
	},
	{
		"name": "DAVSN",
		"latitude": "33-1-33.73 N",
		"longitude": "88-30-8.99 W",
		"state": "MISSISSIPPI",
		"artcc": "ZME",
		"type": "MR",
		"updated": "CBM*VORTAC*185.00/37.00"
	},
	{
		"name": "DAVVE",
		"latitude": "33-39-47.4 N",
		"longitude": "88-27-58.75 W",
		"state": "MISSISSIPPI",
		"artcc": "ZME",
		"type": "MR",
		"updated": "CBM*VORTAC*313.00/1.90"
	},
	{
		"name": "DAWGG",
		"latitude": "35-27-50.5 N",
		"longitude": "90-47-9.09 W",
		"state": "ARKANSAS",
		"artcc": "ZME",
		"type": "RP",
		"updated": "GQE*VOR/DME*291.00/16.64"
	},
	{
		"name": "DAZED",
		"latitude": "35-50-2.93 N",
		"longitude": "94-3-50 W",
		"state": "ARKANSAS",
		"artcc": "ZME",
		"type": "RP",
		"updated": "DAK*VOR/DME*145.45/14.10"
	},
	{
		"name": "DAZEL",
		"latitude": "35-58-35.9 N",
		"longitude": "90-32-47.27 W",
		"state": "ARKANSAS",
		"artcc": "ZME",
		"type": "RP",
		"updated": "JBR*VOR/DME*018.57/6.43"
	},
	{
		"name": "DAZNI",
		"latitude": "34-42-28.46 N",
		"longitude": "87-25-14.85 W",
		"state": "ALABAMA",
		"artcc": "ZME",
		"type": "RNAV",
		"updated": "08/01/2012"
	},
	{
		"name": "DDART",
		"latitude": "33-12-45.74 N",
		"longitude": "88-31-9.73 W",
		"state": "MISSISSIPPI",
		"artcc": "ZME",
		"type": "MR",
		"updated": "CBM*VORTAC*189.00/26.00"
	},
	{
		"name": "DEANY",
		"latitude": "34-29-11.52 N",
		"longitude": "86-45-5.11 W",
		"state": "ALABAMA",
		"artcc": "ZME",
		"type": "MR",
		"updated": "RQZ*VORTAC*195.40/19.50"
	},
	{
		"name": "DEBAY",
		"latitude": "34-43-38.84 N",
		"longitude": "86-45-50.29 W",
		"state": "ALABAMA",
		"artcc": "ZME",
		"type": "RP",
		"updated": "DCU*VOR/DME*062.33"
	},
	{
		"name": "DEBGE",
		"latitude": "36-14-26.55 N",
		"longitude": "93-36-35.23 W",
		"state": "ARKANSAS",
		"artcc": "ZME",
		"type": "RNAV",
		"updated": "09/17/2015"
	},
	{
		"name": "DECAV",
		"latitude": "36-17-57.96 N",
		"longitude": "87-36-20.94 W",
		"state": "TENNESSEE",
		"artcc": "ZME",
		"type": "RNAV",
		"updated": "05/02/2011"
	},
	{
		"name": "DEEPE",
		"latitude": "37-17-41.98 N",
		"longitude": "87-29-38.52 W",
		"state": "KENTUCKY",
		"artcc": "ZME",
		"type": "RNAV",
		"updated": "03/28/2017"
	},
	{
		"name": "DEEWY",
		"latitude": "35-2-1.66 N",
		"longitude": "89-58-21.48 W",
		"state": "TENNESSEE",
		"artcc": "ZME",
		"type": "RNAV",
		"updated": "05/27/2009"
	},
	{
		"name": "DEGYE",
		"latitude": "35-45-0.73 N",
		"longitude": "88-10-16.17 W",
		"state": "TENNESSEE",
		"artcc": "ZME",
		"type": "RNAV",
		"updated": "09/03/2015"
	},
	{
		"name": "DEKLE",
		"latitude": "32-23-43.97 N",
		"longitude": "90-7-20.62 W",
		"state": "MISSISSIPPI",
		"artcc": "ZME",
		"type": "RNAV",
		"updated": "07/18/2013"
	},
	{
		"name": "DELEE",
		"latitude": "34-30-29.96 N",
		"longitude": "88-40-49.71 W",
		"state": "MISSISSIPPI",
		"artcc": "ZME",
		"type": "RP",
		"updated": "OTB*VOR/DME*014.78/18.00"
	},
	{
		"name": "DEPEC",
		"latitude": "36-6-0 N",
		"longitude": "87-31-0 W",
		"state": "TENNESSEE",
		"artcc": "ZME",
		"type": "RNAV",
		"updated": "02/16/2006"
	},
	{
		"name": "DEPGE",
		"latitude": "33-17-7.63 N",
		"longitude": "89-37-15.42 W",
		"state": "MISSISSIPPI",
		"artcc": "ZME",
		"type": "RNAV",
		"updated": "03/07/2005"
	},
	{
		"name": "DEPST",
		"latitude": "33-55-14.99 N",
		"longitude": "88-0-21.37 W",
		"state": "ALABAMA",
		"artcc": "ZME",
		"type": "RNAV",
		"updated": "05/05/2009"
	},
	{
		"name": "DESKE",
		"latitude": "32-51-44.23 N",
		"longitude": "90-26-37.17 W",
		"state": "MISSISSIPPI",
		"artcc": "ZME",
		"type": "RP",
		"updated": "MHZ*VORTAC*326.90/31.00"
	},
	{
		"name": "DETGE",
		"latitude": "36-33-2.04 N",
		"longitude": "88-25-52 W",
		"state": "KENTUCKY",
		"artcc": "ZME",
		"type": "RNAV",
		"updated": "01/12/2017"
	},
	{
		"name": "DEVAC",
		"latitude": "34-37-5.09 N",
		"longitude": "87-26-6.6 W",
		"state": "ALABAMA",
		"artcc": "ZME",
		"type": "RP",
		"updated": "RMG*VORTAC*283.00/118.18"
	},
	{
		"name": "DEXIW",
		"latitude": "32-33-23.1 N",
		"longitude": "91-1-52.75 W",
		"state": "MISSISSIPPI",
		"artcc": "ZME",
		"type": "RNAV",
		"updated": "08/01/2016"
	},
	{
		"name": "DEYEV",
		"latitude": "33-45-0.65 N",
		"longitude": "90-43-3.12 W",
		"state": "MISSISSIPPI",
		"artcc": "ZME",
		"type": "RP",
		"updated": "GLH*VOR/DME*040.33/19.00"
	},
	{
		"name": "DIBAY",
		"latitude": "36-6-14.83 N",
		"longitude": "94-30-0.27 W",
		"state": "ARKANSAS",
		"artcc": "ZME",
		"type": "RNAV",
		"updated": "08/08/2007"
	},
	{
		"name": "DICAT",
		"latitude": "35-34-2.16 N",
		"longitude": "86-26-29.9 W",
		"state": "TENNESSEE",
		"artcc": "ZME",
		"type": "RP",
		"updated": "SYI*VOR/DME*340.00/0.34"
	},
	{
		"name": "DICEB",
		"latitude": "34-30-56.02 N",
		"longitude": "90-5-40.75 W",
		"state": "MISSISSIPPI",
		"artcc": "ZME",
		"type": "RNAV",
		"updated": "03/24/2011"
	},
	{
		"name": "DIGLE",
		"latitude": "35-1-27.73 N",
		"longitude": "89-51-54.9 W",
		"state": "TENNESSEE",
		"artcc": "ZME",
		"type": "RNAV",
		"updated": "06/14/2012"
	},
	{
		"name": "DIKNS",
		"latitude": "36-0-1.03 N",
		"longitude": "86-43-56.77 W",
		"state": "TENNESSEE",
		"artcc": "ZME",
		"type": "RP",
		"updated": "BNA*LD*200.65/8.71"
	},
	{
		"name": "DILEY",
		"latitude": "35-52-55.68 N",
		"longitude": "86-21-33.74 W",
		"state": "TENNESSEE",
		"artcc": "ZME",
		"type": "RP",
		"updated": "BNA*VORTAC*135.85/22.00"
	},
	{
		"name": "DILGE",
		"latitude": "32-58-49.11 N",
		"longitude": "89-0-16.53 W",
		"state": "MISSISSIPPI",
		"artcc": "ZME",
		"type": "RNAV",
		"updated": "09/14/2009"
	},
	{
		"name": "DILME",
		"latitude": "36-27-15.3 N",
		"longitude": "93-7-59.3 W",
		"state": "ARKANSAS",
		"artcc": "ZME",
		"type": "RP",
		"updated": "HRO*VOR/DME*021.46"
	},
	{
		"name": "DINGE",
		"latitude": "35-18-14.64 N",
		"longitude": "91-42-43.03 W",
		"state": "ARKANSAS",
		"artcc": "ZME",
		"type": "RNAV",
		"updated": "07/25/2005"
	},
	{
		"name": "DINKE",
		"latitude": "34-46-26.31 N",
		"longitude": "89-51-43.57 W",
		"state": "MISSISSIPPI",
		"artcc": "ZME",
		"type": "RNAV",
		"updated": "06/14/2012"
	},
	{
		"name": "DINNI",
		"latitude": "33-29-19.5 N",
		"longitude": "87-59-33.45 W",
		"state": "ALABAMA",
		"artcc": "ZME",
		"type": "RNAV",
		"updated": "08/01/2012"
	},
	{
		"name": "DIPJO",
		"latitude": "35-20-56.6 N",
		"longitude": "89-55-29.34 W",
		"state": "TENNESSEE",
		"artcc": "ZME",
		"type": "RNAV",
		"updated": "06/16/2011"
	},
	{
		"name": "DITZL",
		"latitude": "35-33-44.99 N",
		"longitude": "88-25-27.75 W",
		"state": "TENNESSEE",
		"artcc": "ZME",
		"type": "RNAV",
		"updated": "05/06/2011"
	},
	{
		"name": "DIVYA",
		"latitude": "34-31-21.17 N",
		"longitude": "86-9-34.85 W",
		"state": "ALABAMA",
		"artcc": "ZME",
		"type": "RNAV",
		"updated": "10/03/2007"
	},
	{
		"name": "DIXLI",
		"latitude": "34-43-27.98 N",
		"longitude": "87-33-1.92 W",
		"state": "ALABAMA",
		"artcc": "ZME",
		"type": "RP",
		"updated": "MSL*VORTAC*/3.10"
	},
	{
		"name": "DIXVU",
		"latitude": "33-14-36.89 N",
		"longitude": "88-35-36.21 W",
		"state": "MISSISSIPPI",
		"artcc": "ZME",
		"type": "RP",
		"updated": "IGB*VORTAC*191.49/15.03"
	},
	{
		"name": "DIYAB",
		"latitude": "35-14-38.86 N",
		"longitude": "89-6-44.47 W",
		"state": "TENNESSEE",
		"artcc": "ZME",
		"type": "RNAV",
		"updated": "09/30/2013"
	},
	{
		"name": "DLONG",
		"latitude": "35-8-39.98 N",
		"longitude": "89-59-45.35 W",
		"state": "TENNESSEE",
		"artcc": "ZME",
		"type": "RNAV",
		"updated": "01/31/2012"
	},
	{
		"name": "DMACE",
		"latitude": "34-22-45.61 N",
		"longitude": "91-54-23.62 W",
		"state": "ARKANSAS",
		"artcc": "ZME",
		"type": "CN",
		"updated": "12/04/2014"
	},
	{
		"name": "DMCOO",
		"latitude": "36-3-11.38 N",
		"longitude": "89-6-59.57 W",
		"state": "TENNESSEE",
		"artcc": "ZME",
		"type": "CN",
		"updated": "10/06/2000"
	},
	{
		"name": "DMEDQ",
		"latitude": "36-29-41.52 N",
		"longitude": "89-47-14.6 W",
		"state": "MISSOURI",
		"artcc": "ZME",
		"type": "CN",
		"updated": "08/14/2000"
	},
	{
		"name": "DOBBS",
		"latitude": "36-1-31.69 N",
		"longitude": "86-43-21.32 W",
		"state": "TENNESSEE",
		"artcc": "ZME",
		"type": "RP",
		"updated": "BNA*LD*200.65/7.23"
	},
	{
		"name": "DOCAP",
		"latitude": "34-46-18.69 N",
		"longitude": "89-47-5.41 W",
		"state": "MISSISSIPPI",
		"artcc": "ZME",
		"type": "RP",
		"updated": "EVO*LE*180.54/13.21"
	},
	{
		"name": "DOCKS",
		"latitude": "35-51-58.13 N",
		"longitude": "85-22-29.29 W",
		"state": "TENNESSEE",
		"artcc": "ZME",
		"type": "RP",
		"updated": "HCH*VOR/DME*286.89/20.00"
	},
	{
		"name": "DOGAC",
		"latitude": "36-29-46.5 N",
		"longitude": "90-38-48.53 W",
		"state": "ARKANSAS",
		"artcc": "ZME",
		"type": "RNAV",
		"updated": "07/27/2004"
	},
	{
		"name": "DOGME",
		"latitude": "32-8-48.89 N",
		"longitude": "90-56-33.63 W",
		"state": "MISSISSIPPI",
		"artcc": "ZME",
		"type": "RNAV",
		"updated": "12/05/2012"
	},
	{
		"name": "DOHEP",
		"latitude": "36-47-59.4 N",
		"longitude": "85-35-31.06 W",
		"state": "KENTUCKY",
		"artcc": "ZME",
		"type": "RNAV",
		"updated": "07/10/2013"
	},
	{
		"name": "DOMIN",
		"latitude": "36-1-9.58 N",
		"longitude": "95-0-0.9 W",
		"state": "OKLAHOMA",
		"artcc": "ZME",
		"type": "RNAV",
		"updated": "04/28/2008"
	},
	{
		"name": "DONGE",
		"latitude": "35-3-1.63 N",
		"longitude": "94-22-17.05 W",
		"state": "ARKANSAS",
		"artcc": "ZME",
		"type": "RNAV",
		"updated": "09/18/2007"
	},
	{
		"name": "DONSE",
		"latitude": "34-31-57.04 N",
		"longitude": "87-40-51.21 W",
		"state": "ALABAMA",
		"artcc": "ZME",
		"type": "RNAV",
		"updated": "08/10/2007"
	},
	{
		"name": "DOOME",
		"latitude": "33-33-49.96 N",
		"longitude": "90-31-37.51 W",
		"state": "MISSISSIPPI",
		"artcc": "ZME",
		"type": "RNAV",
		"updated": "12/15/2015"
	},
	{
		"name": "DOOMS",
		"latitude": "31-53-8 N",
		"longitude": "91-9-56 W",
		"state": "MISSISSIPPI",
		"artcc": "ZME",
		"type": "RNAV",
		"updated": "02/16/2006"
	},
	{
		"name": "DOREY",
		"latitude": "36-18-55.96 N",
		"longitude": "90-28-35.03 W",
		"state": "ARKANSAS",
		"artcc": "ZME",
		"type": "RP",
		"updated": "ARG*VORTAC*057.87/26.24"
	},
	{
		"name": "DOUUG",
		"latitude": "35-12-55.84 N",
		"longitude": "89-13-22.61 W",
		"state": "TENNESSEE",
		"artcc": "ZME",
		"type": "RNAV",
		"updated": "09/30/2013"
	},
	{
		"name": "DOVQA",
		"latitude": "34-29-18.9 N",
		"longitude": "92-8-43.04 W",
		"state": "ARKANSAS",
		"artcc": "ZME",
		"type": "RNAV",
		"updated": "10/30/2001"
	},
	{
		"name": "DOWDU",
		"latitude": "34-10-31.32 N",
		"longitude": "86-53-28.84 W",
		"state": "ALABAMA",
		"artcc": "ZME",
		"type": "RNAV",
		"updated": "02/24/2014"
	},
	{
		"name": "DOXGU",
		"latitude": "35-22-6.02 N",
		"longitude": "87-19-2.38 W",
		"state": "TENNESSEE",
		"artcc": "ZME",
		"type": "RNAV",
		"updated": "11/02/2009"
	},
	{
		"name": "DOYAL",
		"latitude": "36-22-21.62 N",
		"longitude": "94-21-55.75 W",
		"state": "ARKANSAS",
		"artcc": "ZME",
		"type": "RNAV",
		"updated": "08/08/2007"
	},
	{
		"name": "DOZEN",
		"latitude": "34-34-13.15 N",
		"longitude": "93-43-51.4 W",
		"state": "ARKANSAS",
		"artcc": "ZME",
		"type": "RP",
		"updated": "TXK*VORTAC*008.00"
	},
	{
		"name": "DOZVA",
		"latitude": "34-51-25.37 N",
		"longitude": "86-31-13.2 W",
		"state": "ALABAMA",
		"artcc": "ZME",
		"type": "RNAV",
		"updated": "01/26/2010"
	},
	{
		"name": "DRAKK",
		"latitude": "35-44-48.94 N",
		"longitude": "86-22-5.46 W",
		"state": "TENNESSEE",
		"artcc": "ZME",
		"type": "RP",
		"updated": "BWG*VORTAC*175.03/70.90"
	},
	{
		"name": "DRAND",
		"latitude": "36-10-23.74 N",
		"longitude": "86-32-6.53 W",
		"state": "TENNESSEE",
		"artcc": "ZME",
		"type": "RNAV",
		"updated": "09/24/2012"
	},
	{
		"name": "DRANO",
		"latitude": "35-21-0.35 N",
		"longitude": "93-53-47.03 W",
		"state": "ARKANSAS",
		"artcc": "ZME",
		"type": "RP",
		"updated": "FSM*VORTAC*090.00/18.55"
	},
	{
		"name": "DRAST",
		"latitude": "34-37-44.23 N",
		"longitude": "91-25-48.42 W",
		"state": "ARKANSAS",
		"artcc": "ZME",
		"type": "RP",
		"updated": "LIT*VORTAC*089.28/37.26"
	},
	{
		"name": "DRIPT",
		"latitude": "33-51-18.43 N",
		"longitude": "90-31-27.23 W",
		"state": "MISSISSIPPI",
		"artcc": "ZME",
		"type": "RNAV",
		"updated": "12/15/2015"
	},
	{
		"name": "DROSS",
		"latitude": "36-24-6.34 N",
		"longitude": "89-59-46.1 W",
		"state": "MISSOURI",
		"artcc": "ZME",
		"type": "RNAV",
		"updated": "09/03/2009"
	},
	{
		"name": "DRURY",
		"latitude": "35-37-40.56 N",
		"longitude": "87-10-34.89 W",
		"state": "TENNESSEE",
		"artcc": "ZME",
		"type": "RNAV",
		"updated": "09/17/2012"
	},
	{
		"name": "DSOTO",
		"latitude": "31-56-45.07 N",
		"longitude": "88-45-35.57 W",
		"state": "MISSISSIPPI",
		"artcc": "ZME",
		"type": "MR",
		"updated": "MEI*VORTAC*170.00/26.00"
	},
	{
		"name": "DUCKZ",
		"latitude": "35-1-27.16 N",
		"longitude": "90-48-54.43 W",
		"state": "ARKANSAS",
		"artcc": "ZME",
		"type": "RNAV",
		"updated": "01/11/2012"
	},
	{
		"name": "DUELS",
		"latitude": "36-41-44.99 N",
		"longitude": "90-6-49.75 W",
		"state": "MISSOURI",
		"artcc": "ZME",
		"type": "WP",
		"updated": "MAW*VORTAC*307.80/12.90"
	},
	{
		"name": "DUFDE",
		"latitude": "36-0-27.72 N",
		"longitude": "86-43-46.35 W",
		"state": "TENNESSEE",
		"artcc": "ZME",
		"type": "RNAV",
		"updated": "09/19/2012"
	},
	{
		"name": "DUGGE",
		"latitude": "34-51-17.93 N",
		"longitude": "85-51-4.49 W",
		"state": "ALABAMA",
		"artcc": "ZME",
		"type": "RNAV",
		"updated": "10/03/2007"
	},
	{
		"name": "DUHAB",
		"latitude": "32-38-10.19 N",
		"longitude": "90-7-19.79 W",
		"state": "MISSISSIPPI",
		"artcc": "ZME",
		"type": "RNAV",
		"updated": "11/30/2012"
	},
	{
		"name": "DULLS",
		"latitude": "36-1-34.73 N",
		"longitude": "92-27-39.85 W",
		"state": "ARKANSAS",
		"artcc": "ZME",
		"type": "RNAV",
		"updated": "11/19/2015"
	},
	{
		"name": "DULNE",
		"latitude": "36-1-19.65 N",
		"longitude": "87-41-22.43 W",
		"state": "TENNESSEE",
		"artcc": "ZME",
		"type": "RNAV",
		"updated": "07/25/2011"
	},
	{
		"name": "DUMPI",
		"latitude": "34-56-17.71 N",
		"longitude": "91-57-40.86 W",
		"state": "ARKANSAS",
		"artcc": "ZME",
		"type": "RP",
		"updated": "LIT*VORTAC*029.69/19.00"
	},
	{
		"name": "DUNDS",
		"latitude": "34-50-45.26 N",
		"longitude": "92-23-42.73 W",
		"state": "ARKANSAS",
		"artcc": "ZME",
		"type": "MW",
		"updated": "03/06/2007"
	},
	{
		"name": "DUNLE",
		"latitude": "35-43-18.43 N",
		"longitude": "90-9-20.34 W",
		"state": "ARKANSAS",
		"artcc": "ZME",
		"type": "RNAV",
		"updated": "01/29/2002"
	},
	{
		"name": "DUPLE",
		"latitude": "34-21-42.08 N",
		"longitude": "89-0-38.09 W",
		"state": "MISSISSIPPI",
		"artcc": "ZME",
		"type": "RNAV",
		"updated": "08/20/2007"
	},
	{
		"name": "DUSDE",
		"latitude": "35-22-42.38 N",
		"longitude": "87-45-45.76 W",
		"state": "TENNESSEE",
		"artcc": "ZME",
		"type": "RNAV",
		"updated": "07/25/2011"
	},
	{
		"name": "DUTCH",
		"latitude": "37-15-14.97 N",
		"longitude": "89-42-1.22 W",
		"state": "MISSOURI",
		"artcc": "ZME",
		"type": "RP",
		"updated": "CGI*VOR/DME*286.63/6.33"
	},
	{
		"name": "DUUCK",
		"latitude": "32-24-46.73 N",
		"longitude": "88-30-47.83 W",
		"state": "MISSISSIPPI",
		"artcc": "ZME",
		"type": "RNAV",
		"updated": "07/25/2016"
	},
	{
		"name": "DUVBY",
		"latitude": "34-18-46.97 N",
		"longitude": "87-59-25.65 W",
		"state": "ALABAMA",
		"artcc": "ZME",
		"type": "RNAV",
		"updated": "05/05/2009"
	},
	{
		"name": "DWSON",
		"latitude": "35-24-28.26 N",
		"longitude": "89-59-42.57 W",
		"state": "TENNESSEE",
		"artcc": "ZME",
		"type": "RP",
		"updated": "GQE*VOR/DME*077.12/23.98"
	}
]
