[
	{
		"name": "GACES",
		"latitude": "36-16-0.22 N",
		"longitude": "90-52-58.56 W",
		"state": "ARKANSAS",
		"artcc": "ZME",
		"type": "RP",
		"updated": "ARG*VORTAC*016.08/10.00"
	},
	{
		"name": "GACET",
		"latitude": "34-58-41.64 N",
		"longitude": "90-11-53.58 W",
		"state": "MISSISSIPPI",
		"artcc": "ZME",
		"type": "RNAV",
		"updated": "02/11/2012"
	},
	{
		"name": "GADEC",
		"latitude": "34-59-11.38 N",
		"longitude": "89-58-29.05 W",
		"state": "MISSISSIPPI",
		"artcc": "ZME",
		"type": "RNAV",
		"updated": "09/30/2013"
	},
	{
		"name": "GADLE",
		"latitude": "36-34-36.26 N",
		"longitude": "89-56-57.64 W",
		"state": "MISSOURI",
		"artcc": "ZME",
		"type": "RNAV",
		"updated": "06/12/2008"
	},
	{
		"name": "GADPE",
		"latitude": "36-7-16.62 N",
		"longitude": "86-48-45.29 W",
		"state": "TENNESSEE",
		"artcc": "ZME",
		"type": "RNAV",
		"updated": "05/06/2016"
	},
	{
		"name": "GAGLE",
		"latitude": "34-8-0 N",
		"longitude": "90-17-0 W",
		"state": "MISSISSIPPI",
		"artcc": "ZME",
		"type": "RNAV",
		"updated": "02/17/2006"
	},
	{
		"name": "GAGPE",
		"latitude": "35-8-3.89 N",
		"longitude": "88-31-53.16 W",
		"state": "TENNESSEE",
		"artcc": "ZME",
		"type": "RNAV",
		"updated": "12/28/2007"
	},
	{
		"name": "GAGYE",
		"latitude": "34-1-29.42 N",
		"longitude": "88-46-9.6 W",
		"state": "MISSISSIPPI",
		"artcc": "ZME",
		"type": "RP",
		"updated": "OTB*VOR/DME*169.31/12.00"
	},
	{
		"name": "GAHSU",
		"latitude": "36-50-35.58 N",
		"longitude": "92-32-4.36 W",
		"state": "MISSOURI",
		"artcc": "ZME",
		"type": "RNAV",
		"updated": "02/21/2013"
	},
	{
		"name": "GAITR",
		"latitude": "33-42-31.05 N",
		"longitude": "88-31-20.09 W",
		"state": "MISSISSIPPI",
		"artcc": "ZME",
		"type": "MR",
		"updated": "CBM*VORTAC*313.81/5.80"
	},
	{
		"name": "GAMPS",
		"latitude": "36-26-19.39 N",
		"longitude": "93-59-12.54 W",
		"state": "ARKANSAS",
		"artcc": "ZME",
		"type": "RP",
		"updated": "EOS*VOR/DME*131.01"
	},
	{
		"name": "GANTT",
		"latitude": "34-26-42.26 N",
		"longitude": "88-38-57.39 W",
		"state": "MISSISSIPPI",
		"artcc": "ZME",
		"type": "RP",
		"updated": "OTB*VOR/DME*025.00"
	},
	{
		"name": "GARKE",
		"latitude": "34-47-2.37 N",
		"longitude": "94-5-31.03 W",
		"state": "ARKANSAS",
		"artcc": "ZME",
		"type": "RNAV",
		"updated": "05/21/2003"
	},
	{
		"name": "GARTZ",
		"latitude": "35-46-37.89 N",
		"longitude": "88-49-33.67 W",
		"state": "TENNESSEE",
		"artcc": "ZME",
		"type": "RNAV",
		"updated": "04/01/2009"
	},
	{
		"name": "GARVY",
		"latitude": "36-38-56.63 N",
		"longitude": "86-15-19.78 W",
		"state": "TENNESSEE",
		"artcc": "ZME",
		"type": "RP",
		"updated": "BWG*VORTAC*149.55/19.05"
	},
	{
		"name": "GARYY",
		"latitude": "36-40-2.36 N",
		"longitude": "93-19-23.38 W",
		"state": "MISSOURI",
		"artcc": "ZME",
		"type": "RNAV",
		"updated": "01/04/2011"
	},
	{
		"name": "GASGE",
		"latitude": "36-29-20.11 N",
		"longitude": "87-38-5.6 W",
		"state": "TENNESSEE",
		"artcc": "ZME",
		"type": "MW",
		"updated": "11/16/2016"
	},
	{
		"name": "GATTE",
		"latitude": "33-46-32.7 N",
		"longitude": "88-18-16.73 W",
		"state": "MISSISSIPPI",
		"artcc": "ZME",
		"type": "RP",
		"updated": "LDK*VORTAC*306.00"
	},
	{
		"name": "GATZY",
		"latitude": "34-46-52.34 N",
		"longitude": "93-6-12.27 W",
		"state": "ARKANSAS",
		"artcc": "ZME",
		"type": "RP",
		"updated": "LIT*VORTAC*273.00"
	},
	{
		"name": "GAYEV",
		"latitude": "36-48-48.09 N",
		"longitude": "89-36-32.54 W",
		"state": "MISSOURI",
		"artcc": "ZME",
		"type": "RNAV",
		"updated": "05/17/2013"
	},
	{
		"name": "GDOGG",
		"latitude": "36-45-31.24 N",
		"longitude": "86-44-30.06 W",
		"state": "KENTUCKY",
		"artcc": "ZME",
		"type": "RNAV",
		"updated": "09/17/2012"
	},
	{
		"name": "GDSTF",
		"latitude": "36-3-35 N",
		"longitude": "86-52-42.77 W",
		"state": "TENNESSEE",
		"artcc": "ZME",
		"type": "RNAV",
		"updated": "06/19/2014"
	},
	{
		"name": "GEEYY",
		"latitude": "34-50-11.79 N",
		"longitude": "91-10-47.67 W",
		"state": "ARKANSAS",
		"artcc": "ZME",
		"type": "RNAV",
		"updated": "05/06/2011"
	},
	{
		"name": "GEKEF",
		"latitude": "34-57-41.81 N",
		"longitude": "85-38-27.27 W",
		"state": "TENNESSEE",
		"artcc": "ZME",
		"type": "RNAV",
		"updated": "01/04/2007"
	},
	{
		"name": "GELME",
		"latitude": "36-47-36.49 N",
		"longitude": "88-10-56.43 W",
		"state": "KENTUCKY",
		"artcc": "ZME",
		"type": "RNAV",
		"updated": "10/25/2011"
	},
	{
		"name": "GENDE",
		"latitude": "34-48-23.43 N",
		"longitude": "86-49-29.9 W",
		"state": "ALABAMA",
		"artcc": "ZME",
		"type": "RNAV",
		"updated": "09/22/2012"
	},
	{
		"name": "GENEH",
		"latitude": "35-31-25.02 N",
		"longitude": "89-20-13.03 W",
		"state": "TENNESSEE",
		"artcc": "ZME",
		"type": "RNAV",
		"updated": "02/01/2012"
	},
	{
		"name": "GENET",
		"latitude": "36-14-19.55 N",
		"longitude": "94-26-8.5 W",
		"state": "ARKANSAS",
		"artcc": "ZME",
		"type": "RP",
		"updated": "EOS*VOR/DME*173.00"
	},
	{
		"name": "GENRE",
		"latitude": "35-51-34.07 N",
		"longitude": "89-56-38.24 W",
		"state": "ARKANSAS",
		"artcc": "ZME",
		"type": "RNAV",
		"updated": "11/03/2014"
	},
	{
		"name": "GENTE",
		"latitude": "36-58-4.53 N",
		"longitude": "89-56-0.18 W",
		"state": "MISSOURI",
		"artcc": "ZME",
		"type": "RNAV",
		"updated": "06/12/2008"
	},
	{
		"name": "GEPDE",
		"latitude": "34-35-52.07 N",
		"longitude": "86-45-59.67 W",
		"state": "ALABAMA",
		"artcc": "ZME",
		"type": "RP",
		"updated": "DCU*VOR/DME*110.41"
	},
	{
		"name": "GERZU",
		"latitude": "35-12-29.12 N",
		"longitude": "87-6-4.24 W",
		"state": "TENNESSEE",
		"artcc": "ZME",
		"type": "CN",
		"updated": "10/06/2000"
	},
	{
		"name": "GETEC",
		"latitude": "34-46-5.27 N",
		"longitude": "86-46-47.22 W",
		"state": "ALABAMA",
		"artcc": "ZME",
		"type": "RP",
		"updated": "DCU*VOR/DME*048.71"
	},
	{
		"name": "GETGE",
		"latitude": "32-57-38.32 N",
		"longitude": "91-50-54.71 W",
		"state": "LOUISIANA",
		"artcc": "ZME",
		"type": "RNAV",
		"updated": "07/16/2008"
	},
	{
		"name": "GETTY",
		"latitude": "34-39-2.83 N",
		"longitude": "92-18-31.39 W",
		"state": "ARKANSAS",
		"artcc": "ZME",
		"type": "RP",
		"updated": "LIT*VORTAC*250.79"
	},
	{
		"name": "GETVE",
		"latitude": "34-56-32.21 N",
		"longitude": "92-1-7.88 W",
		"state": "ARKANSAS",
		"artcc": "ZME",
		"type": "MR",
		"updated": "LRF*TACAN*077.00/7.00"
	},
	{
		"name": "GEYSE",
		"latitude": "34-36-24.06 N",
		"longitude": "91-40-51.2 W",
		"state": "ARKANSAS",
		"artcc": "ZME",
		"type": "RNAV",
		"updated": "07/25/2005"
	},
	{
		"name": "GEYTE",
		"latitude": "36-19-19.89 N",
		"longitude": "92-42-36.56 W",
		"state": "ARKANSAS",
		"artcc": "ZME",
		"type": "RNAV",
		"updated": "08/04/2006"
	},
	{
		"name": "GHYLL",
		"latitude": "35-28-9.77 N",
		"longitude": "92-16-44.33 W",
		"state": "ARKANSAS",
		"artcc": "ZME",
		"type": "RNAV",
		"updated": "06/03/2016"
	},
	{
		"name": "GICEB",
		"latitude": "36-40-53.95 N",
		"longitude": "87-13-9.33 W",
		"state": "KENTUCKY",
		"artcc": "ZME",
		"type": "RNAV",
		"updated": "07/21/2016"
	},
	{
		"name": "GICEG",
		"latitude": "34-54-2.99 N",
		"longitude": "85-46-56.04 W",
		"state": "ALABAMA",
		"artcc": "ZME",
		"type": "RNAV",
		"updated": "01/04/2007"
	},
	{
		"name": "GIGLS",
		"latitude": "35-54-29.46 N",
		"longitude": "94-6-40.35 W",
		"state": "ARKANSAS",
		"artcc": "ZME",
		"type": "RP",
		"updated": "DAK*VOR/DME*145.45/9.10"
	},
	{
		"name": "GILLE",
		"latitude": "35-0-26.05 N",
		"longitude": "87-28-51.68 W",
		"state": "ALABAMA",
		"artcc": "ZME",
		"type": "RP",
		"updated": "MSL*VORTAC*000.64/18.00"
	},
	{
		"name": "GILME",
		"latitude": "36-4-21.5 N",
		"longitude": "86-45-19.98 W",
		"state": "TENNESSEE",
		"artcc": "ZME",
		"type": "RNAV",
		"updated": "09/19/2012"
	},
	{
		"name": "GINIE",
		"latitude": "34-56-28.91 N",
		"longitude": "89-58-25.65 W",
		"state": "MISSISSIPPI",
		"artcc": "ZME",
		"type": "RP",
		"updated": "TSE*LD*180.01/6.88"
	},
	{
		"name": "GIRME",
		"latitude": "36-57-54.4 N",
		"longitude": "86-11-58.12 W",
		"state": "KENTUCKY",
		"artcc": "ZME",
		"type": "RNAV",
		"updated": "04/26/2012"
	},
	{
		"name": "GITCE",
		"latitude": "35-17-25.81 N",
		"longitude": "86-14-38.02 W",
		"state": "TENNESSEE",
		"artcc": "ZME",
		"type": "CN",
		"updated": "10/10/2000"
	},
	{
		"name": "GIXGO",
		"latitude": "35-30-57.96 N",
		"longitude": "89-36-1.14 W",
		"state": "TENNESSEE",
		"artcc": "ZME",
		"type": "RNAV",
		"updated": "09/14/2009"
	},
	{
		"name": "GIYEY",
		"latitude": "36-11-33.02 N",
		"longitude": "89-0-41.38 W",
		"state": "TENNESSEE",
		"artcc": "ZME",
		"type": "RNAV",
		"updated": "11/10/2005"
	},
	{
		"name": "GLIPP",
		"latitude": "35-30-48.65 N",
		"longitude": "88-57-29.43 W",
		"state": "TENNESSEE",
		"artcc": "ZME",
		"type": "RNAV",
		"updated": "04/01/2009"
	},
	{
		"name": "GMBLR",
		"latitude": "35-13-20.01 N",
		"longitude": "90-0-40.58 W",
		"state": "TENNESSEE",
		"artcc": "ZME",
		"type": "RNAV",
		"updated": "02/01/2012"
	},
	{
		"name": "GMBUD",
		"latitude": "34-42-35.35 N",
		"longitude": "89-15-45.69 W",
		"state": "MISSISSIPPI",
		"artcc": "ZME",
		"type": "RNAV",
		"updated": "02/11/2012"
	},
	{
		"name": "GNSHP",
		"latitude": "36-53-4.93 N",
		"longitude": "87-19-29.97 W",
		"state": "KENTUCKY",
		"artcc": "ZME",
		"type": "MR",
		"updated": "CCT*VORTAC*186.65/29.97"
	},
	{
		"name": "GOBLE",
		"latitude": "35-14-46.33 N",
		"longitude": "89-58-48.73 W",
		"state": "TENNESSEE",
		"artcc": "ZME",
		"type": "RP",
		"updated": "HLI*VORTAC*317.24/37.16"
	},
	{
		"name": "GOCCI",
		"latitude": "34-46-50.61 N",
		"longitude": "87-31-34.67 W",
		"state": "ALABAMA",
		"artcc": "ZME",
		"type": "RNAV",
		"updated": "08/01/2012"
	},
	{
		"name": "GOETZ",
		"latitude": "35-14-2.7 N",
		"longitude": "89-9-4.18 W",
		"state": "TENNESSEE",
		"artcc": "ZME",
		"type": "RNAV",
		"updated": "02/01/2012"
	},
	{
		"name": "GOFSH",
		"latitude": "36-19-8.25 N",
		"longitude": "92-32-56.05 W",
		"state": "ARKANSAS",
		"artcc": "ZME",
		"type": "RP",
		"updated": "BPK*LD*SW CRS/5.33"
	},
	{
		"name": "GOGEC",
		"latitude": "37-15-1.08 N",
		"longitude": "89-40-59.59 W",
		"state": "MISSOURI",
		"artcc": "ZME",
		"type": "RNAV",
		"updated": "04/19/2013"
	},
	{
		"name": "GOGTE",
		"latitude": "36-19-10.04 N",
		"longitude": "86-35-5.57 W",
		"state": "TENNESSEE",
		"artcc": "ZME",
		"type": "RNAV",
		"updated": "05/06/2016"
	},
	{
		"name": "GOHBU",
		"latitude": "33-23-27.89 N",
		"longitude": "90-58-55.52 W",
		"state": "MISSISSIPPI",
		"artcc": "ZME",
		"type": "RNAV",
		"updated": "01/14/2009"
	},
	{
		"name": "GOLME",
		"latitude": "36-25-23.51 N",
		"longitude": "86-25-4 W",
		"state": "TENNESSEE",
		"artcc": "ZME",
		"type": "RNAV",
		"updated": "10/11/2011"
	},
	{
		"name": "GOMAZ",
		"latitude": "33-38-27.2 N",
		"longitude": "88-50-16.2 W",
		"state": "MISSISSIPPI",
		"artcc": "ZME",
		"type": "MR",
		"updated": "CBM*VORTAC*270.00/20.00"
	},
	{
		"name": "GOOGY",
		"latitude": "34-1-38.41 N",
		"longitude": "87-41-31.45 W",
		"state": "ALABAMA",
		"artcc": "ZME",
		"type": "RNAV",
		"updated": "05/06/2011"
	},
	{
		"name": "GOPRE",
		"latitude": "35-3-3.12 N",
		"longitude": "92-28-42.68 W",
		"state": "ARKANSAS",
		"artcc": "ZME",
		"type": "RNAV",
		"updated": "12/27/2007"
	},
	{
		"name": "GOSBE",
		"latitude": "34-41-19.95 N",
		"longitude": "94-12-0.75 W",
		"state": "ARKANSAS",
		"artcc": "ZME",
		"type": "RNAV",
		"updated": "05/21/2003"
	},
	{
		"name": "GOSEY",
		"latitude": "35-1-48.45 N",
		"longitude": "88-27-37.37 W",
		"state": "TENNESSEE",
		"artcc": "ZME",
		"type": "RNAV",
		"updated": "12/05/2013"
	},
	{
		"name": "GOSLR",
		"latitude": "36-8-49.53 N",
		"longitude": "85-30-39.89 W",
		"state": "TENNESSEE",
		"artcc": "ZME",
		"type": "RNAV",
		"updated": "01/27/2016"
	},
	{
		"name": "GOSRE",
		"latitude": "34-50-25.85 N",
		"longitude": "94-45-42.18 W",
		"state": "OKLAHOMA",
		"artcc": "ZME",
		"type": "RNAV",
		"updated": "06/30/2003"
	},
	{
		"name": "GOSTE",
		"latitude": "36-47-57.66 N",
		"longitude": "89-59-26.88 W",
		"state": "MISSOURI",
		"artcc": "ZME",
		"type": "RNAV",
		"updated": "09/03/2009"
	},
	{
		"name": "GOVNE",
		"latitude": "33-38-29.51 N",
		"longitude": "88-28-6.66 W",
		"state": "MISSISSIPPI",
		"artcc": "ZME",
		"type": "MR",
		"updated": "CBM*VORTAC*270.00/1.50"
	},
	{
		"name": "GOWRI",
		"latitude": "35-5-34.4 N",
		"longitude": "90-18-54.39 W",
		"state": "ARKANSAS",
		"artcc": "ZME",
		"type": "RP",
		"updated": "GQE*VOR/DME*148.19"
	},
	{
		"name": "GOZAX",
		"latitude": "32-25-2.64 N",
		"longitude": "88-44-13.94 W",
		"state": "MISSISSIPPI",
		"artcc": "ZME",
		"type": "RP",
		"updated": "MEI*VORTAC*050.58"
	},
	{
		"name": "GRAMA",
		"latitude": "35-38-23.64 N",
		"longitude": "86-28-32.88 W",
		"state": "TENNESSEE",
		"artcc": "ZME",
		"type": "RP",
		"updated": "SYI*VOR/DME*340.00/5.00"
	},
	{
		"name": "GRAYD",
		"latitude": "34-57-33 N",
		"longitude": "92-0-12 W",
		"state": "ARKANSAS",
		"artcc": "ZME",
		"type": "RNAV",
		"updated": "04/09/2013"
	},
	{
		"name": "GRCHN",
		"latitude": "35-47-21.09 N",
		"longitude": "87-2-49.67 W",
		"state": "TENNESSEE",
		"artcc": "ZME",
		"type": "RNAV",
		"updated": "09/17/2012"
	},
	{
		"name": "GREEM",
		"latitude": "36-18-5.55 N",
		"longitude": "93-25-59.67 W",
		"state": "ARKANSAS",
		"artcc": "ZME",
		"type": "RP",
		"updated": "DGD*VORTAC*211.00"
	},
	{
		"name": "GRIIN",
		"latitude": "33-14-22.78 N",
		"longitude": "88-6-58.79 W",
		"state": "ALABAMA",
		"artcc": "ZME",
		"type": "MR",
		"updated": "CBM*VORTAC*146.00/29.00"
	},
	{
		"name": "GRILL",
		"latitude": "36-11-8.53 N",
		"longitude": "85-40-8.09 W",
		"state": "TENNESSEE",
		"artcc": "ZME",
		"type": "RP",
		"updated": "LVT*VOR/DME*227.67/34.10"
	},
	{
		"name": "GRRIZ",
		"latitude": "35-41-44.32 N",
		"longitude": "90-19-13.7 W",
		"state": "ARKANSAS",
		"artcc": "ZME",
		"type": "RNAV",
		"updated": "01/11/2012"
	},
	{
		"name": "GRRTH",
		"latitude": "36-0-36.27 N",
		"longitude": "86-43-30.75 W",
		"state": "TENNESSEE",
		"artcc": "ZME",
		"type": "RP",
		"updated": "BNA*VORTAC*/7.85"
	},
	{
		"name": "GUBEC",
		"latitude": "33-36-28.66 N",
		"longitude": "90-19-41.65 W",
		"state": "MISSISSIPPI",
		"artcc": "ZME",
		"type": "RP",
		"updated": "SQS*VORTAC*340.54/9.00"
	},
	{
		"name": "GUBFO",
		"latitude": "35-55-9.13 N",
		"longitude": "90-55-24.43 W",
		"state": "ARKANSAS",
		"artcc": "ZME",
		"type": "RNAV",
		"updated": "08/19/2011"
	},
	{
		"name": "GUBRE",
		"latitude": "33-15-57.3 N",
		"longitude": "87-42-13.49 W",
		"state": "ALABAMA",
		"artcc": "ZME",
		"type": "RNAV",
		"updated": "02/12/2008"
	},
	{
		"name": "GUCEY",
		"latitude": "33-17-51.31 N",
		"longitude": "89-50-21.27 W",
		"state": "MISSISSIPPI",
		"artcc": "ZME",
		"type": "RNAV",
		"updated": "11/15/2012"
	},
	{
		"name": "GUDRE",
		"latitude": "32-57-4.19 N",
		"longitude": "89-23-24.46 W",
		"state": "MISSISSIPPI",
		"artcc": "ZME",
		"type": "RNAV",
		"updated": "03/07/2005"
	},
	{
		"name": "GUGLE",
		"latitude": "33-40-55.02 N",
		"longitude": "88-30-52.42 W",
		"state": "MISSISSIPPI",
		"artcc": "ZME",
		"type": "RNAV",
		"updated": "04/17/2018"
	},
	{
		"name": "GUGWA",
		"latitude": "32-24-58.83 N",
		"longitude": "90-15-37.58 W",
		"state": "MISSISSIPPI",
		"artcc": "ZME",
		"type": "RNAV",
		"updated": "11/03/2013"
	},
	{
		"name": "GUITR",
		"latitude": "36-28-43.54 N",
		"longitude": "85-58-34.18 W",
		"state": "TENNESSEE",
		"artcc": "ZME",
		"type": "RP",
		"updated": "BWG*VORTAC*137.96"
	},
	{
		"name": "GULCO",
		"latitude": "31-36-13.83 N",
		"longitude": "89-5-29.48 W",
		"state": "MISSISSIPPI",
		"artcc": "ZME",
		"type": "RNAV",
		"updated": "11/30/2012"
	},
	{
		"name": "GUMMM",
		"latitude": "33-14-44.08 N",
		"longitude": "89-5-0.12 W",
		"state": "MISSISSIPPI",
		"artcc": "ZME",
		"type": "RNAV",
		"updated": "12/17/2015"
	},
	{
		"name": "GUNBE",
		"latitude": "36-36-31.86 N",
		"longitude": "87-25-57.79 W",
		"state": "TENNESSEE",
		"artcc": "ZME",
		"type": "MW",
		"updated": "04/08/2009"
	},
	{
		"name": "GUNKE",
		"latitude": "33-38-10.05 N",
		"longitude": "89-37-5.62 W",
		"state": "MISSISSIPPI",
		"artcc": "ZME",
		"type": "RNAV",
		"updated": "11/15/2012"
	},
	{
		"name": "GUPME",
		"latitude": "35-40-33.98 N",
		"longitude": "92-10-7.75 W",
		"state": "ARKANSAS",
		"artcc": "ZME",
		"type": "RNAV",
		"updated": "01/29/2002"
	},
	{
		"name": "GURLY",
		"latitude": "36-4-8.95 N",
		"longitude": "89-56-38.23 W",
		"state": "MISSOURI",
		"artcc": "ZME",
		"type": "RP",
		"updated": "DYR*VORTAC*272.87/30.62"
	},
	{
		"name": "GURME",
		"latitude": "33-36-49.8 N",
		"longitude": "88-24-57.14 W",
		"state": "MISSISSIPPI",
		"artcc": "ZME",
		"type": "MR",
		"updated": "CNM*VORTAC*145.56/2.01"
	},
	{
		"name": "GUVRE",
		"latitude": "34-11-13.66 N",
		"longitude": "90-18-20.88 W",
		"state": "MISSISSIPPI",
		"artcc": "ZME",
		"type": "RNAV",
		"updated": "09/09/2013"
	},
	{
		"name": "GUYEK",
		"latitude": "36-11-28.65 N",
		"longitude": "86-39-9.84 W",
		"state": "TENNESSEE",
		"artcc": "ZME",
		"type": "RNAV",
		"updated": "07/09/2009"
	}
]
