[
	{
		"name": "HAAWK",
		"latitude": "35-16-2.56 N",
		"longitude": "93-7-27 W",
		"state": "ARKANSAS",
		"artcc": "ZME",
		"type": "RP",
		"updated": "HOT*VOR/DME*354.00"
	},
	{
		"name": "HABAN",
		"latitude": "37-0-28.49 N",
		"longitude": "88-50-8.67 W",
		"state": "KENTUCKY",
		"artcc": "ZME",
		"type": "RNAV",
		"updated": "06/20/2012"
	},
	{
		"name": "HABJE",
		"latitude": "32-23-32.11 N",
		"longitude": "89-5-56.57 W",
		"state": "MISSISSIPPI",
		"artcc": "ZME",
		"type": "RP",
		"updated": "MEI*VORTAC*268.24/15.00"
	},
	{
		"name": "HABKA",
		"latitude": "33-37-34.7 N",
		"longitude": "88-25-25.56 W",
		"state": "MISSISSIPPI",
		"artcc": "ZME",
		"type": "MW",
		"updated": "08/04/2016"
	},
	{
		"name": "HABSI",
		"latitude": "35-45-33.54 N",
		"longitude": "89-56-38.24 W",
		"state": "ARKANSAS",
		"artcc": "ZME",
		"type": "RNAV",
		"updated": "11/03/2014"
	},
	{
		"name": "HABUB",
		"latitude": "35-45-8.13 N",
		"longitude": "86-55-24.66 W",
		"state": "TENNESSEE",
		"artcc": "ZME",
		"type": "RNAV",
		"updated": "06/24/2011"
	},
	{
		"name": "HACHE",
		"latitude": "35-17-4.71 N",
		"longitude": "89-40-16.99 W",
		"state": "TENNESSEE",
		"artcc": "ZME",
		"type": "RNAV",
		"updated": "06/16/2011"
	},
	{
		"name": "HACKE",
		"latitude": "34-21-50.56 N",
		"longitude": "87-34-49.27 W",
		"state": "ALABAMA",
		"artcc": "ZME",
		"type": "RP",
		"updated": "MSL*VORTAC*191.12/21.00"
	},
	{
		"name": "HADAG",
		"latitude": "34-53-17.03 N",
		"longitude": "88-53-25.96 W",
		"state": "MISSISSIPPI",
		"artcc": "ZME",
		"type": "RNAV",
		"updated": "12/08/2006"
	},
	{
		"name": "HADAN",
		"latitude": "34-49-6.42 N",
		"longitude": "89-58-5.08 W",
		"state": "MISSISSIPPI",
		"artcc": "ZME",
		"type": "RP",
		"updated": "MYO*LD*180.00/13.97"
	},
	{
		"name": "HADEM",
		"latitude": "36-3-31.43 N",
		"longitude": "93-10-44.41 W",
		"state": "ARKANSAS",
		"artcc": "ZME",
		"type": "RNAV",
		"updated": "01/20/2009"
	},
	{
		"name": "HADES",
		"latitude": "35-8-37.75 N",
		"longitude": "94-23-19.52 W",
		"state": "ARKANSAS",
		"artcc": "ZME",
		"type": "RP",
		"updated": "OKM*VOR/DME*106.00"
	},
	{
		"name": "HADIT",
		"latitude": "36-59-15.21 N",
		"longitude": "89-33-41.75 W",
		"state": "MISSOURI",
		"artcc": "ZME",
		"type": "RP",
		"updated": "CHQ*NDB*312.97"
	},
	{
		"name": "HADRO",
		"latitude": "35-6-56.17 N",
		"longitude": "88-43-59.96 W",
		"state": "TENNESSEE",
		"artcc": "ZME",
		"type": "RNAV",
		"updated": "12/28/2007"
	},
	{
		"name": "HADSO",
		"latitude": "35-4-3.72 N",
		"longitude": "89-51-38.69 W",
		"state": "TENNESSEE",
		"artcc": "ZME",
		"type": "RNAV",
		"updated": "12/05/2013"
	},
	{
		"name": "HAGIE",
		"latitude": "34-42-25.87 N",
		"longitude": "87-29-29.76 W",
		"state": "ALABAMA",
		"artcc": "ZME",
		"type": "RNAV",
		"updated": "09/18/2012"
	},
	{
		"name": "HAGNO",
		"latitude": "36-34-5.77 N",
		"longitude": "86-26-46.06 W",
		"state": "TENNESSEE",
		"artcc": "ZME",
		"type": "RNAV",
		"updated": "08/27/2003"
	},
	{
		"name": "HAGRI",
		"latitude": "34-44-25.48 N",
		"longitude": "92-25-25.22 W",
		"state": "ARKANSAS",
		"artcc": "ZME",
		"type": "RNAV",
		"updated": "09/15/2008"
	},
	{
		"name": "HAGUN",
		"latitude": "34-59-4.02 N",
		"longitude": "91-54-24.2 W",
		"state": "ARKANSAS",
		"artcc": "ZME",
		"type": "MR",
		"updated": "LRF*TACAN*071.12/13.00"
	},
	{
		"name": "HAINS",
		"latitude": "37-7-8.03 N",
		"longitude": "89-15-53.48 W",
		"state": "ILLINOIS",
		"artcc": "ZME",
		"type": "RP",
		"updated": "CIR*NDB*330.00"
	},
	{
		"name": "HAKAT",
		"latitude": "36-17-0 N",
		"longitude": "91-4-0 W",
		"state": "ARKANSAS",
		"artcc": "ZME",
		"type": "RNAV",
		"updated": "02/16/2006"
	},
	{
		"name": "HAKUM",
		"latitude": "36-3-31.32 N",
		"longitude": "86-34-52.09 W",
		"state": "TENNESSEE",
		"artcc": "ZME",
		"type": "RNAV",
		"updated": "09/24/2012"
	},
	{
		"name": "HALEC",
		"latitude": "34-1-43.45 N",
		"longitude": "88-0-6.09 W",
		"state": "ALABAMA",
		"artcc": "ZME",
		"type": "RNAV",
		"updated": "05/05/2009"
	},
	{
		"name": "HALES",
		"latitude": "34-50-45.33 N",
		"longitude": "88-46-30.2 W",
		"state": "MISSISSIPPI",
		"artcc": "ZME",
		"type": "WP",
		"updated": "HLI*VORTAC*079.60/35.90"
	},
	{
		"name": "HALET",
		"latitude": "35-0-20.78 N",
		"longitude": "85-32-37.07 W",
		"state": "TENNESSEE",
		"artcc": "ZME",
		"type": "RP",
		"updated": "HCH*VOR/DME*213.00"
	},
	{
		"name": "HAMIV",
		"latitude": "37-25-31.49 N",
		"longitude": "87-51-15.68 W",
		"state": "KENTUCKY",
		"artcc": "ZME",
		"type": "RNAV",
		"updated": "01/10/2013"
	},
	{
		"name": "HAMPT",
		"latitude": "33-33-3.41 N",
		"longitude": "92-30-10.86 W",
		"state": "ARKANSAS",
		"artcc": "ZME",
		"type": "RP",
		"updated": "ELD*VOR/DME*027.36/21.40"
	},
	{
		"name": "HANDI",
		"latitude": "36-24-30.31 N",
		"longitude": "89-39-17.66 W",
		"state": "MISSOURI",
		"artcc": "ZME",
		"type": "RP",
		"updated": "MEM*VORTAC*009.78/85.00"
	},
	{
		"name": "HANLO",
		"latitude": "35-4-44.71 N",
		"longitude": "89-58-24.95 W",
		"state": "TENNESSEE",
		"artcc": "ZME",
		"type": "RNAV",
		"updated": "08/01/2001"
	},
	{
		"name": "HANNS",
		"latitude": "36-14-49.19 N",
		"longitude": "92-39-4.62 W",
		"state": "ARKANSAS",
		"artcc": "ZME",
		"type": "WP",
		"updated": "FLP*VOR/DME*248.43/9.88"
	},
	{
		"name": "HANOP",
		"latitude": "33-29-1.92 N",
		"longitude": "88-46-21.56 W",
		"state": "MISSISSIPPI",
		"artcc": "ZME",
		"type": "RP",
		"updated": "OTB*VOR/DME*174.40/44.34"
	},
	{
		"name": "HANOV",
		"latitude": "36-2-6.64 N",
		"longitude": "87-47-48.73 W",
		"state": "TENNESSEE",
		"artcc": "ZME",
		"type": "RNAV",
		"updated": "05/02/2011"
	},
	{
		"name": "HANUK",
		"latitude": "35-16-21.04 N",
		"longitude": "94-34-7.24 W",
		"state": "OKLAHOMA",
		"artcc": "ZME",
		"type": "RNAV",
		"updated": "06/30/2003"
	},
	{
		"name": "HAPAN",
		"latitude": "32-20-50.13 N",
		"longitude": "90-5-39.48 W",
		"state": "MISSISSIPPI",
		"artcc": "ZME",
		"type": "RNAV",
		"updated": "11/30/2012"
	},
	{
		"name": "HAPIK",
		"latitude": "34-55-8.69 N",
		"longitude": "94-38-33.54 W",
		"state": "OKLAHOMA",
		"artcc": "ZME",
		"type": "RNAV",
		"updated": "06/30/2003"
	},
	{
		"name": "HAPOD",
		"latitude": "36-5-13.3 N",
		"longitude": "94-7-58.6 W",
		"state": "ARKANSAS",
		"artcc": "ZME",
		"type": "RNAV",
		"updated": "06/13/2002"
	},
	{
		"name": "HARAG",
		"latitude": "32-25-3.44 N",
		"longitude": "90-7-13.27 W",
		"state": "MISSISSIPPI",
		"artcc": "ZME",
		"type": "RNAV",
		"updated": "07/18/2013"
	},
	{
		"name": "HARES",
		"latitude": "33-0-0 N",
		"longitude": "91-44-0 W",
		"state": "LOUISIANA",
		"artcc": "ZME",
		"type": "RNAV",
		"updated": "05/23/2006"
	},
	{
		"name": "HARET",
		"latitude": "36-19-16.57 N",
		"longitude": "87-48-4.31 W",
		"state": "TENNESSEE",
		"artcc": "ZME",
		"type": "RNAV",
		"updated": "06/14/2012"
	},
	{
		"name": "HAREX",
		"latitude": "35-55-38.21 N",
		"longitude": "85-55-18.84 W",
		"state": "TENNESSEE",
		"artcc": "ZME",
		"type": "RNAV",
		"updated": "04/17/2013"
	},
	{
		"name": "HARIB",
		"latitude": "36-11-26.08 N",
		"longitude": "90-46-2.55 W",
		"state": "ARKANSAS",
		"artcc": "ZME",
		"type": "RP",
		"updated": "ARG*VORTAC*057.87/10.26"
	},
	{
		"name": "HARKS",
		"latitude": "36-31-21.48 N",
		"longitude": "93-41-3.7 W",
		"state": "MISSOURI",
		"artcc": "ZME",
		"type": "RP",
		"updated": "RZC*VORTAC*047.86/26.87"
	},
	{
		"name": "HARME",
		"latitude": "36-19-45.43 N",
		"longitude": "86-2-33.04 W",
		"state": "TENNESSEE",
		"artcc": "ZME",
		"type": "RP",
		"updated": "BNA*VORTAC*071.53/33.24"
	},
	{
		"name": "HARNN",
		"latitude": "33-55-53.5 N",
		"longitude": "88-8-29.72 W",
		"state": "ALABAMA",
		"artcc": "ZME",
		"type": "RNAV",
		"updated": "06/14/2010"
	},
	{
		"name": "HARUB",
		"latitude": "35-2-3.47 N",
		"longitude": "89-59-13.62 W",
		"state": "TENNESSEE",
		"artcc": "ZME",
		"type": "RNAV",
		"updated": "05/28/2009"
	},
	{
		"name": "HARYY",
		"latitude": "35-27-13.35 N",
		"longitude": "93-10-51.33 W",
		"state": "ARKANSAS",
		"artcc": "ZME",
		"type": "RNAV",
		"updated": "10/14/2004"
	},
	{
		"name": "HASEL",
		"latitude": "34-31-9.23 N",
		"longitude": "86-56-3.15 W",
		"state": "ALABAMA",
		"artcc": "ZME",
		"type": "RP",
		"updated": "DCU*VOR/DME*179.06/7.74"
	},
	{
		"name": "HASIK",
		"latitude": "35-44-45.81 N",
		"longitude": "92-13-28.68 W",
		"state": "ARKANSAS",
		"artcc": "ZME",
		"type": "RNAV",
		"updated": "01/29/2002"
	},
	{
		"name": "HATAS",
		"latitude": "34-49-47.74 N",
		"longitude": "86-37-32.17 W",
		"state": "ALABAMA",
		"artcc": "ZME",
		"type": "RP",
		"updated": "RQZ*VORTAC*009.75/2.00"
	},
	{
		"name": "HATGO",
		"latitude": "36-6-53.74 N",
		"longitude": "94-8-59.87 W",
		"state": "ARKANSAS",
		"artcc": "ZME",
		"type": "RP",
		"updated": "RZC*VORTAC*186.00/8.00"
	},
	{
		"name": "HATOP",
		"latitude": "35-58-47.51 N",
		"longitude": "90-9-14.54 W",
		"state": "ARKANSAS",
		"artcc": "ZME",
		"type": "RNAV",
		"updated": "08/06/2013"
	},
	{
		"name": "HAXOD",
		"latitude": "35-50-34.61 N",
		"longitude": "91-25-12.25 W",
		"state": "ARKANSAS",
		"artcc": "ZME",
		"type": "RNAV",
		"updated": "09/19/2010"
	},
	{
		"name": "HEADY",
		"latitude": "34-32-13.43 N",
		"longitude": "93-29-45.58 W",
		"state": "ARKANSAS",
		"artcc": "ZME",
		"type": "RP",
		"updated": "TXK*VORTAC*018.00"
	},
	{
		"name": "HEATE",
		"latitude": "36-45-55.2 N",
		"longitude": "87-33-28.64 W",
		"state": "KENTUCKY",
		"artcc": "ZME",
		"type": "RP",
		"updated": "FK*NDB*284.81"
	},
	{
		"name": "HEBVA",
		"latitude": "36-1-30.64 N",
		"longitude": "86-35-39.8 W",
		"state": "TENNESSEE",
		"artcc": "ZME",
		"type": "RNAV",
		"updated": "05/29/2014"
	},
	{
		"name": "HEDAX",
		"latitude": "34-9-43.66 N",
		"longitude": "89-56-4.37 W",
		"state": "MISSISSIPPI",
		"artcc": "ZME",
		"type": "RNAV",
		"updated": "07/15/2013"
	},
	{
		"name": "HEDDS",
		"latitude": "36-29-34.43 N",
		"longitude": "92-17-12.77 W",
		"state": "ARKANSAS",
		"artcc": "ZME",
		"type": "WP",
		"updated": "FLP*VOR/DME*032.61/14.25"
	},
	{
		"name": "HEDIM",
		"latitude": "35-13-58.83 N",
		"longitude": "90-13-59.88 W",
		"state": "ARKANSAS",
		"artcc": "ZME",
		"type": "RNAV",
		"updated": "12/17/2009"
	},
	{
		"name": "HEDUD",
		"latitude": "32-27-45.43 N",
		"longitude": "90-41-34.29 W",
		"state": "MISSISSIPPI",
		"artcc": "ZME",
		"type": "RP",
		"updated": "MHZ*VORTAC*274.41/30.16"
	},
	{
		"name": "HEERS",
		"latitude": "33-50-46.41 N",
		"longitude": "88-42-7.2 W",
		"state": "MISSISSIPPI",
		"artcc": "ZME",
		"type": "MR",
		"updated": "CBM*VORTAC*313.00/18.00"
	},
	{
		"name": "HEGEG",
		"latitude": "36-11-28.56 N",
		"longitude": "92-34-56.46 W",
		"state": "ARKANSAS",
		"artcc": "ZME",
		"type": "RNAV",
		"updated": "08/04/2006"
	},
	{
		"name": "HEGOG",
		"latitude": "33-9-20.67 N",
		"longitude": "91-22-17.67 W",
		"state": "ARKANSAS",
		"artcc": "ZME",
		"type": "RP",
		"updated": "GLH*VOR/DME*217.68/29.44"
	},
	{
		"name": "HEHAW",
		"latitude": "36-44-11.2 N",
		"longitude": "87-2-54.08 W",
		"state": "KENTUCKY",
		"artcc": "ZME",
		"type": "RP",
		"updated": "BWG*VORTAC*246.60"
	},
	{
		"name": "HEHKY",
		"latitude": "36-18-47.41 N",
		"longitude": "88-17-4.31 W",
		"state": "TENNESSEE",
		"artcc": "ZME",
		"type": "RNAV",
		"updated": "08/07/2013"
	},
	{
		"name": "HEIDI",
		"latitude": "36-10-54.79 N",
		"longitude": "88-26-18.76 W",
		"state": "TENNESSEE",
		"artcc": "ZME",
		"type": "RNAV",
		"updated": "08/07/2013"
	},
	{
		"name": "HELAR",
		"latitude": "35-1-28.23 N",
		"longitude": "90-51-20.54 W",
		"state": "ARKANSAS",
		"artcc": "ZME",
		"type": "RNAV",
		"updated": "09/30/2013"
	},
	{
		"name": "HELMS",
		"latitude": "36-3-20.27 N",
		"longitude": "89-55-58.47 W",
		"state": "MISSOURI",
		"artcc": "ZME",
		"type": "RP",
		"updated": "DYR*VORTAC*271.42"
	},
	{
		"name": "HEMBU",
		"latitude": "34-35-30.28 N",
		"longitude": "90-48-49.8 W",
		"state": "ARKANSAS",
		"artcc": "ZME",
		"type": "RNAV",
		"updated": "06/18/2013"
	},
	{
		"name": "HEMOR",
		"latitude": "36-8-5.85 N",
		"longitude": "90-15-53.61 W",
		"state": "ARKANSAS",
		"artcc": "ZME",
		"type": "RNAV",
		"updated": "12/22/2003"
	},
	{
		"name": "HENAR",
		"latitude": "35-28-35.39 N",
		"longitude": "92-32-34.99 W",
		"state": "ARKANSAS",
		"artcc": "ZME",
		"type": "RNAV",
		"updated": "09/11/2003"
	},
	{
		"name": "HENBO",
		"latitude": "35-29-54.64 N",
		"longitude": "90-2-43.21 W",
		"state": "TENNESSEE",
		"artcc": "ZME",
		"type": "RNAV",
		"updated": "06/16/2011"
	},
	{
		"name": "HENDE",
		"latitude": "35-27-38.85 N",
		"longitude": "93-16-57.88 W",
		"state": "ARKANSAS",
		"artcc": "ZME",
		"type": "RNAV",
		"updated": "10/14/2004"
	},
	{
		"name": "HENIR",
		"latitude": "34-55-32.36 N",
		"longitude": "89-50-25.95 W",
		"state": "MISSISSIPPI",
		"artcc": "ZME",
		"type": "RNAV",
		"updated": "02/11/2012"
	},
	{
		"name": "HENSY",
		"latitude": "35-20-7.47 N",
		"longitude": "89-4-49.21 W",
		"state": "TENNESSEE",
		"artcc": "ZME",
		"type": "RNAV",
		"updated": "05/12/2011"
	},
	{
		"name": "HENTO",
		"latitude": "37-0-6.1 N",
		"longitude": "86-3-53.71 W",
		"state": "KENTUCKY",
		"artcc": "ZME",
		"type": "RNAV",
		"updated": "04/26/2012"
	},
	{
		"name": "HEPDI",
		"latitude": "33-29-8.07 N",
		"longitude": "90-40-37.14 W",
		"state": "MISSISSIPPI",
		"artcc": "ZME",
		"type": "RP",
		"updated": "SQS*VORTAC*270.82/20.10"
	},
	{
		"name": "HEPEN",
		"latitude": "32-29-38.76 N",
		"longitude": "88-34-40.17 W",
		"state": "MISSISSIPPI",
		"artcc": "ZME",
		"type": "MW",
		"updated": "05/02/2016"
	},
	{
		"name": "HEPEV",
		"latitude": "37-11-57.49 N",
		"longitude": "89-27-29.07 W",
		"state": "ILLINOIS",
		"artcc": "ZME",
		"type": "RNAV",
		"updated": "04/23/2013"
	},
	{
		"name": "HEPLU",
		"latitude": "35-36-19.89 N",
		"longitude": "91-52-56.52 W",
		"state": "ARKANSAS",
		"artcc": "ZME",
		"type": "RNAV",
		"updated": "03/24/2010"
	},
	{
		"name": "HEPUL",
		"latitude": "36-5-59.16 N",
		"longitude": "90-44-54.18 W",
		"state": "ARKANSAS",
		"artcc": "ZME",
		"type": "RP",
		"updated": "ARG*VORTAC*089.46/10.00"
	},
	{
		"name": "HEPUM",
		"latitude": "36-24-21.05 N",
		"longitude": "89-49-8.32 W",
		"state": "MISSOURI",
		"artcc": "ZME",
		"type": "RP",
		"updated": "MAW*VORTAC*150.40/10.00"
	},
	{
		"name": "HERCK",
		"latitude": "35-7-23.62 N",
		"longitude": "92-14-37.18 W",
		"state": "ARKANSAS",
		"artcc": "ZME",
		"type": "MR",
		"updated": "LRF*TACAN*340.00/13.00"
	},
	{
		"name": "HEREG",
		"latitude": "34-35-23.26 N",
		"longitude": "86-47-0.1 W",
		"state": "ALABAMA",
		"artcc": "ZME",
		"type": "RP",
		"updated": "DCU*VOR/DME*115.34"
	},
	{
		"name": "HERID",
		"latitude": "34-18-59.57 N",
		"longitude": "92-19-31.97 W",
		"state": "ARKANSAS",
		"artcc": "ZME",
		"type": "RP",
		"updated": "LIT*VORTAC*193.43/22.79"
	},
	{
		"name": "HERIR",
		"latitude": "36-14-17.7 N",
		"longitude": "86-40-5.33 W",
		"state": "TENNESSEE",
		"artcc": "ZME",
		"type": "RNAV",
		"updated": "06/03/2014"
	},
	{
		"name": "HERNI",
		"latitude": "32-26-33.04 N",
		"longitude": "88-35-14.86 W",
		"state": "MISSISSIPPI",
		"artcc": "ZME",
		"type": "MW",
		"updated": "09/16/2009"
	},
	{
		"name": "HERSO",
		"latitude": "36-7-28.02 N",
		"longitude": "89-51-34.2 W",
		"state": "MISSOURI",
		"artcc": "ZME",
		"type": "RNAV",
		"updated": "03/04/2015"
	},
	{
		"name": "HESDO",
		"latitude": "32-23-0.7 N",
		"longitude": "91-1-41.71 W",
		"state": "LOUISIANA",
		"artcc": "ZME",
		"type": "RNAV",
		"updated": "07/29/2016"
	},
	{
		"name": "HESIG",
		"latitude": "35-6-29.48 N",
		"longitude": "87-1-42.65 W",
		"state": "TENNESSEE",
		"artcc": "ZME",
		"type": "RNAV",
		"updated": "09/27/2011"
	},
	{
		"name": "HESIK",
		"latitude": "36-40-45.55 N",
		"longitude": "90-14-17.78 W",
		"state": "MISSOURI",
		"artcc": "ZME",
		"type": "RNAV",
		"updated": "09/03/2009"
	},
	{
		"name": "HESIR",
		"latitude": "36-10-18.59 N",
		"longitude": "88-33-4.26 W",
		"state": "TENNESSEE",
		"artcc": "ZME",
		"type": "RNAV",
		"updated": "03/17/2010"
	},
	{
		"name": "HESKA",
		"latitude": "35-23-51.48 N",
		"longitude": "89-0-58.79 W",
		"state": "TENNESSEE",
		"artcc": "ZME",
		"type": "RNAV",
		"updated": "04/28/2009"
	},
	{
		"name": "HESLU",
		"latitude": "36-8-14.35 N",
		"longitude": "90-4-20.29 W",
		"state": "MISSOURI",
		"artcc": "ZME",
		"type": "RNAV",
		"updated": "01/27/2014"
	},
	{
		"name": "HETAP",
		"latitude": "36-18-59.01 N",
		"longitude": "86-5-9.15 W",
		"state": "TENNESSEE",
		"artcc": "ZME",
		"type": "RP",
		"updated": "BNA*VORTAC*071.53/31.00"
	},
	{
		"name": "HETED",
		"latitude": "35-32-12.72 N",
		"longitude": "93-10-20 W",
		"state": "ARKANSAS",
		"artcc": "ZME",
		"type": "RNAV",
		"updated": "10/14/2004"
	},
	{
		"name": "HEVAT",
		"latitude": "36-10-34.99 N",
		"longitude": "86-44-28.76 W",
		"state": "TENNESSEE",
		"artcc": "ZME",
		"type": "RNAV",
		"updated": "07/09/2009"
	},
	{
		"name": "HEVEG",
		"latitude": "31-44-27.12 N",
		"longitude": "90-14-8.89 W",
		"state": "MISSISSIPPI",
		"artcc": "ZME",
		"type": "RNAV",
		"updated": "11/06/2006"
	},
	{
		"name": "HEVPU",
		"latitude": "37-5-39.8 N",
		"longitude": "88-16-44.08 W",
		"state": "KENTUCKY",
		"artcc": "ZME",
		"type": "RNAV",
		"updated": "01/10/2013"
	},
	{
		"name": "HEVUX",
		"latitude": "36-13-57.7 N",
		"longitude": "91-42-23.52 W",
		"state": "ARKANSAS",
		"artcc": "ZME",
		"type": "RNAV",
		"updated": "01/04/2013"
	},
	{
		"name": "HEWED",
		"latitude": "33-28-14.81 N",
		"longitude": "89-52-44.27 W",
		"state": "MISSISSIPPI",
		"artcc": "ZME",
		"type": "WP",
		"updated": "SQS*VORTAC*040.70/14.00"
	},
	{
		"name": "HEXEX",
		"latitude": "35-13-40.73 N",
		"longitude": "85-21-42.75 W",
		"state": "TENNESSEE",
		"artcc": "ZME",
		"type": "RNAV",
		"updated": "08/11/2005"
	},
	{
		"name": "HEXIN",
		"latitude": "35-17-41.61 N",
		"longitude": "89-51-55.91 W",
		"state": "TENNESSEE",
		"artcc": "ZME",
		"type": "RNAV",
		"updated": "12/05/2013"
	},
	{
		"name": "HEXIP",
		"latitude": "35-32-35.88 N",
		"longitude": "91-44-41.85 W",
		"state": "ARKANSAS",
		"artcc": "ZME",
		"type": "RNAV",
		"updated": "09/01/2005"
	},
	{
		"name": "HGGRD",
		"latitude": "36-48-52.31 N",
		"longitude": "87-38-18.79 W",
		"state": "KENTUCKY",
		"artcc": "ZME",
		"type": "RNAV",
		"updated": "09/17/2012"
	},
	{
		"name": "HIBIG",
		"latitude": "34-55-52.4 N",
		"longitude": "90-12-35.13 W",
		"state": "MISSISSIPPI",
		"artcc": "ZME",
		"type": "RNAV",
		"updated": "03/24/2011"
	},
	{
		"name": "HIBIT",
		"latitude": "35-51-12.04 N",
		"longitude": "92-43-31.65 W",
		"state": "ARKANSAS",
		"artcc": "ZME",
		"type": "RNAV",
		"updated": "11/19/2015"
	},
	{
		"name": "HIDER",
		"latitude": "34-42-11.43 N",
		"longitude": "93-13-7.76 W",
		"state": "ARKANSAS",
		"artcc": "ZME",
		"type": "RP",
		"updated": "LIT*VORTAC*267.00"
	},
	{
		"name": "HIDOL",
		"latitude": "36-25-20.57 N",
		"longitude": "94-14-4.28 W",
		"state": "ARKANSAS",
		"artcc": "ZME",
		"type": "RNAV",
		"updated": "09/17/2015"
	},
	{
		"name": "HIGHS",
		"latitude": "34-51-18.71 N",
		"longitude": "92-4-5.26 W",
		"state": "ARKANSAS",
		"artcc": "ZME",
		"type": "RP",
		"updated": "LIT*VORTAC*022.55/12.00"
	},
	{
		"name": "HIGPU",
		"latitude": "32-22-34.28 N",
		"longitude": "90-6-2.11 W",
		"state": "MISSISSIPPI",
		"artcc": "ZME",
		"type": "RNAV",
		"updated": "07/18/2013"
	},
	{
		"name": "HIKBO",
		"latitude": "35-33-37.3 N",
		"longitude": "88-13-12.18 W",
		"state": "TENNESSEE",
		"artcc": "ZME",
		"type": "RNAV",
		"updated": "09/03/2015"
	},
	{
		"name": "HIKIE",
		"latitude": "37-6-8 N",
		"longitude": "89-8-56.1 W",
		"state": "ILLINOIS",
		"artcc": "ZME",
		"type": "RP",
		"updated": "MWA*VOR/DME*185.57"
	},
	{
		"name": "HIKIG",
		"latitude": "32-34-0.71 N",
		"longitude": "90-7-1.51 W",
		"state": "MISSISSIPPI",
		"artcc": "ZME",
		"type": "RP",
		"updated": "MHZ*VORTAC*354.69/8.00"
	},
	{
		"name": "HIKIN",
		"latitude": "34-57-4.94 N",
		"longitude": "92-1-27.12 W",
		"state": "ARKANSAS",
		"artcc": "ZME",
		"type": "MR",
		"updated": "LRF*TACAN*/6.88"
	},
	{
		"name": "HIKRY",
		"latitude": "36-18-28.81 N",
		"longitude": "86-36-42 W",
		"state": "TENNESSEE",
		"artcc": "ZME",
		"type": "RP",
		"updated": "BNA*VORTAC*/10.85"
	},
	{
		"name": "HILAM",
		"latitude": "37-12-0.7 N",
		"longitude": "88-36-22 W",
		"state": "ILLINOIS",
		"artcc": "ZME",
		"type": "RNAV",
		"updated": "07/21/2006"
	},
	{
		"name": "HILLE",
		"latitude": "35-6-18.19 N",
		"longitude": "91-6-13.8 W",
		"state": "ARKANSAS",
		"artcc": "ZME",
		"type": "RP",
		"updated": "GQE*VOR/DME*240.95/34.00"
	},
	{
		"name": "HILOS",
		"latitude": "36-14-12.15 N",
		"longitude": "86-37-4.53 W",
		"state": "TENNESSEE",
		"artcc": "ZME",
		"type": "RNAV",
		"updated": "09/18/2012"
	},
	{
		"name": "HILTY",
		"latitude": "36-40-30 N",
		"longitude": "92-14-6 W",
		"state": "MISSOURI",
		"artcc": "ZME",
		"type": "RNAV",
		"updated": "11/26/2002"
	},
	{
		"name": "HILUN",
		"latitude": "33-37-11.39 N",
		"longitude": "88-26-17.23 W",
		"state": "MISSISSIPPI",
		"artcc": "ZME",
		"type": "MR",
		"updated": "CBM*VORTAC*179.00/1.30"
	},
	{
		"name": "HIMAT",
		"latitude": "35-39-54.99 N",
		"longitude": "86-3-40.9 W",
		"state": "TENNESSEE",
		"artcc": "ZME",
		"type": "RNAV",
		"updated": "09/24/2012"
	},
	{
		"name": "HIMON",
		"latitude": "36-20-3.16 N",
		"longitude": "89-29-44.73 W",
		"state": "TENNESSEE",
		"artcc": "ZME",
		"type": "RNAV",
		"updated": "07/14/2009"
	},
	{
		"name": "HIMOP",
		"latitude": "33-11-1.47 N",
		"longitude": "91-30-23.06 W",
		"state": "ARKANSAS",
		"artcc": "ZME",
		"type": "RNAV",
		"updated": "12/23/2009"
	},
	{
		"name": "HINBO",
		"latitude": "33-33-27.9 N",
		"longitude": "91-48-38.34 W",
		"state": "ARKANSAS",
		"artcc": "ZME",
		"type": "RNAV",
		"updated": "12/29/2010"
	},
	{
		"name": "HINOX",
		"latitude": "34-36-35.2 N",
		"longitude": "91-48-7.71 W",
		"state": "ARKANSAS",
		"artcc": "ZME",
		"type": "RNAV",
		"updated": "07/25/2005"
	},
	{
		"name": "HIRAP",
		"latitude": "35-34-9.3 N",
		"longitude": "93-38-53.36 W",
		"state": "ARKANSAS",
		"artcc": "ZME",
		"type": "RNAV",
		"updated": "10/14/2004"
	},
	{
		"name": "HIRSU",
		"latitude": "32-30-25.4 N",
		"longitude": "90-18-7.76 W",
		"state": "MISSISSIPPI",
		"artcc": "ZME",
		"type": "RP",
		"updated": "MHZ*VORTAC*294.10"
	},
	{
		"name": "HISEP",
		"latitude": "36-39-2.02 N",
		"longitude": "88-26-15.87 W",
		"state": "KENTUCKY",
		"artcc": "ZME",
		"type": "RNAV",
		"updated": "01/13/2017"
	},
	{
		"name": "HISRU",
		"latitude": "37-5-41.56 N",
		"longitude": "89-15-6.04 W",
		"state": "ILLINOIS",
		"artcc": "ZME",
		"type": "RNAV",
		"updated": "04/26/2013"
	},
	{
		"name": "HITAV",
		"latitude": "33-42-20.14 N",
		"longitude": "90-45-19.37 W",
		"state": "MISSISSIPPI",
		"artcc": "ZME",
		"type": "RNAV",
		"updated": "06/09/2011"
	},
	{
		"name": "HITKI",
		"latitude": "34-55-30 N",
		"longitude": "92-7-4.85 W",
		"state": "ARKANSAS",
		"artcc": "ZME",
		"type": "MR",
		"updated": "LRF*TACAN*077.00/2.00"
	},
	{
		"name": "HITUD",
		"latitude": "36-48-51.04 N",
		"longitude": "87-28-27.22 W",
		"state": "KENTUCKY",
		"artcc": "ZME",
		"type": "RNAV",
		"updated": "04/18/2010"
	},
	{
		"name": "HIVBI",
		"latitude": "33-21-46.66 N",
		"longitude": "90-17-34.74 W",
		"state": "MISSISSIPPI",
		"artcc": "ZME",
		"type": "RNAV",
		"updated": "01/25/2013"
	},
	{
		"name": "HIVDA",
		"latitude": "34-40-13.81 N",
		"longitude": "90-40-36.45 W",
		"state": "ARKANSAS",
		"artcc": "ZME",
		"type": "RNAV",
		"updated": "11/30/2017"
	},
	{
		"name": "HIVNA",
		"latitude": "36-25-46.85 N",
		"longitude": "87-21-23.68 W",
		"state": "TENNESSEE",
		"artcc": "ZME",
		"type": "RNAV",
		"updated": "07/21/2016"
	},
	{
		"name": "HIVOM",
		"latitude": "35-17-46.7 N",
		"longitude": "94-21-33.4 W",
		"state": "ARKANSAS",
		"artcc": "ZME",
		"type": "MR",
		"updated": "FSM*VORTAC*211.00/7.00"
	},
	{
		"name": "HIVUS",
		"latitude": "35-8-55.04 N",
		"longitude": "90-17-49.27 W",
		"state": "ARKANSAS",
		"artcc": "ZME",
		"type": "RNAV",
		"updated": "01/11/2012"
	},
	{
		"name": "HNCOK",
		"latitude": "35-54-0.18 N",
		"longitude": "90-32-45.62 W",
		"state": "ARKANSAS",
		"artcc": "ZME",
		"type": "RP",
		"updated": "JBR*VOR/DME*053.98/2.56"
	},
	{
		"name": "HOAPE",
		"latitude": "33-30-46.91 N",
		"longitude": "88-11-47.01 W",
		"state": "ALABAMA",
		"artcc": "ZME",
		"type": "MR",
		"updated": "IGB*VORTAC*080.00/16.00"
	},
	{
		"name": "HOBAK",
		"latitude": "32-35-54.93 N",
		"longitude": "91-43-23.56 W",
		"state": "LOUISIANA",
		"artcc": "ZME",
		"type": "RNAV",
		"updated": "07/16/2008"
	},
	{
		"name": "HOBBI",
		"latitude": "34-27-58.43 N",
		"longitude": "86-40-40.39 W",
		"state": "ALABAMA",
		"artcc": "ZME",
		"type": "RP",
		"updated": "DCU*VOR/DME*131.00/16.94"
	},
	{
		"name": "HOBER",
		"latitude": "34-37-58.69 N",
		"longitude": "92-9-14.44 W",
		"state": "ARKANSAS",
		"artcc": "ZME",
		"type": "RP",
		"updated": "LIT*VORTAC*148.88/2.98"
	},
	{
		"name": "HOBRK",
		"latitude": "34-29-57.07 N",
		"longitude": "90-46-53.04 W",
		"state": "ARKANSAS",
		"artcc": "ZME",
		"type": "RNAV",
		"updated": "12/05/2013"
	},
	{
		"name": "HOBUV",
		"latitude": "35-9-18.88 N",
		"longitude": "92-23-29.78 W",
		"state": "ARKANSAS",
		"artcc": "ZME",
		"type": "RNAV",
		"updated": "08/15/2014"
	},
	{
		"name": "HODJS",
		"latitude": "36-16-42.69 N",
		"longitude": "88-13-38.56 W",
		"state": "TENNESSEE",
		"artcc": "ZME",
		"type": "RNAV",
		"updated": "09/17/2012"
	},
	{
		"name": "HOGAB",
		"latitude": "34-37-46.4 N",
		"longitude": "88-40-43.37 W",
		"state": "MISSISSIPPI",
		"artcc": "ZME",
		"type": "RNAV",
		"updated": "08/12/2013"
	},
	{
		"name": "HOGEL",
		"latitude": "35-49-30.66 N",
		"longitude": "92-15-47.45 W",
		"state": "ARKANSAS",
		"artcc": "ZME",
		"type": "RNAV",
		"updated": "09/11/2003"
	},
	{
		"name": "HOGGA",
		"latitude": "35-1-22.98 N",
		"longitude": "91-47-19.37 W",
		"state": "ARKANSAS",
		"artcc": "ZME",
		"type": "RNAV",
		"updated": "07/25/2005"
	},
	{
		"name": "HOGGE",
		"latitude": "36-4-29.22 N",
		"longitude": "94-11-12.56 W",
		"state": "ARKANSAS",
		"artcc": "ZME",
		"type": "RP",
		"updated": "FYV*LE*N CRS/4.95"
	},
	{
		"name": "HOGOM",
		"latitude": "34-24-11.2 N",
		"longitude": "91-35-10.88 W",
		"state": "ARKANSAS",
		"artcc": "ZME",
		"type": "RNAV",
		"updated": "08/08/2007"
	},
	{
		"name": "HOGPA",
		"latitude": "36-17-30.38 N",
		"longitude": "86-57-11.84 W",
		"state": "TENNESSEE",
		"artcc": "ZME",
		"type": "RP",
		"updated": "BWG*VORTAC*210.99"
	},
	{
		"name": "HOKIL",
		"latitude": "34-53-52.07 N",
		"longitude": "92-12-48.11 W",
		"state": "ARKANSAS",
		"artcc": "ZME",
		"type": "MW",
		"updated": "03/14/2007"
	},
	{
		"name": "HOKUG",
		"latitude": "36-7-18.45 N",
		"longitude": "86-54-22.98 W",
		"state": "TENNESSEE",
		"artcc": "ZME",
		"type": "RNAV",
		"updated": "04/16/2012"
	},
	{
		"name": "HOLAL",
		"latitude": "36-34-36.49 N",
		"longitude": "87-6-12.8 W",
		"state": "TENNESSEE",
		"artcc": "ZME",
		"type": "RNAV",
		"updated": "07/07/2011"
	},
	{
		"name": "HOLER",
		"latitude": "36-3-3.64 N",
		"longitude": "86-34-38.96 W",
		"state": "TENNESSEE",
		"artcc": "ZME",
		"type": "RP",
		"updated": "BNA*VORTAC*/7.33"
	},
	{
		"name": "HOLGO",
		"latitude": "35-21-15 N",
		"longitude": "94-13-6.86 W",
		"state": "ARKANSAS",
		"artcc": "ZME",
		"type": "RNAV",
		"updated": "03/28/2010"
	},
	{
		"name": "HOLIK",
		"latitude": "36-42-56.01 N",
		"longitude": "87-29-49.32 W",
		"state": "KENTUCKY",
		"artcc": "ZME",
		"type": "MW",
		"updated": "11/17/2017"
	},
	{
		"name": "HOLOG",
		"latitude": "33-37-34.03 N",
		"longitude": "88-10-47.03 W",
		"state": "ALABAMA",
		"artcc": "ZME",
		"type": "MR",
		"updated": "CBM*VORTAC*094.00/13.00"
	},
	{
		"name": "HOLRU",
		"latitude": "33-41-0.48 N",
		"longitude": "91-32-38.67 W",
		"state": "ARKANSAS",
		"artcc": "ZME",
		"type": "RNAV",
		"updated": "07/16/2013"
	},
	{
		"name": "HOLUN",
		"latitude": "32-23-12.01 N",
		"longitude": "88-44-35.26 W",
		"state": "MISSISSIPPI",
		"artcc": "ZME",
		"type": "RP",
		"updated": "MEI*VORTAC*075.97"
	},
	{
		"name": "HOMBA",
		"latitude": "35-26-33.8 N",
		"longitude": "94-4-45.88 W",
		"state": "ARKANSAS",
		"artcc": "ZME",
		"type": "RNAV",
		"updated": "03/24/2010"
	},
	{
		"name": "HOMED",
		"latitude": "36-9-31.36 N",
		"longitude": "85-30-34.47 W",
		"state": "TENNESSEE",
		"artcc": "ZME",
		"type": "RNAV",
		"updated": "01/27/2016"
	},
	{
		"name": "HOMEL",
		"latitude": "35-11-27.61 N",
		"longitude": "86-27-36.85 W",
		"state": "TENNESSEE",
		"artcc": "ZME",
		"type": "RNAV",
		"updated": "05/06/2016"
	},
	{
		"name": "HOMIR",
		"latitude": "36-24-2.61 N",
		"longitude": "90-39-5.43 W",
		"state": "ARKANSAS",
		"artcc": "ZME",
		"type": "RP",
		"updated": "ARG*VORTAC*036.00/22.77"
	},
	{
		"name": "HOMNN",
		"latitude": "35-1-36.84 N",
		"longitude": "88-8-18.31 W",
		"state": "TENNESSEE",
		"artcc": "ZME",
		"type": "RNAV",
		"updated": "06/14/2012"
	},
	{
		"name": "HOMOB",
		"latitude": "35-2-47.97 N",
		"longitude": "89-12-25.35 W",
		"state": "TENNESSEE",
		"artcc": "ZME",
		"type": "RNAV",
		"updated": "12/04/2014"
	},
	{
		"name": "HONAM",
		"latitude": "34-36-2.69 N",
		"longitude": "91-27-35.83 W",
		"state": "ARKANSAS",
		"artcc": "ZME",
		"type": "RNAV",
		"updated": "03/15/2007"
	},
	{
		"name": "HONON",
		"latitude": "36-11-32.75 N",
		"longitude": "94-11-2.81 W",
		"state": "ARKANSAS",
		"artcc": "ZME",
		"type": "RNAV",
		"updated": "07/22/2004"
	},
	{
		"name": "HONSA",
		"latitude": "34-30-58.65 N",
		"longitude": "89-3-1.25 W",
		"state": "MISSISSIPPI",
		"artcc": "ZME",
		"type": "RNAV",
		"updated": "12/08/2006"
	},
	{
		"name": "HOOOG",
		"latitude": "35-49-1.73 N",
		"longitude": "91-4-28.14 W",
		"state": "ARKANSAS",
		"artcc": "ZME",
		"type": "RNAV",
		"updated": "12/05/2013"
	},
	{
		"name": "HOOSE",
		"latitude": "35-0-46.88 N",
		"longitude": "90-11-40.96 W",
		"state": "TENNESSEE",
		"artcc": "ZME",
		"type": "RNAV",
		"updated": "02/01/2012"
	},
	{
		"name": "HOOTS",
		"latitude": "34-1-48.6 N",
		"longitude": "88-10-19.34 W",
		"state": "ALABAMA",
		"artcc": "ZME",
		"type": "RNAV",
		"updated": "06/14/2010"
	},
	{
		"name": "HOPSO",
		"latitude": "34-36-14.12 N",
		"longitude": "89-13-19.63 W",
		"state": "MISSISSIPPI",
		"artcc": "ZME",
		"type": "RNAV",
		"updated": "12/08/2006"
	},
	{
		"name": "HOREK",
		"latitude": "34-22-0.87 N",
		"longitude": "87-35-50.52 W",
		"state": "ALABAMA",
		"artcc": "ZME",
		"type": "RNAV",
		"updated": "07/12/2011"
	},
	{
		"name": "HORIS",
		"latitude": "35-41-21.54 N",
		"longitude": "91-23-12.41 W",
		"state": "ARKANSAS",
		"artcc": "ZME",
		"type": "RP",
		"updated": "GQE*VOR/DME*291.00/49.00"
	},
	{
		"name": "HORIV",
		"latitude": "33-47-21.93 N",
		"longitude": "88-37-43.32 W",
		"state": "MISSISSIPPI",
		"artcc": "ZME",
		"type": "MR",
		"updated": "CBM*VORTAC*313.00/13.00"
	},
	{
		"name": "HOSAD",
		"latitude": "35-45-2.44 N",
		"longitude": "94-54-38.3 W",
		"state": "OKLAHOMA",
		"artcc": "ZME",
		"type": "RNAV",
		"updated": "04/28/2008"
	},
	{
		"name": "HOSSY",
		"latitude": "34-25-23.15 N",
		"longitude": "93-11-23.89 W",
		"state": "ARKANSAS",
		"artcc": "ZME",
		"type": "RP",
		"updated": "HOT*LD*SW CRS/6.47"
	},
	{
		"name": "HOTGO",
		"latitude": "34-50-38.53 N",
		"longitude": "88-48-16.22 W",
		"state": "MISSISSIPPI",
		"artcc": "ZME",
		"type": "RNAV",
		"updated": "12/08/2006"
	},
	{
		"name": "HOTOW",
		"latitude": "33-45-41.81 N",
		"longitude": "88-5-21.5 W",
		"state": "ALABAMA",
		"artcc": "ZME",
		"type": "RNAV",
		"updated": "06/15/2010"
	},
	{
		"name": "HOTRD",
		"latitude": "35-33-49.2 N",
		"longitude": "90-32-52.24 W",
		"state": "ARKANSAS",
		"artcc": "ZME",
		"type": "RNAV",
		"updated": "01/11/2012"
	},
	{
		"name": "HOXAN",
		"latitude": "32-16-5.29 N",
		"longitude": "88-49-27.29 W",
		"state": "MISSISSIPPI",
		"artcc": "ZME",
		"type": "RNAV",
		"updated": "07/05/2013"
	},
	{
		"name": "HOXOS",
		"latitude": "34-41-10.87 N",
		"longitude": "89-2-30.94 W",
		"state": "MISSISSIPPI",
		"artcc": "ZME",
		"type": "RNAV",
		"updated": "12/08/2006"
	},
	{
		"name": "HRTUN",
		"latitude": "34-32-55.12 N",
		"longitude": "88-3-48.29 W",
		"state": "ALABAMA",
		"artcc": "ZME",
		"type": "RNAV",
		"updated": "09/22/2012"
	},
	{
		"name": "HSTON",
		"latitude": "35-37-50.05 N",
		"longitude": "90-2-9.27 W",
		"state": "ARKANSAS",
		"artcc": "ZME",
		"type": "RNAV",
		"updated": "09/30/2013"
	},
	{
		"name": "HUBAX",
		"latitude": "36-0-31.48 N",
		"longitude": "94-36-51.01 W",
		"state": "OKLAHOMA",
		"artcc": "ZME",
		"type": "RNAV",
		"updated": "08/08/2007"
	},
	{
		"name": "HUBBL",
		"latitude": "35-37-37.01 N",
		"longitude": "91-13-9.55 W",
		"state": "ARKANSAS",
		"artcc": "ZME",
		"type": "RP",
		"updated": "GQE*VOR/DME*291.00/40.00"
	},
	{
		"name": "HUBEK",
		"latitude": "36-23-37.81 N",
		"longitude": "86-44-50.02 W",
		"state": "TENNESSEE",
		"artcc": "ZME",
		"type": "RNAV",
		"updated": "05/06/2016"
	},
	{
		"name": "HUBES",
		"latitude": "35-44-47.68 N",
		"longitude": "85-59-40.07 W",
		"state": "TENNESSEE",
		"artcc": "ZME",
		"type": "RNAV",
		"updated": "05/06/2016"
	},
	{
		"name": "HUCHN",
		"latitude": "35-59-20.35 N",
		"longitude": "85-35-17.18 W",
		"state": "TENNESSEE",
		"artcc": "ZME",
		"type": "RP",
		"updated": "HEM*NDB*307.11"
	},
	{
		"name": "HUDLY",
		"latitude": "32-58-54.36 N",
		"longitude": "88-18-52.54 W",
		"state": "ALABAMA",
		"artcc": "ZME",
		"type": "MR",
		"updated": "CBM*VORTAC*171.00/40.00"
	},
	{
		"name": "HUDNU",
		"latitude": "36-9-42.89 N",
		"longitude": "86-40-57.04 W",
		"state": "TENNESSEE",
		"artcc": "ZME",
		"type": "RNAV",
		"updated": "05/14/2014"
	},
	{
		"name": "HUFVE",
		"latitude": "36-0-13.12 N",
		"longitude": "89-56-38.23 W",
		"state": "MISSOURI",
		"artcc": "ZME",
		"type": "RP",
		"updated": "BYH*LD*001.00/3.60"
	},
	{
		"name": "HUGHE",
		"latitude": "35-45-22.06 N",
		"longitude": "88-10-45.49 W",
		"state": "TENNESSEE",
		"artcc": "ZME",
		"type": "RNAV",
		"updated": "09/24/2012"
	},
	{
		"name": "HUGIM",
		"latitude": "33-23-8.06 N",
		"longitude": "91-47-39.93 W",
		"state": "ARKANSAS",
		"artcc": "ZME",
		"type": "RNAV",
		"updated": "12/29/2010"
	},
	{
		"name": "HUKDA",
		"latitude": "37-15-27.34 N",
		"longitude": "87-5-55.03 W",
		"state": "KENTUCKY",
		"artcc": "ZME",
		"type": "RNAV",
		"updated": "04/26/2012"
	},
	{
		"name": "HULKO",
		"latitude": "34-42-37.04 N",
		"longitude": "92-27-51.9 W",
		"state": "ARKANSAS",
		"artcc": "ZME",
		"type": "RP",
		"updated": "LIT*VORTAC*273.00"
	},
	{
		"name": "HULOD",
		"latitude": "33-42-57.21 N",
		"longitude": "92-44-44.21 W",
		"state": "ARKANSAS",
		"artcc": "ZME",
		"type": "RNAV",
		"updated": "03/16/2012"
	},
	{
		"name": "HULON",
		"latitude": "34-5-50.96 N",
		"longitude": "90-31-24.39 W",
		"state": "MISSISSIPPI",
		"artcc": "ZME",
		"type": "RNAV",
		"updated": "03/29/2011"
	},
	{
		"name": "HULUK",
		"latitude": "34-13-12.58 N",
		"longitude": "91-28-9.95 W",
		"state": "ARKANSAS",
		"artcc": "ZME",
		"type": "RNAV",
		"updated": "10/18/2004"
	},
	{
		"name": "HUMBO",
		"latitude": "36-37-39.45 N",
		"longitude": "89-36-7.81 W",
		"state": "MISSOURI",
		"artcc": "ZME",
		"type": "RP",
		"updated": "MEM*VORTAC*009.78/98.38"
	},
	{
		"name": "HUMMS",
		"latitude": "36-21-21.4 N",
		"longitude": "88-59-3.62 W",
		"state": "TENNESSEE",
		"artcc": "ZME",
		"type": "RNAV",
		"updated": "12/01/2016"
	},
	{
		"name": "HUMYE",
		"latitude": "34-30-25.26 N",
		"longitude": "91-34-56.17 W",
		"state": "ARKANSAS",
		"artcc": "ZME",
		"type": "WP",
		"updated": "11/02/1998"
	},
	{
		"name": "HUNGO",
		"latitude": "34-50-7.59 N",
		"longitude": "89-58-58.3 W",
		"state": "MISSISSIPPI",
		"artcc": "ZME",
		"type": "RNAV",
		"updated": "08/01/2001"
	},
	{
		"name": "HUNTO",
		"latitude": "36-28-3.87 N",
		"longitude": "94-23-30.49 W",
		"state": "ARKANSAS",
		"artcc": "ZME",
		"type": "RP",
		"updated": "EOS*VOR/DME*167.59/22.55"
	},
	{
		"name": "HUNTR",
		"latitude": "35-28-12.97 N",
		"longitude": "92-23-24.64 W",
		"state": "ARKANSAS",
		"artcc": "ZME",
		"type": "MR",
		"updated": "LRF*TACAN*337.00/35.00"
	},
	{
		"name": "HUPIR",
		"latitude": "33-48-2.75 N",
		"longitude": "89-45-14.72 W",
		"state": "MISSISSIPPI",
		"artcc": "ZME",
		"type": "RNAV",
		"updated": "03/26/2013"
	},
	{
		"name": "HUPOK",
		"latitude": "34-39-19.51 N",
		"longitude": "87-21-52.22 W",
		"state": "ALABAMA",
		"artcc": "ZME",
		"type": "RP",
		"updated": "MSL*VORTAC*/7.00"
	},
	{
		"name": "HUPTO",
		"latitude": "36-45-38.46 N",
		"longitude": "87-29-52.1 W",
		"state": "KENTUCKY",
		"artcc": "ZME",
		"type": "MW",
		"updated": "11/17/2017"
	},
	{
		"name": "HURKO",
		"latitude": "34-47-58.79 N",
		"longitude": "92-22-41.95 W",
		"state": "ARKANSAS",
		"artcc": "ZME",
		"type": "MR",
		"updated": "LRF*TACAN*236.00/13.00"
	},
	{
		"name": "HUROG",
		"latitude": "35-19-5.33 N",
		"longitude": "86-52-45.56 W",
		"state": "TENNESSEE",
		"artcc": "ZME",
		"type": "RNAV",
		"updated": "08/11/2010"
	},
	{
		"name": "HURTN",
		"latitude": "34-52-40.27 N",
		"longitude": "89-59-17.36 W",
		"state": "MISSISSIPPI",
		"artcc": "ZME",
		"type": "RNAV",
		"updated": "09/30/2013"
	},
	{
		"name": "HUSAG",
		"latitude": "35-43-53.74 N",
		"longitude": "91-36-10.62 W",
		"state": "ARKANSAS",
		"artcc": "ZME",
		"type": "RNAV",
		"updated": "09/19/2010"
	},
	{
		"name": "HUSAL",
		"latitude": "34-37-41.64 N",
		"longitude": "92-27-46.06 W",
		"state": "ARKANSAS",
		"artcc": "ZME",
		"type": "RNAV",
		"updated": "07/14/2008"
	},
	{
		"name": "HUSKO",
		"latitude": "36-18-35.09 N",
		"longitude": "86-39-17.65 W",
		"state": "TENNESSEE",
		"artcc": "ZME",
		"type": "RNAV",
		"updated": "05/06/2016"
	},
	{
		"name": "HUSKU",
		"latitude": "35-25-44.41 N",
		"longitude": "86-9-22.4 W",
		"state": "TENNESSEE",
		"artcc": "ZME",
		"type": "RNAV",
		"updated": "06/29/2011"
	},
	{
		"name": "HUTCC",
		"latitude": "34-37-55.57 N",
		"longitude": "87-25-43.62 W",
		"state": "ALABAMA",
		"artcc": "ZME",
		"type": "RNAV",
		"updated": "07/25/2016"
	},
	{
		"name": "HUTET",
		"latitude": "35-59-59.02 N",
		"longitude": "89-24-1.73 W",
		"state": "TENNESSEE",
		"artcc": "ZME",
		"type": "RP",
		"updated": "DYR*VORTAC*251.39/4.18"
	},
	{
		"name": "HUTOK",
		"latitude": "36-20-27.31 N",
		"longitude": "93-6-45.39 W",
		"state": "ARKANSAS",
		"artcc": "ZME",
		"type": "RNAV",
		"updated": "09/18/2015"
	},
	{
		"name": "HUTOR",
		"latitude": "34-9-14.49 N",
		"longitude": "92-12-22.22 W",
		"state": "ARKANSAS",
		"artcc": "ZME",
		"type": "RP",
		"updated": "PBF*VOR/DME*244.34/15.00"
	},
	{
		"name": "HUTTO",
		"latitude": "35-27-54.07 N",
		"longitude": "93-20-39.01 W",
		"state": "ARKANSAS",
		"artcc": "ZME",
		"type": "RNAV",
		"updated": "10/14/2004"
	},
	{
		"name": "HUTUN",
		"latitude": "34-49-49.66 N",
		"longitude": "86-35-37.28 W",
		"state": "ALABAMA",
		"artcc": "ZME",
		"type": "RP",
		"updated": "RQZ*VORTAC*042.90/2.81"
	},
	{
		"name": "HUVOG",
		"latitude": "36-14-16.74 N",
		"longitude": "86-55-51.45 W",
		"state": "TENNESSEE",
		"artcc": "ZME",
		"type": "RNAV",
		"updated": "07/25/2011"
	},
	{
		"name": "HUVOL",
		"latitude": "36-10-10.17 N",
		"longitude": "87-14-27.1 W",
		"state": "TENNESSEE",
		"artcc": "ZME",
		"type": "RNAV",
		"updated": "06/23/2011"
	},
	{
		"name": "HUVUM",
		"latitude": "32-37-41.86 N",
		"longitude": "90-9-29.04 W",
		"state": "MISSISSIPPI",
		"artcc": "ZME",
		"type": "RP",
		"updated": "MHZ*VORTAC*346.75/12.00"
	},
	{
		"name": "HUXAG",
		"latitude": "36-22-21.61 N",
		"longitude": "91-19-47.15 W",
		"state": "ARKANSAS",
		"artcc": "ZME",
		"type": "RNAV",
		"updated": "05/07/2007"
	},
	{
		"name": "HUXAP",
		"latitude": "32-6-27.1 N",
		"longitude": "90-1-1.35 W",
		"state": "MISSISSIPPI",
		"artcc": "ZME",
		"type": "RP",
		"updated": "MHZ*VORTAC*168.83/20.00"
	},
	{
		"name": "HUXEP",
		"latitude": "36-43-4.84 N",
		"longitude": "87-26-11.47 W",
		"state": "KENTUCKY",
		"artcc": "ZME",
		"type": "MW",
		"updated": "11/17/2017"
	},
	{
		"name": "HUYKA",
		"latitude": "33-39-6.41 N",
		"longitude": "88-35-21.82 W",
		"state": "MISSISSIPPI",
		"artcc": "ZME",
		"type": "RNAV",
		"updated": "10/02/2012"
	},
	{
		"name": "HYLAA",
		"latitude": "32-21-40.26 N",
		"longitude": "89-17-7.11 W",
		"state": "MISSISSIPPI",
		"artcc": "ZME",
		"type": "RNAV",
		"updated": "09/21/2012"
	},
	{
		"name": "HYLDA",
		"latitude": "32-28-30.3 N",
		"longitude": "88-46-2.67 W",
		"state": "MISSISSIPPI",
		"artcc": "ZME",
		"type": "WP",
		"updated": "MEI*VORTAC*012.90/6.10"
	},
	{
		"name": "HYTHR",
		"latitude": "36-2-54.68 N",
		"longitude": "89-44-41.56 W",
		"state": "MISSOURI",
		"artcc": "ZME",
		"type": "RNAV",
		"updated": "06/15/2012"
	},
	{
		"name": "HYYTE",
		"latitude": "34-16-0 N",
		"longitude": "89-54-16 W",
		"state": "MISSISSIPPI",
		"artcc": "ZME",
		"type": "RNAV",
		"updated": "12/18/2015"
	}
]
