	{
		"name": "JAAAE",
		"latitude": "32-20-35 N",
		"longitude": "88-52-31 W",
		"state": "MISSISSIPPI",
		"artcc": "ZME",
		"type": "RNAV",
		"updated": "09/21/2012",
	},
	{
		"name": "JAACE",
		"latitude": "35-32-46.63 N",
		"longitude": "85-44-55.18 W",
		"state": "TENNESSEE",
		"artcc": "ZME",
		"type": "RNAV",
		"updated": "12/09/2015",
	},
	{
		"name": "JAAXX",
		"latitude": "35-8-32.89 N",
		"longitude": "89-55-40.25 W",
		"state": "TENNESSEE",
		"artcc": "ZME",
		"type": "RNAV",
		"updated": "02/01/2012",
	},
	{
		"name": "JABRD",
		"latitude": "35-14-55.57 N",
		"longitude": "85-31-17.3 W",
		"state": "TENNESSEE",
		"artcc": "ZME",
		"type": "RP",
		"updated": "HCH*VOR/DME*221.99",
	},
	{
		"name": "JABUN",
		"latitude": "36-13-6.67 N",
		"longitude": "86-31-0.94 W",
		"state": "TENNESSEE",
		"artcc": "ZME",
		"type": "RNAV",
		"updated": "09/24/2012",
	},
	{
		"name": "JADET",
		"latitude": "34-41-39.99 N",
		"longitude": "89-13-36.5 W",
		"state": "MISSISSIPPI",
		"artcc": "ZME",
		"type": "RNAV",
		"updated": "09/30/2013",
	},
	{
		"name": "JADIK",
		"latitude": "36-15-26.34 N",
		"longitude": "93-6-38.25 W",
		"state": "ARKANSAS",
		"artcc": "ZME",
		"type": "RNAV",
		"updated": "09/22/2015",
	},
	{
		"name": "JADIR",
		"latitude": "36-22-28.5 N",
		"longitude": "94-20-56.95 W",
		"state": "ARKANSAS",
		"artcc": "ZME",
		"type": "RP",
		"updated": "XNA*LD*NW CRS/5.02",
	},
	{
		"name": "JAGPA",
		"latitude": "33-55-4.98 N",
		"longitude": "87-54-21.07 W",
		"state": "ALABAMA",
		"artcc": "ZME",
		"type": "RNAV",
		"updated": "05/05/2009",
	},
	{
		"name": "JAGUR",
		"latitude": "34-54-35.94 N",
		"longitude": "89-59-4.05 W",
		"state": "MISSISSIPPI",
		"artcc": "ZME",
		"type": "RNAV",
		"updated": "05/26/2009",
	},
	{
		"name": "JAHEJ",
		"latitude": "34-54-19.99 N",
		"longitude": "92-20-2.77 W",
		"state": "ARKANSAS",
		"artcc": "ZME",
		"type": "RNAV",
		"updated": "10/30/2001",
	},
	{
		"name": "JAKAD",
		"latitude": "33-39-39.14 N",
		"longitude": "88-27-54.25 W",
		"state": "MISSISSIPPI",
		"artcc": "ZME",
		"type": "MW",
		"updated": "08/04/2016",
	},
	{
		"name": "JAKVU",
		"latitude": "33-23-31.88 N",
		"longitude": "88-35-30.99 W",
		"state": "MISSISSIPPI",
		"artcc": "ZME",
		"type": "RP",
		"updated": "RVT*LD*182.47/4.27",
	},
	{
		"name": "JALAR",
		"latitude": "35-0-42.69 N",
		"longitude": "87-34-7.37 W",
		"state": "TENNESSEE",
		"artcc": "ZME",
		"type": "RNAV",
		"updated": "09/14/2012",
	},
	{
		"name": "JALDO",
		"latitude": "35-8-28.22 N",
		"longitude": "89-58-40.77 W",
		"state": "TENNESSEE",
		"artcc": "ZME",
		"type": "RP",
		"updated": "MEM*VORTAC*/7.56",
	},
	{
		"name": "JALGU",
		"latitude": "35-14-45.9 N",
		"longitude": "94-34-15.76 W",
		"state": "OKLAHOMA",
		"artcc": "ZME",
		"type": "RP",
		"updated": "FSM*VORTAC*233.00/17.00",
	},
	{
		"name": "JAMDO",
		"latitude": "36-14-33.04 N",
		"longitude": "94-17-10.15 W",
		"state": "ARKANSAS",
		"artcc": "ZME",
		"type": "RP",
		"updated": "RZC*VORTAC*264.37/8.00",
	},
	{
		"name": "JAMEA",
		"latitude": "34-49-18.56 N",
		"longitude": "90-17-18.66 W",
		"state": "MISSISSIPPI",
		"artcc": "ZME",
		"type": "RP",
		"updated": "MEM*VORTAC*231.54/19.00",
	},
	{
		"name": "JAMKO",
		"latitude": "34-58-51.37 N",
		"longitude": "90-12-2.2 W",
		"state": "MISSISSIPPI",
		"artcc": "ZME",
		"type": "RNAV",
		"updated": "06/17/2008",
	},
	{
		"name": "JAMLA",
		"latitude": "35-25-11.21 N",
		"longitude": "90-38-27.9 W",
		"state": "ARKANSAS",
		"artcc": "ZME",
		"type": "RNAV",
		"updated": "06/15/2012",
	},
	{
		"name": "JAMUX",
		"latitude": "33-39-40.57 N",
		"longitude": "88-27-25.24 W",
		"state": "MISSISSIPPI",
		"artcc": "ZME",
		"type": "MR",
		"updated": "CBM*VORTAC*322.00/1.50",
	},
	{
		"name": "JAMVO",
		"latitude": "33-51-5.31 N",
		"longitude": "88-16-30.3 W",
		"state": "MISSISSIPPI",
		"artcc": "ZME",
		"type": "MR",
		"updated": "CBM*VORTAC*033.00/15.00",
	},
	{
		"name": "JANES",
		"latitude": "31-45-57.15 N",
		"longitude": "88-26-6.08 W",
		"state": "ALABAMA",
		"artcc": "ZME",
		"type": "RP",
		"updated": "EWA*VORTAC*174.10/36.00",
	},
	{
		"name": "JANHO",
		"latitude": "33-41-1.37 N",
		"longitude": "88-29-2.44 W",
		"state": "MISSISSIPPI",
		"artcc": "ZME",
		"type": "MR",
		"updated": "CBM*VORTAC*318.00/3.40",
	},
	{
		"name": "JANIT",
		"latitude": "36-40-39.33 N",
		"longitude": "89-56-42.89 W",
		"state": "MISSOURI",
		"artcc": "ZME",
		"type": "RNAV",
		"updated": "06/12/2008",
	},
	{
		"name": "JANLU",
		"latitude": "32-19-16.87 N",
		"longitude": "91-1-37.75 W",
		"state": "LOUISIANA",
		"artcc": "ZME",
		"type": "RNAV",
		"updated": "07/29/2016",
	},
	{
		"name": "JAPAB",
		"latitude": "35-51-49.69 N",
		"longitude": "90-9-17.17 W",
		"state": "ARKANSAS",
		"artcc": "ZME",
		"type": "RNAV",
		"updated": "08/06/2013",
	},
	{
		"name": "JAPAN",
		"latitude": "36-21-52.89 N",
		"longitude": "92-28-37.92 W",
		"state": "ARKANSAS",
		"artcc": "ZME",
		"type": "WP",
		"updated": "FLP*VOR/DME*343.83/4.00",
	},
	{
		"name": "JAPKO",
		"latitude": "36-27-47.55 N",
		"longitude": "94-4-4.49 W",
		"state": "ARKANSAS",
		"artcc": "ZME",
		"type": "RNAV",
		"updated": "07/22/2004",
	},
	{
		"name": "JARAS",
		"latitude": "36-18-40.52 N",
		"longitude": "86-55-6.61 W",
		"state": "TENNESSEE",
		"artcc": "ZME",
		"type": "RNAV",
		"updated": "02/24/2017",
	},
	{
		"name": "JAREK",
		"latitude": "36-15-18.8 N",
		"longitude": "93-31-44.85 W",
		"state": "ARKANSAS",
		"artcc": "ZME",
		"type": "RNAV",
		"updated": "09/18/2015",
	},
	{
		"name": "JARKO",
		"latitude": "36-27-13.04 N",
		"longitude": "89-49-10.28 W",
		"state": "MISSOURI",
		"artcc": "ZME",
		"type": "RNAV",
		"updated": "09/03/2009",
	},
	{
		"name": "JAROL",
		"latitude": "35-21-29.35 N",
		"longitude": "86-17-37.22 W",
		"state": "TENNESSEE",
		"artcc": "ZME",
		"type": "RNAV",
		"updated": "06/29/2011",
	},
	{
		"name": "JARUG",
		"latitude": "37-8-32.71 N",
		"longitude": "88-31-51.19 W",
		"state": "ILLINOIS",
		"artcc": "ZME",
		"type": "RNAV",
		"updated": "07/21/2006",
	},
	{
		"name": "JARVA",
		"latitude": "33-46-3.68 N",
		"longitude": "87-48-43.29 W",
		"state": "ALABAMA",
		"artcc": "ZME",
		"type": "RNAV",
		"updated": "06/06/2011",
	},
	{
		"name": "JASEX",
		"latitude": "34-49-41.59 N",
		"longitude": "86-46-42.86 W",
		"state": "ALABAMA",
		"artcc": "ZME",
		"type": "RP",
		"updated": "DCU*VOR/DME*037.40/13.40",
	},
	{
		"name": "JASMA",
		"latitude": "35-42-1.76 N",
		"longitude": "92-18-37.36 W",
		"state": "ARKANSAS",
		"artcc": "ZME",
		"type": "RNAV",
		"updated": "01/29/2002",
	},
	{
		"name": "JASOP",
		"latitude": "35-54-52.93 N",
		"longitude": "86-45-47.54 W",
		"state": "TENNESSEE",
		"artcc": "ZME",
		"type": "RNAV",
		"updated": "07/27/2009",
	},
	{
		"name": "JASPE",
		"latitude": "36-5-30.65 N",
		"longitude": "93-11-37.92 W",
		"state": "ARKANSAS",
		"artcc": "ZME",
		"type": "RP",
		"updated": "HRO*VOR/DME*172.02/13.60",
	},
	{
		"name": "JATGO",
		"latitude": "35-54-17.83 N",
		"longitude": "87-16-6.73 W",
		"state": "TENNESSEE",
		"artcc": "ZME",
		"type": "RNAV",
		"updated": "09/24/2012",
	},
	{
		"name": "JATIT",
		"latitude": "33-37-54.48 N",
		"longitude": "88-25-11.83 W",
		"state": "MISSISSIPPI",
		"artcc": "ZME",
		"type": "MR",
		"updated": "CBM*VORTAC*122.00/1.10",
	},
	{
		"name": "JATOM",
		"latitude": "34-41-48.88 N",
		"longitude": "92-23-37 W",
		"state": "ARKANSAS",
		"artcc": "ZME",
		"type": "RNAV",
		"updated": "06/25/2015",
	},
	{
		"name": "JATUM",
		"latitude": "36-22-30.96 N",
		"longitude": "94-11-33.54 W",
		"state": "ARKANSAS",
		"artcc": "ZME",
		"type": "RNAV",
		"updated": "06/29/2005",
	},
	{
		"name": "JATVO",
		"latitude": "36-21-51.68 N",
		"longitude": "94-12-30.2 W",
		"state": "ARKANSAS",
		"artcc": "ZME",
		"type": "RNAV",
		"updated": "09/18/2015",
	},
	{
		"name": "JAVOP",
		"latitude": "32-17-59.08 N",
		"longitude": "88-47-18.11 W",
		"state": "MISSISSIPPI",
		"artcc": "ZME",
		"type": "RNAV",
		"updated": "07/05/2013",
	},
	{
		"name": "JAVTA",
		"latitude": "36-38-42.24 N",
		"longitude": "87-23-23.38 W",
		"state": "KENTUCKY",
		"artcc": "ZME",
		"type": "MW",
		"updated": "04/08/2009",
	},
	{
		"name": "JAXFE",
		"latitude": "36-46-19.38 N",
		"longitude": "86-32-20.1 W",
		"state": "KENTUCKY",
		"artcc": "ZME",
		"type": "RNAV",
		"updated": "02/09/2018",
	},
	{
		"name": "JAYWA",
		"latitude": "34-47-57.65 N",
		"longitude": "90-6-9.62 W",
		"state": "MISSISSIPPI",
		"artcc": "ZME",
		"type": "RNAV",
		"updated": "06/15/2012",
	},
	{
		"name": "JCKSN",
		"latitude": "35-59-6.14 N",
		"longitude": "86-44-6.74 W",
		"state": "TENNESSEE",
		"artcc": "ZME",
		"type": "RP",
		"updated": "BNA*VORTAC*/9.33",
	},
	{
		"name": "JEBEP",
		"latitude": "35-37-38.23 N",
		"longitude": "91-22-23.55 W",
		"state": "ARKANSAS",
		"artcc": "ZME",
		"type": "RP",
		"updated": "ARG*VORTAC*211.40/35.42",
	},
	{
		"name": "JEBOD",
		"latitude": "37-6-56.18 N",
		"longitude": "88-29-2.52 W",
		"state": "ILLINOIS",
		"artcc": "ZME",
		"type": "RNAV",
		"updated": "11/02/2016",
	},
	{
		"name": "JEBUG",
		"latitude": "35-22-41.88 N",
		"longitude": "86-0-5.7 W",
		"state": "TENNESSEE",
		"artcc": "ZME",
		"type": "RNAV",
		"updated": "05/28/2014",
	},
	{
		"name": "JECUC",
		"latitude": "35-39-9.1 N",
		"longitude": "86-26-37.5 W",
		"state": "TENNESSEE",
		"artcc": "ZME",
		"type": "RNAV",
		"updated": "06/20/2008",
	},
	{
		"name": "JEDAT",
		"latitude": "36-7-44.77 N",
		"longitude": "86-54-39.22 W",
		"state": "TENNESSEE",
		"artcc": "ZME",
		"type": "RP",
		"updated": "BNA*VORTAC*269.61/11.00",
	},
	{
		"name": "JEGUT",
		"latitude": "31-40-0.71 N",
		"longitude": "90-19-51.59 W",
		"state": "MISSISSIPPI",
		"artcc": "ZME",
		"type": "RNAV",
		"updated": "11/06/2006",
	},
	{
		"name": "JEKBA",
		"latitude": "35-7-8.3 N",
		"longitude": "86-33-8.57 W",
		"state": "TENNESSEE",
		"artcc": "ZME",
		"type": "RP",
		"updated": "SYI*VOR/DME*192.86/27.11",
	},
	{
		"name": "JEKMU",
		"latitude": "35-27-29.25 N",
		"longitude": "92-7-27.6 W",
		"state": "ARKANSAS",
		"artcc": "ZME",
		"type": "RNAV",
		"updated": "09/01/2005",
	},
	{
		"name": "JELER",
		"latitude": "35-59-21.86 N",
		"longitude": "91-53-32.09 W",
		"state": "ARKANSAS",
		"artcc": "ZME",
		"type": "RNAV",
		"updated": "09/06/2016",
	},
	{
		"name": "JELVA",
		"latitude": "37-0-57.69 N",
		"longitude": "89-21-32.55 W",
		"state": "MISSOURI",
		"artcc": "ZME",
		"type": "RNAV",
		"updated": "10/28/2013",
	},
	{
		"name": "JEMBO",
		"latitude": "35-19-18.53 N",
		"longitude": "94-28-26.39 W",
		"state": "OKLAHOMA",
		"artcc": "ZME",
		"type": "RP",
		"updated": "FSM*VORTAC*/10.71",
	},
	{
		"name": "JENAN",
		"latitude": "34-37-54.21 N",
		"longitude": "92-23-37.26 W",
		"state": "ARKANSAS",
		"artcc": "ZME",
		"type": "RP",
		"updated": "LIT*VORTAC*250.44/10.90",
	},
	{
		"name": "JENKA",
		"latitude": "35-50-14.87 N",
		"longitude": "92-44-58.65 W",
		"state": "ARKANSAS",
		"artcc": "ZME",
		"type": "RNAV",
		"updated": "11/19/2015",
	},
	{
		"name": "JENKO",
		"latitude": "35-38-37.04 N",
		"longitude": "94-48-26.26 W",
		"state": "OKLAHOMA",
		"artcc": "ZME",
		"type": "RNAV",
		"updated": "07/08/2003",
	},
	{
		"name": "JENOG",
		"latitude": "34-40-55.79 N",
		"longitude": "87-24-59.27 W",
		"state": "ALABAMA",
		"artcc": "ZME",
		"type": "RP",
		"updated": "MSL*VORTAC*110.68/4.00",
	},
	{
		"name": "JENOL",
		"latitude": "35-55-53.31 N",
		"longitude": "94-9-8.58 W",
		"state": "ARKANSAS",
		"artcc": "ZME",
		"type": "RNAV",
		"updated": "09/24/2012",
	},
	{
		"name": "JEPAX",
		"latitude": "37-6-45.64 N",
		"longitude": "87-21-53.06 W",
		"state": "KENTUCKY",
		"artcc": "ZME",
		"type": "RNAV",
		"updated": "04/26/2012",
	},
	{
		"name": "JEPGU",
		"latitude": "35-14-51.41 N",
		"longitude": "89-56-3.77 W",
		"state": "TENNESSEE",
		"artcc": "ZME",
		"type": "RNAV",
		"updated": "06/16/2011",
	},
	{
		"name": "JEPOB",
		"latitude": "34-38-31.19 N",
		"longitude": "90-16-43.56 W",
		"state": "MISSISSIPPI",
		"artcc": "ZME",
		"type": "RP",
		"updated": "UJM*VOR/DME*077.32/20.00",
	},
	{
		"name": "JEPRO",
		"latitude": "36-27-7.68 N",
		"longitude": "93-47-47.12 W",
		"state": "ARKANSAS",
		"artcc": "ZME",
		"type": "RP",
		"updated": "RZC*VORTAC*047.86/20.00",
	},
	{
		"name": "JERLO",
		"latitude": "35-52-14.38 N",
		"longitude": "90-35-22.04 W",
		"state": "ARKANSAS",
		"artcc": "ZME",
		"type": "RNAV",
		"updated": "01/24/2013",
	},
	{
		"name": "JERSA",
		"latitude": "34-52-25.25 N",
		"longitude": "90-48-29.21 W",
		"state": "ARKANSAS",
		"artcc": "ZME",
		"type": "RNAV",
		"updated": "06/18/2013",
	},
	{
		"name": "JESTI",
		"latitude": "35-17-47.35 N",
		"longitude": "90-24-8.6 W",
		"state": "ARKANSAS",
		"artcc": "ZME",
		"type": "RP",
		"updated": "MEM*VORTAC*308.38/26.63",
	},
	{
		"name": "JETEB",
		"latitude": "34-33-19.89 N",
		"longitude": "88-37-9.77 W",
		"state": "MISSISSIPPI",
		"artcc": "ZME",
		"type": "RNAV",
		"updated": "08/10/2010",
	},
	{
		"name": "JETLU",
		"latitude": "35-28-53.55 N",
		"longitude": "89-46-39.48 W",
		"state": "TENNESSEE",
		"artcc": "ZME",
		"type": "RNAV",
		"updated": "06/16/2011",
	},
	{
		"name": "JETOB",
		"latitude": "36-58-41.23 N",
		"longitude": "91-36-7.66 W",
		"state": "MISSOURI",
		"artcc": "ZME",
		"type": "RNAV",
		"updated": "04/23/2013",
	},
	{
		"name": "JETSI",
		"latitude": "34-58-20.4 N",
		"longitude": "93-1-17.52 W",
		"state": "ARKANSAS",
		"artcc": "ZME",
		"type": "RNAV",
		"updated": "01/29/2002",
	},
	{
		"name": "JEVBO",
		"latitude": "36-3-3.29 N",
		"longitude": "88-28-24.76 W",
		"state": "TENNESSEE",
		"artcc": "ZME",
		"type": "RNAV",
		"updated": "08/07/2013",
	},
	{
		"name": "JEXIG",
		"latitude": "36-21-22.5 N",
		"longitude": "86-42-21.63 W",
		"state": "TENNESSEE",
		"artcc": "ZME",
		"type": "RNAV",
		"updated": "05/06/2016",
	},
	{
		"name": "JFRED",
		"latitude": "35-5-21.64 N",
		"longitude": "90-33-5.16 W",
		"state": "ARKANSAS",
		"artcc": "ZME",
		"type": "RNAV",
		"updated": "06/15/2012",
	},
	{
		"name": "JIBAX",
		"latitude": "35-19-12.88 N",
		"longitude": "93-56-27.33 W",
		"state": "ARKANSAS",
		"artcc": "ZME",
		"type": "RNAV",
		"updated": "03/24/2010",
	},
	{
		"name": "JIBIP",
		"latitude": "37-17-21.92 N",
		"longitude": "86-20-25.65 W",
		"state": "KENTUCKY",
		"artcc": "ZME",
		"type": "RNAV",
		"updated": "08/22/2013",
	},
	{
		"name": "JIBMI",
		"latitude": "37-10-15.34 N",
		"longitude": "87-15-28.87 W",
		"state": "KENTUCKY",
		"artcc": "ZME",
		"type": "RNAV",
		"updated": "04/26/2012",
	},
	{
		"name": "JIDAD",
		"latitude": "34-45-37.91 N",
		"longitude": "88-59-10.92 W",
		"state": "MISSISSIPPI",
		"artcc": "ZME",
		"type": "RNAV",
		"updated": "12/08/2006",
	},
	{
		"name": "JIDOP",
		"latitude": "36-30-19.18 N",
		"longitude": "87-6-13.78 W",
		"state": "TENNESSEE",
		"artcc": "ZME",
		"type": "RNAV",
		"updated": "07/07/2011",
	},
	{
		"name": "JIDUX",
		"latitude": "36-13-40.91 N",
		"longitude": "91-35-51.39 W",
		"state": "ARKANSAS",
		"artcc": "ZME",
		"type": "RNAV",
		"updated": "05/07/2007",
	},
	{
		"name": "JIGER",
		"latitude": "35-44-35.48 N",
		"longitude": "91-31-24.48 W",
		"state": "ARKANSAS",
		"artcc": "ZME",
		"type": "RNAV",
		"updated": "09/19/2010",
	},
	{
		"name": "JIGLU",
		"latitude": "35-25-19.93 N",
		"longitude": "86-50-16.08 W",
		"state": "TENNESSEE",
		"artcc": "ZME",
		"type": "RNAV",
		"updated": "08/07/2013",
	},
	{
		"name": "JIGOG",
		"latitude": "34-35-14.18 N",
		"longitude": "88-38-52.4 W",
		"state": "MISSISSIPPI",
		"artcc": "ZME",
		"type": "RP",
		"updated": "OTB*VOR/DME*014.78/23.00",
	},
	{
		"name": "JIGRU",
		"latitude": "36-16-10.68 N",
		"longitude": "86-41-32.13 W",
		"state": "TENNESSEE",
		"artcc": "ZME",
		"type": "RNAV",
		"updated": "05/06/2016",
	},
	{
		"name": "JIKOB",
		"latitude": "36-42-58.58 N",
		"longitude": "87-26-39.09 W",
		"state": "KENTUCKY",
		"artcc": "ZME",
		"type": "RNAV",
		"updated": "07/21/2016",
	},
	{
		"name": "JILHO",
		"latitude": "32-8-54.21 N",
		"longitude": "90-8-16 W",
		"state": "MISSISSIPPI",
		"artcc": "ZME",
		"type": "RNAV",
		"updated": "11/03/2013",
	},
	{
		"name": "JILLS",
		"latitude": "33-19-26.66 N",
		"longitude": "87-44-47.12 W",
		"state": "ALABAMA",
		"artcc": "ZME",
		"type": "RNAV",
		"updated": "09/25/2014",
	},
	{
		"name": "JILUT",
		"latitude": "37-1-3.8 N",
		"longitude": "86-0-20.7 W",
		"state": "KENTUCKY",
		"artcc": "ZME",
		"type": "RNAV",
		"updated": "04/26/2012",
	},
	{
		"name": "JIMGA",
		"latitude": "35-1-28.85 N",
		"longitude": "90-6-36.79 W",
		"state": "TENNESSEE",
		"artcc": "ZME",
		"type": "RNAV",
		"updated": "06/15/2012",
	},
	{
		"name": "JIMGO",
		"latitude": "33-36-42.87 N",
		"longitude": "87-49-13.75 W",
		"state": "ALABAMA",
		"artcc": "ZME",
		"type": "RNAV",
		"updated": "06/06/2011",
	},
	{
		"name": "JIMIN",
		"latitude": "35-44-29.86 N",
		"longitude": "89-49-34.05 W",
		"state": "TENNESSEE",
		"artcc": "ZME",
		"type": "RNAV",
		"updated": "03/25/2008",
	},
	{
		"name": "JIMIS",
		"latitude": "35-49-58.82 N",
		"longitude": "85-43-41.66 W",
		"state": "TENNESSEE",
		"artcc": "ZME",
		"type": "RP",
		"updated": "05/06/2016",
	},
	{
		"name": "JINED",
		"latitude": "33-13-43.76 N",
		"longitude": "89-41-38.3 W",
		"state": "MISSISSIPPI",
		"artcc": "ZME",
		"type": "RNAV",
		"updated": "03/07/2005",
	},
	{
		"name": "JINOM",
		"latitude": "36-25-25.22 N",
		"longitude": "91-24-41.27 W",
		"state": "ARKANSAS",
		"artcc": "ZME",
		"type": "RNAV",
		"updated": "05/07/2007",
	},
	{
		"name": "JIPGO",
		"latitude": "36-54-18.48 N",
		"longitude": "88-36-22.59 W",
		"state": "KENTUCKY",
		"artcc": "ZME",
		"type": "RNAV",
		"updated": "06/21/2013",
	},
	{
		"name": "JIRUR",
		"latitude": "34-42-0.32 N",
		"longitude": "92-15-59.87 W",
		"state": "ARKANSAS",
		"artcc": "ZME",
		"type": "RP",
		"updated": "LIT*VORTAC*282.52",
	},
	{
		"name": "JISEP",
		"latitude": "35-48-33.45 N",
		"longitude": "90-9-18.43 W",
		"state": "ARKANSAS",
		"artcc": "ZME",
		"type": "RNAV",
		"updated": "08/09/2013",
	},
	{
		"name": "JISIR",
		"latitude": "36-1-19.48 N",
		"longitude": "88-49-54.21 W",
		"state": "TENNESSEE",
		"artcc": "ZME",
		"type": "RNAV",
		"updated": "07/26/2016",
	},
	{
		"name": "JISRU",
		"latitude": "33-34-37.34 N",
		"longitude": "90-58-30.18 W",
		"state": "MISSISSIPPI",
		"artcc": "ZME",
		"type": "RP",
		"updated": "GLH*VOR/DME*003.04/3.23",
	},
	{
		"name": "JITBA",
		"latitude": "36-6-37.34 N",
		"longitude": "94-8-44.45 W",
		"state": "ARKANSAS",
		"artcc": "ZME",
		"type": "RNAV",
		"updated": "09/18/2015",
	},
	{
		"name": "JITIT",
		"latitude": "33-47-48.57 N",
		"longitude": "88-37-44.22 W",
		"state": "MISSISSIPPI",
		"artcc": "ZME",
		"type": "MW",
		"updated": "03/20/2008",
	},
	{
		"name": "JITRU",
		"latitude": "35-55-36.91 N",
		"longitude": "90-9-15.73 W",
		"state": "ARKANSAS",
		"artcc": "ZME",
		"type": "RNAV",
		"updated": "08/06/2013",
	},
	{
		"name": "JIVAR",
		"latitude": "33-48-34.45 N",
		"longitude": "88-6-14.54 W",
		"state": "ALABAMA",
		"artcc": "ZME",
		"type": "RNAV",
		"updated": "06/15/2010",
	},
	{
		"name": "JIVOD",
		"latitude": "34-45-40.26 N",
		"longitude": "90-16-35.53 W",
		"state": "MISSISSIPPI",
		"artcc": "ZME",
		"type": "RP",
		"updated": "MEM*VORTAC*222.67/21.00",
	},
	{
		"name": "JIXOR",
		"latitude": "35-47-46.39 N",
		"longitude": "86-1-41.58 W",
		"state": "TENNESSEE",
		"artcc": "ZME",
		"type": "RNAV",
		"updated": "05/06/2016",
	},
	{
		"name": "JJEFF",
		"latitude": "36-9-17.77 N",
		"longitude": "88-19-51.29 W",
		"state": "TENNESSEE",
		"artcc": "ZME",
		"type": "RNAV",
		"updated": "09/14/2012",
	},
	{
		"name": "JNKNS",
		"latitude": "36-14-31.13 N",
		"longitude": "86-44-52.84 W",
		"state": "TENNESSEE",
		"artcc": "ZME",
		"type": "RNAV",
		"updated": "09/24/2012",
	},
	{
		"name": "JOBIV",
		"latitude": "33-31-39.03 N",
		"longitude": "90-5-13.82 W",
		"state": "MISSISSIPPI",
		"artcc": "ZME",
		"type": "RNAV",
		"updated": "01/25/2013",
	},
	{
		"name": "JOBOK",
		"latitude": "34-49-35.21 N",
		"longitude": "94-39-42.94 W",
		"state": "OKLAHOMA",
		"artcc": "ZME",
		"type": "RNAV",
		"updated": "06/30/2003",
	},
	{
		"name": "JOBTA",
		"latitude": "34-49-58.6 N",
		"longitude": "87-50-42.57 W",
		"state": "ALABAMA",
		"artcc": "ZME",
		"type": "RP",
		"updated": "HAB*VORTAC*010.21",
	},
	{
		"name": "JOBZO",
		"latitude": "36-7-4.62 N",
		"longitude": "86-30-51.72 W",
		"state": "TENNESSEE",
		"artcc": "ZME",
		"type": "RNAV",
		"updated": "06/16/2015",
	},
	{
		"name": "JODGA",
		"latitude": "34-24-20.31 N",
		"longitude": "92-32-12.84 W",
		"state": "ARKANSAS",
		"artcc": "ZME",
		"type": "RNAV",
		"updated": "03/08/2007",
	},
	{
		"name": "JODIB",
		"latitude": "34-23-12.76 N",
		"longitude": "89-45-53 W",
		"state": "MISSISSIPPI",
		"artcc": "ZME",
		"type": "RP",
		"updated": "HLI*VORTAC*207.13",
	},
	{
		"name": "JODOX",
		"latitude": "33-40-0 N",
		"longitude": "92-10-0 W",
		"state": "ARKANSAS",
		"artcc": "ZME",
		"type": "RNAV",
		"updated": "02/16/2006",
	},
	{
		"name": "JOEEY",
		"latitude": "35-59-47.89 N",
		"longitude": "88-29-16.86 W",
		"state": "TENNESSEE",
		"artcc": "ZME",
		"type": "RNAV",
		"updated": "08/07/2013",
	},
	{
		"name": "JOELY",
		"latitude": "36-59-11.22 N",
		"longitude": "88-33-48.71 W",
		"state": "KENTUCKY",
		"artcc": "ZME",
		"type": "RNAV",
		"updated": "04/23/2013",
	},
	{
		"name": "JOGAM",
		"latitude": "33-3-31.23 N",
		"longitude": "88-18-10.24 W",
		"state": "ALABAMA",
		"artcc": "ZME",
		"type": "RNAV",
		"updated": "02/25/2014",
	},
	{
		"name": "JOGIS",
		"latitude": "36-14-33.48 N",
		"longitude": "86-52-1.59 W",
		"state": "TENNESSEE",
		"artcc": "ZME",
		"type": "RP",
		"updated": "JWN*LD*017.76/4.30",
	},
	{
		"name": "JOGLO",
		"latitude": "36-9-26.76 N",
		"longitude": "86-46-43.87 W",
		"state": "TENNESSEE",
		"artcc": "ZME",
		"type": "RNAV",
		"updated": "09/25/2012",
	},
	{
		"name": "JOGNA",
		"latitude": "36-27-13.13 N",
		"longitude": "86-59-22.3 W",
		"state": "TENNESSEE",
		"artcc": "ZME",
		"type": "RP",
		"updated": "BNA*VORTAC*324.17",
	},
	{
		"name": "JOGUB",
		"latitude": "35-59-52.33 N",
		"longitude": "86-20-37.5 W",
		"state": "TENNESSEE",
		"artcc": "ZME",
		"type": "RNAV",
		"updated": "09/15/2008",
	},
	{
		"name": "JOGUM",
		"latitude": "33-42-51.44 N",
		"longitude": "88-31-44.55 W",
		"state": "MISSISSIPPI",
		"artcc": "ZME",
		"type": "MW",
		"updated": "03/27/2007",
	},
	{
		"name": "JOGUV",
		"latitude": "34-58-2.64 N",
		"longitude": "85-57-7.4 W",
		"state": "ALABAMA",
		"artcc": "ZME",
		"type": "RNAV",
		"updated": "06/16/2008",
	},
	{
		"name": "JOHNY",
		"latitude": "34-11-30.57 N",
		"longitude": "87-11-43.84 W",
		"state": "ALABAMA",
		"artcc": "ZME",
		"type": "RP",
		"updated": "DCU*VOR/DME*206.00",
	},
	{
		"name": "JOHRU",
		"latitude": "35-32-41.98 N",
		"longitude": "91-10-39.05 W",
		"state": "ARKANSAS",
		"artcc": "ZME",
		"type": "RNAV",
		"updated": "07/28/2008",
	},
	{
		"name": "JOIST",
		"latitude": "33-41-35.48 N",
		"longitude": "88-35-20.36 W",
		"state": "MISSISSIPPI",
		"artcc": "ZME",
		"type": "RP",
		"updated": "CBM*VORTAC*292.37",
	},
	{
		"name": "JOKAK",
		"latitude": "33-41-5.96 N",
		"longitude": "90-40-46.8 W",
		"state": "MISSISSIPPI",
		"artcc": "ZME",
		"type": "RNAV",
		"updated": "11/26/2012",
	},
	{
		"name": "JOKAT",
		"latitude": "35-51-14.22 N",
		"longitude": "95-16-29.01 W",
		"state": "OKLAHOMA",
		"artcc": "ZME",
		"type": "RNAV",
		"updated": "06/16/2008",
	},
	{
		"name": "JOLET",
		"latitude": "34-11-55.86 N",
		"longitude": "92-16-14.78 W",
		"state": "ARKANSAS",
		"artcc": "ZME",
		"type": "RNAV",
		"updated": "05/08/2011",
	},
	{
		"name": "JOLIB",
		"latitude": "34-44-56.67 N",
		"longitude": "88-46-29.22 W",
		"state": "MISSISSIPPI",
		"artcc": "ZME",
		"type": "RNAV",
		"updated": "08/16/2010",
	},
	{
		"name": "JOLLI",
		"latitude": "33-27-40.29 N",
		"longitude": "88-38-46.15 W",
		"state": "MISSISSIPPI",
		"artcc": "ZME",
		"type": "MR",
		"updated": "CBM*VORTAC*224.00/15.00",
	},
	{
		"name": "JOMAT",
		"latitude": "35-1-49.14 N",
		"longitude": "91-25-19.31 W",
		"state": "ARKANSAS",
		"artcc": "ZME",
		"type": "RNAV",
		"updated": "06/15/2012",
	},
	{
		"name": "JOMEM",
		"latitude": "33-58-48.74 N",
		"longitude": "90-46-3.89 W",
		"state": "MISSISSIPPI",
		"artcc": "ZME",
		"type": "RNAV",
		"updated": "06/09/2011",
	},
	{
		"name": "JOMOS",
		"latitude": "36-8-38.66 N",
		"longitude": "90-53-45.54 W",
		"state": "ARKANSAS",
		"artcc": "ZME",
		"type": "RNAV",
		"updated": "08/19/2011",
	},
	{
		"name": "JOMPA",
		"latitude": "32-20-36.74 N",
		"longitude": "88-36-21.31 W",
		"state": "MISSISSIPPI",
		"artcc": "ZME",
		"type": "MW",
		"updated": "09/16/2009",
	},
	{
		"name": "JOMVU",
		"latitude": "35-11-19.16 N",
		"longitude": "87-14-40.69 W",
		"state": "TENNESSEE",
		"artcc": "ZME",
		"type": "RNAV",
		"updated": "02/05/2014",
	},
	{
		"name": "JONAG",
		"latitude": "35-56-57.8 N",
		"longitude": "95-24-57.26 W",
		"state": "OKLAHOMA",
		"artcc": "ZME",
		"type": "RNAV",
		"updated": "05/03/2016",
	},
	{
		"name": "JONGI",
		"latitude": "35-59-57 N",
		"longitude": "94-25-12 W",
		"state": "ARKANSAS",
		"artcc": "ZME",
		"type": "RNAV",
		"updated": "09/18/2015",
	},
	{
		"name": "JONIL",
		"latitude": "36-36-29.63 N",
		"longitude": "86-58-12.51 W",
		"state": "TENNESSEE",
		"artcc": "ZME",
		"type": "RNAV",
		"updated": "09/25/2012",
	},
	{
		"name": "JOPBO",
		"latitude": "31-47-45.95 N",
		"longitude": "88-44-40.61 W",
		"state": "MISSISSIPPI",
		"artcc": "ZME",
		"type": "RP",
		"updated": "MEI*VORTAC*170.00/35.00",
	},
	{
		"name": "JOPED",
		"latitude": "34-18-44.7 N",
		"longitude": "86-29-59.63 W",
		"state": "ALABAMA",
		"artcc": "ZME",
		"type": "RNAV",
		"updated": "03/06/2017",
	},
	{
		"name": "JOPGI",
		"latitude": "35-49-20.51 N",
		"longitude": "86-15-24.47 W",
		"state": "TENNESSEE",
		"artcc": "ZME",
		"type": "RP",
		"updated": "BNA*VORTAC*134.00/28.10",
	},
	{
		"name": "JOPGO",
		"latitude": "34-43-38.46 N",
		"longitude": "90-21-34.55 W",
		"state": "MISSISSIPPI",
		"artcc": "ZME",
		"type": "RNAV",
		"updated": "03/21/2011",
	},
	{
		"name": "JOPIV",
		"latitude": "35-50-53.73 N",
		"longitude": "86-20-55.25 W",
		"state": "TENNESSEE",
		"artcc": "ZME",
		"type": "RP",
		"updated": "SYI*VOR/DME*015.43",
	},
	{
		"name": "JOPMA",
		"latitude": "36-7-46.29 N",
		"longitude": "86-48-20.04 W",
		"state": "TENNESSEE",
		"artcc": "ZME",
		"type": "RNAV",
		"updated": "05/06/2016",
	},
	{
		"name": "JOPRO",
		"latitude": "36-11-22.96 N",
		"longitude": "90-39-1.85 W",
		"state": "ARKANSAS",
		"artcc": "ZME",
		"type": "RNAV",
		"updated": "07/27/2004",
	},
	{
		"name": "JOREG",
		"latitude": "34-47-10.82 N",
		"longitude": "92-7-53.83 W",
		"state": "ARKANSAS",
		"artcc": "ZME",
		"type": "RP",
		"updated": "BWY*LD*NE CRS/6.05",
	},
	{
		"name": "JORIG",
		"latitude": "35-52-36.42 N",
		"longitude": "91-3-56.78 W",
		"state": "ARKANSAS",
		"artcc": "ZME",
		"type": "RP",
		"updated": "ARG*VORTAC*197.37/15.00",
	},
	{
		"name": "JOROT",
		"latitude": "35-27-33.11 N",
		"longitude": "86-49-22.83 W",
		"state": "TENNESSEE",
		"artcc": "ZME",
		"type": "RNAV",
		"updated": "08/07/2013",
	},
	{
		"name": "JOROV",
		"latitude": "37-8-42.23 N",
		"longitude": "87-49-0.43 W",
		"state": "KENTUCKY",
		"artcc": "ZME",
		"type": "RNAV",
		"updated": "06/06/2013",
	},
	{
		"name": "JOSAL",
		"latitude": "36-44-36.85 N",
		"longitude": "87-24-20.14 W",
		"state": "KENTUCKY",
		"artcc": "ZME",
		"type": "MR",
		"updated": "CKV*VOR/DME*003.68/7.29",
	},
	{
		"name": "JOSAS",
		"latitude": "33-28-14.54 N",
		"longitude": "91-52-29.04 W",
		"state": "ARKANSAS",
		"artcc": "ZME",
		"type": "RNAV",
		"updated": "06/12/2008",
	},
	{
		"name": "JOSEP",
		"latitude": "34-15-41.14 N",
		"longitude": "86-37-34.79 W",
		"state": "ALABAMA",
		"artcc": "ZME",
		"type": "RP",
		"updated": "VUZ*VORTAC*019.00",
	},
	{
		"name": "JOSRO",
		"latitude": "36-3-31.96 N",
		"longitude": "86-42-20.62 W",
		"state": "TENNESSEE",
		"artcc": "ZME",
		"type": "RP",
		"updated": "BNA*VORTAC*/4.79",
	},
	{
		"name": "JOTEK",
		"latitude": "32-16-48.68 N",
		"longitude": "90-8-43.06 W",
		"state": "MISSISSIPPI",
		"artcc": "ZME",
		"type": "RP",
		"updated": "MHZ*VORTAC*195.11/9.50",
	},
	{
		"name": "JOTVI",
		"latitude": "33-45-13.78 N",
		"longitude": "88-24-10.65 W",
		"state": "MISSISSIPPI",
		"artcc": "ZME",
		"type": "RP",
		"updated": "IGB*VORTAC*015.00/17.00",
	},
	{
		"name": "JOVAB",
		"latitude": "36-3-1.28 N",
		"longitude": "86-41-33.29 W",
		"state": "TENNESSEE",
		"artcc": "ZME",
		"type": "RNAV",
		"updated": "09/18/2012",
	},
	{
		"name": "JOVES",
		"latitude": "34-31-44.75 N",
		"longitude": "92-17-51.83 W",
		"state": "ARKANSAS",
		"artcc": "ZME",
		"type": "RNAV",
		"updated": "11/04/2015",
	},
	{
		"name": "JOVMI",
		"latitude": "35-24-23.51 N",
		"longitude": "88-27-24.87 W",
		"state": "TENNESSEE",
		"artcc": "ZME",
		"type": "RNAV",
		"updated": "08/18/2008",
	},
	{
		"name": "JOVNA",
		"latitude": "35-44-58.35 N",
		"longitude": "86-45-7.16 W",
		"state": "TENNESSEE",
		"artcc": "ZME",
		"type": "RP",
		"updated": "BNA*VORTAC*190.05/23.44",
	},
	{
		"name": "JOVOK",
		"latitude": "31-32-18.89 N",
		"longitude": "88-22-4.13 W",
		"state": "ALABAMA",
		"artcc": "ZME",
		"type": "RNAV",
		"updated": "04/22/2014",
	},
	{
		"name": "JOYER",
		"latitude": "34-58-12.02 N",
		"longitude": "86-35-17.18 W",
		"state": "ALABAMA",
		"artcc": "ZME",
		"type": "RP",
		"updated": "RQZ*VORTAC*010.30/10.60",
	},
	{
		"name": "JTEEE",
		"latitude": "35-44-52.03 N",
		"longitude": "90-2-45.79 W",
		"state": "ARKANSAS",
		"artcc": "ZME",
		"type": "RNAV",
		"updated": "01/17/2012",
	},
	{
		"name": "JUBVU",
		"latitude": "36-13-39.6 N",
		"longitude": "92-41-14.14 W",
		"state": "ARKANSAS",
		"artcc": "ZME",
		"type": "RNAV",
		"updated": "12/22/2016",
	},
	{
		"name": "JUCZU",
		"latitude": "32-16-15.2 N",
		"longitude": "90-3-46.85 W",
		"state": "MISSISSIPPI",
		"artcc": "ZME",
		"type": "RP",
		"updated": "MHZ*VORTAC*/9.95",
	},
	{
		"name": "JUDEK",
		"latitude": "36-3-34.55 N",
		"longitude": "90-30-43.51 W",
		"state": "ARKANSAS",
		"artcc": "ZME",
		"type": "WP",
		"updated": "11/02/1998",
	},
	{
		"name": "JUDIG",
		"latitude": "36-8-26.66 N",
		"longitude": "89-43-57.51 W",
		"state": "MISSOURI",
		"artcc": "ZME",
		"type": "RNAV",
		"updated": "03/26/2008",
	},
	{
		"name": "JUDIM",
		"latitude": "33-17-21.04 N",
		"longitude": "90-53-15.95 W",
		"state": "MISSISSIPPI",
		"artcc": "ZME",
		"type": "RNAV",
		"updated": "02/23/2009",
	},
	{
		"name": "JUDUN",
		"latitude": "33-7-31 N",
		"longitude": "91-13-26.17 W",
		"state": "ARKANSAS",
		"artcc": "ZME",
		"type": "RP",
		"updated": "GLH*VOR/DME*203.00/26.75",
	},
	{
		"name": "JUGAG",
		"latitude": "33-41-13.33 N",
		"longitude": "91-42-54.63 W",
		"state": "ARKANSAS",
		"artcc": "ZME",
		"type": "RNAV",
		"updated": "06/12/2008",
	},
	{
		"name": "JUGUK",
		"latitude": "36-14-2.95 N",
		"longitude": "85-38-20.45 W",
		"state": "TENNESSEE",
		"artcc": "ZME",
		"type": "RNAV",
		"updated": "04/17/2013",
	},
	{
		"name": "JUKIN",
		"latitude": "35-24-6.25 N",
		"longitude": "86-10-49.34 W",
		"state": "TENNESSEE",
		"artcc": "ZME",
		"type": "RNAV",
		"updated": "06/16/2008",
	},
	{
		"name": "JUKNO",
		"latitude": "36-55-13.7 N",
		"longitude": "91-54-6.7 W",
		"state": "MISSOURI",
		"artcc": "ZME",
		"type": "RNAV",
		"updated": "09/14/2010",
	},
	{
		"name": "JULAP",
		"latitude": "36-21-56.1 N",
		"longitude": "92-28-11.79 W",
		"state": "ARKANSAS",
		"artcc": "ZME",
		"type": "RP",
		"updated": "FLP*VOR/DME*348.93/3.99",
	},
	{
		"name": "JULRO",
		"latitude": "34-54-21.48 N",
		"longitude": "92-11-4.68 W",
		"state": "ARKANSAS",
		"artcc": "ZME",
		"type": "MW",
		"updated": "03/06/2007",
	},
	{
		"name": "JULTU",
		"latitude": "33-31-27.01 N",
		"longitude": "90-5-14.17 W",
		"state": "MISSISSIPPI",
		"artcc": "ZME",
		"type": "RP",
		"updated": "SQS*VORTAC*066.20",
	},
	{
		"name": "JUMAM",
		"latitude": "37-18-2.04 N",
		"longitude": "87-38-23.87 W",
		"state": "KENTUCKY",
		"artcc": "ZME",
		"type": "RNAV",
		"updated": "11/02/2016",
	},
	{
		"name": "JUMKU",
		"latitude": "33-35-18.27 N",
		"longitude": "87-58-44.22 W",
		"state": "ALABAMA",
		"artcc": "ZME",
		"type": "RNAV",
		"updated": "08/01/2012",
	},
	{
		"name": "JUNFU",
		"latitude": "34-39-55.62 N",
		"longitude": "88-42-27.11 W",
		"state": "MISSISSIPPI",
		"artcc": "ZME",
		"type": "RNAV",
		"updated": "08/12/2013",
	},
	{
		"name": "JUPAD",
		"latitude": "33-38-29.24 N",
		"longitude": "88-34-41.93 W",
		"state": "MISSISSIPPI",
		"artcc": "ZME",
		"type": "MR",
		"updated": "CBM*VORTAC*270.00/7.00",
	},
	{
		"name": "JUPDA",
		"latitude": "33-53-48.47 N",
		"longitude": "91-27-59.64 W",
		"state": "ARKANSAS",
		"artcc": "ZME",
		"type": "RP",
		"updated": "PBF*VOR/DME*128.33/31.05",
	},
	{
		"name": "JUPEB",
		"latitude": "35-3-27.43 N",
		"longitude": "94-56-31.54 W",
		"state": "OKLAHOMA",
		"artcc": "ZME",
		"type": "RNAV",
		"updated": "02/20/2014",
	},
	{
		"name": "JUPES",
		"latitude": "34-36-48.57 N",
		"longitude": "86-55-47.83 W",
		"state": "ALABAMA",
		"artcc": "ZME",
		"type": "RNAV",
		"updated": "11/03/2014",
	},
	{
		"name": "JUPIV",
		"latitude": "33-40-56.42 N",
		"longitude": "90-52-56.01 W",
		"state": "MISSISSIPPI",
		"artcc": "ZME",
		"type": "RNAV",
		"updated": "01/14/2009",
	},
	{
		"name": "JUPSI",
		"latitude": "34-3-3.35 N",
		"longitude": "88-4-29.68 W",
		"state": "ALABAMA",
		"artcc": "ZME",
		"type": "RNAV",
		"updated": "06/15/2010",
	},
	{
		"name": "JURMA",
		"latitude": "35-45-25.82 N",
		"longitude": "95-6-54.91 W",
		"state": "OKLAHOMA",
		"artcc": "ZME",
		"type": "RNAV",
		"updated": "04/28/2008",
	},
	{
		"name": "JURUM",
		"latitude": "36-26-50.7 N",
		"longitude": "93-4-58.26 W",
		"state": "ARKANSAS",
		"artcc": "ZME",
		"type": "RNAV",
		"updated": "12/29/2010",
	},
	{
		"name": "JUSBU",
		"latitude": "35-28-16.97 N",
		"longitude": "86-26-28.58 W",
		"state": "TENNESSEE",
		"artcc": "ZME",
		"type": "RNAV",
		"updated": "06/18/2008",
	},
	{
		"name": "JUSES",
		"latitude": "35-11-8.19 N",
		"longitude": "89-2-51.39 W",
		"state": "TENNESSEE",
		"artcc": "ZME",
		"type": "RNAV",
		"updated": "12/04/2014",
	},
	{
		"name": "JUSGA",
		"latitude": "33-40-58.7 N",
		"longitude": "92-23-40.22 W",
		"state": "ARKANSAS",
		"artcc": "ZME",
		"type": "RP",
		"updated": "ELD*VOR/DME*027.36/31.00",
	},
	{
		"name": "JUSIM",
		"latitude": "36-6-19.74 N",
		"longitude": "91-48-13.74 W",
		"state": "ARKANSAS",
		"artcc": "ZME",
		"type": "RNAV",
		"updated": "01/04/2013",
	},
	{
		"name": "JUSMA",
		"latitude": "35-50-33.03 N",
		"longitude": "88-51-58.26 W",
		"state": "TENNESSEE",
		"artcc": "ZME",
		"type": "RNAV",
		"updated": "07/26/2016",
	},
	{
		"name": "JUSNO",
		"latitude": "34-48-7.98 N",
		"longitude": "88-57-18.3 W",
		"state": "MISSISSIPPI",
		"artcc": "ZME",
		"type": "RNAV",
		"updated": "12/08/2006",
	},
	{
		"name": "JUSON",
		"latitude": "35-20-4.28 N",
		"longitude": "90-20-2.29 W",
		"state": "ARKANSAS",
		"artcc": "ZME",
		"type": "RNAV",
		"updated": "12/17/2009",
	},
	{
		"name": "JUTEN",
		"latitude": "31-40-9.22 N",
		"longitude": "89-20-14.3 W",
		"state": "MISSISSIPPI",
		"artcc": "ZME",
		"type": "RP",
		"updated": "LBY*VORTAC*335.06/15.00",
	},
	{
		"name": "JUTTI",
		"latitude": "33-27-40.55 N",
		"longitude": "90-10-34.31 W",
		"state": "MISSISSIPPI",
		"artcc": "ZME",
		"type": "WP",
		"updated": "11/02/1998",
	},
	{
		"name": "JUTVO",
		"latitude": "37-21-5.18 N",
		"longitude": "88-3-59.14 W",
		"state": "KENTUCKY",
		"artcc": "ZME",
		"type": "RNAV",
		"updated": "01/10/2013",
	},
	{
		"name": "JUUDD",
		"latitude": "36-12-14.65 N",
		"longitude": "86-37-51.71 W",
		"state": "TENNESSEE",
		"artcc": "ZME",
		"type": "RP",
		"updated": "SSX*LD*021.00/6.03",
	},
	{
		"name": "JUUDY",
		"latitude": "33-12-26.83 N",
		"longitude": "88-25-46.41 W",
		"state": "MISSISSIPPI",
		"artcc": "ZME",
		"type": "MR",
		"updated": "CBM*VORTAC*179.00/26.00",
	},
	{
		"name": "JUVAT",
		"latitude": "34-20-25.81 N",
		"longitude": "86-25-36.72 W",
		"state": "ALABAMA",
		"artcc": "ZME",
		"type": "RNAV",
		"updated": "03/06/2017",
	},
	{
		"name": "JUVLO",
		"latitude": "34-30-5.09 N",
		"longitude": "87-5-23.61 W",
		"state": "ALABAMA",
		"artcc": "ZME",
		"type": "RP",
		"updated": "RQZ*VORTAC*230.00/28.70",
	},
	{
		"name": "JUXAV",
		"latitude": "37-11-17.27 N",
		"longitude": "89-35-19.23 W",
		"state": "MISSOURI",
		"artcc": "ZME",
		"type": "RNAV",
		"updated": "04/22/2013",
	},
	{
		"name": "JWOOD",
		"latitude": "34-52-12.6 N",
		"longitude": "92-18-32.4 W",
		"state": "ARKANSAS",
		"artcc": "ZME",
		"type": "RNAV",
		"updated": "04/09/2013",
	},
	{
		"name": "JYSON",
		"latitude": "35-10-20.73 N",
		"longitude": "88-53-41.34 W",
		"state": "TENNESSEE",
		"artcc": "ZME",
		"type": "RNAV",
		"updated": "06/15/2012",
	},
