	{
		"name": "KADNE",
		"latitude": "35-3-56.1 N",
		"longitude": "93-20-5.59 W",
		"state": "ARKANSAS",
		"artcc": "ZME",
		"type": "RNAV",
		"updated": "08/15/2016",
	},
	{
		"name": "KADTI",
		"latitude": "35-36-43.29 N",
		"longitude": "86-26-35.5 W",
		"state": "TENNESSEE",
		"artcc": "ZME",
		"type": "RNAV",
		"updated": "06/20/2008",
	},
	{
		"name": "KAGBE",
		"latitude": "34-38-2.49 N",
		"longitude": "92-14-29.34 W",
		"state": "ARKANSAS",
		"artcc": "ZME",
		"type": "RNAV",
		"updated": "02/09/2018",
	},
	{
		"name": "KALIE",
		"latitude": "35-12-8.01 N",
		"longitude": "90-13-44.62 W",
		"state": "ARKANSAS",
		"artcc": "ZME",
		"type": "RP",
		"updated": "UJM*VOR/DME*029.20",
	},
	{
		"name": "KANGE",
		"latitude": "36-9-19.31 N",
		"longitude": "94-13-15.64 W",
		"state": "ARKANSAS",
		"artcc": "ZME",
		"type": "RNAV",
		"updated": "11/15/2012",
	},
	{
		"name": "KAPUT",
		"latitude": "37-11-59.06 N",
		"longitude": "89-27-35.91 W",
		"state": "ILLINOIS",
		"artcc": "ZME",
		"type": "RP",
		"updated": "CGI*VOR/DME*109.14/5.64",
	},
	{
		"name": "KAPVE",
		"latitude": "33-37-45.16 N",
		"longitude": "88-44-1.67 W",
		"state": "MISSISSIPPI",
		"artcc": "ZME",
		"type": "RP",
		"updated": "IGB*VORTAC*304.00/14.00",
	},
	{
		"name": "KATBE",
		"latitude": "34-46-51.64 N",
		"longitude": "90-22-28.58 W",
		"state": "MISSISSIPPI",
		"artcc": "ZME",
		"type": "RNAV",
		"updated": "03/21/2011",
	},
	{
		"name": "KAYER",
		"latitude": "32-31-28.67 N",
		"longitude": "90-10-17.4 W",
		"state": "MISSISSIPPI",
		"artcc": "ZME",
		"type": "RNAV",
		"updated": "07/18/2013",
	},
	{
		"name": "KAZDU",
		"latitude": "34-21-50.84 N",
		"longitude": "86-49-26.09 W",
		"state": "ALABAMA",
		"artcc": "ZME",
		"type": "RP",
		"updated": "MSL*VORTAC*120.63/38.94",
	},
	{
		"name": "KAZER",
		"latitude": "35-51-24.86 N",
		"longitude": "87-32-32.66 W",
		"state": "TENNESSEE",
		"artcc": "ZME",
		"type": "RNAV",
		"updated": "05/12/2011",
	},
	{
		"name": "KEEZE",
		"latitude": "34-51-40.42 N",
		"longitude": "89-53-2.25 W",
		"state": "MISSISSIPPI",
		"artcc": "ZME",
		"type": "RP",
		"updated": "MEM*VORTAC*151.00/10.44",
	},
	{
		"name": "KEGYE",
		"latitude": "36-10-21.06 N",
		"longitude": "93-57-35.72 W",
		"state": "ARKANSAS",
		"artcc": "ZME",
		"type": "RP",
		"updated": "RZC*VORTAC*115.36/9.00",
	},
	{
		"name": "KEHOE",
		"latitude": "35-10-2.34 N",
		"longitude": "90-14-2.66 W",
		"state": "ARKANSAS",
		"artcc": "ZME",
		"type": "RP",
		"updated": "LWR*LD*359.55/2.70",
	},
	{
		"name": "KEKWO",
		"latitude": "33-32-50.84 N",
		"longitude": "88-35-25.51 W",
		"state": "MISSISSIPPI",
		"artcc": "ZME",
		"type": "RNAV",
		"updated": "10/02/2012",
	},
	{
		"name": "KELLO",
		"latitude": "36-16-16.71 N",
		"longitude": "87-13-31.55 W",
		"state": "TENNESSEE",
		"artcc": "ZME",
		"type": "RNAV",
		"updated": "09/14/2012",
	},
	{
		"name": "KELNE",
		"latitude": "35-51-53.58 N",
		"longitude": "88-18-52.37 W",
		"state": "TENNESSEE",
		"artcc": "ZME",
		"type": "RP",
		"updated": "BNA*VORTAC*260.87/81.00",
	},
	{
		"name": "KELPY",
		"latitude": "35-25-15.72 N",
		"longitude": "85-57-19.17 W",
		"state": "TENNESSEE",
		"artcc": "ZME",
		"type": "RNAV",
		"updated": "06/29/2011",
	},
	{
		"name": "KENCE",
		"latitude": "34-25-47.88 N",
		"longitude": "87-43-0.93 W",
		"state": "ALABAMA",
		"artcc": "ZME",
		"type": "RNAV",
		"updated": "08/10/2007",
	},
	{
		"name": "KERMI",
		"latitude": "34-43-53.39 N",
		"longitude": "88-9-16.82 W",
		"state": "MISSISSIPPI",
		"artcc": "ZME",
		"type": "RP",
		"updated": "HAB*VORTAC*345.50",
	},
	{
		"name": "KEVNE",
		"latitude": "33-17-21.13 N",
		"longitude": "90-59-13.84 W",
		"state": "MISSISSIPPI",
		"artcc": "ZME",
		"type": "RNAV",
		"updated": "01/14/2009",
	},
	{
		"name": "KEVON",
		"latitude": "34-35-23.85 N",
		"longitude": "86-42-44.59 W",
		"state": "ALABAMA",
		"artcc": "ZME",
		"type": "MR",
		"updated": "RQZ*VORTAC*195.40/13.01",
	},
	{
		"name": "KEYSE",
		"latitude": "35-36-26.25 N",
		"longitude": "86-8-49.95 W",
		"state": "TENNESSEE",
		"artcc": "ZME",
		"type": "RP",
		"updated": "SYI*VOR/DME*080.16/14.54",
	},
	{
		"name": "KICEG",
		"latitude": "34-44-6.58 N",
		"longitude": "92-12-5.37 W",
		"state": "ARKANSAS",
		"artcc": "ZME",
		"type": "RP",
		"updated": "BWY*LD*NE CRS/1.44",
	},
	{
		"name": "KIDHU",
		"latitude": "35-19-58.51 N",
		"longitude": "90-7-48.98 W",
		"state": "ARKANSAS",
		"artcc": "ZME",
		"type": "RNAV",
		"updated": "12/17/2009",
	},
	{
		"name": "KIIWI",
		"latitude": "36-5-43.89 N",
		"longitude": "86-47-7.77 W",
		"state": "TENNESSEE",
		"artcc": "ZME",
		"type": "RNAV",
		"updated": "10/03/2012",
	},
	{
		"name": "KIKDE",
		"latitude": "34-24-48.64 N",
		"longitude": "88-43-10.28 W",
		"state": "MISSISSIPPI",
		"artcc": "ZME",
		"type": "RP",
		"updated": "08/16/2010",
	},
	{
		"name": "KILPE",
		"latitude": "36-7-8.44 N",
		"longitude": "94-5-35.77 W",
		"state": "ARKANSAS",
		"artcc": "ZME",
		"type": "RNAV",
		"updated": "09/18/2015",
	},
	{
		"name": "KIMEL",
		"latitude": "36-7-40.11 N",
		"longitude": "90-5-9.9 W",
		"state": "MISSOURI",
		"artcc": "ZME",
		"type": "RP",
		"updated": "ARG*VORTAC*084.30",
	},
	{
		"name": "KIMRE",
		"latitude": "35-3-22.55 N",
		"longitude": "89-54-9.16 W",
		"state": "TENNESSEE",
		"artcc": "ZME",
		"type": "RNAV",
		"updated": "06/17/2008",
	},
	{
		"name": "KISMT",
		"latitude": "36-44-3.89 N",
		"longitude": "87-23-39.69 W",
		"state": "KENTUCKY",
		"artcc": "ZME",
		"type": "MR",
		"updated": "HXW*TACAN*054.98/6.00",
	},
	{
		"name": "KISTS",
		"latitude": "34-51-2.05 N",
		"longitude": "88-39-42.1 W",
		"state": "MISSISSIPPI",
		"artcc": "ZME",
		"type": "RNAV",
		"updated": "09/22/2012",
	},
	{
		"name": "KITTZ",
		"latitude": "34-43-29.1 N",
		"longitude": "86-46-48 W",
		"state": "ALABAMA",
		"artcc": "ZME",
		"type": "RP",
		"updated": "RQZ*VORTAC*237.08",
	},
	{
		"name": "KIYEL",
		"latitude": "34-23-48.62 N",
		"longitude": "91-21-39.96 W",
		"state": "ARKANSAS",
		"artcc": "ZME",
		"type": "RP",
		"updated": "PBF*VOR/DME*068.09/29.49",
	},
	{
		"name": "KIYET",
		"latitude": "34-30-14.16 N",
		"longitude": "86-55-53.59 W",
		"state": "ALABAMA",
		"artcc": "ZME",
		"type": "RNAV",
		"updated": "11/03/2014",
	},
	{
		"name": "KLANN",
		"latitude": "36-49-49.07 N",
		"longitude": "88-38-56.16 W",
		"state": "KENTUCKY",
		"artcc": "ZME",
		"type": "RP",
		"updated": "CNG*VOR/DME*136.70/14.00",
	},
	{
		"name": "KLEEN",
		"latitude": "35-11-28.05 N",
		"longitude": "94-49-58.42 W",
		"state": "OKLAHOMA",
		"artcc": "ZME",
		"type": "RP",
		"updated": "PGO*VORTAC*336.21",
	},
	{
		"name": "KLOVE",
		"latitude": "36-20-23.59 N",
		"longitude": "90-42-53.97 W",
		"state": "ARKANSAS",
		"artcc": "ZME",
		"type": "RP",
		"updated": "ARG*VORTAC*036.00/18.00",
	},
	{
		"name": "KM12K",
		"latitude": "32-0-0 N",
		"longitude": "90-0-0 W",
		"state": "MISSISSIPPI",
		"artcc": "ZME",
		"type": "NRS",
		"updated": "03/05/2005",
	},
	{
		"name": "KM15K",
		"latitude": "32-30-0 N",
		"longitude": "90-0-0 W",
		"state": "MISSISSIPPI",
		"artcc": "ZME",
		"type": "NRS",
		"updated": "03/05/2005",
	},
	{
		"name": "KM18K",
		"latitude": "33-0-0 N",
		"longitude": "90-0-0 W",
		"state": "MISSISSIPPI",
		"artcc": "ZME",
		"type": "NRS",
		"updated": "03/05/2005",
	},
	{
		"name": "KM18M",
		"latitude": "33-0-0 N",
		"longitude": "88-0-0 W",
		"state": "ALABAMA",
		"artcc": "ZME",
		"type": "NRS",
		"updated": "03/05/2005",
	},
	{
		"name": "KM21I",
		"latitude": "33-30-0 N",
		"longitude": "92-0-0 W",
		"state": "ARKANSAS",
		"artcc": "ZME",
		"type": "NRS",
		"updated": "03/05/2005",
	},
	{
		"name": "KM21K",
		"latitude": "33-30-0 N",
		"longitude": "90-0-0 W",
		"state": "MISSISSIPPI",
		"artcc": "ZME",
		"type": "NRS",
		"updated": "03/05/2005",
	},
	{
		"name": "KM21M",
		"latitude": "33-30-0 N",
		"longitude": "88-0-0 W",
		"state": "ALABAMA",
		"artcc": "ZME",
		"type": "NRS",
		"updated": "03/05/2005",
	},
	{
		"name": "KM24I",
		"latitude": "34-0-0 N",
		"longitude": "92-0-0 W",
		"state": "ARKANSAS",
		"artcc": "ZME",
		"type": "NRS",
		"updated": "03/05/2005",
	},
	{
		"name": "KM24K",
		"latitude": "34-0-0 N",
		"longitude": "90-0-0 W",
		"state": "MISSISSIPPI",
		"artcc": "ZME",
		"type": "NRS",
		"updated": "03/05/2005",
	},
	{
		"name": "KM24M",
		"latitude": "34-0-0 N",
		"longitude": "88-0-0 W",
		"state": "ALABAMA",
		"artcc": "ZME",
		"type": "NRS",
		"updated": "03/05/2005",
	},
	{
		"name": "KM27G",
		"latitude": "34-30-0 N",
		"longitude": "94-0-0 W",
		"state": "ARKANSAS",
		"artcc": "ZME",
		"type": "NRS",
		"updated": "03/05/2005",
	},
	{
		"name": "KM27I",
		"latitude": "34-30-0 N",
		"longitude": "92-0-0 W",
		"state": "ARKANSAS",
		"artcc": "ZME",
		"type": "NRS",
		"updated": "03/05/2005",
	},
	{
		"name": "KM27K",
		"latitude": "34-30-0 N",
		"longitude": "90-0-0 W",
		"state": "MISSISSIPPI",
		"artcc": "ZME",
		"type": "NRS",
		"updated": "03/05/2005",
	},
	{
		"name": "KM27M",
		"latitude": "34-30-0 N",
		"longitude": "88-0-0 W",
		"state": "ALABAMA",
		"artcc": "ZME",
		"type": "NRS",
		"updated": "03/05/2005",
	},
	{
		"name": "KM30G",
		"latitude": "35-0-0 N",
		"longitude": "94-0-0 W",
		"state": "ARKANSAS",
		"artcc": "ZME",
		"type": "NRS",
		"updated": "03/05/2005",
	},
	{
		"name": "KM30I",
		"latitude": "35-0-0 N",
		"longitude": "92-0-0 W",
		"state": "ARKANSAS",
		"artcc": "ZME",
		"type": "NRS",
		"updated": "03/05/2005",
	},
	{
		"name": "KM30K",
		"latitude": "35-0-0 N",
		"longitude": "90-0-0 W",
		"state": "TENNESSEE",
		"artcc": "ZME",
		"type": "NRS",
		"updated": "03/05/2005",
	},
	{
		"name": "KM30M",
		"latitude": "35-0-0 N",
		"longitude": "88-0-0 W",
		"state": "ALABAMA",
		"artcc": "ZME",
		"type": "NRS",
		"updated": "03/05/2005",
	},
	{
		"name": "KM33G",
		"latitude": "35-30-0 N",
		"longitude": "94-0-0 W",
		"state": "ARKANSAS",
		"artcc": "ZME",
		"type": "NRS",
		"updated": "03/05/2005",
	},
	{
		"name": "KM33I",
		"latitude": "35-30-0 N",
		"longitude": "92-0-0 W",
		"state": "ARKANSAS",
		"artcc": "ZME",
		"type": "NRS",
		"updated": "03/05/2005",
	},
	{
		"name": "KM33K",
		"latitude": "35-30-0 N",
		"longitude": "90-0-0 W",
		"state": "TENNESSEE",
		"artcc": "ZME",
		"type": "NRS",
		"updated": "03/05/2005",
	},
	{
		"name": "KM33M",
		"latitude": "35-30-0 N",
		"longitude": "88-0-0 W",
		"state": "TENNESSEE",
		"artcc": "ZME",
		"type": "NRS",
		"updated": "03/05/2005",
	},
	{
		"name": "KM36G",
		"latitude": "36-0-0 N",
		"longitude": "94-0-0 W",
		"state": "ARKANSAS",
		"artcc": "ZME",
		"type": "NRS",
		"updated": "03/05/2005",
	},
	{
		"name": "KM36I",
		"latitude": "36-0-0 N",
		"longitude": "92-0-0 W",
		"state": "ARKANSAS",
		"artcc": "ZME",
		"type": "NRS",
		"updated": "03/05/2005",
	},
	{
		"name": "KM36K",
		"latitude": "36-0-0 N",
		"longitude": "90-0-0 W",
		"state": "MISSOURI",
		"artcc": "ZME",
		"type": "NRS",
		"updated": "03/05/2005",
	},
	{
		"name": "KM36M",
		"latitude": "36-0-0 N",
		"longitude": "88-0-0 W",
		"state": "TENNESSEE",
		"artcc": "ZME",
		"type": "NRS",
		"updated": "03/05/2005",
	},
	{
		"name": "KM36O",
		"latitude": "36-0-0 N",
		"longitude": "86-0-0 W",
		"state": "TENNESSEE",
		"artcc": "ZME",
		"type": "NRS",
		"updated": "03/05/2005",
	},
	{
		"name": "KM39G",
		"latitude": "36-30-0 N",
		"longitude": "94-0-0 W",
		"state": "MISSOURI",
		"artcc": "ZME",
		"type": "NRS",
		"updated": "03/05/2005",
	},
	{
		"name": "KM39I",
		"latitude": "36-30-0 N",
		"longitude": "92-0-0 W",
		"state": "MISSOURI",
		"artcc": "ZME",
		"type": "NRS",
		"updated": "03/05/2005",
	},
	{
		"name": "KM39K",
		"latitude": "36-30-0 N",
		"longitude": "90-0-0 W",
		"state": "MISSOURI",
		"artcc": "ZME",
		"type": "NRS",
		"updated": "03/05/2005",
	},
	{
		"name": "KM39M",
		"latitude": "36-30-0 N",
		"longitude": "88-0-0 W",
		"state": "TENNESSEE",
		"artcc": "ZME",
		"type": "NRS",
		"updated": "03/05/2005",
	},
	{
		"name": "KM39O",
		"latitude": "36-30-0 N",
		"longitude": "86-0-0 W",
		"state": "TENNESSEE",
		"artcc": "ZME",
		"type": "NRS",
		"updated": "03/05/2005",
	},
	{
		"name": "KM42K",
		"latitude": "37-0-0 N",
		"longitude": "90-0-0 W",
		"state": "MISSOURI",
		"artcc": "ZME",
		"type": "NRS",
		"updated": "03/05/2005",
	},
	{
		"name": "KM42M",
		"latitude": "37-0-0 N",
		"longitude": "88-0-0 W",
		"state": "KENTUCKY",
		"artcc": "ZME",
		"type": "NRS",
		"updated": "03/05/2005",
	},
	{
		"name": "KM42O",
		"latitude": "37-0-0 N",
		"longitude": "86-0-0 W",
		"state": "KENTUCKY",
		"artcc": "ZME",
		"type": "NRS",
		"updated": "03/05/2005",
	},
	{
		"name": "KM45M",
		"latitude": "37-30-0 N",
		"longitude": "88-0-0 W",
		"state": "KENTUCKY",
		"artcc": "ZME",
		"type": "NRS",
		"updated": "03/05/2005",
	},
	{
		"name": "KNNGG",
		"latitude": "36-35-30.8 N",
		"longitude": "86-44-4.03 W",
		"state": "TENNESSEE",
		"artcc": "ZME",
		"type": "RNAV",
		"updated": "09/18/2012",
	},
	{
		"name": "KNSAW",
		"latitude": "34-34-16.96 N",
		"longitude": "87-5-55.22 W",
		"state": "ALABAMA",
		"artcc": "ZME",
		"type": "RNAV",
		"updated": "07/25/2016",
	},
	{
		"name": "KOBRE",
		"latitude": "34-6-11.19 N",
		"longitude": "88-4-40.22 W",
		"state": "ALABAMA",
		"artcc": "ZME",
		"type": "MR",
		"updated": "CBM*VORTAC*033.00/33.00",
	},
	{
		"name": "KOCEG",
		"latitude": "36-28-28.62 N",
		"longitude": "91-29-35.78 W",
		"state": "ARKANSAS",
		"artcc": "ZME",
		"type": "RNAV",
		"updated": "05/07/2007",
	},
	{
		"name": "KOGCE",
		"latitude": "36-5-56.59 N",
		"longitude": "86-19-45.93 W",
		"state": "TENNESSEE",
		"artcc": "ZME",
		"type": "RNAV",
		"updated": "10/09/2008",
	},
	{
		"name": "KOGVE",
		"latitude": "31-40-44.55 N",
		"longitude": "90-10-12.46 W",
		"state": "MISSISSIPPI",
		"artcc": "ZME",
		"type": "RNAV",
		"updated": "11/06/2006",
	},
	{
		"name": "KOJAK",
		"latitude": "35-11-35.86 N",
		"longitude": "86-14-34.46 W",
		"state": "TENNESSEE",
		"artcc": "ZME",
		"type": "RNAV",
		"updated": "06/29/2011",
	},
	{
		"name": "KOLEY",
		"latitude": "34-57-13.63 N",
		"longitude": "89-59-7.42 W",
		"state": "MISSISSIPPI",
		"artcc": "ZME",
		"type": "RP",
		"updated": "OHN*LD*S CRS/5.88",
	},
	{
		"name": "KOMLE",
		"latitude": "32-53-40.77 N",
		"longitude": "89-27-46.85 W",
		"state": "MISSISSIPPI",
		"artcc": "ZME",
		"type": "RNAV",
		"updated": "03/07/2005",
	},
	{
		"name": "KOMMA",
		"latitude": "35-0-52.67 N",
		"longitude": "94-40-39.39 W",
		"state": "OKLAHOMA",
		"artcc": "ZME",
		"type": "RP",
		"updated": "LIT*VORTAC*275.01/124.95",
	},
	{
		"name": "KORKE",
		"latitude": "35-7-13.14 N",
		"longitude": "86-40-41.51 W",
		"state": "TENNESSEE",
		"artcc": "ZME",
		"type": "RNAV",
		"updated": "05/06/2016",
	},
	{
		"name": "KOSLE",
		"latitude": "34-57-26.66 N",
		"longitude": "90-12-23.95 W",
		"state": "MISSISSIPPI",
		"artcc": "ZME",
		"type": "RNAV",
		"updated": "02/11/2012",
	},
	{
		"name": "KOYER",
		"latitude": "36-3-54.32 N",
		"longitude": "86-41-12.09 W",
		"state": "TENNESSEE",
		"artcc": "ZME",
		"type": "RP",
		"updated": "UQU*LD*200.99/4.45",
	},
	{
		"name": "KRAMS",
		"latitude": "34-37-49.52 N",
		"longitude": "93-10-37.86 W",
		"state": "ARKANSAS",
		"artcc": "ZME",
		"type": "RP",
		"updated": "LIT*VORTAC*262.00",
	},
	{
		"name": "KREEK",
		"latitude": "33-52-33.38 N",
		"longitude": "88-43-23.98 W",
		"state": "MISSISSIPPI",
		"artcc": "ZME",
		"type": "MR",
		"updated": "CBM*VORTAC*314.66/20.00",
	},
	{
		"name": "KROCK",
		"latitude": "36-51-30.3 N",
		"longitude": "88-2-16.14 W",
		"state": "KENTUCKY",
		"artcc": "ZME",
		"type": "RP",
		"updated": "CCT*VORTAC*231.03",
	},
	{
		"name": "KRSTA",
		"latitude": "36-43-37.19 N",
		"longitude": "86-23-55.49 W",
		"state": "KENTUCKY",
		"artcc": "ZME",
		"type": "RNAV",
		"updated": "09/18/2012",
	},
	{
		"name": "KT30O",
		"latitude": "35-0-0 N",
		"longitude": "86-0-0 W",
		"state": "TENNESSEE",
		"artcc": "ZME",
		"type": "NRS",
		"updated": "03/05/2005",
	},
	{
		"name": "KT33O",
		"latitude": "35-30-0 N",
		"longitude": "86-0-0 W",
		"state": "TENNESSEE",
		"artcc": "ZME",
		"type": "NRS",
		"updated": "03/05/2005",
	},
	{
		"name": "KUBBY",
		"latitude": "33-23-29.7 N",
		"longitude": "90-5-28.38 W",
		"state": "MISSISSIPPI",
		"artcc": "ZME",
		"type": "RNAV",
		"updated": "01/25/2013",
	},
	{
		"name": "KUCEN",
		"latitude": "36-0-39.17 N",
		"longitude": "85-45-34.72 W",
		"state": "TENNESSEE",
		"artcc": "ZME",
		"type": "RNAV",
		"updated": "02/27/2012",
	},
	{
		"name": "KUCPE",
		"latitude": "34-33-31.37 N",
		"longitude": "86-33-48.31 W",
		"state": "ALABAMA",
		"artcc": "ZME",
		"type": "RNAV",
		"updated": "05/20/2013",
	},
	{
		"name": "KUDCE",
		"latitude": "35-44-8.89 N",
		"longitude": "88-53-11.71 W",
		"state": "TENNESSEE",
		"artcc": "ZME",
		"type": "RNAV",
		"updated": "07/26/2016",
	},
	{
		"name": "KUGCE",
		"latitude": "35-34-33.57 N",
		"longitude": "86-25-56.52 W",
		"state": "TENNESSEE",
		"artcc": "ZME",
		"type": "RNAV",
		"updated": "06/18/2008",
	},
	{
		"name": "KULVE",
		"latitude": "36-45-22.55 N",
		"longitude": "87-23-24.79 W",
		"state": "KENTUCKY",
		"artcc": "ZME",
		"type": "RNAV",
		"updated": "01/05/2006",
	},
	{
		"name": "KUMGE",
		"latitude": "35-11-15.43 N",
		"longitude": "90-12-14.53 W",
		"state": "ARKANSAS",
		"artcc": "ZME",
		"type": "RP",
		"updated": "GQE*VOR/DME*121.26/16.51",
	},
	{
		"name": "KUMRE",
		"latitude": "36-38-46.28 N",
		"longitude": "87-19-39.73 W",
		"state": "KENTUCKY",
		"artcc": "ZME",
		"type": "RNAV",
		"updated": "05/02/2005",
	},
	{
		"name": "KURRE",
		"latitude": "35-44-8.74 N",
		"longitude": "95-7-48.21 W",
		"state": "OKLAHOMA",
		"artcc": "ZME",
		"type": "RNAV",
		"updated": "06/16/2008",
	},
	{
		"name": "KUSBE",
		"latitude": "36-17-22.44 N",
		"longitude": "86-50-25.97 W",
		"state": "TENNESSEE",
		"artcc": "ZME",
		"type": "RNAV",
		"updated": "07/07/2011",
	},
	{
		"name": "KUSEJ",
		"latitude": "34-35-31.45 N",
		"longitude": "92-24-14.75 W",
		"state": "ARKANSAS",
		"artcc": "ZME",
		"type": "RNAV",
		"updated": "01/03/2009",
	},
	{
		"name": "KUSGE",
		"latitude": "36-17-26.49 N",
		"longitude": "93-6-41.1 W",
		"state": "ARKANSAS",
		"artcc": "ZME",
		"type": "RNAV",
		"updated": "09/18/2015",
	},
	{
		"name": "KUTEC",
		"latitude": "32-59-49.97 N",
		"longitude": "89-12-6.2 W",
		"state": "MISSISSIPPI",
		"artcc": "ZME",
		"type": "RNAV",
		"updated": "09/14/2009",
	},
	{
		"name": "KUTKE",
		"latitude": "36-28-43.08 N",
		"longitude": "86-3-49.42 W",
		"state": "TENNESSEE",
		"artcc": "ZME",
		"type": "RNAV",
		"updated": "04/27/2010",
	},
	{
		"name": "KUXYI",
		"latitude": "35-22-18.43 N",
		"longitude": "86-29-16.54 W",
		"state": "TENNESSEE",
		"artcc": "ZME",
		"type": "RP",
		"updated": "SYI*VOR/DME*192.86/11.64",
	},
