	{
		"name": "MACAH",
		"latitude": "34-51-18.28 N",
		"longitude": "86-33-39.76 W",
		"state": "ALABAMA",
		"artcc": "ZME",
		"type": "CN",
		"updated": "01/30/2001",
	},
	{
		"name": "MACEE",
		"latitude": "34-53-15.84 N",
		"longitude": "89-59-2.32 W",
		"state": "MISSISSIPPI",
		"artcc": "ZME",
		"type": "RP",
		"updated": "OHN*LD*179.99/9.84",
	},
	{
		"name": "MACFO",
		"latitude": "37-9-4.23 N",
		"longitude": "88-32-30.82 W",
		"state": "ILLINOIS",
		"artcc": "ZME",
		"type": "RNAV",
		"updated": "11/02/2016",
	},
	{
		"name": "MACIG",
		"latitude": "35-30-33.48 N",
		"longitude": "93-50-38.72 W",
		"state": "ARKANSAS",
		"artcc": "ZME",
		"type": "RP",
		"updated": "FSM*VORTAC*063.81/22.17",
	},
	{
		"name": "MACIM",
		"latitude": "34-20-57.61 N",
		"longitude": "88-22-45.46 W",
		"state": "MISSISSIPPI",
		"artcc": "ZME",
		"type": "CN",
		"updated": "11/01/1999",
	},
	{
		"name": "MACRD",
		"latitude": "36-11-23.4 N",
		"longitude": "86-18-39.35 W",
		"state": "TENNESSEE",
		"artcc": "ZME",
		"type": "RP",
		"updated": "BNA*VORTAC*082.00/18.44",
	},
	{
		"name": "MACUX",
		"latitude": "36-32-13.66 N",
		"longitude": "89-35-59.61 W",
		"state": "MISSOURI",
		"artcc": "ZME",
		"type": "RP",
		"updated": "MAW*VORTAC*091.00/15.10",
	},
	{
		"name": "MACUZ",
		"latitude": "33-29-9.51 N",
		"longitude": "90-40-50.12 W",
		"state": "MISSISSIPPI",
		"artcc": "ZME",
		"type": "RP",
		"updated": "GLH*VOR/DME*094.35/15.33",
	},
	{
		"name": "MACVE",
		"latitude": "34-43-22.89 N",
		"longitude": "89-1-3.85 W",
		"state": "MISSISSIPPI",
		"artcc": "ZME",
		"type": "RP",
		"updated": "HLI*VORTAC*093.68/23.84",
	},
	{
		"name": "MACXI",
		"latitude": "33-27-56 N",
		"longitude": "88-22-55.77 W",
		"state": "MISSISSIPPI",
		"artcc": "ZME",
		"type": "RP",
		"updated": "IGB*VORTAC*096.22/6.70",
	},
	{
		"name": "MADDN",
		"latitude": "34-43-20.78 N",
		"longitude": "90-26-40.06 W",
		"state": "MISSISSIPPI",
		"artcc": "ZME",
		"type": "RP",
		"updated": "MEM*VORTAC*231.54/28.74",
	},
	{
		"name": "MADES",
		"latitude": "35-56-56.81 N",
		"longitude": "93-38-15.91 W",
		"state": "ARKANSAS",
		"artcc": "ZME",
		"type": "RP",
		"updated": "RZC*VORTAC*123.00/29.50",
	},
	{
		"name": "MADLT",
		"latitude": "36-46-23.29 N",
		"longitude": "88-35-20.14 W",
		"state": "KENTUCKY",
		"artcc": "ZME",
		"type": "RP",
		"updated": "CNG*VOR/DME*136.70/18.48",
	},
	{
		"name": "MADZU",
		"latitude": "36-33-57.93 N",
		"longitude": "90-13-39.62 W",
		"state": "MISSOURI",
		"artcc": "ZME",
		"type": "RNAV",
		"updated": "06/08/2007",
	},
	{
		"name": "MAFEP",
		"latitude": "35-23-3.84 N",
		"longitude": "86-15-1.22 W",
		"state": "TENNESSEE",
		"artcc": "ZME",
		"type": "CN",
		"updated": "10/10/2000",
	},
	{
		"name": "MAFHE",
		"latitude": "33-7-30.93 N",
		"longitude": "90-1-32.86 W",
		"state": "MISSISSIPPI",
		"artcc": "ZME",
		"type": "CN",
		"updated": "11/01/1999",
	},
	{
		"name": "MAFIX",
		"latitude": "37-13-32.69 N",
		"longitude": "87-9-34.31 W",
		"state": "KENTUCKY",
		"artcc": "ZME",
		"type": "RP",
		"updated": "CCT*VORTAC*152.99/10.63",
	},
	{
		"name": "MAFOV",
		"latitude": "36-8-5.53 N",
		"longitude": "87-25-56.43 W",
		"state": "TENNESSEE",
		"artcc": "ZME",
		"type": "CN",
		"updated": "10/26/2000",
	},
	{
		"name": "MAFSY",
		"latitude": "36-11-17.04 N",
		"longitude": "94-7-6.8 W",
		"state": "ARKANSAS",
		"artcc": "ZME",
		"type": "CN",
		"updated": "02/06/2012",
	},
	{
		"name": "MAFTI",
		"latitude": "34-7-29.21 N",
		"longitude": "87-59-45.95 W",
		"state": "ALABAMA",
		"artcc": "ZME",
		"type": "RP",
		"updated": "HAB*VORTAC*167.00/4.29",
	},
	{
		"name": "MAFVE",
		"latitude": "34-48-34.65 N",
		"longitude": "89-31-7.82 W",
		"state": "MISSISSIPPI",
		"artcc": "ZME",
		"type": "RP",
		"updated": "HLI*VORTAC*332.03/2.60",
	},
	{
		"name": "MAFXO",
		"latitude": "34-23-5.57 N",
		"longitude": "89-32-12.4 W",
		"state": "MISSISSIPPI",
		"artcc": "ZME",
		"type": "RP",
		"updated": "HLI*VORTAC*181.95/23.17",
	},
	{
		"name": "MAGCS",
		"latitude": "31-40-16.39 N",
		"longitude": "89-10-26.21 W",
		"state": "MISSISSIPPI",
		"artcc": "ZME",
		"type": "RP",
		"updated": "LBY*VORTAC*023.99/17.29",
	},
	{
		"name": "MAGGA",
		"latitude": "35-12-47.22 N",
		"longitude": "93-44-32.8 W",
		"state": "ARKANSAS",
		"artcc": "ZME",
		"type": "RP",
		"updated": "FSM*VORTAC*104.85/28.03",
	},
	{
		"name": "MAGVV",
		"latitude": "33-25-36.6 N",
		"longitude": "88-50-54 W",
		"state": "MISSISSIPPI",
		"artcc": "ZME",
		"type": "CN",
		"updated": "09/12/2002",
	},
	{
		"name": "MAGWU",
		"latitude": "36-8-3.25 N",
		"longitude": "90-54-33.53 W",
		"state": "ARKANSAS",
		"artcc": "ZME",
		"type": "CN",
		"updated": "02/06/2012",
	},
	{
		"name": "MAHJI",
		"latitude": "36-0-15.74 N",
		"longitude": "89-23-59.93 W",
		"state": "TENNESSEE",
		"artcc": "ZME",
		"type": "CN",
		"updated": "10/10/2000",
	},
	{
		"name": "MAHJO",
		"latitude": "36-11-18.77 N",
		"longitude": "94-29-6.69 W",
		"state": "ARKANSAS",
		"artcc": "ZME",
		"type": "RP",
		"updated": "RZC*VORTAC*255.00/18.00",
	},
	{
		"name": "MAHJY",
		"latitude": "33-37-8 N",
		"longitude": "91-21-47.2 W",
		"state": "ARKANSAS",
		"artcc": "ZME",
		"type": "RP",
		"updated": "MON*VOR/DME*075.00/18.00",
	},
	{
		"name": "MAJIT",
		"latitude": "34-43-15.2 N",
		"longitude": "92-13-6.74 W",
		"state": "ARKANSAS",
		"artcc": "ZME",
		"type": "CN",
		"updated": "02/06/2012",
	},
	{
		"name": "MAJMI",
		"latitude": "33-46-24.67 N",
		"longitude": "90-31-21.66 W",
		"state": "MISSISSIPPI",
		"artcc": "ZME",
		"type": "RP",
		"updated": "GLH*VOR/DME*052.87",
	},
	{
		"name": "MAJZU",
		"latitude": "33-52-35.84 N",
		"longitude": "91-31-54.01 W",
		"state": "ARKANSAS",
		"artcc": "ZME",
		"type": "RP",
		"updated": "MON*VOR/DME*022.00/20.97",
	},
	{
		"name": "MAKAW",
		"latitude": "33-35-12.97 N",
		"longitude": "88-40-7.91 W",
		"state": "MISSISSIPPI",
		"artcc": "ZME",
		"type": "RP",
		"updated": "IGB*VORTAC*304.00/9.88",
	},
	{
		"name": "MAKLR",
		"latitude": "36-0-28.43 N",
		"longitude": "88-7-34.69 W",
		"state": "TENNESSEE",
		"artcc": "ZME",
		"type": "CN",
		"updated": "07/14/2009",
	},
	{
		"name": "MALDR",
		"latitude": "37-32-11.78 N",
		"longitude": "87-57-11.39 W",
		"state": "KENTUCKY",
		"artcc": "ZME",
		"type": "CN",
		"updated": "03/19/2003",
	},
	{
		"name": "MALTO",
		"latitude": "36-34-26.3 N",
		"longitude": "89-50-45.4 W",
		"state": "MISSOURI",
		"artcc": "ZME",
		"type": "RNAV",
		"updated": "06/13/2008",
	},
	{
		"name": "MALTS",
		"latitude": "36-1-28.34 N",
		"longitude": "95-27-36.03 W",
		"state": "OKLAHOMA",
		"artcc": "ZME",
		"type": "RP",
		"updated": "OKM*VOR/DME*036.80",
	},
	{
		"name": "MALVE",
		"latitude": "34-22-45.84 N",
		"longitude": "92-41-32.79 W",
		"state": "ARKANSAS",
		"artcc": "ZME",
		"type": "RP",
		"updated": "LIT*VORTAC*230.00/31.04",
	},
	{
		"name": "MANBE",
		"latitude": "36-22-50.66 N",
		"longitude": "94-13-8.47 W",
		"state": "ARKANSAS",
		"artcc": "ZME",
		"type": "RNAV",
		"updated": "10/19/2012",
	},
	{
		"name": "MANDD",
		"latitude": "35-5-13.76 N",
		"longitude": "89-47-16.47 W",
		"state": "TENNESSEE",
		"artcc": "ZME",
		"type": "RP",
		"updated": "MEM*VORTAC*064.79",
	},
	{
		"name": "MANIL",
		"latitude": "34-26-2.8 N",
		"longitude": "88-31-20.5 W",
		"state": "MISSISSIPPI",
		"artcc": "ZME",
		"type": "RNAV",
		"updated": "08/16/2010",
	},
	{
		"name": "MANTT",
		"latitude": "33-37-9.03 N",
		"longitude": "89-8-12.05 W",
		"state": "MISSISSIPPI",
		"artcc": "ZME",
		"type": "MR",
		"updated": "CBM*VORTAC*264.00/35.00",
	},
	{
		"name": "MARBI",
		"latitude": "36-7-41.55 N",
		"longitude": "93-25-57.2 W",
		"state": "ARKANSAS",
		"artcc": "ZME",
		"type": "RP",
		"updated": "RZC*VORTAC*097.75/34.20",
	},
	{
		"name": "MARJG",
		"latitude": "36-9-47.84 N",
		"longitude": "86-40-6.89 W",
		"state": "TENNESSEE",
		"artcc": "ZME",
		"type": "RP",
		"updated": "BNA*VORTAC*/1.76",
	},
	{
		"name": "MARKI",
		"latitude": "34-13-31.54 N",
		"longitude": "93-23-41.74 W",
		"state": "ARKANSAS",
		"artcc": "ZME",
		"type": "RP",
		"updated": "HOT*VOR/DME*221.00/21.41",
	},
	{
		"name": "MARYP",
		"latitude": "36-27-53.03 N",
		"longitude": "92-15-45.46 W",
		"state": "ARKANSAS",
		"artcc": "ZME",
		"type": "WP",
		"updated": "FLP*VOR/DME*040.74/13.70",
	},
	{
		"name": "MASHA",
		"latitude": "34-25-8.52 N",
		"longitude": "86-55-48.39 W",
		"state": "ALABAMA",
		"artcc": "ZME",
		"type": "RP",
		"updated": "RQZ*VORTAC*211.01",
	},
	{
		"name": "MASHH",
		"latitude": "34-43-5.51 N",
		"longitude": "89-15-43.7 W",
		"state": "MISSISSIPPI",
		"artcc": "ZME",
		"type": "RP",
		"updated": "HLI*VORTAC*101.99/12.00",
	},
	{
		"name": "MASOE",
		"latitude": "35-14-26.67 N",
		"longitude": "94-47-56.87 W",
		"state": "OKLAHOMA",
		"artcc": "ZME",
		"type": "RNAV",
		"updated": "07/08/2003",
	},
	{
		"name": "MASPY",
		"latitude": "32-6-26.55 N",
		"longitude": "89-58-22.18 W",
		"state": "MISSISSIPPI",
		"artcc": "ZME",
		"type": "RNAV",
		"updated": "07/18/2013",
	},
	{
		"name": "MATAW",
		"latitude": "35-36-2.59 N",
		"longitude": "86-45-58.62 W",
		"state": "TENNESSEE",
		"artcc": "ZME",
		"type": "RNAV",
		"updated": "08/07/2013",
	},
	{
		"name": "MATCN",
		"latitude": "35-0-44.75 N",
		"longitude": "87-4-47.52 W",
		"state": "TENNESSEE",
		"artcc": "ZME",
		"type": "RNAV",
		"updated": "12/05/2013",
	},
	{
		"name": "MATIE",
		"latitude": "34-5-41.96 N",
		"longitude": "92-33-2.35 W",
		"state": "ARKANSAS",
		"artcc": "ZME",
		"type": "RP",
		"updated": "TXK*VORTAC*058.01/83.70",
	},
	{
		"name": "MAUME",
		"latitude": "34-51-59.42 N",
		"longitude": "92-43-20.6 W",
		"state": "ARKANSAS",
		"artcc": "ZME",
		"type": "RP",
		"updated": "LIT*VORTAC*288.05/29.07",
	},
	{
		"name": "MAVPK",
		"latitude": "34-45-1.83 N",
		"longitude": "87-36-58.46 W",
		"state": "ALABAMA",
		"artcc": "ZME",
		"type": "CN",
		"updated": "07/03/2003",
	},
	{
		"name": "MAVRE",
		"latitude": "34-32-15.37 N",
		"longitude": "91-34-51.92 W",
		"state": "ARKANSAS",
		"artcc": "ZME",
		"type": "RNAV",
		"updated": "08/08/2007",
	},
	{
		"name": "MAWBU",
		"latitude": "36-13-13.48 N",
		"longitude": "88-4-9.43 W",
		"state": "TENNESSEE",
		"artcc": "ZME",
		"type": "RNAV",
		"updated": "07/14/2009",
	},
	{
		"name": "MAXXY",
		"latitude": "36-11-46.67 N",
		"longitude": "86-52-55.86 W",
		"state": "TENNESSEE",
		"artcc": "ZME",
		"type": "RNAV",
		"updated": "10/13/2006",
	},
	{
		"name": "MAYHU",
		"latitude": "36-54-6.82 N",
		"longitude": "87-40-16.19 W",
		"state": "KENTUCKY",
		"artcc": "ZME",
		"type": "MR",
		"updated": "HXW*TACAN*329.00/16.00",
	},
	{
		"name": "MAYJI",
		"latitude": "36-1-15.11 N",
		"longitude": "94-59-39.33 W",
		"state": "OKLAHOMA",
		"artcc": "ZME",
		"type": "RP",
		"updated": "TUL*VORTAC*097.00/40.00",
	},
	{
		"name": "MCGEE",
		"latitude": "31-43-19.23 N",
		"longitude": "90-15-42.7 W",
		"state": "MISSISSIPPI",
		"artcc": "ZME",
		"type": "RP",
		"updated": "MCB*VORTAC*356.57/25.00",
	},
	{
		"name": "MCGHE",
		"latitude": "34-56-27.62 N",
		"longitude": "89-58-14.41 W",
		"state": "MISSISSIPPI",
		"artcc": "ZME",
		"type": "RP",
		"updated": "MYO*LD*180.00/6.63",
	},
	{
		"name": "MCMIN",
		"latitude": "35-41-13.35 N",
		"longitude": "85-37-14.76 W",
		"state": "TENNESSEE",
		"artcc": "ZME",
		"type": "RP",
		"updated": "HCH*VOR/DME*262.01",
	},
	{
		"name": "MCVEY",
		"latitude": "35-15-46.01 N",
		"longitude": "89-59-31.36 W",
		"state": "TENNESSEE",
		"artcc": "ZME",
		"type": "RP",
		"updated": "MEM*VORTAC*/14.84",
	},
	{
		"name": "MEANN",
		"latitude": "36-4-23.77 N",
		"longitude": "86-43-53.99 W",
		"state": "TENNESSEE",
		"artcc": "ZME",
		"type": "RNAV",
		"updated": "05/28/2014",
	},
	{
		"name": "MEBEE",
		"latitude": "35-0-3.36 N",
		"longitude": "89-51-34.12 W",
		"state": "TENNESSEE",
		"artcc": "ZME",
		"type": "RNAV",
		"updated": "12/05/2013",
	},
	{
		"name": "MEEOW",
		"latitude": "34-19-5.14 N",
		"longitude": "93-31-24.94 W",
		"state": "ARKANSAS",
		"artcc": "ZME",
		"type": "RP",
		"updated": "LIT*VORTAC*247.46/70.00",
	},
	{
		"name": "MEGRE",
		"latitude": "33-49-39.71 N",
		"longitude": "91-21-31.52 W",
		"state": "ARKANSAS",
		"artcc": "ZME",
		"type": "RNAV",
		"updated": "11/02/2011",
	},
	{
		"name": "MENEE",
		"latitude": "33-36-12.73 N",
		"longitude": "88-23-17.35 W",
		"state": "MISSISSIPPI",
		"artcc": "ZME",
		"type": "MR",
		"updated": "CBM*VORTAC*132.00/3.40",
	},
	{
		"name": "MENNY",
		"latitude": "35-59-43.22 N",
		"longitude": "86-42-52.29 W",
		"state": "TENNESSEE",
		"artcc": "ZME",
		"type": "RP",
		"updated": "UQU*LD*S CRS/8.80",
	},
	{
		"name": "MERLS",
		"latitude": "35-46-24.5 N",
		"longitude": "92-50-48.63 W",
		"state": "ARKANSAS",
		"artcc": "ZME",
		"type": "RNAV",
		"updated": "11/19/2015",
	},
	{
		"name": "MERRL",
		"latitude": "36-26-10.73 N",
		"longitude": "87-8-45.83 W",
		"state": "TENNESSEE",
		"artcc": "ZME",
		"type": "RNAV",
		"updated": "09/18/2012",
	},
	{
		"name": "MERSY",
		"latitude": "35-30-56.91 N",
		"longitude": "88-57-25.3 W",
		"state": "TENNESSEE",
		"artcc": "ZME",
		"type": "RP",
		"updated": "MKL*LD*203.23/5.98",
	},
	{
		"name": "MESOE",
		"latitude": "36-16-0.75 N",
		"longitude": "86-28-39.31 W",
		"state": "TENNESSEE",
		"artcc": "ZME",
		"type": "RNAV",
		"updated": "09/25/2012",
	},
	{
		"name": "MESSE",
		"latitude": "34-56-49.62 N",
		"longitude": "92-2-22.02 W",
		"state": "ARKANSAS",
		"artcc": "ZME",
		"type": "MW",
		"updated": "09/24/2013",
	},
	{
		"name": "METIE",
		"latitude": "36-6-24.84 N",
		"longitude": "89-38-6.06 W",
		"state": "MISSOURI",
		"artcc": "ZME",
		"type": "RP",
		"updated": "MAW*VORTAC*150.40/30.01",
	},
	{
		"name": "MEVEE",
		"latitude": "33-29-37.86 N",
		"longitude": "90-37-33.26 W",
		"state": "MISSISSIPPI",
		"artcc": "ZME",
		"type": "RNAV",
		"updated": "06/15/2012",
	},
	{
		"name": "MGRIF",
		"latitude": "35-16-10.09 N",
		"longitude": "86-1-50.58 W",
		"state": "TENNESSEE",
		"artcc": "ZME",
		"type": "RNAV",
		"updated": "08/22/2017",
	},
	{
		"name": "MICKE",
		"latitude": "34-47-4.93 N",
		"longitude": "92-8-15.52 W",
		"state": "ARKANSAS",
		"artcc": "ZME",
		"type": "WP",
		"updated": "11/02/1998",
	},
	{
		"name": "MIEDZ",
		"latitude": "35-43-35.59 N",
		"longitude": "90-20-9.38 W",
		"state": "ARKANSAS",
		"artcc": "ZME",
		"type": "RNAV",
		"updated": "09/30/2013",
	},
	{
		"name": "MIENS",
		"latitude": "34-34-36.66 N",
		"longitude": "89-30-59.93 W",
		"state": "MISSISSIPPI",
		"artcc": "ZME",
		"type": "RNAV",
		"updated": "06/15/2016",
	},
	{
		"name": "MINIM",
		"latitude": "33-32-31.14 N",
		"longitude": "88-2-23.62 W",
		"state": "ALABAMA",
		"artcc": "ZME",
		"type": "RP",
		"updated": "LDK*VORTAC*301.00",
	},
	{
		"name": "MINTI",
		"latitude": "33-42-51.81 N",
		"longitude": "90-28-32.42 W",
		"state": "MISSISSIPPI",
		"artcc": "ZME",
		"type": "RP",
		"updated": "GLH*VOR/DME*061.65",
	},
	{
		"name": "MINUS",
		"latitude": "37-6-13.25 N",
		"longitude": "87-16-27.38 W",
		"state": "KENTUCKY",
		"artcc": "ZME",
		"type": "RP",
		"updated": "BWG*VORTAC*282.96/41.28",
	},
	{
		"name": "MIOLA",
		"latitude": "35-28-50.14 N",
		"longitude": "89-23-43.44 W",
		"state": "TENNESSEE",
		"artcc": "ZME",
		"type": "RP",
		"updated": "MKL*VOR/DME*253.91/24.86",
	},
	{
		"name": "MISLE",
		"latitude": "33-24-0 N",
		"longitude": "87-38-0 W",
		"state": "ALABAMA",
		"artcc": "ZME",
		"type": "RNAV",
		"updated": "05/23/2006",
	},
	{
		"name": "MISUE",
		"latitude": "34-51-19.09 N",
		"longitude": "86-33-49.07 W",
		"state": "ALABAMA",
		"artcc": "ZME",
		"type": "RP",
		"updated": "RQZ*VORTAC*042.90/4.91",
	},
	{
		"name": "MIVGE",
		"latitude": "34-47-7.44 N",
		"longitude": "87-42-56.63 W",
		"state": "ALABAMA",
		"artcc": "ZME",
		"type": "RNAV",
		"updated": "02/04/2014",
	},
	{
		"name": "MIZPI",
		"latitude": "36-27-1.02 N",
		"longitude": "89-35-57.75 W",
		"state": "MISSOURI",
		"artcc": "ZME",
		"type": "RNAV",
		"updated": "07/14/2009",
	},
	{
		"name": "MIZZE",
		"latitude": "31-50-2.25 N",
		"longitude": "89-21-16.86 W",
		"state": "MISSISSIPPI",
		"artcc": "ZME",
		"type": "RP",
		"updated": "GCV*VORTAC*309.91/62.69",
	},
	{
		"name": "MLANI",
		"latitude": "35-58-41.7 N",
		"longitude": "86-55-30.52 W",
		"state": "TENNESSEE",
		"artcc": "ZME",
		"type": "RNAV",
		"updated": "05/28/2014",
	},
	{
		"name": "MNFRD",
		"latitude": "35-26-55.12 N",
		"longitude": "89-49-58.66 W",
		"state": "TENNESSEE",
		"artcc": "ZME",
		"type": "RP",
		"updated": "MEM*VORTAC*014.83/27.00",
	},
	{
		"name": "MNNKY",
		"latitude": "36-11-34.55 N",
		"longitude": "86-39-7.47 W",
		"state": "TENNESSEE",
		"artcc": "ZME",
		"type": "RNAV",
		"updated": "02/28/2012",
	},
	{
		"name": "MODIE",
		"latitude": "36-3-58.1 N",
		"longitude": "87-47-14.8 W",
		"state": "TENNESSEE",
		"artcc": "ZME",
		"type": "RNAV",
		"updated": "07/25/2011",
	},
	{
		"name": "MOKXE",
		"latitude": "35-36-23.91 N",
		"longitude": "86-55-12.37 W",
		"state": "TENNESSEE",
		"artcc": "ZME",
		"type": "RNAV",
		"updated": "11/02/2009",
	},
	{
		"name": "MOLVY",
		"latitude": "31-39-45.71 N",
		"longitude": "89-26-5.78 W",
		"state": "MISSISSIPPI",
		"artcc": "ZME",
		"type": "RNAV",
		"updated": "02/05/2010",
	},
	{
		"name": "MOMTE",
		"latitude": "34-29-51.95 N",
		"longitude": "92-4-26.25 W",
		"state": "ARKANSAS",
		"artcc": "ZME",
		"type": "RP",
		"updated": "LIT*VORTAC*148.87/12.00",
	},
	{
		"name": "MONAA",
		"latitude": "35-2-9.1 N",
		"longitude": "89-9-41.32 W",
		"state": "TENNESSEE",
		"artcc": "ZME",
		"type": "RNAV",
		"updated": "12/05/2013",
	},
	{
		"name": "MONSR",
		"latitude": "36-30-13.1 N",
		"longitude": "87-14-29.86 W",
		"state": "KENTUCKY",
		"artcc": "ZME",
		"type": "MR",
		"updated": "HXW*TACAN*131.01/16.00",
	},
	{
		"name": "MOOED",
		"latitude": "33-32-1.33 N",
		"longitude": "88-35-26 W",
		"state": "MISSISSIPPI",
		"artcc": "ZME",
		"type": "RP",
		"updated": "IGB*VORTAC*302.83",
	},
	{
		"name": "MOORY",
		"latitude": "33-28-31.32 N",
		"longitude": "90-29-9.89 W",
		"state": "MISSISSIPPI",
		"artcc": "ZME",
		"type": "RP",
		"updated": "SQS*VORTAC*270.82/10.50",
	},
	{
		"name": "MOPKE",
		"latitude": "32-30-8.47 N",
		"longitude": "90-10-24.33 W",
		"state": "MISSISSIPPI",
		"artcc": "ZME",
		"type": "RNAV",
		"updated": "07/18/2013",
	},
	{
		"name": "MORTE",
		"latitude": "32-39-42.55 N",
		"longitude": "88-32-49.03 W",
		"state": "MISSISSIPPI",
		"artcc": "ZME",
		"type": "MR",
		"updated": "NMM*TACAN*001.00/5.00",
	},
	{
		"name": "MOURE",
		"latitude": "34-26-57.34 N",
		"longitude": "87-5-40.04 W",
		"state": "ALABAMA",
		"artcc": "ZME",
		"type": "MR",
		"updated": "MSL*VORTAC*127.00/25.00",
	},
	{
		"name": "MRCEL",
		"latitude": "35-16-11.3 N",
		"longitude": "89-39-39.91 W",
		"state": "TENNESSEE",
		"artcc": "ZME",
		"type": "RP",
		"updated": "MEM*VORTAC*045.00/22.00",
	},
	{
		"name": "MREON",
		"latitude": "35-15-28.86 N",
		"longitude": "90-11-54.71 W",
		"state": "ARKANSAS",
		"artcc": "ZME",
		"type": "RP",
		"updated": "MEM*VORTAC*323.00/18.00",
	},
	{
		"name": "MRVIN",
		"latitude": "32-14-41.66 N",
		"longitude": "88-46-13.38 W",
		"state": "MISSISSIPPI",
		"artcc": "ZME",
		"type": "RP",
		"updated": "MEI*VORTAC*162.83",
	},
	{
		"name": "MTHEW",
		"latitude": "35-25-48.28 N",
		"longitude": "86-11-11.67 W",
		"state": "TENNESSEE",
		"artcc": "ZME",
		"type": "RNAV",
		"updated": "08/21/2017",
	},
	{
		"name": "MUDHO",
		"latitude": "34-56-29.79 N",
		"longitude": "90-6-25.6 W",
		"state": "MISSISSIPPI",
		"artcc": "ZME",
		"type": "RNAV",
		"updated": "10/14/2014",
	},
	{
		"name": "MUFFN",
		"latitude": "33-52-44.48 N",
		"longitude": "88-7-31.48 W",
		"state": "ALABAMA",
		"artcc": "ZME",
		"type": "RNAV",
		"updated": "06/11/2010",
	},
	{
		"name": "MUFRE",
		"latitude": "34-5-31.32 N",
		"longitude": "93-10-43.8 W",
		"state": "ARKANSAS",
		"artcc": "ZME",
		"type": "RP",
		"updated": "TXK*VORTAC*045.00/56.56",
	},
	{
		"name": "MUGEE",
		"latitude": "36-7-51.83 N",
		"longitude": "86-29-23.12 W",
		"state": "TENNESSEE",
		"artcc": "ZME",
		"type": "RNAV",
		"updated": "09/18/2012",
	},
	{
		"name": "MULBY",
		"latitude": "35-35-50.4 N",
		"longitude": "94-2-12.23 W",
		"state": "ARKANSAS",
		"artcc": "ZME",
		"type": "RP",
		"updated": "FSM*VORTAC*036.00/17.00",
	},
	{
		"name": "MUMDE",
		"latitude": "33-49-23.1 N",
		"longitude": "88-43-28.37 W",
		"state": "MISSISSIPPI",
		"artcc": "ZME",
		"type": "RNAV",
		"updated": "11/10/2009",
	},
	{
		"name": "MUPGE",
		"latitude": "33-11-3.3 N",
		"longitude": "91-52-45.08 W",
		"state": "ARKANSAS",
		"artcc": "ZME",
		"type": "RP",
		"updated": "MON*VOR/DME*196.00/24.07",
	},
	{
		"name": "MUREY",
		"latitude": "36-43-14.5 N",
		"longitude": "88-17-24.01 W",
		"state": "KENTUCKY",
		"artcc": "ZME",
		"type": "RNAV",
		"updated": "02/21/2014",
	},
	{
		"name": "MUSLE",
		"latitude": "35-29-9.82 N",
		"longitude": "93-39-22.98 W",
		"state": "ARKANSAS",
		"artcc": "ZME",
		"type": "RNAV",
		"updated": "10/14/2004",
	},
	{
		"name": "MUUDD",
		"latitude": "36-19-18.01 N",
		"longitude": "86-20-9.1 W",
		"state": "TENNESSEE",
		"artcc": "ZME",
		"type": "RNAV",
		"updated": "05/28/2014",
	},
	{
		"name": "MUVUE",
		"latitude": "36-15-56.82 N",
		"longitude": "92-35-47.35 W",
		"state": "ARKANSAS",
		"artcc": "ZME",
		"type": "RP",
		"updated": "HRO*VOR/DME*091.82/30.08",
	},
	{
		"name": "MUXAH",
		"latitude": "36-39-48.3 N",
		"longitude": "89-51-25.61 W",
		"state": "MISSOURI",
		"artcc": "ZME",
		"type": "CN",
		"updated": "08/29/2000",
	},
	{
		"name": "MUXSI",
		"latitude": "33-26-48.45 N",
		"longitude": "88-50-56.45 W",
		"state": "MISSISSIPPI",
		"artcc": "ZME",
		"type": "WP",
		"updated": "11/02/1998",
	},
	{
		"name": "MUYFI",
		"latitude": "36-26-45.72 N",
		"longitude": "89-57-47.63 W",
		"state": "MISSOURI",
		"artcc": "ZME",
		"type": "CN",
		"updated": "08/15/2000",
	},
	{
		"name": "MYKAL",
		"latitude": "33-52-38.43 N",
		"longitude": "88-43-18 W",
		"state": "MISSISSIPPI",
		"artcc": "ZME",
		"type": "MR",
		"updated": "CBM*VORTAC*315.00/20.00",
	},
	{
		"name": "MYNIE",
		"latitude": "34-39-15.19 N",
		"longitude": "92-18-15.64 W",
		"state": "ARKANSAS",
		"artcc": "ZME",
		"type": "RNAV",
		"updated": "01/03/2009",
	},
	{
		"name": "MYRRH",
		"latitude": "35-56-31.21 N",
		"longitude": "86-26-53.2 W",
		"state": "TENNESSEE",
		"artcc": "ZME",
		"type": "RP",
		"updated": "BNA*VORTAC*/16.41",
	},
