[
	{
		"name": "NAANS",
		"latitude": "36-18-18.1 N",
		"longitude": "93-32-13.99 W",
		"state": "ARKANSAS",
		"artcc": "ZME",
		"type": "RNAV",
		"updated": "09/18/2015"
	},
	{
		"name": "NACBI",
		"latitude": "35-13-32.39 N",
		"longitude": "93-14-44.14 W",
		"state": "ARKANSAS",
		"artcc": "ZME",
		"type": "RNAV",
		"updated": "06/08/2007"
	},
	{
		"name": "NACID",
		"latitude": "36-35-44.47 N",
		"longitude": "90-32-31.61 W",
		"state": "MISSOURI",
		"artcc": "ZME",
		"type": "RNAV",
		"updated": "07/27/2004"
	},
	{
		"name": "NACIL",
		"latitude": "35-45-18.87 N",
		"longitude": "92-12-26.25 W",
		"state": "ARKANSAS",
		"artcc": "ZME",
		"type": "RNAV",
		"updated": "09/11/2003"
	},
	{
		"name": "NAKAA",
		"latitude": "33-29-11.19 N",
		"longitude": "88-15-25.78 W",
		"state": "ALABAMA",
		"artcc": "ZME",
		"type": "MR",
		"updated": "CBM*VORTAC*135.55/13.00"
	},
	{
		"name": "NAKAE",
		"latitude": "35-14-21.48 N",
		"longitude": "94-54-3.11 W",
		"state": "OKLAHOMA",
		"artcc": "ZME",
		"type": "RNAV",
		"updated": "07/31/2003"
	},
	{
		"name": "NAKIY",
		"latitude": "36-38-44.89 N",
		"longitude": "88-14-30.6 W",
		"state": "KENTUCKY",
		"artcc": "ZME",
		"type": "RNAV",
		"updated": "09/18/2012"
	},
	{
		"name": "NAPIC",
		"latitude": "35-45-38.78 N",
		"longitude": "91-24-7.86 W",
		"state": "ARKANSAS",
		"artcc": "ZME",
		"type": "RNAV",
		"updated": "09/19/2010"
	},
	{
		"name": "NAPTY",
		"latitude": "36-38-0.06 N",
		"longitude": "89-43-42.98 W",
		"state": "MISSOURI",
		"artcc": "ZME",
		"type": "RP",
		"updated": "MAW*VORTAC*058.99/10.00"
	},
	{
		"name": "NARDY",
		"latitude": "36-40-49.29 N",
		"longitude": "90-2-53.72 W",
		"state": "MISSOURI",
		"artcc": "ZME",
		"type": "RP",
		"updated": "MAW*VORTAC*315.67/10.00"
	},
	{
		"name": "NARRO",
		"latitude": "33-29-35.17 N",
		"longitude": "88-27-59.87 W",
		"state": "MISSISSIPPI",
		"artcc": "ZME",
		"type": "MR",
		"updated": "CBM*VORTAC*189.00/9.00"
	},
	{
		"name": "NASIC",
		"latitude": "36-34-13.11 N",
		"longitude": "94-1-18.19 W",
		"state": "MISSOURI",
		"artcc": "ZME",
		"type": "RP",
		"updated": "ROG*LD*015.17/13.21"
	},
	{
		"name": "NATAL",
		"latitude": "35-43-12.43 N",
		"longitude": "89-49-6.93 W",
		"state": "TENNESSEE",
		"artcc": "ZME",
		"type": "RP",
		"updated": "GQE*VOR/DME*051.12/39.28"
	},
	{
		"name": "NATBE",
		"latitude": "34-38-19.79 N",
		"longitude": "94-12-13.8 W",
		"state": "ARKANSAS",
		"artcc": "ZME",
		"type": "RNAV",
		"updated": "05/21/2003"
	},
	{
		"name": "NATEZ",
		"latitude": "34-13-50.85 N",
		"longitude": "88-46-11.29 W",
		"state": "MISSISSIPPI",
		"artcc": "ZME",
		"type": "RNAV",
		"updated": "01/27/2015"
	},
	{
		"name": "NAZXO",
		"latitude": "34-39-8.74 N",
		"longitude": "92-28-26.28 W",
		"state": "ARKANSAS",
		"artcc": "ZME",
		"type": "RNAV",
		"updated": "10/30/2001"
	},
	{
		"name": "NEARS",
		"latitude": "36-4-40.71 N",
		"longitude": "94-18-19.02 W",
		"state": "ARKANSAS",
		"artcc": "ZME",
		"type": "RNAV",
		"updated": "09/18/2015"
	},
	{
		"name": "NEBAE",
		"latitude": "36-45-44.6 N",
		"longitude": "89-56-26.46 W",
		"state": "MISSOURI",
		"artcc": "ZME",
		"type": "RP",
		"updated": "MAW*VORTAC*350.52/12.50"
	},
	{
		"name": "NEDUE",
		"latitude": "33-37-42.96 N",
		"longitude": "90-10-49.36 W",
		"state": "MISSISSIPPI",
		"artcc": "ZME",
		"type": "RP",
		"updated": "SQS*VORTAC*023.21/11.00"
	},
	{
		"name": "NEEON",
		"latitude": "33-28-51.49 N",
		"longitude": "89-6-40.93 W",
		"state": "MISSISSIPPI",
		"artcc": "ZME",
		"type": "RP",
		"updated": "IGB*VORTAC*265.65/30.00"
	},
	{
		"name": "NEEVA",
		"latitude": "35-28-45.44 N",
		"longitude": "93-33-16.61 W",
		"state": "ARKANSAS",
		"artcc": "ZME",
		"type": "RNAV",
		"updated": "10/14/2004"
	},
	{
		"name": "NEGNE",
		"latitude": "34-56-43.87 N",
		"longitude": "90-8-7.02 W",
		"state": "MISSISSIPPI",
		"artcc": "ZME",
		"type": "RNAV",
		"updated": "12/08/2009"
	},
	{
		"name": "NEHAI",
		"latitude": "34-12-54.96 N",
		"longitude": "87-8-30.64 W",
		"state": "ALABAMA",
		"artcc": "ZME",
		"type": "MR",
		"updated": "RQZ*VORTAC*214.00/43.00"
	},
	{
		"name": "NEKLY",
		"latitude": "35-51-40.73 N",
		"longitude": "91-10-14.18 W",
		"state": "ARKANSAS",
		"artcc": "ZME",
		"type": "RP",
		"updated": "ARG*VORTAC*211.40/18.26"
	},
	{
		"name": "NELMY",
		"latitude": "33-28-5.21 N",
		"longitude": "89-57-30.98 W",
		"state": "MISSISSIPPI",
		"artcc": "ZME",
		"type": "CN",
		"updated": "11/01/1999"
	},
	{
		"name": "NELRY",
		"latitude": "34-6-19.7 N",
		"longitude": "88-43-37.09 W",
		"state": "MISSISSIPPI",
		"artcc": "ZME",
		"type": "RNAV",
		"updated": "02/11/2014"
	},
	{
		"name": "NELYE",
		"latitude": "33-11-53.33 N",
		"longitude": "90-14-38.81 W",
		"state": "MISSISSIPPI",
		"artcc": "ZME",
		"type": "CN",
		"updated": "11/01/1999"
	},
	{
		"name": "NEMJI",
		"latitude": "36-1-9.75 N",
		"longitude": "86-42-16.07 W",
		"state": "TENNESSEE",
		"artcc": "ZME",
		"type": "RNAV",
		"updated": "05/29/2014"
	},
	{
		"name": "NENLE",
		"latitude": "33-29-2.64 N",
		"longitude": "89-6-41.08 W",
		"state": "MISSISSIPPI",
		"artcc": "ZME",
		"type": "CN",
		"updated": "09/12/2002"
	},
	{
		"name": "NEONS",
		"latitude": "34-9-29.35 N",
		"longitude": "92-23-46.16 W",
		"state": "ARKANSAS",
		"artcc": "ZME",
		"type": "RNAV",
		"updated": "11/04/2015"
	},
	{
		"name": "NEPRE",
		"latitude": "34-16-1.62 N",
		"longitude": "93-38-16.63 W",
		"state": "ARKANSAS",
		"artcc": "ZME",
		"type": "RP",
		"updated": "HOT*VOR/DME*241.17/29.99"
	},
	{
		"name": "NESBT",
		"latitude": "34-50-11.38 N",
		"longitude": "89-58-17.73 W",
		"state": "MISSISSIPPI",
		"artcc": "ZME",
		"type": "RP",
		"updated": "HLI*VORTAC*276.73/23.81"
	},
	{
		"name": "NETAA",
		"latitude": "34-25-56.59 N",
		"longitude": "91-49-0.85 W",
		"state": "ARKANSAS",
		"artcc": "ZME",
		"type": "RP",
		"updated": "LIT*VORTAC*124.09"
	},
	{
		"name": "NEUTO",
		"latitude": "35-4-41.87 N",
		"longitude": "85-50-2.13 W",
		"state": "TENNESSEE",
		"artcc": "ZME",
		"type": "RP",
		"updated": "RMG*VORTAC*326.38/65.27"
	},
	{
		"name": "NEWBB",
		"latitude": "35-44-10.66 N",
		"longitude": "86-24-11.98 W",
		"state": "TENNESSEE",
		"artcc": "ZME",
		"type": "RNAV",
		"updated": "07/25/2016"
	},
	{
		"name": "NEXEW",
		"latitude": "34-1-58.49 N",
		"longitude": "93-8-20.55 W",
		"state": "ARKANSAS",
		"artcc": "ZME",
		"type": "WP",
		"updated": "11/02/1998"
	},
	{
		"name": "NEZRU",
		"latitude": "36-0-43.49 N",
		"longitude": "86-38-42.68 W",
		"state": "TENNESSEE",
		"artcc": "ZME",
		"type": "RNAV",
		"updated": "09/18/2012"
	},
	{
		"name": "NFIVE",
		"latitude": "35-31-14.66 N",
		"longitude": "89-20-26.33 W",
		"state": "TENNESSEE",
		"artcc": "ZME",
		"type": "RP",
		"updated": "MEM*VORTAC*045.00/43.75"
	},
	{
		"name": "NFOUR",
		"latitude": "35-39-16.23 N",
		"longitude": "89-30-42.66 W",
		"state": "TENNESSEE",
		"artcc": "ZME",
		"type": "RP",
		"updated": "MEM*VORTAC*030.00/44.75"
	},
	{
		"name": "NIBCI",
		"latitude": "36-1-29.69 N",
		"longitude": "86-43-15.98 W",
		"state": "TENNESSEE",
		"artcc": "ZME",
		"type": "RNAV",
		"updated": "05/29/2014"
	},
	{
		"name": "NIBIC",
		"latitude": "34-47-29.49 N",
		"longitude": "91-40-20.58 W",
		"state": "ARKANSAS",
		"artcc": "ZME",
		"type": "RNAV",
		"updated": "03/15/2007"
	},
	{
		"name": "NICGI",
		"latitude": "34-43-46.38 N",
		"longitude": "86-41-46.42 W",
		"state": "ALABAMA",
		"artcc": "ZME",
		"type": "MW",
		"updated": "12/10/2015"
	},
	{
		"name": "NICIN",
		"latitude": "35-42-20.12 N",
		"longitude": "91-46-47.45 W",
		"state": "ARKANSAS",
		"artcc": "ZME",
		"type": "RNAV",
		"updated": "03/24/2010"
	},
	{
		"name": "NIDOE",
		"latitude": "36-32-28.2 N",
		"longitude": "87-8-50.79 W",
		"state": "TENNESSEE",
		"artcc": "ZME",
		"type": "RNAV",
		"updated": "07/07/2011"
	},
	{
		"name": "NIDPE",
		"latitude": "36-13-59.22 N",
		"longitude": "86-51-32.76 W",
		"state": "TENNESSEE",
		"artcc": "ZME",
		"type": "RNAV",
		"updated": "07/25/2011"
	},
	{
		"name": "NIKEI",
		"latitude": "35-25-24.83 N",
		"longitude": "90-43-37.56 W",
		"state": "ARKANSAS",
		"artcc": "ZME",
		"type": "RNAV",
		"updated": "12/17/2012"
	},
	{
		"name": "NIKIC",
		"latitude": "34-38-55.07 N",
		"longitude": "92-27-13.75 W",
		"state": "ARKANSAS",
		"artcc": "ZME",
		"type": "RNAV",
		"updated": "07/14/2008"
	},
	{
		"name": "NIKWA",
		"latitude": "33-37-57.51 N",
		"longitude": "90-55-58.31 W",
		"state": "MISSISSIPPI",
		"artcc": "ZME",
		"type": "CN",
		"updated": "11/01/1999"
	},
	{
		"name": "NILKE",
		"latitude": "36-15-43.25 N",
		"longitude": "89-40-40.02 W",
		"state": "MISSOURI",
		"artcc": "ZME",
		"type": "RNAV",
		"updated": "07/21/2008"
	},
	{
		"name": "NIRHI",
		"latitude": "36-12-34.21 N",
		"longitude": "86-38-43.55 W",
		"state": "TENNESSEE",
		"artcc": "ZME",
		"type": "RNAV",
		"updated": "05/29/2014"
	},
	{
		"name": "NIVLE",
		"latitude": "35-13-56.62 N",
		"longitude": "86-30-43.63 W",
		"state": "TENNESSEE",
		"artcc": "ZME",
		"type": "RNAV",
		"updated": "02/03/2010"
	},
	{
		"name": "NIXAE",
		"latitude": "36-43-52.75 N",
		"longitude": "87-17-14.8 W",
		"state": "KENTUCKY",
		"artcc": "ZME",
		"type": "RNAV",
		"updated": "05/04/2016"
	},
	{
		"name": "NIXOE",
		"latitude": "34-56-1.23 N",
		"longitude": "90-13-32.58 W",
		"state": "MISSISSIPPI",
		"artcc": "ZME",
		"type": "RNAV",
		"updated": "02/11/2012"
	},
	{
		"name": "NOBDY",
		"latitude": "35-33-51.74 N",
		"longitude": "90-2-3.8 W",
		"state": "ARKANSAS",
		"artcc": "ZME",
		"type": "RNAV",
		"updated": "01/03/2009"
	},
	{
		"name": "NOBME",
		"latitude": "36-1-57.1 N",
		"longitude": "95-19-48.5 W",
		"state": "OKLAHOMA",
		"artcc": "ZME",
		"type": "RNAV",
		"updated": "05/03/2016"
	},
	{
		"name": "NOGIC",
		"latitude": "35-18-56.94 N",
		"longitude": "85-54-22.65 W",
		"state": "TENNESSEE",
		"artcc": "ZME",
		"type": "RP",
		"updated": "SYI*VOR/DME*120.29/30.00"
	},
	{
		"name": "NOGIE",
		"latitude": "33-40-21.66 N",
		"longitude": "88-29-10.42 W",
		"state": "MISSISSIPPI",
		"artcc": "ZME",
		"type": "MR",
		"updated": "CBM*VORTAC*308.03/3.03"
	},
	{
		"name": "NOJEF",
		"latitude": "34-30-5 N",
		"longitude": "89-10-29 W",
		"state": "MISSISSIPPI",
		"artcc": "ZME",
		"type": "RNAV",
		"updated": "12/18/2015"
	},
	{
		"name": "NOKSS",
		"latitude": "35-49-36.22 N",
		"longitude": "86-3-36.3 W",
		"state": "TENNESSEE",
		"artcc": "ZME",
		"type": "RNAV",
		"updated": "05/06/2016"
	},
	{
		"name": "NOLKE",
		"latitude": "36-26-23.23 N",
		"longitude": "86-51-4.69 W",
		"state": "TENNESSEE",
		"artcc": "ZME",
		"type": "RNAV",
		"updated": "05/06/2016"
	},
	{
		"name": "NOLRE",
		"latitude": "34-48-6.99 N",
		"longitude": "91-28-29.33 W",
		"state": "ARKANSAS",
		"artcc": "ZME",
		"type": "RNAV",
		"updated": "04/04/2008"
	},
	{
		"name": "NOMDE",
		"latitude": "35-4-24.22 N",
		"longitude": "87-24-44.63 W",
		"state": "TENNESSEE",
		"artcc": "ZME",
		"type": "RNAV",
		"updated": "05/06/2016"
	},
	{
		"name": "NONCI",
		"latitude": "35-9-12.68 N",
		"longitude": "86-6-32.72 W",
		"state": "TENNESSEE",
		"artcc": "ZME",
		"type": "RNAV",
		"updated": "06/29/2011"
	},
	{
		"name": "NONRE",
		"latitude": "37-13-20.22 N",
		"longitude": "87-42-45.32 W",
		"state": "KENTUCKY",
		"artcc": "ZME",
		"type": "RNAV",
		"updated": "06/06/2013"
	},
	{
		"name": "NOORA",
		"latitude": "36-52-47.61 N",
		"longitude": "86-28-52.96 W",
		"state": "KENTUCKY",
		"artcc": "ZME",
		"type": "RP",
		"updated": "BWG*VORTAC*/3.45"
	},
	{
		"name": "NOPOC",
		"latitude": "36-15-54.88 N",
		"longitude": "86-42-34.88 W",
		"state": "TENNESSEE",
		"artcc": "ZME",
		"type": "RNAV",
		"updated": "09/25/2012"
	},
	{
		"name": "NORNE",
		"latitude": "35-56-16.62 N",
		"longitude": "91-49-12.89 W",
		"state": "ARKANSAS",
		"artcc": "ZME",
		"type": "RNAV",
		"updated": "07/09/2007"
	},
	{
		"name": "NOROW",
		"latitude": "35-28-31.78 N",
		"longitude": "93-29-53.3 W",
		"state": "ARKANSAS",
		"artcc": "ZME",
		"type": "RNAV",
		"updated": "10/14/2004"
	},
	{
		"name": "NOSRY",
		"latitude": "32-29-6.87 N",
		"longitude": "88-39-10.26 W",
		"state": "MISSISSIPPI",
		"artcc": "ZME",
		"type": "RP",
		"updated": "MEI*VORTAC*045.21/10.00"
	},
	{
		"name": "NOVCA",
		"latitude": "32-13-39.71 N",
		"longitude": "88-53-19.93 W",
		"state": "MISSISSIPPI",
		"artcc": "ZME",
		"type": "RP",
		"updated": "MEI*VORTAC*200.51/10.00"
	},
	{
		"name": "NOYDI",
		"latitude": "36-20-14.8 N",
		"longitude": "91-29-37.15 W",
		"state": "ARKANSAS",
		"artcc": "ZME",
		"type": "RNAV",
		"updated": "05/07/2007"
	},
	{
		"name": "NOYIG",
		"latitude": "32-25-40.9 N",
		"longitude": "89-56-32.63 W",
		"state": "MISSISSIPPI",
		"artcc": "ZME",
		"type": "RP",
		"updated": "MHZ*VORTAC*093.55/8.00"
	},
	{
		"name": "NRONE",
		"latitude": "35-41-30.41 N",
		"longitude": "90-19-6.74 W",
		"state": "ARKANSAS",
		"artcc": "ZME",
		"type": "RP",
		"updated": "MEM*VORTAC*337.00/43.75"
	},
	{
		"name": "NTREE",
		"latitude": "35-43-54.77 N",
		"longitude": "89-48-44.35 W",
		"state": "TENNESSEE",
		"artcc": "ZME",
		"type": "RP",
		"updated": "MEM*VORTAC*010.00/43.75"
	},
	{
		"name": "NTWOO",
		"latitude": "35-44-37.04 N",
		"longitude": "90-2-44.49 W",
		"state": "ARKANSAS",
		"artcc": "ZME",
		"type": "RP",
		"updated": "MEM*VORTAC*355.00/43.75"
	},
	{
		"name": "NUBEE",
		"latitude": "36-40-7.74 N",
		"longitude": "88-25-47.71 W",
		"state": "KENTUCKY",
		"artcc": "ZME",
		"type": "RP",
		"updated": "CNG*VOR/DME*132.97/28.26"
	},
	{
		"name": "NUCIE",
		"latitude": "31-55-44.73 N",
		"longitude": "91-6-49.75 W",
		"state": "MISSISSIPPI",
		"artcc": "ZME",
		"type": "RP",
		"updated": "HEZ*VOR/DME*024.00/20.90"
	},
	{
		"name": "NUCIL",
		"latitude": "36-49-45.1 N",
		"longitude": "90-19-23.43 W",
		"state": "MISSOURI",
		"artcc": "ZME",
		"type": "RNAV",
		"updated": "06/08/2007"
	},
	{
		"name": "NUCIT",
		"latitude": "36-16-22.86 N",
		"longitude": "87-25-46.05 W",
		"state": "TENNESSEE",
		"artcc": "ZME",
		"type": "RNAV",
		"updated": "05/02/2011"
	},
	{
		"name": "NUDXY",
		"latitude": "36-30-4.37 N",
		"longitude": "86-57-1.4 W",
		"state": "TENNESSEE",
		"artcc": "ZME",
		"type": "RNAV",
		"updated": "12/27/2011"
	},
	{
		"name": "NUGIY",
		"latitude": "36-43-0.53 N",
		"longitude": "87-26-16.65 W",
		"state": "KENTUCKY",
		"artcc": "ZME",
		"type": "MR",
		"updated": "CKV*VOR/DME*348.88"
	},
	{
		"name": "NUGLE",
		"latitude": "36-29-42.13 N",
		"longitude": "89-47-14.21 W",
		"state": "MISSOURI",
		"artcc": "ZME",
		"type": "RP",
		"updated": "MAW*VORTAC*117.91/7.00"
	},
	{
		"name": "NUJLE",
		"latitude": "34-45-55.27 N",
		"longitude": "89-17-39.49 W",
		"state": "MISSISSIPPI",
		"artcc": "ZME",
		"type": "RP",
		"updated": "HLI*VORTAC*088.62/10.00"
	},
	{
		"name": "NULPE",
		"latitude": "35-58-36.37 N",
		"longitude": "89-34-16.03 W",
		"state": "TENNESSEE",
		"artcc": "ZME",
		"type": "RNAV",
		"updated": "07/21/2008"
	},
	{
		"name": "NUTTE",
		"latitude": "34-43-50.74 N",
		"longitude": "89-5-41.33 W",
		"state": "MISSISSIPPI",
		"artcc": "ZME",
		"type": "RP",
		"updated": "HLI*VORTAC*093.68/20.00"
	},
	{
		"name": "NUVOO",
		"latitude": "36-5-23.71 N",
		"longitude": "86-48-18.73 W",
		"state": "TENNESSEE",
		"artcc": "ZME",
		"type": "RNAV",
		"updated": "09/25/2012"
	},
	{
		"name": "NUWUF",
		"latitude": "35-26-58.65 N",
		"longitude": "93-55-12.56 W",
		"state": "ARKANSAS",
		"artcc": "ZME",
		"type": "RNAV",
		"updated": "04/02/2010"
	},
	{
		"name": "NUXAH",
		"latitude": "35-4-5.18 N",
		"longitude": "89-47-15.8 W",
		"state": "TENNESSEE",
		"artcc": "ZME",
		"type": "RP",
		"updated": "MEM*VORTAC*070.70"
	},
	{
		"name": "NUYID",
		"latitude": "35-32-28.31 N",
		"longitude": "89-18-8.04 W",
		"state": "TENNESSEE",
		"artcc": "ZME",
		"type": "RNAV",
		"updated": "09/30/2013"
	}
]
