[
	{
		"name": "OAKLA",
		"latitude": "34-49-11.24 N",
		"longitude": "87-49-44.17 W",
		"state": "ALABAMA",
		"artcc": "ZME",
		"type": "RP",
		"updated": "HAB*VORTAC*011.63"
	},
	{
		"name": "OBATE",
		"latitude": "36-29-21.49 N",
		"longitude": "86-53-51.73 W",
		"state": "TENNESSEE",
		"artcc": "ZME",
		"type": "RNAV",
		"updated": "09/25/2012"
	},
	{
		"name": "OBION",
		"latitude": "36-17-52.07 N",
		"longitude": "88-59-49.23 W",
		"state": "TENNESSEE",
		"artcc": "ZME",
		"type": "RP",
		"updated": "UC*NDB*000.00"
	},
	{
		"name": "OBOME",
		"latitude": "36-6-44.52 N",
		"longitude": "94-8-0.91 W",
		"state": "ARKANSAS",
		"artcc": "ZME",
		"type": "RNAV",
		"updated": "09/18/2015"
	},
	{
		"name": "OBOSY",
		"latitude": "35-53-37.25 N",
		"longitude": "88-20-54.18 W",
		"state": "TENNESSEE",
		"artcc": "ZME",
		"type": "RNAV",
		"updated": "07/14/2009"
	},
	{
		"name": "OBREY",
		"latitude": "35-20-55.03 N",
		"longitude": "88-5-6.96 W",
		"state": "TENNESSEE",
		"artcc": "ZME",
		"type": "RNAV",
		"updated": "05/28/2009"
	},
	{
		"name": "OBUJI",
		"latitude": "32-12-18.07 N",
		"longitude": "89-48-48.5 W",
		"state": "MISSISSIPPI",
		"artcc": "ZME",
		"type": "RP",
		"updated": "MHZ*VORTAC*134.22/20.00"
	},
	{
		"name": "OBVOE",
		"latitude": "35-7-5.86 N",
		"longitude": "93-20-24.97 W",
		"state": "ARKANSAS",
		"artcc": "ZME",
		"type": "RNAV",
		"updated": "06/08/2007"
	},
	{
		"name": "OCAPU",
		"latitude": "35-5-40 N",
		"longitude": "92-12-25.57 W",
		"state": "ARKANSAS",
		"artcc": "ZME",
		"type": "RP",
		"updated": "LIT*VORTAC*352.00/25.00"
	},
	{
		"name": "OCARO",
		"latitude": "32-31-26.44 N",
		"longitude": "90-18-35.88 W",
		"state": "MISSISSIPPI",
		"artcc": "ZME",
		"type": "RNAV",
		"updated": "11/03/2013"
	},
	{
		"name": "OCEXA",
		"latitude": "35-22-22.33 N",
		"longitude": "94-4-6.63 W",
		"state": "ARKANSAS",
		"artcc": "ZME",
		"type": "RP",
		"updated": "FSM*VORTAC*088.26/10.00"
	},
	{
		"name": "OCOJY",
		"latitude": "31-41-58.44 N",
		"longitude": "89-12-14.47 W",
		"state": "MISSISSIPPI",
		"artcc": "ZME",
		"type": "RNAV",
		"updated": "11/30/2012"
	},
	{
		"name": "OCOTI",
		"latitude": "36-33-33.65 N",
		"longitude": "87-12-19.74 W",
		"state": "TENNESSEE",
		"artcc": "ZME",
		"type": "RNAV",
		"updated": "07/07/2011"
	},
	{
		"name": "OCTIN",
		"latitude": "36-11-30.37 N",
		"longitude": "86-49-26 W",
		"state": "TENNESSEE",
		"artcc": "ZME",
		"type": "RNAV",
		"updated": "07/25/2011"
	},
	{
		"name": "ODATE",
		"latitude": "35-46-51.91 N",
		"longitude": "90-2-56.17 W",
		"state": "ARKANSAS",
		"artcc": "ZME",
		"type": "RNAV",
		"updated": "09/30/2013"
	},
	{
		"name": "ODFOP",
		"latitude": "34-51-15.85 N",
		"longitude": "90-46-36.63 W",
		"state": "ARKANSAS",
		"artcc": "ZME",
		"type": "WP",
		"updated": "11/02/1998"
	},
	{
		"name": "ODJUR",
		"latitude": "33-40-56.57 N",
		"longitude": "90-58-55.52 W",
		"state": "MISSISSIPPI",
		"artcc": "ZME",
		"type": "RNAV",
		"updated": "01/16/2009"
	},
	{
		"name": "ODNOW",
		"latitude": "33-53-55.06 N",
		"longitude": "89-53-6.91 W",
		"state": "MISSISSIPPI",
		"artcc": "ZME",
		"type": "RNAV",
		"updated": "05/16/2016"
	},
	{
		"name": "ODONE",
		"latitude": "34-58-4.44 N",
		"longitude": "89-44-16.89 W",
		"state": "MISSISSIPPI",
		"artcc": "ZME",
		"type": "RP",
		"updated": "HLI*VORTAC*311.86/16.80"
	},
	{
		"name": "ODOSE",
		"latitude": "35-53-39.1 N",
		"longitude": "86-31-50.12 W",
		"state": "TENNESSEE",
		"artcc": "ZME",
		"type": "RNAV",
		"updated": "08/07/2013"
	},
	{
		"name": "ODOTE",
		"latitude": "35-14-31.44 N",
		"longitude": "94-41-50.61 W",
		"state": "OKLAHOMA",
		"artcc": "ZME",
		"type": "RNAV",
		"updated": "07/08/2003"
	},
	{
		"name": "ODPOF",
		"latitude": "33-39-41 N",
		"longitude": "89-34-5.25 W",
		"state": "MISSISSIPPI",
		"artcc": "ZME",
		"type": "RNAV",
		"updated": "03/26/2013"
	},
	{
		"name": "ODXIH",
		"latitude": "34-48-4.88 N",
		"longitude": "92-8-13.99 W",
		"state": "ARKANSAS",
		"artcc": "ZME",
		"type": "RNAV",
		"updated": "01/03/2009"
	},
	{
		"name": "OFFOV",
		"latitude": "36-21-28.13 N",
		"longitude": "93-8-35.4 W",
		"state": "ARKANSAS",
		"artcc": "ZME",
		"type": "WP",
		"updated": "02/25/2003"
	},
	{
		"name": "OGAME",
		"latitude": "35-3-13.3 N",
		"longitude": "92-30-51.62 W",
		"state": "ARKANSAS",
		"artcc": "ZME",
		"type": "RNAV",
		"updated": "08/15/2014"
	},
	{
		"name": "OGECU",
		"latitude": "36-2-44.05 N",
		"longitude": "86-30-52.73 W",
		"state": "TENNESSEE",
		"artcc": "ZME",
		"type": "RNAV",
		"updated": "08/07/2013"
	},
	{
		"name": "OGEKE",
		"latitude": "36-41-6.08 N",
		"longitude": "91-48-10.04 W",
		"state": "MISSOURI",
		"artcc": "ZME",
		"type": "RNAV",
		"updated": "09/14/2010"
	},
	{
		"name": "OGELS",
		"latitude": "32-40-8.82 N",
		"longitude": "91-45-54.95 W",
		"state": "LOUISIANA",
		"artcc": "ZME",
		"type": "RNAV",
		"updated": "01/03/2009"
	},
	{
		"name": "OGFAB",
		"latitude": "35-42-52.52 N",
		"longitude": "85-41-29.45 W",
		"state": "TENNESSEE",
		"artcc": "ZME",
		"type": "RNAV",
		"updated": "01/16/2001"
	},
	{
		"name": "OGONY",
		"latitude": "34-5-39.87 N",
		"longitude": "91-20-38.74 W",
		"state": "ARKANSAS",
		"artcc": "ZME",
		"type": "RP",
		"updated": "UJM*VOR/DME*228.32/44.00"
	},
	{
		"name": "OGOQU",
		"latitude": "35-19-15.81 N",
		"longitude": "94-28-47.68 W",
		"state": "OKLAHOMA",
		"artcc": "ZME",
		"type": "RNAV",
		"updated": "03/28/2010"
	},
	{
		"name": "OGRAY",
		"latitude": "34-42-3.62 N",
		"longitude": "92-14-40.86 W",
		"state": "ARKANSAS",
		"artcc": "ZME",
		"type": "RP",
		"updated": "LIT*VORTAC*291.00"
	},
	{
		"name": "OGVIE",
		"latitude": "36-24-25.43 N",
		"longitude": "89-57-53.46 W",
		"state": "MISSOURI",
		"artcc": "ZME",
		"type": "RNAV",
		"updated": "01/27/2014"
	},
	{
		"name": "OHAXE",
		"latitude": "35-27-46.6 N",
		"longitude": "85-18-14.52 W",
		"state": "TENNESSEE",
		"artcc": "ZME",
		"type": "RNAV",
		"updated": "01/16/2001"
	},
	{
		"name": "OHELO",
		"latitude": "34-56-37.21 N",
		"longitude": "85-42-20.98 W",
		"state": "ALABAMA",
		"artcc": "ZME",
		"type": "RNAV",
		"updated": "01/10/2001"
	},
	{
		"name": "OHGUP",
		"latitude": "36-26-16.78 N",
		"longitude": "94-13-6.65 W",
		"state": "ARKANSAS",
		"artcc": "ZME",
		"type": "RNAV",
		"updated": "10/19/2012"
	},
	{
		"name": "OHNIF",
		"latitude": "33-29-16.69 N",
		"longitude": "92-8-38.03 W",
		"state": "ARKANSAS",
		"artcc": "ZME",
		"type": "RNAV",
		"updated": "12/24/2008"
	},
	{
		"name": "OHUJA",
		"latitude": "35-29-19.3 N",
		"longitude": "94-6-30.47 W",
		"state": "ARKANSAS",
		"artcc": "ZME",
		"type": "MR",
		"updated": "FSM*VORTAC*046.03/10.00"
	},
	{
		"name": "OHULO",
		"latitude": "35-46-7.44 N",
		"longitude": "89-48-12.42 W",
		"state": "TENNESSEE",
		"artcc": "ZME",
		"type": "RNAV",
		"updated": "09/30/2013"
	},
	{
		"name": "OHUYU",
		"latitude": "35-16-13.82 N",
		"longitude": "94-4-38.43 W",
		"state": "ARKANSAS",
		"artcc": "ZME",
		"type": "RNAV",
		"updated": "03/28/2010"
	},
	{
		"name": "OJEFY",
		"latitude": "36-24-17.45 N",
		"longitude": "94-44-17.75 W",
		"state": "OKLAHOMA",
		"artcc": "ZME",
		"type": "RNAV",
		"updated": "02/25/2005"
	},
	{
		"name": "OJIXA",
		"latitude": "35-30-10.88 N",
		"longitude": "86-8-3.15 W",
		"state": "TENNESSEE",
		"artcc": "ZME",
		"type": "RNAV",
		"updated": "01/16/2001"
	},
	{
		"name": "OJLUW",
		"latitude": "36-25-49.03 N",
		"longitude": "87-38-36.11 W",
		"state": "TENNESSEE",
		"artcc": "ZME",
		"type": "RNAV",
		"updated": "05/12/2016"
	},
	{
		"name": "OJPID",
		"latitude": "37-15-58.81 N",
		"longitude": "87-34-50.67 W",
		"state": "KENTUCKY",
		"artcc": "ZME",
		"type": "RNAV",
		"updated": "11/02/2016"
	},
	{
		"name": "OJUVY",
		"latitude": "36-0-13.47 N",
		"longitude": "85-48-53.46 W",
		"state": "TENNESSEE",
		"artcc": "ZME",
		"type": "RNAV",
		"updated": "01/16/2001"
	},
	{
		"name": "OKDAE",
		"latitude": "32-36-34.61 N",
		"longitude": "89-8-55.51 W",
		"state": "MISSISSIPPI",
		"artcc": "ZME",
		"type": "RNAV",
		"updated": "09/14/2009"
	},
	{
		"name": "OKENE",
		"latitude": "35-45-4.81 N",
		"longitude": "86-12-26.05 W",
		"state": "TENNESSEE",
		"artcc": "ZME",
		"type": "RP",
		"updated": "SYI*VOR/DME*045.92/16.04"
	},
	{
		"name": "OKEYI",
		"latitude": "31-39-44.13 N",
		"longitude": "89-47-52.22 W",
		"state": "MISSISSIPPI",
		"artcc": "ZME",
		"type": "RNAV",
		"updated": "04/22/2014"
	},
	{
		"name": "OKISE",
		"latitude": "36-43-31.43 N",
		"longitude": "86-42-21.83 W",
		"state": "KENTUCKY",
		"artcc": "ZME",
		"type": "RNAV",
		"updated": "05/09/2016"
	},
	{
		"name": "OKIYO",
		"latitude": "34-24-20.8 N",
		"longitude": "91-41-13.26 W",
		"state": "ARKANSAS",
		"artcc": "ZME",
		"type": "RNAV",
		"updated": "08/08/2007"
	},
	{
		"name": "OKLOE",
		"latitude": "35-11-46.66 N",
		"longitude": "87-28-54.76 W",
		"state": "TENNESSEE",
		"artcc": "ZME",
		"type": "RNAV",
		"updated": "05/06/2016"
	},
	{
		"name": "OLACI",
		"latitude": "37-12-46.62 N",
		"longitude": "89-31-5.21 W",
		"state": "MISSOURI",
		"artcc": "ZME",
		"type": "RNAV",
		"updated": "04/22/2013"
	},
	{
		"name": "OLDIE",
		"latitude": "36-40-16.29 N",
		"longitude": "89-55-40.04 W",
		"state": "MISSOURI",
		"artcc": "ZME",
		"type": "RP",
		"updated": "MAW*VORTAC*350.52/7.00"
	},
	{
		"name": "OLELE",
		"latitude": "36-17-31.6 N",
		"longitude": "88-59-52.1 W",
		"state": "TENNESSEE",
		"artcc": "ZME",
		"type": "RNAV",
		"updated": "06/08/2016"
	},
	{
		"name": "OLEMS",
		"latitude": "34-29-22.4 N",
		"longitude": "89-40-25.87 W",
		"state": "MISSISSIPPI",
		"artcc": "ZME",
		"type": "RNAV",
		"updated": "02/11/2012"
	},
	{
		"name": "OLEVE",
		"latitude": "35-52-54.51 N",
		"longitude": "89-49-45.93 W",
		"state": "ARKANSAS",
		"artcc": "ZME",
		"type": "RNAV",
		"updated": "03/25/2008"
	},
	{
		"name": "OLEXE",
		"latitude": "35-56-43.47 N",
		"longitude": "94-9-43.14 W",
		"state": "ARKANSAS",
		"artcc": "ZME",
		"type": "RP",
		"updated": "LFH*DD*172.48/2.90"
	},
	{
		"name": "OLLAS",
		"latitude": "35-0-1.94 N",
		"longitude": "93-6-45.93 W",
		"state": "ARKANSAS",
		"artcc": "ZME",
		"type": "RP",
		"updated": "LIT*VORTAC*288.05/49.94"
	},
	{
		"name": "OLLOW",
		"latitude": "36-33-25.14 N",
		"longitude": "86-3-10.71 W",
		"state": "TENNESSEE",
		"artcc": "ZME",
		"type": "RNAV",
		"updated": "04/27/2010"
	},
	{
		"name": "OLNAH",
		"latitude": "35-57-19.52 N",
		"longitude": "87-7-50.17 W",
		"state": "TENNESSEE",
		"artcc": "ZME",
		"type": "RNAV",
		"updated": "09/25/2012"
	},
	{
		"name": "OLSIE",
		"latitude": "37-14-26.35 N",
		"longitude": "86-8-32.69 W",
		"state": "KENTUCKY",
		"artcc": "ZME",
		"type": "RNAV",
		"updated": "09/18/2012"
	},
	{
		"name": "OLVEE",
		"latitude": "36-11-37.86 N",
		"longitude": "89-56-38.24 W",
		"state": "MISSOURI",
		"artcc": "ZME",
		"type": "RP",
		"updated": "DYR*VORTAC*286.22"
	},
	{
		"name": "OMADY",
		"latitude": "36-7-29.55 N",
		"longitude": "88-21-13.33 W",
		"state": "TENNESSEE",
		"artcc": "ZME",
		"type": "RNAV",
		"updated": "03/17/2010"
	},
	{
		"name": "OMDUE",
		"latitude": "36-7-47.32 N",
		"longitude": "88-58-11.49 W",
		"state": "TENNESSEE",
		"artcc": "ZME",
		"type": "RNAV",
		"updated": "05/12/2011"
	},
	{
		"name": "OMILE",
		"latitude": "34-58-5.62 N",
		"longitude": "91-7-28.81 W",
		"state": "ARKANSAS",
		"artcc": "ZME",
		"type": "WP",
		"updated": "07/02/2001"
	},
	{
		"name": "OMQEL",
		"latitude": "36-24-27.55 N",
		"longitude": "93-34-2.75 W",
		"state": "ARKANSAS",
		"artcc": "ZME",
		"type": "RNAV",
		"updated": "11/01/2010"
	},
	{
		"name": "OMUME",
		"latitude": "34-48-1.26 N",
		"longitude": "86-33-31.24 W",
		"state": "ALABAMA",
		"artcc": "ZME",
		"type": "RNAV",
		"updated": "05/20/2013"
	},
	{
		"name": "ONAZU",
		"latitude": "33-31-21.8 N",
		"longitude": "88-51-4.66 W",
		"state": "MISSISSIPPI",
		"artcc": "ZME",
		"type": "RNAV",
		"updated": "05/11/2012"
	},
	{
		"name": "ONCEF",
		"latitude": "36-34-1.12 N",
		"longitude": "89-59-38.14 W",
		"state": "MISSOURI",
		"artcc": "ZME",
		"type": "RNAV",
		"updated": "09/04/2009"
	},
	{
		"name": "ONDOW",
		"latitude": "35-7-54.62 N",
		"longitude": "86-32-32.5 W",
		"state": "TENNESSEE",
		"artcc": "ZME",
		"type": "RNAV",
		"updated": "02/03/2010"
	},
	{
		"name": "ONIRE",
		"latitude": "36-6-1.42 N",
		"longitude": "91-43-6.31 W",
		"state": "ARKANSAS",
		"artcc": "ZME",
		"type": "RNAV",
		"updated": "05/07/2007"
	},
	{
		"name": "ONITY",
		"latitude": "36-37-47.87 N",
		"longitude": "93-30-46.64 W",
		"state": "MISSOURI",
		"artcc": "ZME",
		"type": "RP",
		"updated": "RZC*VORTAC*047.86/37.36"
	},
	{
		"name": "ONOCE",
		"latitude": "32-19-30.46 N",
		"longitude": "90-5-19.74 W",
		"state": "MISSISSIPPI",
		"artcc": "ZME",
		"type": "RNAV",
		"updated": "06/11/2003"
	},
	{
		"name": "ONUGE",
		"latitude": "35-58-56.62 N",
		"longitude": "86-29-17.44 W",
		"state": "TENNESSEE",
		"artcc": "ZME",
		"type": "RP",
		"updated": "SYI*VOR/DME*355.59/25.30"
	},
	{
		"name": "OOAKK",
		"latitude": "34-55-57.28 N",
		"longitude": "92-5-26.99 W",
		"state": "ARKANSAS",
		"artcc": "ZME",
		"type": "MR",
		"updated": "03/19/2015"
	},
	{
		"name": "OPADE",
		"latitude": "36-5-12.08 N",
		"longitude": "87-13-10.13 W",
		"state": "TENNESSEE",
		"artcc": "ZME",
		"type": "RNAV",
		"updated": "06/23/2011"
	},
	{
		"name": "OPCIL",
		"latitude": "36-9-20.59 N",
		"longitude": "86-21-57.09 W",
		"state": "TENNESSEE",
		"artcc": "ZME",
		"type": "RNAV",
		"updated": "10/11/2011"
	},
	{
		"name": "OPERY",
		"latitude": "36-12-25.08 N",
		"longitude": "86-39-5.13 W",
		"state": "TENNESSEE",
		"artcc": "ZME",
		"type": "RP",
		"updated": "BNA*VORTAC*/4.50"
	},
	{
		"name": "OPIVE",
		"latitude": "37-1-35.14 N",
		"longitude": "88-29-8.58 W",
		"state": "KENTUCKY",
		"artcc": "ZME",
		"type": "RNAV",
		"updated": "02/09/2018"
	},
	{
		"name": "OPLAE",
		"latitude": "33-34-57.69 N",
		"longitude": "88-32-33.18 W",
		"state": "MISSISSIPPI",
		"artcc": "ZME",
		"type": "MR",
		"updated": "IGB*VORTAC*342.00/6.00"
	},
	{
		"name": "OPSEE",
		"latitude": "36-26-45.86 N",
		"longitude": "89-57-48.1 W",
		"state": "MISSOURI",
		"artcc": "ZME",
		"type": "RP",
		"updated": "MAW*VORTAC*198.05/7.00"
	},
	{
		"name": "OPTAW",
		"latitude": "35-25-15.25 N",
		"longitude": "89-21-31.62 W",
		"state": "TENNESSEE",
		"artcc": "ZME",
		"type": "RNAV",
		"updated": "06/16/2011"
	},
	{
		"name": "OPUYA",
		"latitude": "31-38-51.58 N",
		"longitude": "89-8-34.72 W",
		"state": "MISSISSIPPI",
		"artcc": "ZME",
		"type": "RNAV",
		"updated": "11/30/2012"
	},
	{
		"name": "OPVIE",
		"latitude": "35-54-12.71 N",
		"longitude": "94-8-44.45 W",
		"state": "ARKANSAS",
		"artcc": "ZME",
		"type": "RNAV",
		"updated": "09/25/2012"
	},
	{
		"name": "ORAVY",
		"latitude": "35-18-31 N",
		"longitude": "87-16-46.71 W",
		"state": "TENNESSEE",
		"artcc": "ZME",
		"type": "RNAV",
		"updated": "02/14/2014"
	},
	{
		"name": "ORBIE",
		"latitude": "35-17-17.09 N",
		"longitude": "94-28-59.15 W",
		"state": "OKLAHOMA",
		"artcc": "ZME",
		"type": "RP",
		"updated": "FSM*VORTAC*233.00/12.00"
	},
	{
		"name": "OROCU",
		"latitude": "35-12-14.15 N",
		"longitude": "89-46-59.03 W",
		"state": "TENNESSEE",
		"artcc": "ZME",
		"type": "RP",
		"updated": "MEM*VORTAC*040.00/15.00"
	},
	{
		"name": "ORUCE",
		"latitude": "37-15-49.34 N",
		"longitude": "89-33-7.26 W",
		"state": "MISSOURI",
		"artcc": "ZME",
		"type": "RNAV",
		"updated": "04/22/2013"
	},
	{
		"name": "ORUNE",
		"latitude": "32-19-3.78 N",
		"longitude": "88-45-23.05 W",
		"state": "MISSISSIPPI",
		"artcc": "ZME",
		"type": "RP",
		"updated": "MEI*VORTAC*141.20/4.37"
	},
	{
		"name": "OSAPE",
		"latitude": "36-27-41.02 N",
		"longitude": "86-52-14.61 W",
		"state": "TENNESSEE",
		"artcc": "ZME",
		"type": "RNAV",
		"updated": "05/06/2016"
	},
	{
		"name": "OSAYI",
		"latitude": "36-49-16.66 N",
		"longitude": "86-36-8.57 W",
		"state": "KENTUCKY",
		"artcc": "ZME",
		"type": "RP",
		"updated": "BWG*VORTAC*227.97/10.00"
	},
	{
		"name": "OSDOE",
		"latitude": "35-47-54.24 N",
		"longitude": "85-35-55.26 W",
		"state": "TENNESSEE",
		"artcc": "ZME",
		"type": "RNAV",
		"updated": "05/06/2016"
	},
	{
		"name": "OSEPE",
		"latitude": "34-52-5.85 N",
		"longitude": "85-41-20.23 W",
		"state": "ALABAMA",
		"artcc": "ZME",
		"type": "RNAV",
		"updated": "01/04/2007"
	},
	{
		"name": "OSETE",
		"latitude": "36-5-43.6 N",
		"longitude": "94-11-30.47 W",
		"state": "ARKANSAS",
		"artcc": "ZME",
		"type": "RNAV",
		"updated": "09/26/2012"
	},
	{
		"name": "OSOFY",
		"latitude": "36-10-27.94 N",
		"longitude": "89-14-37.77 W",
		"state": "TENNESSEE",
		"artcc": "ZME",
		"type": "CN",
		"updated": "10/10/2000"
	},
	{
		"name": "OSOME",
		"latitude": "35-6-8.07 N",
		"longitude": "93-37-12.36 W",
		"state": "ARKANSAS",
		"artcc": "ZME",
		"type": "RNAV",
		"updated": "08/15/2016"
	},
	{
		"name": "OSORY",
		"latitude": "35-51-10.05 N",
		"longitude": "89-20-30.32 W",
		"state": "TENNESSEE",
		"artcc": "ZME",
		"type": "RP",
		"updated": "DYR*VORTAC*183.74/10.00"
	},
	{
		"name": "OSUKE",
		"latitude": "34-45-39.14 N",
		"longitude": "87-39-8.7 W",
		"state": "ALABAMA",
		"artcc": "ZME",
		"type": "RP",
		"updated": "MSL*VORTAC*291.17/8.59"
	},
	{
		"name": "OTGUE",
		"latitude": "35-2-47.52 N",
		"longitude": "88-20-41.42 W",
		"state": "TENNESSEE",
		"artcc": "ZME",
		"type": "RNAV",
		"updated": "08/18/2008"
	},
	{
		"name": "OTIIS",
		"latitude": "34-11-26.26 N",
		"longitude": "91-12-38.17 W",
		"state": "ARKANSAS",
		"artcc": "ZME",
		"type": "RNAV",
		"updated": "12/05/2013"
	},
	{
		"name": "OTSAY",
		"latitude": "36-19-14.35 N",
		"longitude": "91-55-41.36 W",
		"state": "ARKANSAS",
		"artcc": "ZME",
		"type": "RNAV",
		"updated": "11/28/2016"
	},
	{
		"name": "OURRS",
		"latitude": "36-0-19.73 N",
		"longitude": "86-36-39.06 W",
		"state": "TENNESSEE",
		"artcc": "ZME",
		"type": "RNAV",
		"updated": "05/28/2014"
	},
	{
		"name": "OVALS",
		"latitude": "34-34-5.42 N",
		"longitude": "92-57-6.73 W",
		"state": "ARKANSAS",
		"artcc": "ZME",
		"type": "RP",
		"updated": "HOT*VOR/DME*048.00"
	},
	{
		"name": "OVAMY",
		"latitude": "31-39-46.34 N",
		"longitude": "89-14-22.76 W",
		"state": "MISSISSIPPI",
		"artcc": "ZME",
		"type": "RNAV",
		"updated": "02/05/2010"
	},
	{
		"name": "OVIGE",
		"latitude": "31-38-26.19 N",
		"longitude": "89-59-20.21 W",
		"state": "MISSISSIPPI",
		"artcc": "ZME",
		"type": "RNAV",
		"updated": "05/20/2013"
	},
	{
		"name": "OVIVE",
		"latitude": "32-31-57.97 N",
		"longitude": "88-42-53.76 W",
		"state": "MISSISSIPPI",
		"artcc": "ZME",
		"type": "RP",
		"updated": "IKQ*LD*011.28/13.21"
	},
	{
		"name": "OVOKY",
		"latitude": "34-12-37.16 N",
		"longitude": "93-47-0.29 W",
		"state": "ARKANSAS",
		"artcc": "ZME",
		"type": "RNAV",
		"updated": "11/30/2011"
	},
	{
		"name": "OVVIX",
		"latitude": "36-15-26.27 N",
		"longitude": "92-38-30.61 W",
		"state": "ARKANSAS",
		"artcc": "ZME",
		"type": "RNAV",
		"updated": "12/22/2016"
	},
	{
		"name": "OWAFO",
		"latitude": "34-48-58.03 N",
		"longitude": "90-7-22.66 W",
		"state": "MISSISSIPPI",
		"artcc": "ZME",
		"type": "RNAV",
		"updated": "06/18/2008"
	},
	{
		"name": "OWENT",
		"latitude": "34-32-48.81 N",
		"longitude": "86-27-9.45 W",
		"state": "ALABAMA",
		"artcc": "ZME",
		"type": "RP",
		"updated": "DCU*VOR/DME*105.00"
	},
	{
		"name": "OWETA",
		"latitude": "36-4-4.16 N",
		"longitude": "95-32-32.81 W",
		"state": "OKLAHOMA",
		"artcc": "ZME",
		"type": "RP",
		"updated": "OKM*VOR/DME*027.00"
	},
	{
		"name": "OWHIN",
		"latitude": "33-47-55.7 N",
		"longitude": "89-50-29.36 W",
		"state": "MISSISSIPPI",
		"artcc": "ZME",
		"type": "RNAV",
		"updated": "03/26/2013"
	},
	{
		"name": "OXBUJ",
		"latitude": "36-17-28.89 N",
		"longitude": "92-34-59.75 W",
		"state": "ARKANSAS",
		"artcc": "ZME",
		"type": "RP",
		"updated": "FLP*VOR/DME*262.35/6.08"
	},
	{
		"name": "OXCUH",
		"latitude": "35-56-27.42 N",
		"longitude": "86-26-49.04 W",
		"state": "TENNESSEE",
		"artcc": "ZME",
		"type": "RP",
		"updated": "BNA*VORTAC*137.35/16.49"
	},
	{
		"name": "OXOYO",
		"latitude": "34-58-39.03 N",
		"longitude": "86-35-19.07 W",
		"state": "ALABAMA",
		"artcc": "ZME",
		"type": "RNAV",
		"updated": "01/26/2010"
	},
	{
		"name": "OXSEZ",
		"latitude": "35-41-46.37 N",
		"longitude": "86-43-40.37 W",
		"state": "TENNESSEE",
		"artcc": "ZME",
		"type": "RNAV",
		"updated": "08/11/2010"
	},
	{
		"name": "OXURE",
		"latitude": "36-36-20.11 N",
		"longitude": "88-27-34.47 W",
		"state": "KENTUCKY",
		"artcc": "ZME",
		"type": "RNAV",
		"updated": "10/25/2011"
	},
	{
		"name": "OYAKA",
		"latitude": "37-8-54.56 N",
		"longitude": "89-18-18.59 W",
		"state": "ILLINOIS",
		"artcc": "ZME",
		"type": "RNAV",
		"updated": "04/26/2013"
	},
	{
		"name": "OYEYA",
		"latitude": "36-18-18.77 N",
		"longitude": "91-31-27.52 W",
		"state": "ARKANSAS",
		"artcc": "ZME",
		"type": "RNAV",
		"updated": "05/07/2007"
	},
	{
		"name": "OYFAL",
		"latitude": "36-11-1.57 N",
		"longitude": "90-50-48.83 W",
		"state": "ARKANSAS",
		"artcc": "ZME",
		"type": "RNAV",
		"updated": "08/19/2011"
	},
	{
		"name": "OYIJO",
		"latitude": "37-16-20.68 N",
		"longitude": "87-46-15.33 W",
		"state": "KENTUCKY",
		"artcc": "ZME",
		"type": "RNAV",
		"updated": "01/10/2013"
	},
	{
		"name": "OYOTU",
		"latitude": "36-0-26.44 N",
		"longitude": "86-26-44.85 W",
		"state": "TENNESSEE",
		"artcc": "ZME",
		"type": "RNAV",
		"updated": "10/09/2008"
	},
	{
		"name": "OYOVA",
		"latitude": "34-47-5.36 N",
		"longitude": "86-42-31.23 W",
		"state": "ALABAMA",
		"artcc": "ZME",
		"type": "MW",
		"updated": "12/10/2015"
	},
	{
		"name": "OYUGI",
		"latitude": "33-47-0.7 N",
		"longitude": "91-32-21.15 W",
		"state": "ARKANSAS",
		"artcc": "ZME",
		"type": "RNAV",
		"updated": "07/16/2013"
	},
	{
		"name": "OZCAR",
		"latitude": "36-12-1.39 N",
		"longitude": "86-4-30.28 W",
		"state": "TENNESSEE",
		"artcc": "ZME",
		"type": "RNAV",
		"updated": "09/18/2012"
	},
	{
		"name": "OZESI",
		"latitude": "36-42-21.38 N",
		"longitude": "86-1-56.92 W",
		"state": "KENTUCKY",
		"artcc": "ZME",
		"type": "RNAV",
		"updated": "04/26/2010"
	},
	{
		"name": "OZIGE",
		"latitude": "33-32-18.71 N",
		"longitude": "91-15-32.09 W",
		"state": "ARKANSAS",
		"artcc": "ZME",
		"type": "RP",
		"updated": "GLH*VOR/DME*269.79/13.87"
	},
	{
		"name": "OZLUR",
		"latitude": "34-43-30.15 N",
		"longitude": "91-16-3.03 W",
		"state": "ARKANSAS",
		"artcc": "ZME",
		"type": "RNAV",
		"updated": "07/06/2001"
	},
	{
		"name": "OZSOM",
		"latitude": "35-24-44.36 N",
		"longitude": "89-57-33.14 W",
		"state": "TENNESSEE",
		"artcc": "ZME",
		"type": "RP",
		"updated": "GQE*VOR/DME*077.12/25.76"
	}
]
