	{
		"name": "QALAY",
		"latitude": "36-36-17.09 N",
		"longitude": "86-2-47.08 W",
		"state": "TENNESSEE",
		"artcc": "ZME",
		"type": "RNAV",
		"updated": "02/17/2009",
	},
	{
		"name": "QECKE",
		"latitude": "34-18-0.46 N",
		"longitude": "86-56-4.25 W",
		"state": "ALABAMA",
		"artcc": "ZME",
		"type": "RNAV",
		"updated": "11/03/2014",
	},
	{
		"name": "QITXO",
		"latitude": "34-39-44.93 N",
		"longitude": "91-56-19.49 W",
		"state": "ARKANSAS",
		"artcc": "ZME",
		"type": "RP",
		"updated": "LIT*VORTAC*089.28/12.00",
	},
	{
		"name": "QONXE",
		"latitude": "36-38-40.22 N",
		"longitude": "86-29-49.32 W",
		"state": "TENNESSEE",
		"artcc": "ZME",
		"type": "RNAV",
		"updated": "08/22/2013",
	},
	{
		"name": "QUAAK",
		"latitude": "33-34-35.5 N",
		"longitude": "90-58-55.52 W",
		"state": "MISSISSIPPI",
		"artcc": "ZME",
		"type": "RP",
		"updated": "GLH*VOR/DME*/3.17",
	},
	{
		"name": "QUENI",
		"latitude": "35-21-58.42 N",
		"longitude": "89-54-53.47 W",
		"state": "TENNESSEE",
		"artcc": "ZME",
		"type": "RP",
		"updated": "MEM*VORTAC*008.06/21.30",
	},
	{
		"name": "QUGEG",
		"latitude": "35-20-55.99 N",
		"longitude": "87-40-26.07 W",
		"state": "TENNESSEE",
		"artcc": "ZME",
		"type": "RNAV",
		"updated": "11/22/2011",
	},
	{
		"name": "QUIBL",
		"latitude": "33-50-32.86 N",
		"longitude": "89-0-34.43 W",
		"state": "MISSISSIPPI",
		"artcc": "ZME",
		"type": "MR",
		"updated": "CBM*VORTAC*293.00/31.00",
	},
	{
		"name": "QUJOX",
		"latitude": "36-44-36.1 N",
		"longitude": "87-22-34.88 W",
		"state": "KENTUCKY",
		"artcc": "ZME",
		"type": "MW",
		"updated": "01/27/1998",
	},
	{
		"name": "QUWRE",
		"latitude": "36-31-56.91 N",
		"longitude": "87-31-22.86 W",
		"state": "TENNESSEE",
		"artcc": "ZME",
		"type": "RNAV",
		"updated": "05/04/2016",
	},
	{
		"name": "QUZMU",
		"latitude": "36-19-1.14 N",
		"longitude": "87-27-42.64 W",
		"state": "TENNESSEE",
		"artcc": "ZME",
		"type": "RNAV",
		"updated": "02/01/2007",
	},
