	{
		"name": "RABOW",
		"latitude": "36-2-34.55 N",
		"longitude": "85-27-22.99 W",
		"state": "TENNESSEE",
		"artcc": "ZME",
		"type": "RP",
		"updated": "GQO*VORTAC*346.19",
	},
	{
		"name": "RACSO",
		"latitude": "35-9-10.75 N",
		"longitude": "86-22-35.34 W",
		"state": "TENNESSEE",
		"artcc": "ZME",
		"type": "RNAV",
		"updated": "06/29/2011",
	},
	{
		"name": "RAJFA",
		"latitude": "36-21-8.07 N",
		"longitude": "92-29-45.17 W",
		"state": "ARKANSAS",
		"artcc": "ZME",
		"type": "RNAV",
		"updated": "12/22/2016",
	},
	{
		"name": "RAKIN",
		"latitude": "32-14-40.86 N",
		"longitude": "89-51-46.47 W",
		"state": "MISSISSIPPI",
		"artcc": "ZME",
		"type": "RP",
		"updated": "MCB*VORTAC*016.65",
	},
	{
		"name": "RANTS",
		"latitude": "37-13-41.15 N",
		"longitude": "87-53-1.19 W",
		"state": "KENTUCKY",
		"artcc": "ZME",
		"type": "RNAV",
		"updated": "09/20/2012",
	},
	{
		"name": "RASME",
		"latitude": "33-23-7.87 N",
		"longitude": "89-46-55.32 W",
		"state": "MISSISSIPPI",
		"artcc": "ZME",
		"type": "RNAV",
		"updated": "11/15/2012",
	},
	{
		"name": "RASNE",
		"latitude": "34-49-18.18 N",
		"longitude": "92-15-26.31 W",
		"state": "ARKANSAS",
		"artcc": "ZME",
		"type": "RNAV",
		"updated": "02/09/2018",
	},
	{
		"name": "RASOE",
		"latitude": "36-41-54.02 N",
		"longitude": "89-59-31.78 W",
		"state": "MISSOURI",
		"artcc": "ZME",
		"type": "RNAV",
		"updated": "09/04/2009",
	},
	{
		"name": "RASON",
		"latitude": "36-33-55.12 N",
		"longitude": "93-14-30.15 W",
		"state": "MISSOURI",
		"artcc": "ZME",
		"type": "RP",
		"updated": "HRO*VOR/DME*350.69",
	},
	{
		"name": "RATPE",
		"latitude": "33-43-4.18 N",
		"longitude": "88-30-35.71 W",
		"state": "MISSISSIPPI",
		"artcc": "ZME",
		"type": "MR",
		"updated": "CBM*VORTAC*322.00/5.80",
	},
	{
		"name": "RAYRO",
		"latitude": "32-16-31.47 N",
		"longitude": "90-21-31.81 W",
		"state": "MISSISSIPPI",
		"artcc": "ZME",
		"type": "RNAV",
		"updated": "07/18/2013",
	},
	{
		"name": "RAZRS",
		"latitude": "35-26-43.58 N",
		"longitude": "93-45-59.49 W",
		"state": "ARKANSAS",
		"artcc": "ZME",
		"type": "MR",
		"updated": "FSM*VORTAC*075.00/25.00",
	},
	{
		"name": "RDEEE",
		"latitude": "35-20-44.16 N",
		"longitude": "90-28-32.2 W",
		"state": "ARKANSAS",
		"artcc": "ZME",
		"type": "RNAV",
		"updated": "12/05/2013",
	},
	{
		"name": "REABA",
		"latitude": "36-21-9.84 N",
		"longitude": "86-34-16.5 W",
		"state": "TENNESSEE",
		"artcc": "ZME",
		"type": "RP",
		"updated": "SSX*LD*N CRS/15.40",
	},
	{
		"name": "REBME",
		"latitude": "36-28-10.18 N",
		"longitude": "86-52-40.85 W",
		"state": "TENNESSEE",
		"artcc": "ZME",
		"type": "RNAV",
		"updated": "05/06/2016",
	},
	{
		"name": "REDAE",
		"latitude": "36-17-55.5 N",
		"longitude": "88-14-33.35 W",
		"state": "TENNESSEE",
		"artcc": "ZME",
		"type": "RNAV",
		"updated": "07/25/2011",
	},
	{
		"name": "REECO",
		"latitude": "32-22-30 N",
		"longitude": "89-37-10 W",
		"state": "MISSISSIPPI",
		"artcc": "ZME",
		"type": "RNAV",
		"updated": "09/21/2012",
	},
	{
		"name": "REFOR",
		"latitude": "33-30-39.12 N",
		"longitude": "88-17-47.33 W",
		"state": "ALABAMA",
		"artcc": "ZME",
		"type": "MR",
		"updated": "IGB*VORTAC*078.00/11.00",
	},
	{
		"name": "REGOR",
		"latitude": "33-36-31.33 N",
		"longitude": "88-42-8.26 W",
		"state": "MISSISSIPPI",
		"artcc": "ZME",
		"type": "RP",
		"updated": "IGB*VORTAC*304.00/12.00",
	},
	{
		"name": "REISE",
		"latitude": "35-15-46.76 N",
		"longitude": "89-58-39.04 W",
		"state": "TENNESSEE",
		"artcc": "ZME",
		"type": "RP",
		"updated": "EXS*LD*000.00/14.48",
	},
	{
		"name": "RELOF",
		"latitude": "33-53-10.86 N",
		"longitude": "89-42-28.52 W",
		"state": "MISSISSIPPI",
		"artcc": "ZME",
		"type": "RNAV",
		"updated": "03/26/2013",
	},
	{
		"name": "RELSE",
		"latitude": "36-50-3.64 N",
		"longitude": "87-35-5.34 W",
		"state": "KENTUCKY",
		"artcc": "ZME",
		"type": "RNAV",
		"updated": "10/03/2008",
	},
	{
		"name": "REMBE",
		"latitude": "34-24-43.6 N",
		"longitude": "92-33-27.52 W",
		"state": "ARKANSAS",
		"artcc": "ZME",
		"type": "RP",
		"updated": "LIT*VORTAC*224.71",
	},
	{
		"name": "REMEE",
		"latitude": "35-32-20.92 N",
		"longitude": "87-57-3.75 W",
		"state": "TENNESSEE",
		"artcc": "ZME",
		"type": "RNAV",
		"updated": "09/16/2011",
	},
	{
		"name": "REMKE",
		"latitude": "36-5-30.29 N",
		"longitude": "87-18-42.45 W",
		"state": "TENNESSEE",
		"artcc": "ZME",
		"type": "RNAV",
		"updated": "06/23/2011",
	},
	{
		"name": "RENNO",
		"latitude": "32-53-20.43 N",
		"longitude": "89-6-54.68 W",
		"state": "MISSISSIPPI",
		"artcc": "ZME",
		"type": "RNAV",
		"updated": "09/14/2009",
	},
	{
		"name": "REQPA",
		"latitude": "36-1-24.75 N",
		"longitude": "86-45-26.4 W",
		"state": "TENNESSEE",
		"artcc": "ZME",
		"type": "RNAV",
		"updated": "09/18/2012",
	},
	{
		"name": "REROY",
		"latitude": "33-57-59.41 N",
		"longitude": "91-56-5.04 W",
		"state": "ARKANSAS",
		"artcc": "ZME",
		"type": "RNAV",
		"updated": "03/27/2011",
	},
	{
		"name": "REVSE",
		"latitude": "35-53-12.24 N",
		"longitude": "95-0-23.77 W",
		"state": "OKLAHOMA",
		"artcc": "ZME",
		"type": "RNAV",
		"updated": "04/28/2008",
	},
	{
		"name": "REYLO",
		"latitude": "34-22-48.21 N",
		"longitude": "91-56-11.1 W",
		"state": "ARKANSAS",
		"artcc": "ZME",
		"type": "RP",
		"updated": "PBF*VOR/DME*/8.00",
	},
	{
		"name": "REYPY",
		"latitude": "36-1-40.71 N",
		"longitude": "86-46-26.91 W",
		"state": "TENNESSEE",
		"artcc": "ZME",
		"type": "RNAV",
		"updated": "09/18/2012",
	},
	{
		"name": "RIBZZ",
		"latitude": "34-55-50.46 N",
		"longitude": "89-56-50.61 W",
		"state": "MISSISSIPPI",
		"artcc": "ZME",
		"type": "RNAV",
		"updated": "12/18/2012",
	},
	{
		"name": "RICKX",
		"latitude": "35-6-29.79 N",
		"longitude": "90-14-16.18 W",
		"state": "ARKANSAS",
		"artcc": "ZME",
		"type": "RNAV",
		"updated": "01/16/2014",
	},
	{
		"name": "RICOB",
		"latitude": "37-6-51.38 N",
		"longitude": "88-35-2.93 W",
		"state": "ILLINOIS",
		"artcc": "ZME",
		"type": "RNAV",
		"updated": "11/02/2016",
	},
	{
		"name": "RIDEE",
		"latitude": "35-8-32.79 N",
		"longitude": "87-25-37.94 W",
		"state": "TENNESSEE",
		"artcc": "ZME",
		"type": "RNAV",
		"updated": "05/06/2016",
	},
	{
		"name": "RIDOC",
		"latitude": "34-31-34.83 N",
		"longitude": "91-48-18.67 W",
		"state": "ARKANSAS",
		"artcc": "ZME",
		"type": "RNAV",
		"updated": "07/25/2005",
	},
	{
		"name": "RIGCY",
		"latitude": "33-58-6.07 N",
		"longitude": "89-58-44.68 W",
		"state": "MISSISSIPPI",
		"artcc": "ZME",
		"type": "RP",
		"updated": "SQS*VORTAC*023.21/33.70",
	},
	{
		"name": "RILVE",
		"latitude": "35-24-26.09 N",
		"longitude": "92-13-47.06 W",
		"state": "ARKANSAS",
		"artcc": "ZME",
		"type": "RNAV",
		"updated": "09/01/2005",
	},
	{
		"name": "RIRIW",
		"latitude": "34-47-42.2 N",
		"longitude": "92-7-28.13 W",
		"state": "ARKANSAS",
		"artcc": "ZME",
		"type": "RNAV",
		"updated": "01/03/2009",
	},
	{
		"name": "RIROY",
		"latitude": "36-24-44.89 N",
		"longitude": "94-31-54.31 W",
		"state": "ARKANSAS",
		"artcc": "ZME",
		"type": "RNAV",
		"updated": "03/07/2005",
	},
	{
		"name": "RISCO",
		"latitude": "36-32-35.86 N",
		"longitude": "89-42-18.34 W",
		"state": "MISSOURI",
		"artcc": "ZME",
		"type": "RP",
		"updated": "MAW*VORTAC*091.00/10.00",
	},
	{
		"name": "RISON",
		"latitude": "34-2-27.73 N",
		"longitude": "92-5-52.65 W",
		"state": "ARKANSAS",
		"artcc": "ZME",
		"type": "RP",
		"updated": "MON*VOR/DME*322.43",
	},
	{
		"name": "RIVES",
		"latitude": "34-45-16.22 N",
		"longitude": "92-13-12.09 W",
		"state": "ARKANSAS",
		"artcc": "ZME",
		"type": "RP",
		"updated": "LIT*VORTAC*332.00/5.00",
	},
	{
		"name": "RIWLO",
		"latitude": "34-39-45.38 N",
		"longitude": "92-18-51.82 W",
		"state": "ARKANSAS",
		"artcc": "ZME",
		"type": "RNAV",
		"updated": "01/03/2009",
	},
	{
		"name": "RIZZZ",
		"latitude": "35-29-18.1 N",
		"longitude": "86-3-39.79 W",
		"state": "TENNESSEE",
		"artcc": "ZME",
		"type": "RNAV",
		"updated": "07/26/2016",
	},
	{
		"name": "ROBNY",
		"latitude": "32-41-16.1 N",
		"longitude": "88-23-46.28 W",
		"state": "MISSISSIPPI",
		"artcc": "ZME",
		"type": "MR",
		"updated": "NMM*TACAN*051.00/10.00",
	},
	{
		"name": "ROBYE",
		"latitude": "35-43-12.42 N",
		"longitude": "89-49-6.8 W",
		"state": "TENNESSEE",
		"artcc": "ZME",
		"type": "RNAV",
		"updated": "06/15/2012",
	},
	{
		"name": "ROCAB",
		"latitude": "34-37-46.04 N",
		"longitude": "90-34-14.27 W",
		"state": "MISSISSIPPI",
		"artcc": "ZME",
		"type": "RNAV",
		"updated": "06/15/2012",
	},
	{
		"name": "ROCOB",
		"latitude": "34-42-32.6 N",
		"longitude": "87-37-0.98 W",
		"state": "ALABAMA",
		"artcc": "ZME",
		"type": "RNAV",
		"updated": "01/13/2004",
	},
	{
		"name": "ROFKI",
		"latitude": "36-9-33.99 N",
		"longitude": "90-55-23.69 W",
		"state": "ARKANSAS",
		"artcc": "ZME",
		"type": "RNAV",
		"updated": "08/19/2011",
	},
	{
		"name": "ROGEY",
		"latitude": "36-11-16.95 N",
		"longitude": "94-15-50.7 W",
		"state": "ARKANSAS",
		"artcc": "ZME",
		"type": "RP",
		"updated": "FBS*LD*158.74/6.89",
	},
	{
		"name": "ROLAN",
		"latitude": "34-50-55.36 N",
		"longitude": "92-26-47.4 W",
		"state": "ARKANSAS",
		"artcc": "ZME",
		"type": "RP",
		"updated": "LIT*VORTAC*303.00/16.67",
	},
	{
		"name": "ROLCO",
		"latitude": "36-20-4.76 N",
		"longitude": "94-7-23.44 W",
		"state": "ARKANSAS",
		"artcc": "ZME",
		"type": "RNAV",
		"updated": "06/01/2017",
	},
	{
		"name": "ROLLO",
		"latitude": "34-58-46.52 N",
		"longitude": "91-55-27.66 W",
		"state": "ARKANSAS",
		"artcc": "ZME",
		"type": "MW",
		"updated": "09/24/2013",
	},
	{
		"name": "ROMAR",
		"latitude": "32-5-57.41 N",
		"longitude": "90-11-54.98 W",
		"state": "MISSISSIPPI",
		"artcc": "ZME",
		"type": "RP",
		"updated": "LBY*VORTAC*308.00",
	},
	{
		"name": "RONEE",
		"latitude": "35-8-5 N",
		"longitude": "89-58-29.2 W",
		"state": "TENNESSEE",
		"artcc": "ZME",
		"type": "RP",
		"updated": "EXS*LD*000.00/6.79",
	},
	{
		"name": "RONLE",
		"latitude": "35-55-47.34 N",
		"longitude": "86-45-35.86 W",
		"state": "TENNESSEE",
		"artcc": "ZME",
		"type": "RNAV",
		"updated": "07/14/2009",
	},
	{
		"name": "ROOCK",
		"latitude": "34-51-48.5 N",
		"longitude": "92-15-34.5 W",
		"state": "ARKANSAS",
		"artcc": "ZME",
		"type": "MR",
		"updated": "LRF*TACAN*236.00/6.00",
	},
	{
		"name": "ROOKE",
		"latitude": "37-7-52.8 N",
		"longitude": "88-41-44.69 W",
		"state": "KENTUCKY",
		"artcc": "ZME",
		"type": "RP",
		"updated": "MWA*VOR/DME*153.89",
	},
	{
		"name": "RORRY",
		"latitude": "35-42-53.48 N",
		"longitude": "86-27-35.92 W",
		"state": "TENNESSEE",
		"artcc": "ZME",
		"type": "RNAV",
		"updated": "09/17/2012",
	},
	{
		"name": "ROSIL",
		"latitude": "33-29-47.99 N",
		"longitude": "90-45-57.65 W",
		"state": "MISSISSIPPI",
		"artcc": "ZME",
		"type": "RP",
		"updated": "GLH*VOR/DME*094.35/11.00",
	},
	{
		"name": "ROTME",
		"latitude": "36-22-9.66 N",
		"longitude": "94-11-8.85 W",
		"state": "ARKANSAS",
		"artcc": "ZME",
		"type": "RP",
		"updated": "RZC*VORTAC*333.04/8.00",
	},
	{
		"name": "ROTOC",
		"latitude": "35-17-55.8 N",
		"longitude": "89-1-51.34 W",
		"state": "TENNESSEE",
		"artcc": "ZME",
		"type": "RNAV",
		"updated": "12/04/2014",
	},
	{
		"name": "ROVER",
		"latitude": "34-59-0.8 N",
		"longitude": "93-22-47.74 W",
		"state": "ARKANSAS",
		"artcc": "ZME",
		"type": "RP",
		"updated": "HOT*VOR/DME*330.77",
	},
	{
		"name": "ROYBI",
		"latitude": "36-36-14.01 N",
		"longitude": "93-10-43.78 W",
		"state": "MISSOURI",
		"artcc": "ZME",
		"type": "RNAV",
		"updated": "01/04/2011",
	},
	{
		"name": "ROYEE",
		"latitude": "35-1-3.22 N",
		"longitude": "91-51-25.93 W",
		"state": "ARKANSAS",
		"artcc": "ZME",
		"type": "MW",
		"updated": "09/24/2013",
	},
	{
		"name": "RUBBO",
		"latitude": "36-14-50.3 N",
		"longitude": "93-6-37.39 W",
		"state": "ARKANSAS",
		"artcc": "ZME",
		"type": "RNAV",
		"updated": "09/18/2015",
	},
	{
		"name": "RUDBE",
		"latitude": "33-33-47.04 N",
		"longitude": "88-26-12.97 W",
		"state": "MISSISSIPPI",
		"artcc": "ZME",
		"type": "MR",
		"updated": "CBM*VORTAC*179.00/4.70",
	},
	{
		"name": "RUDOY",
		"latitude": "36-12-49.01 N",
		"longitude": "86-36-39.19 W",
		"state": "TENNESSEE",
		"artcc": "ZME",
		"type": "RNAV",
		"updated": "06/03/2014",
	},
	{
		"name": "RULEE",
		"latitude": "36-8-58.93 N",
		"longitude": "86-48-38.73 W",
		"state": "TENNESSEE",
		"artcc": "ZME",
		"type": "RNAV",
		"updated": "07/25/2011",
	},
	{
		"name": "RUNDE",
		"latitude": "34-44-14.62 N",
		"longitude": "92-18-18.75 W",
		"state": "ARKANSAS",
		"artcc": "ZME",
		"type": "RNAV",
		"updated": "06/25/2015",
	},
	{
		"name": "RUNEE",
		"latitude": "36-0-23.06 N",
		"longitude": "86-40-5.96 W",
		"state": "TENNESSEE",
		"artcc": "ZME",
		"type": "RNAV",
		"updated": "09/25/2012",
	},
	{
		"name": "RUNGS",
		"latitude": "35-57-45.23 N",
		"longitude": "92-33-31.52 W",
		"state": "ARKANSAS",
		"artcc": "ZME",
		"type": "RNAV",
		"updated": "11/19/2015",
	},
	{
		"name": "RUPPS",
		"latitude": "35-43-51.79 N",
		"longitude": "91-8-7.66 W",
		"state": "ARKANSAS",
		"artcc": "ZME",
		"type": "RP",
		"updated": "ARG*VORTAC*197.37/24.37",
	},
	{
		"name": "RUQAW",
		"latitude": "35-50-15.32 N",
		"longitude": "89-34-27.4 W",
		"state": "TENNESSEE",
		"artcc": "ZME",
		"type": "RNAV",
		"updated": "05/03/2011",
	},
	{
		"name": "RUSLR",
		"latitude": "36-15-48.63 N",
		"longitude": "90-5-55.91 W",
		"state": "MISSOURI",
		"artcc": "ZME",
		"type": "RP",
		"updated": "ARG*VORTAC*073.23",
	},
	{
		"name": "RUSSA",
		"latitude": "34-32-37.07 N",
		"longitude": "86-56-14.69 W",
		"state": "ALABAMA",
		"artcc": "ZME",
		"type": "RNAV",
		"updated": "08/18/2017",
	},
	{
		"name": "RUTTH",
		"latitude": "34-29-1.61 N",
		"longitude": "86-42-24.77 W",
		"state": "ALABAMA",
		"artcc": "ZME",
		"type": "RNAV",
		"updated": "08/18/2017",
	},
	{
		"name": "RUTTS",
		"latitude": "33-12-54.33 N",
		"longitude": "91-10-11.29 W",
		"state": "ARKANSAS",
		"artcc": "ZME",
		"type": "RP",
		"updated": "GLH*VOR/DME*203.00/21.00",
	},
	{
		"name": "RUZAL",
		"latitude": "34-49-23.39 N",
		"longitude": "92-14-7.55 W",
		"state": "ARKANSAS",
		"artcc": "ZME",
		"type": "RNAV",
		"updated": "11/29/2013",
	},
	{
		"name": "RYBRN",
		"latitude": "35-30-33.51 N",
		"longitude": "89-43-10.95 W",
		"state": "TENNESSEE",
		"artcc": "ZME",
		"type": "RP",
		"updated": "NQA*LD*NE CRS/12.58",
	},
	{
		"name": "RYYMN",
		"latitude": "36-49-4.12 N",
		"longitude": "87-5-54.29 W",
		"state": "KENTUCKY",
		"artcc": "ZME",
		"type": "RNAV",
		"updated": "09/20/2012",
	},
