[
	{
		"name": "SAAMM",
		"latitude": "35-4-40.3 N",
		"longitude": "89-59-16.98 W",
		"state": "TENNESSEE",
		"artcc": "ZME",
		"type": "RP",
		"updated": "MEM*VORTAC*/3.77"
	},
	{
		"name": "SAAMY",
		"latitude": "36-4-16.72 N",
		"longitude": "86-4-31.68 W",
		"state": "TENNESSEE",
		"artcc": "ZME",
		"type": "RNAV",
		"updated": "09/17/2012"
	},
	{
		"name": "SACDO",
		"latitude": "36-10-26.67 N",
		"longitude": "89-14-34.97 W",
		"state": "TENNESSEE",
		"artcc": "ZME",
		"type": "RP",
		"updated": "DYR*VORTAC*018.26/10.00"
	},
	{
		"name": "SADJI",
		"latitude": "35-8-34.3 N",
		"longitude": "89-3-14.02 W",
		"state": "TENNESSEE",
		"artcc": "ZME",
		"type": "RNAV",
		"updated": "12/04/2014"
	},
	{
		"name": "SAGSE",
		"latitude": "35-8-3.58 N",
		"longitude": "92-28-38.66 W",
		"state": "ARKANSAS",
		"artcc": "ZME",
		"type": "RNAV",
		"updated": "12/27/2007"
	},
	{
		"name": "SAKRE",
		"latitude": "35-47-2.79 N",
		"longitude": "85-40-20.74 W",
		"state": "TENNESSEE",
		"artcc": "ZME",
		"type": "RNAV",
		"updated": "05/06/2016"
	},
	{
		"name": "SALMS",
		"latitude": "35-0-3.25 N",
		"longitude": "86-47-7.79 W",
		"state": "TENNESSEE",
		"artcc": "ZME",
		"type": "RP",
		"updated": "RMG*VORTAC*300.79/96.61"
	},
	{
		"name": "SAPKE",
		"latitude": "36-20-17.24 N",
		"longitude": "93-32-33.37 W",
		"state": "ARKANSAS",
		"artcc": "ZME",
		"type": "RNAV",
		"updated": "09/18/2015"
	},
	{
		"name": "SATEK",
		"latitude": "34-55-31.49 N",
		"longitude": "92-6-57.77 W",
		"state": "ARKANSAS",
		"artcc": "ZME",
		"type": "MR",
		"updated": "LRF*TACAN*/2.10"
	},
	{
		"name": "SAUCC",
		"latitude": "35-38-57.92 N",
		"longitude": "91-16-46.46 W",
		"state": "ARKANSAS",
		"artcc": "ZME",
		"type": "RNAV",
		"updated": "12/05/2013"
	},
	{
		"name": "SCHEF",
		"latitude": "35-58-7.39 N",
		"longitude": "90-26-39.32 W",
		"state": "ARKANSAS",
		"artcc": "ZME",
		"type": "RP",
		"updated": "JBR*VOR/DME*/9.00"
	},
	{
		"name": "SCRAN",
		"latitude": "35-18-57.76 N",
		"longitude": "93-34-21.4 W",
		"state": "ARKANSAS",
		"artcc": "ZME",
		"type": "RP",
		"updated": "PGO*VORTAC*049.01"
	},
	{
		"name": "SCRCH",
		"latitude": "37-4-33.85 N",
		"longitude": "89-29-4.42 W",
		"state": "MISSOURI",
		"artcc": "ZME",
		"type": "RP",
		"updated": "CGI*VOR/DME*157.07/10.01"
	},
	{
		"name": "SEDBY",
		"latitude": "35-43-33.3 N",
		"longitude": "91-10-24.85 W",
		"state": "ARKANSAS",
		"artcc": "ZME",
		"type": "RNAV",
		"updated": "07/28/2008"
	},
	{
		"name": "SELPH",
		"latitude": "35-44-9.51 N",
		"longitude": "89-48-40.81 W",
		"state": "TENNESSEE",
		"artcc": "ZME",
		"type": "RNAV",
		"updated": "02/01/2012"
	},
	{
		"name": "SELVE",
		"latitude": "36-53-29.06 N",
		"longitude": "86-45-6.04 W",
		"state": "KENTUCKY",
		"artcc": "ZME",
		"type": "MR",
		"updated": "BWG*VORTAC*259.52/15.00"
	},
	{
		"name": "SEMIE",
		"latitude": "36-20-2.32 N",
		"longitude": "89-35-56.03 W",
		"state": "TENNESSEE",
		"artcc": "ZME",
		"type": "RNAV",
		"updated": "07/14/2009"
	},
	{
		"name": "SEMPE",
		"latitude": "36-43-22.7 N",
		"longitude": "86-38-0.84 W",
		"state": "KENTUCKY",
		"artcc": "ZME",
		"type": "RNAV",
		"updated": "05/09/2016"
	},
	{
		"name": "SENTE",
		"latitude": "35-10-32.88 N",
		"longitude": "87-22-7.67 W",
		"state": "TENNESSEE",
		"artcc": "ZME",
		"type": "RNAV",
		"updated": "05/06/2016"
	},
	{
		"name": "SENUE",
		"latitude": "35-58-29.55 N",
		"longitude": "89-46-35.22 W",
		"state": "ARKANSAS",
		"artcc": "ZME",
		"type": "RNAV",
		"updated": "07/21/2008"
	},
	{
		"name": "SERVE",
		"latitude": "35-57-17.74 N",
		"longitude": "85-47-44.64 W",
		"state": "TENNESSEE",
		"artcc": "ZME",
		"type": "RP",
		"updated": "HCH*VOR/DME*286.89"
	},
	{
		"name": "SESIE",
		"latitude": "34-33-34.4 N",
		"longitude": "94-12-34.44 W",
		"state": "ARKANSAS",
		"artcc": "ZME",
		"type": "RNAV",
		"updated": "05/21/2003"
	},
	{
		"name": "SETLE",
		"latitude": "35-7-16.9 N",
		"longitude": "91-45-42.9 W",
		"state": "ARKANSAS",
		"artcc": "ZME",
		"type": "RNAV",
		"updated": "07/25/2005"
	},
	{
		"name": "SEYOD",
		"latitude": "36-19-56.43 N",
		"longitude": "94-19-47.46 W",
		"state": "ARKANSAS",
		"artcc": "ZME",
		"type": "RP",
		"updated": "XNA*LD*NW CRS/2.33"
	},
	{
		"name": "SFOUR",
		"latitude": "34-36-50.63 N",
		"longitude": "90-37-27.31 W",
		"state": "ARKANSAS",
		"artcc": "ZME",
		"type": "RP",
		"updated": "MEM*VORTAC*232.00/39.75"
	},
	{
		"name": "SHAAA",
		"latitude": "34-40-13.22 N",
		"longitude": "90-32-6.68 W",
		"state": "ARKANSAS",
		"artcc": "ZME",
		"type": "RNAV",
		"updated": "10/16/2013"
	},
	{
		"name": "SHEHL",
		"latitude": "35-56-25.44 N",
		"longitude": "86-26-46.94 W",
		"state": "TENNESSEE",
		"artcc": "ZME",
		"type": "RNAV",
		"updated": "05/14/2014"
	},
	{
		"name": "SHERR",
		"latitude": "34-47-1.73 N",
		"longitude": "92-9-34.83 W",
		"state": "ARKANSAS",
		"artcc": "ZME",
		"type": "RP",
		"updated": "LIT*VORTAC*004.21"
	},
	{
		"name": "SHLBY",
		"latitude": "35-18-4.85 N",
		"longitude": "90-5-30.61 W",
		"state": "TENNESSEE",
		"artcc": "ZME",
		"type": "RP",
		"updated": "GQE*VOR/DME*094.10"
	},
	{
		"name": "SHORN",
		"latitude": "35-39-55.11 N",
		"longitude": "94-34-0.68 W",
		"state": "OKLAHOMA",
		"artcc": "ZME",
		"type": "RP",
		"updated": "FSM*VORTAC*312.00/23.00"
	},
	{
		"name": "SHOWR",
		"latitude": "36-49-56.27 N",
		"longitude": "87-13-34.75 W",
		"state": "KENTUCKY",
		"artcc": "ZME",
		"type": "MR",
		"updated": "HXW*TACAN*054.98/16.00"
	},
	{
		"name": "SHRMN",
		"latitude": "36-52-38.72 N",
		"longitude": "87-29-59.32 W",
		"state": "KENTUCKY",
		"artcc": "ZME",
		"type": "MW",
		"updated": "11/17/2017"
	},
	{
		"name": "SHRRN",
		"latitude": "36-24-2.93 N",
		"longitude": "89-53-34.5 W",
		"state": "MISSOURI",
		"artcc": "ZME",
		"type": "RNAV",
		"updated": "09/04/2009"
	},
	{
		"name": "SIBOE",
		"latitude": "34-57-14.76 N",
		"longitude": "91-29-17.48 W",
		"state": "ARKANSAS",
		"artcc": "ZME",
		"type": "RP",
		"updated": "LIT*VORTAC*058.97/38.00"
	},
	{
		"name": "SICJE",
		"latitude": "34-33-48.77 N",
		"longitude": "86-56-51.01 W",
		"state": "ALABAMA",
		"artcc": "ZME",
		"type": "RNAV",
		"updated": "12/15/2015"
	},
	{
		"name": "SICOD",
		"latitude": "34-51-8.68 N",
		"longitude": "92-13-2.91 W",
		"state": "ARKANSAS",
		"artcc": "ZME",
		"type": "RNAV",
		"updated": "12/31/2007"
	},
	{
		"name": "SIDAE",
		"latitude": "37-20-0 N",
		"longitude": "87-50-0 W",
		"state": "KENTUCKY",
		"artcc": "ZME",
		"type": "RNAV",
		"updated": "09/22/2014"
	},
	{
		"name": "SIKUE",
		"latitude": "32-31-0.62 N",
		"longitude": "88-34-33.73 W",
		"state": "MISSISSIPPI",
		"artcc": "ZME",
		"type": "MR",
		"updated": "NMM*TACAN*205.00/4.00"
	},
	{
		"name": "SIMPE",
		"latitude": "34-22-0.28 N",
		"longitude": "88-54-36.36 W",
		"state": "MISSISSIPPI",
		"artcc": "ZME",
		"type": "RNAV",
		"updated": "08/20/2007"
	},
	{
		"name": "SINBE",
		"latitude": "35-0-32.18 N",
		"longitude": "90-6-37.86 W",
		"state": "TENNESSEE",
		"artcc": "ZME",
		"type": "RNAV",
		"updated": "06/15/2012"
	},
	{
		"name": "SIPPO",
		"latitude": "36-6-4.77 N",
		"longitude": "86-33-50.61 W",
		"state": "TENNESSEE",
		"artcc": "ZME",
		"type": "RNAV",
		"updated": "09/17/2012"
	},
	{
		"name": "SIPZU",
		"latitude": "34-35-25.61 N",
		"longitude": "91-34-44.45 W",
		"state": "ARKANSAS",
		"artcc": "ZME",
		"type": "WP",
		"updated": "11/02/1998"
	},
	{
		"name": "SISCO",
		"latitude": "35-1-26.73 N",
		"longitude": "94-13-56.11 W",
		"state": "ARKANSAS",
		"artcc": "ZME",
		"type": "RP",
		"updated": "PGO*VORTAC*038.00"
	},
	{
		"name": "SISYO",
		"latitude": "33-30-59.75 N",
		"longitude": "88-22-55.06 W",
		"state": "MISSISSIPPI",
		"artcc": "ZME",
		"type": "RNAV",
		"updated": "06/30/2017"
	},
	{
		"name": "SIWIN",
		"latitude": "34-19-14.73 N",
		"longitude": "91-28-6.23 W",
		"state": "ARKANSAS",
		"artcc": "ZME",
		"type": "RNAV",
		"updated": "10/18/2004"
	},
	{
		"name": "SKAGS",
		"latitude": "36-1-13.59 N",
		"longitude": "86-42-16.29 W",
		"state": "TENNESSEE",
		"artcc": "ZME",
		"type": "RP",
		"updated": "UQU*LD*S CRS/7.26"
	},
	{
		"name": "SKEEZ",
		"latitude": "35-18-33.89 N",
		"longitude": "90-6-42.92 W",
		"state": "ARKANSAS",
		"artcc": "ZME",
		"type": "RNAV",
		"updated": "06/15/2012"
	},
	{
		"name": "SKENE",
		"latitude": "33-41-31.51 N",
		"longitude": "90-49-10.16 W",
		"state": "MISSISSIPPI",
		"artcc": "ZME",
		"type": "RP",
		"updated": "GLH*VOR/DME*035.01/13.00"
	},
	{
		"name": "SKEPS",
		"latitude": "33-23-40.33 N",
		"longitude": "91-18-5.13 W",
		"state": "ARKANSAS",
		"artcc": "ZME",
		"type": "RNAV",
		"updated": "01/27/2017"
	},
	{
		"name": "SKIDO",
		"latitude": "34-31-49.1 N",
		"longitude": "86-53-11.16 W",
		"state": "ALABAMA",
		"artcc": "ZME",
		"type": "RNAV",
		"updated": "01/16/2014"
	},
	{
		"name": "SKULL",
		"latitude": "34-23-10.28 N",
		"longitude": "89-42-15.11 W",
		"state": "MISSISSIPPI",
		"artcc": "ZME",
		"type": "RP",
		"updated": "HLI*VORTAC*201.20/25.20"
	},
	{
		"name": "SLONN",
		"latitude": "35-13-17.3 N",
		"longitude": "89-56-30.49 W",
		"state": "TENNESSEE",
		"artcc": "ZME",
		"type": "RNAV",
		"updated": "02/01/2012"
	},
	{
		"name": "SLUDD",
		"latitude": "35-48-31.71 N",
		"longitude": "88-55-14.95 W",
		"state": "TENNESSEE",
		"artcc": "ZME",
		"type": "RNAV",
		"updated": "04/01/2009"
	},
	{
		"name": "SMITZ",
		"latitude": "34-24-33.74 N",
		"longitude": "87-28-44.28 W",
		"state": "ALABAMA",
		"artcc": "ZME",
		"type": "RP",
		"updated": "DCU*VOR/DME*243.00"
	},
	{
		"name": "SNAEK",
		"latitude": "33-24-3.59 N",
		"longitude": "88-9-43.16 W",
		"state": "ALABAMA",
		"artcc": "ZME",
		"type": "MR",
		"updated": "CBM*VORTAC*136.00/20.00"
	},
	{
		"name": "SNOWD",
		"latitude": "36-47-5.93 N",
		"longitude": "89-22-16.62 W",
		"state": "MISSOURI",
		"artcc": "ZME",
		"type": "RP",
		"updated": "CGI*VOR/DME*161.91"
	},
	{
		"name": "SNOWO",
		"latitude": "34-59-13.74 N",
		"longitude": "91-53-50.93 W",
		"state": "ARKANSAS",
		"artcc": "ZME",
		"type": "MW",
		"updated": "06/13/2009"
	},
	{
		"name": "SNUFF",
		"latitude": "36-31-37.88 N",
		"longitude": "87-23-10.73 W",
		"state": "TENNESSEE",
		"artcc": "ZME",
		"type": "RP",
		"updated": "CKV*VOR/DME*/5.82"
	},
	{
		"name": "SOAKS",
		"latitude": "33-38-41.42 N",
		"longitude": "90-25-13.71 W",
		"state": "MISSISSIPPI",
		"artcc": "ZME",
		"type": "RP",
		"updated": "GLH*VOR/DME*071.40"
	},
	{
		"name": "SOBAW",
		"latitude": "37-5-35.04 N",
		"longitude": "90-3-55.33 W",
		"state": "MISSOURI",
		"artcc": "ZME",
		"type": "RP",
		"updated": "CGI*VOR/DME*253.33"
	},
	{
		"name": "SOCKS",
		"latitude": "34-22-28.56 N",
		"longitude": "92-55-27.63 W",
		"state": "ARKANSAS",
		"artcc": "ZME",
		"type": "RP",
		"updated": "LIT*VORTAC*239.00"
	},
	{
		"name": "SOCOB",
		"latitude": "35-46-16.4 N",
		"longitude": "91-49-47.66 W",
		"state": "ARKANSAS",
		"artcc": "ZME",
		"type": "RNAV",
		"updated": "07/09/2007"
	},
	{
		"name": "SOCYO",
		"latitude": "36-49-58.95 N",
		"longitude": "91-54-12.79 W",
		"state": "MISSOURI",
		"artcc": "ZME",
		"type": "RNAV",
		"updated": "09/14/2010"
	},
	{
		"name": "SODDO",
		"latitude": "35-59-35.77 N",
		"longitude": "94-24-34.73 W",
		"state": "ARKANSAS",
		"artcc": "ZME",
		"type": "RNAV",
		"updated": "08/08/2007"
	},
	{
		"name": "SODDY",
		"latitude": "33-37-1.22 N",
		"longitude": "90-23-54.32 W",
		"state": "MISSISSIPPI",
		"artcc": "ZME",
		"type": "RP",
		"updated": "GLH*VOR/DME*075.02"
	},
	{
		"name": "SOGOC",
		"latitude": "34-58-24.04 N",
		"longitude": "86-11-43.11 W",
		"state": "ALABAMA",
		"artcc": "ZME",
		"type": "RNAV",
		"updated": "06/16/2008"
	},
	{
		"name": "SOKSE",
		"latitude": "36-26-15.73 N",
		"longitude": "93-24-43.73 W",
		"state": "ARKANSAS",
		"artcc": "ZME",
		"type": "RNAV",
		"updated": "06/09/2015"
	},
	{
		"name": "SOLRS",
		"latitude": "36-16-21.35 N",
		"longitude": "92-40-27.27 W",
		"state": "ARKANSAS",
		"artcc": "ZME",
		"type": "WP",
		"updated": "FLP*VOR/DME*258.26/10.60"
	},
	{
		"name": "SONEI",
		"latitude": "34-28-28.3 N",
		"longitude": "89-39-54.25 W",
		"state": "MISSISSIPPI",
		"artcc": "ZME",
		"type": "RP",
		"updated": "MEM*VORTAC*153.00/36.00"
	},
	{
		"name": "SONEL",
		"latitude": "36-28-10.96 N",
		"longitude": "86-25-36.63 W",
		"state": "TENNESSEE",
		"artcc": "ZME",
		"type": "RNAV",
		"updated": "06/16/2015"
	},
	{
		"name": "SOPIE",
		"latitude": "36-8-37.48 N",
		"longitude": "88-33-47.95 W",
		"state": "TENNESSEE",
		"artcc": "ZME",
		"type": "RP",
		"updated": "BNA*VORTAC*272.81/91.29"
	},
	{
		"name": "SOSBE",
		"latitude": "34-50-9.36 N",
		"longitude": "87-36-47.73 W",
		"state": "ALABAMA",
		"artcc": "ZME",
		"type": "RNAV",
		"updated": "02/04/2014"
	},
	{
		"name": "SOSOE",
		"latitude": "31-41-34.9 N",
		"longitude": "89-11-11.26 W",
		"state": "MISSISSIPPI",
		"artcc": "ZME",
		"type": "RP",
		"updated": "GCV*VORTAC*309.91"
	},
	{
		"name": "SOUER",
		"latitude": "33-20-22.54 N",
		"longitude": "88-50-44.89 W",
		"state": "MISSISSIPPI",
		"artcc": "ZME",
		"type": "RP",
		"updated": "STF*LE*179.56/6.15"
	},
	{
		"name": "SOVKE",
		"latitude": "36-55-57.31 N",
		"longitude": "89-21-33.6 W",
		"state": "MISSOURI",
		"artcc": "ZME",
		"type": "RNAV",
		"updated": "10/28/2013"
	},
	{
		"name": "SOWND",
		"latitude": "35-4-33.98 N",
		"longitude": "85-34-42.55 W",
		"state": "TENNESSEE",
		"artcc": "ZME",
		"type": "WP",
		"updated": "06/14/1995"
	},
	{
		"name": "SOYOT",
		"latitude": "36-18-36.64 N",
		"longitude": "90-0-12.74 W",
		"state": "MISSOURI",
		"artcc": "ZME",
		"type": "RNAV",
		"updated": "01/30/2014"
	},
	{
		"name": "SPARE",
		"latitude": "36-37-2.94 N",
		"longitude": "86-54-6.52 W",
		"state": "TENNESSEE",
		"artcc": "ZME",
		"type": "RNAV",
		"updated": "07/12/2017"
	},
	{
		"name": "SPARO",
		"latitude": "33-54-39.35 N",
		"longitude": "92-55-41.98 W",
		"state": "ARKANSAS",
		"artcc": "ZME",
		"type": "RP",
		"updated": "TXK*VORTAC*060.15/62.04"
	},
	{
		"name": "SPENT",
		"latitude": "37-7-41.89 N",
		"longitude": "88-41-24.02 W",
		"state": "KENTUCKY",
		"artcc": "ZME",
		"type": "RP",
		"updated": "CNG*VOR/DME*041.48/10.06"
	},
	{
		"name": "SPIRO",
		"latitude": "35-15-33.02 N",
		"longitude": "94-31-59.52 W",
		"state": "OKLAHOMA",
		"artcc": "ZME",
		"type": "RP",
		"updated": "FSM*VORTAC*232.00/15.00"
	},
	{
		"name": "SPKER",
		"latitude": "35-43-50.25 N",
		"longitude": "89-4-12.82 W",
		"state": "TENNESSEE",
		"artcc": "ZME",
		"type": "RP",
		"updated": "MEM*VORTAC*045.00/62.00"
	},
	{
		"name": "SPRAY",
		"latitude": "36-16-3.57 N",
		"longitude": "93-51-44.31 W",
		"state": "ARKANSAS",
		"artcc": "ZME",
		"type": "RP",
		"updated": "EOS*VOR/DME*134.00"
	},
	{
		"name": "STAAX",
		"latitude": "34-57-9.59 N",
		"longitude": "89-51-30.35 W",
		"state": "MISSISSIPPI",
		"artcc": "ZME",
		"type": "RP",
		"updated": "MEM*VORTAC*120.27/7.20"
	},
	{
		"name": "STANI",
		"latitude": "35-53-51.84 N",
		"longitude": "90-53-53.62 W",
		"state": "ARKANSAS",
		"artcc": "ZME",
		"type": "RP",
		"updated": "ARG*VORTAC*164.00/13.00"
	},
	{
		"name": "STETT",
		"latitude": "33-37-14.23 N",
		"longitude": "89-32-10.07 W",
		"state": "MISSISSIPPI",
		"artcc": "ZME",
		"type": "MR",
		"updated": "CBM*VORTAC*264.00/55.00"
	},
	{
		"name": "STJUD",
		"latitude": "35-7-6.68 N",
		"longitude": "89-44-45.11 W",
		"state": "TENNESSEE",
		"artcc": "ZME",
		"type": "RNAV",
		"updated": "02/01/2012"
	},
	{
		"name": "STRAN",
		"latitude": "37-5-0.67 N",
		"longitude": "88-37-9.63 W",
		"state": "KENTUCKY",
		"artcc": "ZME",
		"type": "RNAV",
		"updated": "11/02/2016"
	},
	{
		"name": "STREE",
		"latitude": "34-30-15.82 N",
		"longitude": "90-27-51.54 W",
		"state": "MISSISSIPPI",
		"artcc": "ZME",
		"type": "RP",
		"updated": "MEM*VORTAC*217.00/38.75"
	},
	{
		"name": "STUEE",
		"latitude": "32-30-11.57 N",
		"longitude": "91-39-42.77 W",
		"state": "LOUISIANA",
		"artcc": "ZME",
		"type": "RP",
		"updated": "MLU*VORTAC*089.37/19.00"
	},
	{
		"name": "STUKA",
		"latitude": "35-27-2.82 N",
		"longitude": "89-5-58.58 W",
		"state": "TENNESSEE",
		"artcc": "ZME",
		"type": "RNAV",
		"updated": "04/01/2009"
	},
	{
		"name": "STUTT",
		"latitude": "34-30-20.93 N",
		"longitude": "91-34-56.41 W",
		"state": "ARKANSAS",
		"artcc": "ZME",
		"type": "RP",
		"updated": "TTL*LD*S CRS/6.07"
	},
	{
		"name": "STVVV",
		"latitude": "35-10-50.97 N",
		"longitude": "90-44-18.34 W",
		"state": "ARKANSAS",
		"artcc": "ZME",
		"type": "RNAV",
		"updated": "10/16/2013"
	},
	{
		"name": "STWOO",
		"latitude": "34-22-34 N",
		"longitude": "90-6-18.96 W",
		"state": "MISSISSIPPI",
		"artcc": "ZME",
		"type": "RP",
		"updated": "MEM*VORTAC*188.00/38.75"
	},
	{
		"name": "SUBAE",
		"latitude": "36-4-35.62 N",
		"longitude": "87-21-42.74 W",
		"state": "TENNESSEE",
		"artcc": "ZME",
		"type": "RNAV",
		"updated": "06/23/2011"
	},
	{
		"name": "SUBIC",
		"latitude": "36-14-53.25 N",
		"longitude": "92-23-49.1 W",
		"state": "ARKANSAS",
		"artcc": "ZME",
		"type": "RP",
		"updated": "HRO*VOR/DME*091.82/39.82"
	},
	{
		"name": "SUBME",
		"latitude": "35-45-14.29 N",
		"longitude": "95-0-46.59 W",
		"state": "OKLAHOMA",
		"artcc": "ZME",
		"type": "RNAV",
		"updated": "04/28/2008"
	},
	{
		"name": "SUBOY",
		"latitude": "34-34-13.01 N",
		"longitude": "89-50-59.73 W",
		"state": "MISSISSIPPI",
		"artcc": "ZME",
		"type": "RP",
		"updated": "MEM*VORTAC*165.08"
	},
	{
		"name": "SUBSE",
		"latitude": "35-40-17.68 N",
		"longitude": "90-27-26.56 W",
		"state": "ARKANSAS",
		"artcc": "ZME",
		"type": "RNAV",
		"updated": "01/24/2013"
	},
	{
		"name": "SUDOE",
		"latitude": "37-5-13.36 N",
		"longitude": "88-16-22.76 W",
		"state": "KENTUCKY",
		"artcc": "ZME",
		"type": "RNAV",
		"updated": "06/15/2012"
	},
	{
		"name": "SUDRE",
		"latitude": "36-13-56.14 N",
		"longitude": "86-40-3.6 W",
		"state": "TENNESSEE",
		"artcc": "ZME",
		"type": "RNAV",
		"updated": "06/03/2014"
	},
	{
		"name": "SULLY",
		"latitude": "34-45-36.84 N",
		"longitude": "89-5-43.24 W",
		"state": "MISSISSIPPI",
		"artcc": "ZME",
		"type": "RP",
		"updated": "HLI*VORTAC*088.62/19.84"
	},
	{
		"name": "SULPH",
		"latitude": "34-53-52.16 N",
		"longitude": "92-12-8.99 W",
		"state": "ARKANSAS",
		"artcc": "ZME",
		"type": "MW",
		"updated": "09/24/2013"
	},
	{
		"name": "SULYO",
		"latitude": "31-39-46.16 N",
		"longitude": "89-20-14.27 W",
		"state": "MISSISSIPPI",
		"artcc": "ZME",
		"type": "RNAV",
		"updated": "02/05/2010"
	},
	{
		"name": "SUMMO",
		"latitude": "35-59-0.75 N",
		"longitude": "94-26-26 W",
		"state": "ARKANSAS",
		"artcc": "ZME",
		"type": "RP",
		"updated": "DAK*VOR/DME*246.34/12.35"
	},
	{
		"name": "SUNRE",
		"latitude": "35-4-56.3 N",
		"longitude": "89-59-17.32 W",
		"state": "TENNESSEE",
		"artcc": "ZME",
		"type": "RNAV",
		"updated": "06/18/2008"
	},
	{
		"name": "SUSBE",
		"latitude": "36-11-2.23 N",
		"longitude": "92-26-17.97 W",
		"state": "ARKANSAS",
		"artcc": "ZME",
		"type": "RP",
		"updated": "FLP*VOR/DME*169.00/7.00"
	},
	{
		"name": "SUTTN",
		"latitude": "33-30-20.81 N",
		"longitude": "92-21-53.19 W",
		"state": "ARKANSAS",
		"artcc": "ZME",
		"type": "RP",
		"updated": "TXK*VORTAC*082.85/85.71"
	},
	{
		"name": "SUUZE",
		"latitude": "34-57-9.67 N",
		"longitude": "89-51-30.14 W",
		"state": "MISSISSIPPI",
		"artcc": "ZME",
		"type": "RNAV",
		"updated": "12/04/2013"
	},
	{
		"name": "SUXIE",
		"latitude": "36-18-0.18 N",
		"longitude": "88-10-50.01 W",
		"state": "TENNESSEE",
		"artcc": "ZME",
		"type": "RNAV",
		"updated": "07/25/2011"
	},
	{
		"name": "SWALL",
		"latitude": "35-46-40.81 N",
		"longitude": "94-41-16.4 W",
		"state": "OKLAHOMA",
		"artcc": "ZME",
		"type": "RP",
		"updated": "RZC*VORTAC*220.66/39.34"
	},
	{
		"name": "SWFFT",
		"latitude": "35-33-9.32 N",
		"longitude": "85-54-37.84 W",
		"state": "TENNESSEE",
		"artcc": "ZME",
		"type": "RNAV",
		"updated": "09/25/2012"
	},
	{
		"name": "SWIND",
		"latitude": "35-5-11.9 N",
		"longitude": "89-28-51.31 W",
		"state": "TENNESSEE",
		"artcc": "ZME",
		"type": "RNAV",
		"updated": "02/01/2012"
	},
	{
		"name": "SYLVN",
		"latitude": "34-56-18.28 N",
		"longitude": "92-4-12.42 W",
		"state": "ARKANSAS",
		"artcc": "ZME",
		"type": "RNAV",
		"updated": "06/27/2012"
	}
]
