[
	{
		"name": "TABBY",
		"latitude": "34-5-49.92 N",
		"longitude": "91-56-36.95 W",
		"state": "ARKANSAS",
		"artcc": "ZME",
		"type": "RP",
		"updated": "PBF*VOR/DME*181.53/9.00"
	},
	{
		"name": "TACIT",
		"latitude": "36-12-5.42 N",
		"longitude": "94-24-15.82 W",
		"state": "ARKANSAS",
		"artcc": "ZME",
		"type": "RP",
		"updated": "DAK*VOR/DME*306.45"
	},
	{
		"name": "TACNU",
		"latitude": "33-32-31.89 N",
		"longitude": "90-12-29.79 W",
		"state": "MISSISSIPPI",
		"artcc": "ZME",
		"type": "RNAV",
		"updated": "10/26/2005"
	},
	{
		"name": "TACOC",
		"latitude": "35-8-33.25 N",
		"longitude": "86-37-8.69 W",
		"state": "TENNESSEE",
		"artcc": "ZME",
		"type": "RNAV",
		"updated": "05/06/2016"
	},
	{
		"name": "TACOS",
		"latitude": "36-2-11.62 N",
		"longitude": "90-32-30.62 W",
		"state": "ARKANSAS",
		"artcc": "ZME",
		"type": "RNAV",
		"updated": "12/22/2003"
	},
	{
		"name": "TADAW",
		"latitude": "34-42-37.04 N",
		"longitude": "92-27-51.89 W",
		"state": "ARKANSAS",
		"artcc": "ZME",
		"type": "RP",
		"updated": "LIT*VORTAC*273.00/14.18"
	},
	{
		"name": "TADME",
		"latitude": "36-14-48.76 N",
		"longitude": "94-29-1.15 W",
		"state": "ARKANSAS",
		"artcc": "ZME",
		"type": "RNAV",
		"updated": "08/08/2007"
	},
	{
		"name": "TAFTE",
		"latitude": "34-51-33.88 N",
		"longitude": "91-43-37.18 W",
		"state": "ARKANSAS",
		"artcc": "ZME",
		"type": "RP",
		"updated": "LIT*VORTAC*058.97/24.92"
	},
	{
		"name": "TAGDE",
		"latitude": "36-38-46.33 N",
		"longitude": "87-19-39.73 W",
		"state": "KENTUCKY",
		"artcc": "ZME",
		"type": "MW",
		"updated": "04/08/2009"
	},
	{
		"name": "TAGLE",
		"latitude": "36-4-33.98 N",
		"longitude": "89-40-30.66 W",
		"state": "TENNESSEE",
		"artcc": "ZME",
		"type": "RNAV",
		"updated": "07/21/2008"
	},
	{
		"name": "TAGSE",
		"latitude": "36-19-43.05 N",
		"longitude": "94-12-9.57 W",
		"state": "ARKANSAS",
		"artcc": "ZME",
		"type": "RP",
		"updated": "RZC*VORTAC*317.35/6.31"
	},
	{
		"name": "TALLO",
		"latitude": "34-42-21.47 N",
		"longitude": "87-30-42.38 W",
		"state": "ALABAMA",
		"artcc": "ZME",
		"type": "RNAV",
		"updated": "06/15/2012"
	},
	{
		"name": "TAMBY",
		"latitude": "34-37-30.62 N",
		"longitude": "87-16-12.37 W",
		"state": "ALABAMA",
		"artcc": "ZME",
		"type": "RP",
		"updated": "MSL*VORTAC*113.00/12.00"
	},
	{
		"name": "TAMMS",
		"latitude": "37-14-18.47 N",
		"longitude": "89-14-1.35 W",
		"state": "ILLINOIS",
		"artcc": "ZME",
		"type": "RP",
		"updated": "MWA*VOR/DME*195.00"
	},
	{
		"name": "TAMMY",
		"latitude": "34-37-3.07 N",
		"longitude": "90-36-30.07 W",
		"state": "ARKANSAS",
		"artcc": "ZME",
		"type": "RP",
		"updated": "MEM*VORTAC*231.54/39.00"
	},
	{
		"name": "TANDS",
		"latitude": "36-32-12.96 N",
		"longitude": "86-33-48.65 W",
		"state": "TENNESSEE",
		"artcc": "ZME",
		"type": "RP",
		"updated": "LVT*VOR/DME*270.00"
	},
	{
		"name": "TANNE",
		"latitude": "34-45-38.68 N",
		"longitude": "86-59-14.53 W",
		"state": "ALABAMA",
		"artcc": "ZME",
		"type": "RP",
		"updated": "DCU*VOR/DME*341.65"
	},
	{
		"name": "TARSY",
		"latitude": "36-53-5.58 N",
		"longitude": "91-54-9.18 W",
		"state": "MISSOURI",
		"artcc": "ZME",
		"type": "WP",
		"updated": "10/18/1995"
	},
	{
		"name": "TASEE",
		"latitude": "33-55-25.11 N",
		"longitude": "87-48-12.69 W",
		"state": "ALABAMA",
		"artcc": "ZME",
		"type": "RNAV",
		"updated": "06/06/2011"
	},
	{
		"name": "TASOE",
		"latitude": "36-8-21.05 N",
		"longitude": "89-50-7.83 W",
		"state": "MISSOURI",
		"artcc": "ZME",
		"type": "RNAV",
		"updated": "03/26/2008"
	},
	{
		"name": "TATOC",
		"latitude": "34-48-21.65 N",
		"longitude": "88-35-18.78 W",
		"state": "MISSISSIPPI",
		"artcc": "ZME",
		"type": "RNAV",
		"updated": "06/20/2011"
	},
	{
		"name": "TAVUY",
		"latitude": "36-23-38.25 N",
		"longitude": "86-23-29.19 W",
		"state": "TENNESSEE",
		"artcc": "ZME",
		"type": "RNAV",
		"updated": "09/15/2008"
	},
	{
		"name": "TAXJU",
		"latitude": "34-48-27.73 N",
		"longitude": "91-49-47.16 W",
		"state": "ARKANSAS",
		"artcc": "ZME",
		"type": "RNAV",
		"updated": "06/18/2010"
	},
	{
		"name": "TAXOE",
		"latitude": "36-39-48.45 N",
		"longitude": "89-51-25.99 W",
		"state": "MISSOURI",
		"artcc": "ZME",
		"type": "RP",
		"updated": "MAW*VORTAC*018.95/7.00"
	},
	{
		"name": "TAYUV",
		"latitude": "34-33-47.52 N",
		"longitude": "92-42-28.74 W",
		"state": "ARKANSAS",
		"artcc": "ZME",
		"type": "RP",
		"updated": "LIT*VORTAC*250.44/27.00"
	},
	{
		"name": "TAZMO",
		"latitude": "36-3-4.32 N",
		"longitude": "85-47-19.49 W",
		"state": "TENNESSEE",
		"artcc": "ZME",
		"type": "RNAV",
		"updated": "09/17/2012"
	},
	{
		"name": "TCKKS",
		"latitude": "36-25-31.65 N",
		"longitude": "86-55-18.68 W",
		"state": "TENNESSEE",
		"artcc": "ZME",
		"type": "RNAV",
		"updated": "05/28/2014"
	},
	{
		"name": "TEACH",
		"latitude": "36-26-36.84 N",
		"longitude": "87-9-18.71 W",
		"state": "TENNESSEE",
		"artcc": "ZME",
		"type": "RP",
		"updated": "BWG*VORTAC*227.97/45.00"
	},
	{
		"name": "TEARS",
		"latitude": "35-50-44.71 N",
		"longitude": "86-24-44.98 W",
		"state": "TENNESSEE",
		"artcc": "ZME",
		"type": "RNAV",
		"updated": "05/28/2014"
	},
	{
		"name": "TECUG",
		"latitude": "35-16-53.5 N",
		"longitude": "86-3-44.57 W",
		"state": "TENNESSEE",
		"artcc": "ZME",
		"type": "RNAV",
		"updated": "06/16/2008"
	},
	{
		"name": "TECUK",
		"latitude": "33-34-31.88 N",
		"longitude": "90-40-45.24 W",
		"state": "MISSISSIPPI",
		"artcc": "ZME",
		"type": "RNAV",
		"updated": "11/30/2012"
	},
	{
		"name": "TEEUP",
		"latitude": "36-22-32.89 N",
		"longitude": "93-55-2.53 W",
		"state": "ARKANSAS",
		"artcc": "ZME",
		"type": "RP",
		"updated": "EOS*VOR/DME*131.00"
	},
	{
		"name": "TEFTO",
		"latitude": "35-44-2.91 N",
		"longitude": "85-38-5.93 W",
		"state": "TENNESSEE",
		"artcc": "ZME",
		"type": "RNAV",
		"updated": "04/27/2018"
	},
	{
		"name": "TEGBE",
		"latitude": "31-38-43 N",
		"longitude": "89-12-46.06 W",
		"state": "MISSISSIPPI",
		"artcc": "ZME",
		"type": "RP",
		"updated": "LBY*VORTAC*020.22/15.00"
	},
	{
		"name": "TEGEE",
		"latitude": "33-34-6.41 N",
		"longitude": "88-21-16.86 W",
		"state": "MISSISSIPPI",
		"artcc": "ZME",
		"type": "MW",
		"updated": "08/05/2016"
	},
	{
		"name": "TELLY",
		"latitude": "35-25-55.97 N",
		"longitude": "94-7-2.75 W",
		"state": "ARKANSAS",
		"artcc": "ZME",
		"type": "RP",
		"updated": "FSM*VORTAC*063.81/8.00"
	},
	{
		"name": "TELME",
		"latitude": "36-3-2.27 N",
		"longitude": "93-4-36.17 W",
		"state": "ARKANSAS",
		"artcc": "ZME",
		"type": "RNAV",
		"updated": "01/20/2009"
	},
	{
		"name": "TEMSE",
		"latitude": "35-50-46.28 N",
		"longitude": "88-15-50.65 W",
		"state": "TENNESSEE",
		"artcc": "ZME",
		"type": "RNAV",
		"updated": "07/14/2009"
	},
	{
		"name": "TENOC",
		"latitude": "35-16-50.81 N",
		"longitude": "86-4-50.83 W",
		"state": "TENNESSEE",
		"artcc": "ZME",
		"type": "RNAV",
		"updated": "01/09/2001"
	},
	{
		"name": "TEOCK",
		"latitude": "33-35-31.34 N",
		"longitude": "90-5-6.88 W",
		"state": "MISSISSIPPI",
		"artcc": "ZME",
		"type": "RP",
		"updated": "SQS*VORTAC*048.40"
	},
	{
		"name": "TEPEA",
		"latitude": "36-4-51.94 N",
		"longitude": "86-42-2.93 W",
		"state": "TENNESSEE",
		"artcc": "ZME",
		"type": "RP",
		"updated": "BNA*LD*S CRS/3.73"
	},
	{
		"name": "TERYO",
		"latitude": "34-21-11.5 N",
		"longitude": "86-56-1.48 W",
		"state": "ALABAMA",
		"artcc": "ZME",
		"type": "RNAV",
		"updated": "11/03/2014"
	},
	{
		"name": "TESYO",
		"latitude": "35-29-37.55 N",
		"longitude": "85-21-8.23 W",
		"state": "TENNESSEE",
		"artcc": "ZME",
		"type": "RNAV",
		"updated": "01/18/2001"
	},
	{
		"name": "TETCO",
		"latitude": "35-27-36.78 N",
		"longitude": "86-14-37.73 W",
		"state": "TENNESSEE",
		"artcc": "ZME",
		"type": "RNAV",
		"updated": "06/29/2011"
	},
	{
		"name": "TETCU",
		"latitude": "36-0-9.73 N",
		"longitude": "86-42-41.78 W",
		"state": "TENNESSEE",
		"artcc": "ZME",
		"type": "RNAV",
		"updated": "09/18/2012"
	},
	{
		"name": "TETOE",
		"latitude": "35-55-30.15 N",
		"longitude": "89-56-38.24 W",
		"state": "ARKANSAS",
		"artcc": "ZME",
		"type": "RNAV",
		"updated": "06/18/2010"
	},
	{
		"name": "TEZLU",
		"latitude": "32-47-24.04 N",
		"longitude": "90-27-9.53 W",
		"state": "MISSISSIPPI",
		"artcc": "ZME",
		"type": "RNAV",
		"updated": "11/15/2012"
	},
	{
		"name": "THEON",
		"latitude": "37-18-15.05 N",
		"longitude": "87-32-23.03 W",
		"state": "KENTUCKY",
		"artcc": "ZME",
		"type": "RNAV",
		"updated": "11/02/2016"
	},
	{
		"name": "THMUS",
		"latitude": "35-11-51.05 N",
		"longitude": "89-29-31.2 W",
		"state": "TENNESSEE",
		"artcc": "ZME",
		"type": "RNAV",
		"updated": "02/09/2012"
	},
	{
		"name": "TIBVE",
		"latitude": "36-5-2.69 N",
		"longitude": "86-32-53.63 W",
		"state": "TENNESSEE",
		"artcc": "ZME",
		"type": "RNAV",
		"updated": "09/18/2012"
	},
	{
		"name": "TICVU",
		"latitude": "34-42-42.09 N",
		"longitude": "87-30-57.92 W",
		"state": "ALABAMA",
		"artcc": "ZME",
		"type": "RP",
		"updated": "MSL*VORTAC*/1.25"
	},
	{
		"name": "TIDES",
		"latitude": "33-14-53.42 N",
		"longitude": "91-51-5.86 W",
		"state": "ARKANSAS",
		"artcc": "ZME",
		"type": "RP",
		"updated": "MON*VOR/DME*196.00/20.00"
	},
	{
		"name": "TIDLE",
		"latitude": "35-5-34.92 N",
		"longitude": "93-41-25.09 W",
		"state": "ARKANSAS",
		"artcc": "ZME",
		"type": "RNAV",
		"updated": "08/15/2016"
	},
	{
		"name": "TIIDE",
		"latitude": "37-28-0 N",
		"longitude": "87-59-0 W",
		"state": "KENTUCKY",
		"artcc": "ZME",
		"type": "RNAV",
		"updated": "02/17/2006"
	},
	{
		"name": "TIIGR",
		"latitude": "32-30-25 N",
		"longitude": "90-0-8 W",
		"state": "MISSISSIPPI",
		"artcc": "ZME",
		"type": "RNAV",
		"updated": "09/21/2012"
	},
	{
		"name": "TIKKI",
		"latitude": "35-59-49.87 N",
		"longitude": "86-45-7.7 W",
		"state": "TENNESSEE",
		"artcc": "ZME",
		"type": "RNAV",
		"updated": "05/28/2014"
	},
	{
		"name": "TILOC",
		"latitude": "34-32-19.54 N",
		"longitude": "90-40-41.06 W",
		"state": "ARKANSAS",
		"artcc": "ZME",
		"type": "RNAV",
		"updated": "11/30/2017"
	},
	{
		"name": "TILUC",
		"latitude": "33-44-15.53 N",
		"longitude": "90-22-27 W",
		"state": "MISSISSIPPI",
		"artcc": "ZME",
		"type": "RP",
		"updated": "SQS*VORTAC*340.54/17.10"
	},
	{
		"name": "TILVE",
		"latitude": "36-5-45.15 N",
		"longitude": "90-57-19.78 W",
		"state": "ARKANSAS",
		"artcc": "ZME",
		"type": "RNAV",
		"updated": "08/19/2011"
	},
	{
		"name": "TILVY",
		"latitude": "34-42-58.67 N",
		"longitude": "87-44-2.09 W",
		"state": "ALABAMA",
		"artcc": "ZME",
		"type": "RP",
		"updated": "MSL*VORTAC*271.77/12.00"
	},
	{
		"name": "TINAE",
		"latitude": "35-25-53.17 N",
		"longitude": "86-13-31.6 W",
		"state": "TENNESSEE",
		"artcc": "ZME",
		"type": "RNAV",
		"updated": "07/25/2011"
	},
	{
		"name": "TINCA",
		"latitude": "34-43-58.22 N",
		"longitude": "87-15-3.64 W",
		"state": "ALABAMA",
		"artcc": "ZME",
		"type": "RP",
		"updated": "MSL*VORTAC*081.48/12.00"
	},
	{
		"name": "TINCO",
		"latitude": "35-0-57.88 N",
		"longitude": "85-38-9.02 W",
		"state": "TENNESSEE",
		"artcc": "ZME",
		"type": "RNAV",
		"updated": "01/10/2001"
	},
	{
		"name": "TINGS",
		"latitude": "37-18-10.87 N",
		"longitude": "88-15-22.3 W",
		"state": "KENTUCKY",
		"artcc": "ZME",
		"type": "RP",
		"updated": "FAM*VORTAC*101.62"
	},
	{
		"name": "TINOW",
		"latitude": "34-30-39.51 N",
		"longitude": "87-32-32.63 W",
		"state": "ALABAMA",
		"artcc": "ZME",
		"type": "RP",
		"updated": "MSL*VORTAC*191.12/12.00"
	},
	{
		"name": "TINSE",
		"latitude": "36-22-38.29 N",
		"longitude": "94-5-18.03 W",
		"state": "ARKANSAS",
		"artcc": "ZME",
		"type": "RP",
		"updated": "RZC*VORTAC*007.54/8.00"
	},
	{
		"name": "TINUY",
		"latitude": "36-2-58.55 N",
		"longitude": "91-38-12.68 W",
		"state": "ARKANSAS",
		"artcc": "ZME",
		"type": "RNAV",
		"updated": "05/07/2007"
	},
	{
		"name": "TIPPI",
		"latitude": "36-21-47.73 N",
		"longitude": "93-8-44.91 W",
		"state": "ARKANSAS",
		"artcc": "ZME",
		"type": "RP",
		"updated": "HRO*VOR/DME*046.51"
	},
	{
		"name": "TIPPN",
		"latitude": "35-23-8.28 N",
		"longitude": "86-23-32.15 W",
		"state": "TENNESSEE",
		"artcc": "ZME",
		"type": "RNAV",
		"updated": "09/17/2012"
	},
	{
		"name": "TIRED",
		"latitude": "34-45-2.44 N",
		"longitude": "89-17-44.19 W",
		"state": "MISSISSIPPI",
		"artcc": "ZME",
		"type": "RP",
		"updated": "HLI*VORTAC*093.68/10.00"
	},
	{
		"name": "TISTY",
		"latitude": "36-44-12.71 N",
		"longitude": "89-29-48.76 W",
		"state": "MISSOURI",
		"artcc": "ZME",
		"type": "RNAV",
		"updated": "07/14/2009"
	},
	{
		"name": "TIYUR",
		"latitude": "36-57-42.75 N",
		"longitude": "91-28-44.37 W",
		"state": "MISSOURI",
		"artcc": "ZME",
		"type": "RNAV",
		"updated": "04/23/2013"
	},
	{
		"name": "TOBAY",
		"latitude": "35-11-35.54 N",
		"longitude": "85-38-38.76 W",
		"state": "TENNESSEE",
		"artcc": "ZME",
		"type": "RP",
		"updated": "HCH*VOR/DME*225.00"
	},
	{
		"name": "TOCOK",
		"latitude": "34-41-18.92 N",
		"longitude": "91-34-30.57 W",
		"state": "ARKANSAS",
		"artcc": "ZME",
		"type": "RNAV",
		"updated": "03/15/2007"
	},
	{
		"name": "TOMAE",
		"latitude": "35-44-7.97 N",
		"longitude": "85-41-58.97 W",
		"state": "TENNESSEE",
		"artcc": "ZME",
		"type": "RNAV",
		"updated": "05/06/2016"
	},
	{
		"name": "TOMEI",
		"latitude": "32-57-54.97 N",
		"longitude": "88-33-56.25 W",
		"state": "MISSISSIPPI",
		"artcc": "ZME",
		"type": "MR",
		"updated": "CBM*VORTAC*189.00/41.00"
	},
	{
		"name": "TOMKE",
		"latitude": "35-35-20.81 N",
		"longitude": "90-34-27.45 W",
		"state": "ARKANSAS",
		"artcc": "ZME",
		"type": "RNAV",
		"updated": "10/16/2013"
	},
	{
		"name": "TOMLE",
		"latitude": "35-39-31.76 N",
		"longitude": "87-45-42.89 W",
		"state": "TENNESSEE",
		"artcc": "ZME",
		"type": "RNAV",
		"updated": "06/24/2011"
	},
	{
		"name": "TOMLN",
		"latitude": "33-28-36.3 N",
		"longitude": "89-28-49.9 W",
		"state": "MISSISSIPPI",
		"artcc": "ZME",
		"type": "RP",
		"updated": "SQS*VORTAC*085.67/40.00"
	},
	{
		"name": "TOMOS",
		"latitude": "36-16-11.28 N",
		"longitude": "94-14-14.54 W",
		"state": "ARKANSAS",
		"artcc": "ZME",
		"type": "RP",
		"updated": "RZC*VORTAC*280.00"
	},
	{
		"name": "TONYY",
		"latitude": "33-43-14.71 N",
		"longitude": "91-41-23.67 W",
		"state": "ARKANSAS",
		"artcc": "ZME",
		"type": "RNAV",
		"updated": "07/25/2017"
	},
	{
		"name": "TOOOD",
		"latitude": "34-30-10 N",
		"longitude": "89-54-35 W",
		"state": "MISSISSIPPI",
		"artcc": "ZME",
		"type": "RNAV",
		"updated": "12/18/2015"
	},
	{
		"name": "TOOTI",
		"latitude": "32-26-54.5 N",
		"longitude": "88-45-0 W",
		"state": "MISSISSIPPI",
		"artcc": "ZME",
		"type": "RNAV",
		"updated": "09/21/2012"
	},
	{
		"name": "TOPNY",
		"latitude": "32-39-54.01 N",
		"longitude": "88-31-57.46 W",
		"state": "MISSISSIPPI",
		"artcc": "ZME",
		"type": "MW",
		"updated": "05/02/2016"
	},
	{
		"name": "TORCU",
		"latitude": "32-30-5.27 N",
		"longitude": "88-35-1.43 W",
		"state": "MISSISSIPPI",
		"artcc": "ZME",
		"type": "MR",
		"updated": "NMM*TACAN*205.00/5.00"
	},
	{
		"name": "TOTCE",
		"latitude": "35-3-23.67 N",
		"longitude": "92-57-53.15 W",
		"state": "ARKANSAS",
		"artcc": "ZME",
		"type": "WP",
		"updated": "01/29/2002"
	},
	{
		"name": "TOWND",
		"latitude": "35-1-25.72 N",
		"longitude": "89-12-11.76 W",
		"state": "TENNESSEE",
		"artcc": "ZME",
		"type": "RNAV",
		"updated": "07/13/2017"
	},
	{
		"name": "TOZZI",
		"latitude": "33-52-21.17 N",
		"longitude": "91-48-1.88 W",
		"state": "ARKANSAS",
		"artcc": "ZME",
		"type": "RNAV",
		"updated": "05/06/2011"
	},
	{
		"name": "TRIUM",
		"latitude": "35-55-30.8 N",
		"longitude": "94-9-34.52 W",
		"state": "ARKANSAS",
		"artcc": "ZME",
		"type": "RP",
		"updated": "LFH*DD*172.48/4.11"
	},
	{
		"name": "TROIX",
		"latitude": "34-3-0.75 N",
		"longitude": "88-52-53.34 W",
		"state": "MISSISSIPPI",
		"artcc": "ZME",
		"type": "MR",
		"updated": "CBM*VORTAC*314.00/33.00"
	},
	{
		"name": "TROVE",
		"latitude": "35-23-15.96 N",
		"longitude": "88-54-38.79 W",
		"state": "TENNESSEE",
		"artcc": "ZME",
		"type": "RNAV",
		"updated": "01/16/2014"
	},
	{
		"name": "TUBYO",
		"latitude": "34-57-9.93 N",
		"longitude": "87-36-35.5 W",
		"state": "ALABAMA",
		"artcc": "ZME",
		"type": "RNAV",
		"updated": "01/31/2014"
	},
	{
		"name": "TUCUP",
		"latitude": "35-41-6.99 N",
		"longitude": "92-9-5.41 W",
		"state": "ARKANSAS",
		"artcc": "ZME",
		"type": "RNAV",
		"updated": "09/11/2003"
	},
	{
		"name": "TUDFU",
		"latitude": "33-33-51.9 N",
		"longitude": "88-22-59.12 W",
		"state": "MISSISSIPPI",
		"artcc": "ZME",
		"type": "RNAV",
		"updated": "06/30/2017"
	},
	{
		"name": "TUGKU",
		"latitude": "31-50-11.25 N",
		"longitude": "89-21-55.88 W",
		"state": "MISSISSIPPI",
		"artcc": "ZME",
		"type": "RNAV",
		"updated": "11/30/2012"
	},
	{
		"name": "TUKAE",
		"latitude": "33-28-57.55 N",
		"longitude": "88-15-42.85 W",
		"state": "MISSISSIPPI",
		"artcc": "ZME",
		"type": "MR",
		"updated": "CBM*VORTAC*137.00/13.00"
	},
	{
		"name": "TUKER",
		"latitude": "34-16-3.32 N",
		"longitude": "91-56-9.5 W",
		"state": "ARKANSAS",
		"artcc": "ZME",
		"type": "RNAV",
		"updated": "07/18/2016"
	},
	{
		"name": "TUNGY",
		"latitude": "35-43-41.5 N",
		"longitude": "87-3-12.21 W",
		"state": "TENNESSEE",
		"artcc": "ZME",
		"type": "RP",
		"updated": "SYI*VOR/DME*289.52/31.64"
	},
	{
		"name": "TUNIE",
		"latitude": "35-15-53.78 N",
		"longitude": "89-50-14.58 W",
		"state": "TENNESSEE",
		"artcc": "ZME",
		"type": "RNAV",
		"updated": "06/18/2008"
	},
	{
		"name": "TUNNG",
		"latitude": "34-23-7.36 N",
		"longitude": "89-37-33.5 W",
		"state": "MISSISSIPPI",
		"artcc": "ZME",
		"type": "RP",
		"updated": "HLI*VORTAC*192.57"
	},
	{
		"name": "TUPIE",
		"latitude": "35-59-13.54 N",
		"longitude": "86-49-43.84 W",
		"state": "TENNESSEE",
		"artcc": "ZME",
		"type": "RNAV",
		"updated": "09/17/2012"
	},
	{
		"name": "TUPOY",
		"latitude": "33-22-1.17 N",
		"longitude": "91-45-20.3 W",
		"state": "ARKANSAS",
		"artcc": "ZME",
		"type": "RNAV",
		"updated": "02/28/2005"
	},
	{
		"name": "TURGE",
		"latitude": "35-19-19.34 N",
		"longitude": "86-30-53.54 W",
		"state": "TENNESSEE",
		"artcc": "ZME",
		"type": "RP",
		"updated": "ULH*NDB*241.12"
	},
	{
		"name": "TURNL",
		"latitude": "32-27-51.88 N",
		"longitude": "88-35-0.14 W",
		"state": "MISSISSIPPI",
		"artcc": "ZME",
		"type": "MW",
		"updated": "09/16/2009"
	},
	{
		"name": "TURUE",
		"latitude": "33-36-22.75 N",
		"longitude": "88-44-5.94 W",
		"state": "MISSISSIPPI",
		"artcc": "ZME",
		"type": "MR",
		"updated": "CBM*VORTAC*262.00/15.00"
	},
	{
		"name": "TUSOC",
		"latitude": "36-12-42.9 N",
		"longitude": "95-20-37.54 W",
		"state": "OKLAHOMA",
		"artcc": "ZME",
		"type": "RP",
		"updated": "TUL*VORTAC*079.38/21.60"
	},
	{
		"name": "TWIKL",
		"latitude": "34-56-1.77 N",
		"longitude": "90-6-42.95 W",
		"state": "MISSISSIPPI",
		"artcc": "ZME",
		"type": "RP",
		"updated": "MEM*VORTAC*231.54/8.00"
	},
	{
		"name": "TWITS",
		"latitude": "36-8-32 N",
		"longitude": "90-54-48 W",
		"state": "ARKANSAS",
		"artcc": "ZME",
		"type": "RNAV",
		"updated": "11/26/2002"
	},
	{
		"name": "TWITY",
		"latitude": "36-17-25 N",
		"longitude": "86-51-5.73 W",
		"state": "TENNESSEE",
		"artcc": "ZME",
		"type": "RP",
		"updated": "JWN*LD*017.76/7.25"
	},
	{
		"name": "TYMMY",
		"latitude": "35-22-59.04 N",
		"longitude": "88-37-55.33 W",
		"state": "TENNESSEE",
		"artcc": "ZME",
		"type": "RNAV",
		"updated": "06/15/2012"
	}
]
