[
	{
		"name": "WABAV",
		"latitude": "33-26-22.34 N",
		"longitude": "90-5-23.24 W",
		"state": "MISSISSIPPI",
		"artcc": "ZME",
		"type": "RNAV",
		"updated": "01/29/2013"
	},
	{
		"name": "WABDI",
		"latitude": "34-25-18.55 N",
		"longitude": "89-52-50.82 W",
		"state": "MISSISSIPPI",
		"artcc": "ZME",
		"type": "RP",
		"updated": "PMU*LE*010.75/4.00"
	},
	{
		"name": "WABOK",
		"latitude": "36-19-43.01 N",
		"longitude": "86-23-57.77 W",
		"state": "TENNESSEE",
		"artcc": "ZME",
		"type": "RNAV",
		"updated": "06/16/2015"
	},
	{
		"name": "WABOL",
		"latitude": "35-26-18.5 N",
		"longitude": "87-19-3.55 W",
		"state": "TENNESSEE",
		"artcc": "ZME",
		"type": "RNAV",
		"updated": "02/05/2014"
	},
	{
		"name": "WABRA",
		"latitude": "36-8-57.19 N",
		"longitude": "91-46-13.49 W",
		"state": "ARKANSAS",
		"artcc": "ZME",
		"type": "RNAV",
		"updated": "09/06/2016"
	},
	{
		"name": "WADEE",
		"latitude": "35-6-34.5 N",
		"longitude": "89-45-29.77 W",
		"state": "TENNESSEE",
		"artcc": "ZME",
		"type": "RNAV",
		"updated": "02/01/2012"
	},
	{
		"name": "WADIS",
		"latitude": "32-59-19.68 N",
		"longitude": "89-6-11.33 W",
		"state": "MISSISSIPPI",
		"artcc": "ZME",
		"type": "RNAV",
		"updated": "09/14/2009"
	},
	{
		"name": "WADKI",
		"latitude": "35-55-55.56 N",
		"longitude": "88-11-27.15 W",
		"state": "TENNESSEE",
		"artcc": "ZME",
		"type": "RNAV",
		"updated": "07/14/2009"
	},
	{
		"name": "WAGIG",
		"latitude": "35-30-53.2 N",
		"longitude": "86-16-4.46 W",
		"state": "TENNESSEE",
		"artcc": "ZME",
		"type": "RNAV",
		"updated": "07/25/2011"
	},
	{
		"name": "WAGUR",
		"latitude": "36-4-2.04 N",
		"longitude": "95-20-33.38 W",
		"state": "OKLAHOMA",
		"artcc": "ZME",
		"type": "RNAV",
		"updated": "12/26/2007"
	},
	{
		"name": "WAKAK",
		"latitude": "37-29-59.71 N",
		"longitude": "87-57-26.1 W",
		"state": "KENTUCKY",
		"artcc": "ZME",
		"type": "RNAV",
		"updated": "02/20/2014"
	},
	{
		"name": "WAKEE",
		"latitude": "35-37-4.59 N",
		"longitude": "86-4-39.92 W",
		"state": "TENNESSEE",
		"artcc": "ZME",
		"type": "RP",
		"updated": "SYI*VOR/DME*080.16/18.00"
	},
	{
		"name": "WAKIV",
		"latitude": "35-14-54.56 N",
		"longitude": "89-2-18.06 W",
		"state": "TENNESSEE",
		"artcc": "ZME",
		"type": "RNAV",
		"updated": "12/04/2014"
	},
	{
		"name": "WAKOL",
		"latitude": "35-47-4.18 N",
		"longitude": "87-46-6.8 W",
		"state": "TENNESSEE",
		"artcc": "ZME",
		"type": "RNAV",
		"updated": "05/16/2011"
	},
	{
		"name": "WALIS",
		"latitude": "34-54-58.14 N",
		"longitude": "89-38-37.95 W",
		"state": "MISSISSIPPI",
		"artcc": "ZME",
		"type": "RNAV",
		"updated": "02/11/2012"
	},
	{
		"name": "WALLZ",
		"latitude": "34-51-45.28 N",
		"longitude": "90-13-27.7 W",
		"state": "MISSISSIPPI",
		"artcc": "ZME",
		"type": "RP",
		"updated": "GQE*VOR/DME*152.63"
	},
	{
		"name": "WAMAR",
		"latitude": "36-7-51.12 N",
		"longitude": "86-47-21.23 W",
		"state": "TENNESSEE",
		"artcc": "ZME",
		"type": "RNAV",
		"updated": "09/11/2012"
	},
	{
		"name": "WAMDA",
		"latitude": "36-37-14.3 N",
		"longitude": "89-36-0.27 W",
		"state": "MISSOURI",
		"artcc": "ZME",
		"type": "RNAV",
		"updated": "07/14/2009"
	},
	{
		"name": "WAMSE",
		"latitude": "36-20-29.95 N",
		"longitude": "94-12-56.03 W",
		"state": "ARKANSAS",
		"artcc": "ZME",
		"type": "RP",
		"updated": "RZC*VORTAC*317.35/7.31"
	},
	{
		"name": "WAMVI",
		"latitude": "33-49-10.01 N",
		"longitude": "90-45-37.84 W",
		"state": "MISSISSIPPI",
		"artcc": "ZME",
		"type": "RNAV",
		"updated": "02/25/2014"
	},
	{
		"name": "WANUG",
		"latitude": "35-13-34.02 N",
		"longitude": "86-3-51.84 W",
		"state": "TENNESSEE",
		"artcc": "ZME",
		"type": "RNAV",
		"updated": "06/16/2008"
	},
	{
		"name": "WAPGO",
		"latitude": "34-38-40.51 N",
		"longitude": "87-37-7.68 W",
		"state": "ALABAMA",
		"artcc": "ZME",
		"type": "RNAV",
		"updated": "02/04/2014"
	},
	{
		"name": "WAPUR",
		"latitude": "36-18-43.96 N",
		"longitude": "90-38-56.53 W",
		"state": "ARKANSAS",
		"artcc": "ZME",
		"type": "RNAV",
		"updated": "07/27/2004"
	},
	{
		"name": "WARAV",
		"latitude": "35-53-54.18 N",
		"longitude": "88-30-50.98 W",
		"state": "TENNESSEE",
		"artcc": "ZME",
		"type": "RNAV",
		"updated": "08/11/2010"
	},
	{
		"name": "WARIT",
		"latitude": "36-21-16.59 N",
		"longitude": "93-59-16.36 W",
		"state": "ARKANSAS",
		"artcc": "ZME",
		"type": "RNAV",
		"updated": "06/29/2005"
	},
	{
		"name": "WARLI",
		"latitude": "36-14-15.97 N",
		"longitude": "90-49-16.48 W",
		"state": "ARKANSAS",
		"artcc": "ZME",
		"type": "RP",
		"updated": "ARG*VORTAC*036.00/10.00"
	},
	{
		"name": "WAROF",
		"latitude": "36-37-12.15 N",
		"longitude": "93-28-31.57 W",
		"state": "MISSOURI",
		"artcc": "ZME",
		"type": "RNAV",
		"updated": "01/04/2011"
	},
	{
		"name": "WARPA",
		"latitude": "36-25-21.97 N",
		"longitude": "94-5-7.1 W",
		"state": "ARKANSAS",
		"artcc": "ZME",
		"type": "RP",
		"updated": "ROG*LD*015.17/3.85"
	},
	{
		"name": "WARTZ",
		"latitude": "35-1-22.24 N",
		"longitude": "87-44-3.69 W",
		"state": "TENNESSEE",
		"artcc": "ZME",
		"type": "RNAV",
		"updated": "06/15/2012"
	},
	{
		"name": "WARUX",
		"latitude": "36-37-57.33 N",
		"longitude": "87-24-16.59 W",
		"state": "TENNESSEE",
		"artcc": "ZME",
		"type": "RNAV",
		"updated": "05/04/2016"
	},
	{
		"name": "WASED",
		"latitude": "36-8-54.22 N",
		"longitude": "88-27-8.69 W",
		"state": "TENNESSEE",
		"artcc": "ZME",
		"type": "RNAV",
		"updated": "03/17/2010"
	},
	{
		"name": "WASER",
		"latitude": "34-12-26.54 N",
		"longitude": "88-1-43.83 W",
		"state": "ALABAMA",
		"artcc": "ZME",
		"type": "RNAV",
		"updated": "06/15/2012"
	},
	{
		"name": "WASKA",
		"latitude": "36-23-43.26 N",
		"longitude": "89-53-36.36 W",
		"state": "MISSOURI",
		"artcc": "ZME",
		"type": "RNAV",
		"updated": "09/04/2009"
	},
	{
		"name": "WASKO",
		"latitude": "34-3-36.47 N",
		"longitude": "92-38-38.02 W",
		"state": "ARKANSAS",
		"artcc": "ZME",
		"type": "RP",
		"updated": "TXK*VORTAC*058.01/78.61"
	},
	{
		"name": "WASMO",
		"latitude": "37-5-0.6 N",
		"longitude": "87-18-2.19 W",
		"state": "KENTUCKY",
		"artcc": "ZME",
		"type": "RP",
		"updated": "CCT*VORTAC*186.65/18.00"
	},
	{
		"name": "WASUD",
		"latitude": "36-11-25.37 N",
		"longitude": "91-46-15.12 W",
		"state": "ARKANSAS",
		"artcc": "ZME",
		"type": "RP",
		"updated": "ARG*VORTAC*273.16/40.00"
	},
	{
		"name": "WASUP",
		"latitude": "35-24-10.23 N",
		"longitude": "86-12-25.35 W",
		"state": "TENNESSEE",
		"artcc": "ZME",
		"type": "RNAV",
		"updated": "06/29/2011"
	},
	{
		"name": "WATUG",
		"latitude": "35-49-31.37 N",
		"longitude": "94-8-51.9 W",
		"state": "ARKANSAS",
		"artcc": "ZME",
		"type": "RP",
		"updated": "LFH*DD*172.48/10.12"
	},
	{
		"name": "WAVEE",
		"latitude": "32-9-23.22 N",
		"longitude": "89-9-19.9 W",
		"state": "MISSISSIPPI",
		"artcc": "ZME",
		"type": "RNAV",
		"updated": "05/31/2013"
	},
	{
		"name": "WAXOK",
		"latitude": "33-21-15.79 N",
		"longitude": "92-7-53 W",
		"state": "ARKANSAS",
		"artcc": "ZME",
		"type": "RNAV",
		"updated": "12/24/2008"
	},
	{
		"name": "WAXON",
		"latitude": "36-4-0.28 N",
		"longitude": "93-16-52.72 W",
		"state": "ARKANSAS",
		"artcc": "ZME",
		"type": "RNAV",
		"updated": "01/20/2009"
	},
	{
		"name": "WAXUV",
		"latitude": "35-57-20.43 N",
		"longitude": "86-31-30.49 W",
		"state": "TENNESSEE",
		"artcc": "ZME",
		"type": "RNAV",
		"updated": "08/07/2013"
	},
	{
		"name": "WAYLN",
		"latitude": "36-18-10.44 N",
		"longitude": "86-35-28.74 W",
		"state": "TENNESSEE",
		"artcc": "ZME",
		"type": "RP",
		"updated": "SSX*LD*021.00/12.26"
	},
	{
		"name": "WEBAN",
		"latitude": "36-9-44.78 N",
		"longitude": "94-7-17 W",
		"state": "ARKANSAS",
		"artcc": "ZME",
		"type": "RP",
		"updated": "RZC*VORTAC*176.00/5.03"
	},
	{
		"name": "WEBTO",
		"latitude": "35-0-17.18 N",
		"longitude": "91-41-23 W",
		"state": "ARKANSAS",
		"artcc": "ZME",
		"type": "RNAV",
		"updated": "07/25/2005"
	},
	{
		"name": "WEBVA",
		"latitude": "34-41-56.18 N",
		"longitude": "92-16-5.15 W",
		"state": "ARKANSAS",
		"artcc": "ZME",
		"type": "RNAV",
		"updated": "01/03/2009"
	},
	{
		"name": "WEDGO",
		"latitude": "34-42-22.92 N",
		"longitude": "88-34-29.73 W",
		"state": "MISSISSIPPI",
		"artcc": "ZME",
		"type": "RNAV",
		"updated": "12/28/2007"
	},
	{
		"name": "WEDUR",
		"latitude": "36-9-23.32 N",
		"longitude": "92-47-45.67 W",
		"state": "ARKANSAS",
		"artcc": "ZME",
		"type": "RNAV",
		"updated": "01/20/2009"
	},
	{
		"name": "WEDVO",
		"latitude": "36-47-22.08 N",
		"longitude": "86-32-45.14 W",
		"state": "KENTUCKY",
		"artcc": "ZME",
		"type": "RP",
		"updated": "BWG*VORTAC*/9.69"
	},
	{
		"name": "WEEWA",
		"latitude": "33-24-12.87 N",
		"longitude": "88-9-31.77 W",
		"state": "ALABAMA",
		"artcc": "ZME",
		"type": "MR",
		"updated": "CBM*VORTAC*135.37/20.00"
	},
	{
		"name": "WEGAV",
		"latitude": "34-35-50.26 N",
		"longitude": "91-20-18.77 W",
		"state": "ARKANSAS",
		"artcc": "ZME",
		"type": "RNAV",
		"updated": "07/25/2005"
	},
	{
		"name": "WEGDI",
		"latitude": "37-12-44.91 N",
		"longitude": "89-30-57.66 W",
		"state": "MISSOURI",
		"artcc": "ZME",
		"type": "RP",
		"updated": "CGI*LD*107.82/2.03"
	},
	{
		"name": "WEGMA",
		"latitude": "36-13-6.29 N",
		"longitude": "86-37-37.44 W",
		"state": "TENNESSEE",
		"artcc": "ZME",
		"type": "RNAV",
		"updated": "06/03/2014"
	},
	{
		"name": "WEJJI",
		"latitude": "32-15-45.6 N",
		"longitude": "91-1-34.02 W",
		"state": "LOUISIANA",
		"artcc": "ZME",
		"type": "RNAV",
		"updated": "07/29/2016"
	},
	{
		"name": "WEKIS",
		"latitude": "35-22-45.69 N",
		"longitude": "94-0-56.53 W",
		"state": "ARKANSAS",
		"artcc": "ZME",
		"type": "MR",
		"updated": "FSM*VORTAC*/12.56"
	},
	{
		"name": "WEKSI",
		"latitude": "35-17-38.83 N",
		"longitude": "86-14-35.69 W",
		"state": "TENNESSEE",
		"artcc": "ZME",
		"type": "RNAV",
		"updated": "06/29/2011"
	},
	{
		"name": "WEKUB",
		"latitude": "34-45-50.39 N",
		"longitude": "87-39-27.49 W",
		"state": "ALABAMA",
		"artcc": "ZME",
		"type": "RNAV",
		"updated": "06/11/2010"
	},
	{
		"name": "WEKUK",
		"latitude": "34-22-54.2 N",
		"longitude": "92-27-49.75 W",
		"state": "ARKANSAS",
		"artcc": "ZME",
		"type": "RNAV",
		"updated": "07/14/2008"
	},
	{
		"name": "WELAD",
		"latitude": "35-59-51.73 N",
		"longitude": "94-15-0.3 W",
		"state": "ARKANSAS",
		"artcc": "ZME",
		"type": "RNAV",
		"updated": "06/29/2005"
	},
	{
		"name": "WELSA",
		"latitude": "35-37-35.29 N",
		"longitude": "87-48-32.41 W",
		"state": "TENNESSEE",
		"artcc": "ZME",
		"type": "RNAV",
		"updated": "06/24/2011"
	},
	{
		"name": "WELTO",
		"latitude": "33-23-34.55 N",
		"longitude": "88-28-29.86 W",
		"state": "MISSISSIPPI",
		"artcc": "ZME",
		"type": "MR",
		"updated": "CBM*VORTAC*187.00/15.00"
	},
	{
		"name": "WELVA",
		"latitude": "37-14-12.89 N",
		"longitude": "89-37-26.12 W",
		"state": "MISSOURI",
		"artcc": "ZME",
		"type": "RNAV",
		"updated": "04/23/2013"
	},
	{
		"name": "WEMAL",
		"latitude": "35-42-37.31 N",
		"longitude": "86-7-18.62 W",
		"state": "TENNESSEE",
		"artcc": "ZME",
		"type": "RNAV",
		"updated": "09/25/2012"
	},
	{
		"name": "WENPO",
		"latitude": "33-38-31.61 N",
		"longitude": "88-9-20.56 W",
		"state": "ALABAMA",
		"artcc": "ZME",
		"type": "RNAV",
		"updated": "06/11/2010"
	},
	{
		"name": "WENUB",
		"latitude": "35-52-15.83 N",
		"longitude": "85-41-20.42 W",
		"state": "TENNESSEE",
		"artcc": "ZME",
		"type": "RNAV",
		"updated": "12/08/2008"
	},
	{
		"name": "WEPET",
		"latitude": "33-29-28.32 N",
		"longitude": "91-59-37.67 W",
		"state": "ARKANSAS",
		"artcc": "ZME",
		"type": "RNAV",
		"updated": "12/29/2010"
	},
	{
		"name": "WEPGO",
		"latitude": "35-53-0.12 N",
		"longitude": "86-7-14.46 W",
		"state": "TENNESSEE",
		"artcc": "ZME",
		"type": "RNAV",
		"updated": "05/06/2016"
	},
	{
		"name": "WEPIR",
		"latitude": "34-8-16.4 N",
		"longitude": "91-56-7.62 W",
		"state": "ARKANSAS",
		"artcc": "ZME",
		"type": "RNAV",
		"updated": "03/28/2011"
	},
	{
		"name": "WEPKA",
		"latitude": "36-2-57.38 N",
		"longitude": "86-20-11.32 W",
		"state": "TENNESSEE",
		"artcc": "ZME",
		"type": "RNAV",
		"updated": "10/09/2008"
	},
	{
		"name": "WEPKI",
		"latitude": "36-21-58.21 N",
		"longitude": "89-50-54.42 W",
		"state": "MISSOURI",
		"artcc": "ZME",
		"type": "RNAV",
		"updated": "03/19/2013"
	},
	{
		"name": "WEPSA",
		"latitude": "36-59-2.17 N",
		"longitude": "91-38-47.29 W",
		"state": "MISSOURI",
		"artcc": "ZME",
		"type": "RNAV",
		"updated": "04/24/2013"
	},
	{
		"name": "WEPUL",
		"latitude": "35-43-9.03 N",
		"longitude": "86-0-16.06 W",
		"state": "TENNESSEE",
		"artcc": "ZME",
		"type": "RNAV",
		"updated": "04/17/2013"
	},
	{
		"name": "WERBO",
		"latitude": "36-20-58.94 N",
		"longitude": "93-32-40.15 W",
		"state": "ARKANSAS",
		"artcc": "ZME",
		"type": "RNAV",
		"updated": "09/21/2015"
	},
	{
		"name": "WERVI",
		"latitude": "33-17-54.6 N",
		"longitude": "91-19-46.88 W",
		"state": "ARKANSAS",
		"artcc": "ZME",
		"type": "RNAV",
		"updated": "01/27/2017"
	},
	{
		"name": "WESIS",
		"latitude": "33-31-28.81 N",
		"longitude": "88-26-10.09 W",
		"state": "MISSISSIPPI",
		"artcc": "ZME",
		"type": "MR",
		"updated": "CBM*VORTAC*179.00/7.00"
	},
	{
		"name": "WESOS",
		"latitude": "33-39-10.29 N",
		"longitude": "92-0-38.17 W",
		"state": "ARKANSAS",
		"artcc": "ZME",
		"type": "RNAV",
		"updated": "01/03/2009"
	},
	{
		"name": "WESTY",
		"latitude": "35-58-34.78 N",
		"longitude": "93-57-38.11 W",
		"state": "ARKANSAS",
		"artcc": "ZME",
		"type": "RP",
		"updated": "RZC*VORTAC*150.17/17.97"
	},
	{
		"name": "WETCO",
		"latitude": "36-17-10.49 N",
		"longitude": "94-8-38.2 W",
		"state": "ARKANSAS",
		"artcc": "ZME",
		"type": "RNAV",
		"updated": "06/01/2017"
	},
	{
		"name": "WETKI",
		"latitude": "36-7-51.4 N",
		"longitude": "88-27-7.82 W",
		"state": "TENNESSEE",
		"artcc": "ZME",
		"type": "RNAV",
		"updated": "08/11/2010"
	},
	{
		"name": "WETOB",
		"latitude": "35-19-38.27 N",
		"longitude": "89-53-57.53 W",
		"state": "TENNESSEE",
		"artcc": "ZME",
		"type": "RNAV",
		"updated": "10/29/2013"
	},
	{
		"name": "WETSO",
		"latitude": "35-4-59.26 N",
		"longitude": "86-4-10.55 W",
		"state": "TENNESSEE",
		"artcc": "ZME",
		"type": "RNAV",
		"updated": "06/16/2008"
	},
	{
		"name": "WEVTO",
		"latitude": "36-34-39.79 N",
		"longitude": "86-53-14.32 W",
		"state": "TENNESSEE",
		"artcc": "ZME",
		"type": "RNAV",
		"updated": "12/27/2011"
	},
	{
		"name": "WEVUT",
		"latitude": "36-12-49.37 N",
		"longitude": "86-34-14.01 W",
		"state": "TENNESSEE",
		"artcc": "ZME",
		"type": "RNAV",
		"updated": "06/03/2014"
	},
	{
		"name": "WEXEN",
		"latitude": "33-33-41.65 N",
		"longitude": "91-51-19.06 W",
		"state": "ARKANSAS",
		"artcc": "ZME",
		"type": "RNAV",
		"updated": "01/03/2009"
	},
	{
		"name": "WEXIL",
		"latitude": "33-59-50.95 N",
		"longitude": "91-57-18.61 W",
		"state": "ARKANSAS",
		"artcc": "ZME",
		"type": "RP",
		"updated": "PBF*VOR/DME*181.53/15.00"
	},
	{
		"name": "WEXIT",
		"latitude": "36-16-16.12 N",
		"longitude": "86-31-48.55 W",
		"state": "TENNESSEE",
		"artcc": "ZME",
		"type": "RP",
		"updated": "BNA*VORTAC*045.00/11.00"
	},
	{
		"name": "WEXOG",
		"latitude": "33-40-47.26 N",
		"longitude": "91-5-13.64 W",
		"state": "ARKANSAS",
		"artcc": "ZME",
		"type": "RNAV",
		"updated": "01/14/2009"
	},
	{
		"name": "WEXUP",
		"latitude": "35-42-15.91 N",
		"longitude": "85-43-50.29 W",
		"state": "TENNESSEE",
		"artcc": "ZME",
		"type": "RNAV",
		"updated": "05/06/2016"
	},
	{
		"name": "WEYER",
		"latitude": "35-4-35.28 N",
		"longitude": "91-40-39.21 W",
		"state": "ARKANSAS",
		"artcc": "ZME",
		"type": "MW",
		"updated": "09/24/2013"
	},
	{
		"name": "WEYKU",
		"latitude": "32-10-18.85 N",
		"longitude": "88-55-59.79 W",
		"state": "MISSISSIPPI",
		"artcc": "ZME",
		"type": "RNAV",
		"updated": "07/05/2013"
	},
	{
		"name": "WFIVE",
		"latitude": "35-33-37.75 N",
		"longitude": "90-32-40.34 W",
		"state": "ARKANSAS",
		"artcc": "ZME",
		"type": "RP",
		"updated": "MEM*VORTAC*319.00/42.75"
	},
	{
		"name": "WFOUR",
		"latitude": "35-25-16.53 N",
		"longitude": "90-43-22.27 W",
		"state": "ARKANSAS",
		"artcc": "ZME",
		"type": "RP",
		"updated": "MEM*VORTAC*303.00/43.75"
	},
	{
		"name": "WHOLL",
		"latitude": "36-10-49.68 N",
		"longitude": "91-17-38.03 W",
		"state": "ARKANSAS",
		"artcc": "ZME",
		"type": "RNAV",
		"updated": "12/05/2013"
	},
	{
		"name": "WIBER",
		"latitude": "33-24-52.1 N",
		"longitude": "88-33-53.26 W",
		"state": "MISSISSIPPI",
		"artcc": "ZME",
		"type": "MR",
		"updated": "CBM*VORTAC*205.00/15.00"
	},
	{
		"name": "WIBUX",
		"latitude": "33-17-20.99 N",
		"longitude": "91-4-53.41 W",
		"state": "MISSISSIPPI",
		"artcc": "ZME",
		"type": "RNAV",
		"updated": "08/01/2017"
	},
	{
		"name": "WIDUR",
		"latitude": "34-0-33.57 N",
		"longitude": "88-16-8.83 W",
		"state": "MISSISSIPPI",
		"artcc": "ZME",
		"type": "RNAV",
		"updated": "06/21/2010"
	},
	{
		"name": "WIGNI",
		"latitude": "36-53-56.42 N",
		"longitude": "89-3-25.46 W",
		"state": "KENTUCKY",
		"artcc": "ZME",
		"type": "RNAV",
		"updated": "04/26/2013"
	},
	{
		"name": "WIGXO",
		"latitude": "34-48-14.28 N",
		"longitude": "91-57-56.26 W",
		"state": "ARKANSAS",
		"artcc": "ZME",
		"type": "RNAV",
		"updated": "01/03/2009"
	},
	{
		"name": "WIKDA",
		"latitude": "32-20-15 N",
		"longitude": "90-4-55.71 W",
		"state": "MISSISSIPPI",
		"artcc": "ZME",
		"type": "RP",
		"updated": "06/11/2003"
	},
	{
		"name": "WIKNO",
		"latitude": "32-12-54.16 N",
		"longitude": "90-2-11.18 W",
		"state": "MISSISSIPPI",
		"artcc": "ZME",
		"type": "RNAV",
		"updated": "02/09/2018"
	},
	{
		"name": "WIKUB",
		"latitude": "33-40-58.1 N",
		"longitude": "88-25-56.32 W",
		"state": "MISSISSIPPI",
		"artcc": "ZME",
		"type": "RP",
		"updated": "IGB*VORTAC*015.00/12.50"
	},
	{
		"name": "WIKZO",
		"latitude": "31-38-32.19 N",
		"longitude": "89-41-4.2 W",
		"state": "MISSISSIPPI",
		"artcc": "ZME",
		"type": "RP",
		"updated": "LBY*VORTAC*302.06"
	},
	{
		"name": "WILGU",
		"latitude": "35-48-46.18 N",
		"longitude": "85-40-23.75 W",
		"state": "TENNESSEE",
		"artcc": "ZME",
		"type": "RNAV",
		"updated": "06/21/2013"
	},
	{
		"name": "WILUS",
		"latitude": "34-47-10.19 N",
		"longitude": "91-28-12.48 W",
		"state": "ARKANSAS",
		"artcc": "ZME",
		"type": "RNAV",
		"updated": "03/15/2007"
	},
	{
		"name": "WILUT",
		"latitude": "36-21-22.98 N",
		"longitude": "93-43-40.64 W",
		"state": "ARKANSAS",
		"artcc": "ZME",
		"type": "RNAV",
		"updated": "11/05/2010"
	},
	{
		"name": "WIMUB",
		"latitude": "35-0-35.51 N",
		"longitude": "89-47-13.75 W",
		"state": "TENNESSEE",
		"artcc": "ZME",
		"type": "RP",
		"updated": "MEM*VORTAC*090.81"
	},
	{
		"name": "WINAP",
		"latitude": "32-38-0 N",
		"longitude": "89-21-56 W",
		"state": "MISSISSIPPI",
		"artcc": "ZME",
		"type": "RNAV",
		"updated": "03/02/2006"
	},
	{
		"name": "WINDM",
		"latitude": "36-8-11 N",
		"longitude": "91-25-46 W",
		"state": "ARKANSAS",
		"artcc": "ZME",
		"type": "RNAV",
		"updated": "11/26/2002"
	},
	{
		"name": "WINGA",
		"latitude": "36-17-51.45 N",
		"longitude": "88-17-46.28 W",
		"state": "TENNESSEE",
		"artcc": "ZME",
		"type": "RNAV",
		"updated": "07/25/2011"
	},
	{
		"name": "WINIK",
		"latitude": "36-42-8.68 N",
		"longitude": "86-35-27.14 W",
		"state": "KENTUCKY",
		"artcc": "ZME",
		"type": "RNAV",
		"updated": "05/09/2016"
	},
	{
		"name": "WINOX",
		"latitude": "35-18-32.6 N",
		"longitude": "86-7-56.26 W",
		"state": "TENNESSEE",
		"artcc": "ZME",
		"type": "MW",
		"updated": "02/03/2010"
	},
	{
		"name": "WINUM",
		"latitude": "34-13-9.86 N",
		"longitude": "91-22-8.19 W",
		"state": "ARKANSAS",
		"artcc": "ZME",
		"type": "RNAV",
		"updated": "10/18/2004"
	},
	{
		"name": "WINZY",
		"latitude": "36-34-45.9 N",
		"longitude": "90-3-9.91 W",
		"state": "MISSOURI",
		"artcc": "ZME",
		"type": "RNAV",
		"updated": "06/13/2008"
	},
	{
		"name": "WIPEN",
		"latitude": "36-0-59.71 N",
		"longitude": "86-41-17.48 W",
		"state": "TENNESSEE",
		"artcc": "ZME",
		"type": "RNAV",
		"updated": "09/11/2012"
	},
	{
		"name": "WIPIM",
		"latitude": "36-36-2.74 N",
		"longitude": "89-59-51.25 W",
		"state": "MISSOURI",
		"artcc": "ZME",
		"type": "RP",
		"updated": "MAW*VORTAC*300.33/4.98"
	},
	{
		"name": "WIPTI",
		"latitude": "34-3-23.03 N",
		"longitude": "93-6-48.36 W",
		"state": "ARKANSAS",
		"artcc": "ZME",
		"type": "RNAV",
		"updated": "09/17/2014"
	},
	{
		"name": "WIPUP",
		"latitude": "35-44-23.94 N",
		"longitude": "89-55-42.5 W",
		"state": "TENNESSEE",
		"artcc": "ZME",
		"type": "RNAV",
		"updated": "03/25/2008"
	},
	{
		"name": "WIRGU",
		"latitude": "34-56-43.7 N",
		"longitude": "89-47-11.49 W",
		"state": "MISSISSIPPI",
		"artcc": "ZME",
		"type": "RP",
		"updated": "EVO*LE*180.54/2.81"
	},
	{
		"name": "WIRSI",
		"latitude": "32-21-38.59 N",
		"longitude": "90-6-20.82 W",
		"state": "MISSISSIPPI",
		"artcc": "ZME",
		"type": "RNAV",
		"updated": "07/18/2013"
	},
	{
		"name": "WISDE",
		"latitude": "34-12-40.1 N",
		"longitude": "91-56-8.73 W",
		"state": "ARKANSAS",
		"artcc": "ZME",
		"type": "RNAV",
		"updated": "03/28/2011"
	},
	{
		"name": "WISES",
		"latitude": "36-7-4.09 N",
		"longitude": "94-53-33.29 W",
		"state": "OKLAHOMA",
		"artcc": "ZME",
		"type": "RNAV",
		"updated": "04/28/2008"
	},
	{
		"name": "WISID",
		"latitude": "33-30-25.53 N",
		"longitude": "88-41-26.1 W",
		"state": "MISSISSIPPI",
		"artcc": "ZME",
		"type": "RNAV",
		"updated": "10/22/2014"
	},
	{
		"name": "WISLI",
		"latitude": "37-0-16.35 N",
		"longitude": "86-23-31.83 W",
		"state": "KENTUCKY",
		"artcc": "ZME",
		"type": "RNAV",
		"updated": "12/01/2008"
	},
	{
		"name": "WITIP",
		"latitude": "36-50-26.05 N",
		"longitude": "86-42-31.32 W",
		"state": "KENTUCKY",
		"artcc": "ZME",
		"type": "RNAV",
		"updated": "09/19/2017"
	},
	{
		"name": "WITKA",
		"latitude": "35-37-49.61 N",
		"longitude": "88-53-58.89 W",
		"state": "TENNESSEE",
		"artcc": "ZME",
		"type": "RNAV",
		"updated": "04/01/2009"
	},
	{
		"name": "WITOS",
		"latitude": "35-37-4.25 N",
		"longitude": "88-8-17.9 W",
		"state": "TENNESSEE",
		"artcc": "ZME",
		"type": "RNAV",
		"updated": "05/28/2014"
	},
	{
		"name": "WITXO",
		"latitude": "34-25-45.98 N",
		"longitude": "93-21-5.6 W",
		"state": "ARKANSAS",
		"artcc": "ZME",
		"type": "RNAV",
		"updated": "09/27/2004"
	},
	{
		"name": "WIVNI",
		"latitude": "32-25-48.14 N",
		"longitude": "90-53-53.37 W",
		"state": "MISSISSIPPI",
		"artcc": "ZME",
		"type": "RNAV",
		"updated": "12/04/2012"
	},
	{
		"name": "WIVOM",
		"latitude": "33-26-57.79 N",
		"longitude": "90-40-43.44 W",
		"state": "MISSISSIPPI",
		"artcc": "ZME",
		"type": "RNAV",
		"updated": "12/04/2012"
	},
	{
		"name": "WIVOV",
		"latitude": "36-8-26.08 N",
		"longitude": "91-36-56.26 W",
		"state": "ARKANSAS",
		"artcc": "ZME",
		"type": "RNAV",
		"updated": "11/28/2016"
	},
	{
		"name": "WIVTU",
		"latitude": "37-5-47.96 N",
		"longitude": "88-48-37.45 W",
		"state": "KENTUCKY",
		"artcc": "ZME",
		"type": "RNAV",
		"updated": "06/21/2013"
	},
	{
		"name": "WIWFI",
		"latitude": "31-54-1.6 N",
		"longitude": "89-48-4.12 W",
		"state": "MISSISSIPPI",
		"artcc": "ZME",
		"type": "RNAV",
		"updated": "04/22/2014"
	},
	{
		"name": "WIZER",
		"latitude": "35-21-15.63 N",
		"longitude": "94-13-1.3 W",
		"state": "ARKANSAS",
		"artcc": "ZME",
		"type": "RP",
		"updated": "FSM*VORTAC*120.33/3.36"
	},
	{
		"name": "WLDER",
		"latitude": "35-33-29.38 N",
		"longitude": "89-17-33.33 W",
		"state": "TENNESSEE",
		"artcc": "ZME",
		"type": "RP",
		"updated": "MKL*VOR/DME*262.84/18.90"
	},
	{
		"name": "WLSUN",
		"latitude": "37-35-0 N",
		"longitude": "88-8-0 W",
		"state": "KENTUCKY",
		"artcc": "ZME",
		"type": "RNAV",
		"updated": "02/17/2006"
	},
	{
		"name": "WOBGU",
		"latitude": "37-3-20.08 N",
		"longitude": "87-56-13.67 W",
		"state": "KENTUCKY",
		"artcc": "ZME",
		"type": "RNAV",
		"updated": "06/06/2013"
	},
	{
		"name": "WODDY",
		"latitude": "34-26-15.23 N",
		"longitude": "86-29-17.25 W",
		"state": "ALABAMA",
		"artcc": "ZME",
		"type": "RP",
		"updated": "RMG*VORTAC*283.00/70.00"
	},
	{
		"name": "WODID",
		"latitude": "33-32-36.11 N",
		"longitude": "88-42-50.05 W",
		"state": "MISSISSIPPI",
		"artcc": "ZME",
		"type": "MR",
		"updated": "CBM*VORTAC*247.00/15.00"
	},
	{
		"name": "WODUD",
		"latitude": "33-45-48.01 N",
		"longitude": "88-23-16.05 W",
		"state": "MISSISSIPPI",
		"artcc": "ZME",
		"type": "RNAV",
		"updated": "06/30/2017"
	},
	{
		"name": "WOGPA",
		"latitude": "36-9-50.46 N",
		"longitude": "86-53-33.59 W",
		"state": "TENNESSEE",
		"artcc": "ZME",
		"type": "RNAV",
		"updated": "10/13/2006"
	},
	{
		"name": "WOGPI",
		"latitude": "34-44-37.85 N",
		"longitude": "90-48-38.71 W",
		"state": "ARKANSAS",
		"artcc": "ZME",
		"type": "RNAV",
		"updated": "06/18/2013"
	},
	{
		"name": "WOGUT",
		"latitude": "35-38-30.69 N",
		"longitude": "87-31-26.41 W",
		"state": "TENNESSEE",
		"artcc": "ZME",
		"type": "RNAV",
		"updated": "11/03/2015"
	},
	{
		"name": "WOGVA",
		"latitude": "33-36-33.22 N",
		"longitude": "87-49-14.27 W",
		"state": "ALABAMA",
		"artcc": "ZME",
		"type": "RNAV",
		"updated": "06/06/2011"
	},
	{
		"name": "WOKAP",
		"latitude": "36-9-47.78 N",
		"longitude": "86-32-20.97 W",
		"state": "TENNESSEE",
		"artcc": "ZME",
		"type": "RNAV",
		"updated": "06/03/2014"
	},
	{
		"name": "WOKLO",
		"latitude": "36-19-7.95 N",
		"longitude": "94-11-16.51 W",
		"state": "ARKANSAS",
		"artcc": "ZME",
		"type": "RNAV",
		"updated": "09/18/2015"
	},
	{
		"name": "WOKMU",
		"latitude": "35-52-1.33 N",
		"longitude": "88-47-48.7 W",
		"state": "TENNESSEE",
		"artcc": "ZME",
		"type": "RNAV",
		"updated": "10/06/2015"
	},
	{
		"name": "WOLAS",
		"latitude": "36-37-22.93 N",
		"longitude": "92-57-48.81 W",
		"state": "MISSOURI",
		"artcc": "ZME",
		"type": "RNAV",
		"updated": "01/04/2011"
	},
	{
		"name": "WOLFS",
		"latitude": "33-30-40.91 N",
		"longitude": "90-53-3.51 W",
		"state": "MISSISSIPPI",
		"artcc": "ZME",
		"type": "RP",
		"updated": "GLH*VOR/DME*094.35/5.00"
	},
	{
		"name": "WOLIN",
		"latitude": "33-39-7.52 N",
		"longitude": "91-39-47.41 W",
		"state": "ARKANSAS",
		"artcc": "ZME",
		"type": "RP",
		"updated": "MON*VOR/DME*022.00/6.00"
	},
	{
		"name": "WOLOV",
		"latitude": "33-57-48.07 N",
		"longitude": "88-11-15.23 W",
		"state": "MISSISSIPPI",
		"artcc": "ZME",
		"type": "MR",
		"updated": "CBM*VORTAC*033.00/23.00"
	},
	{
		"name": "WOLSO",
		"latitude": "36-5-38.26 N",
		"longitude": "90-55-23.89 W",
		"state": "ARKANSAS",
		"artcc": "ZME",
		"type": "RNAV",
		"updated": "08/19/2011"
	},
	{
		"name": "WOLUS",
		"latitude": "34-55-39.29 N",
		"longitude": "92-6-30.48 W",
		"state": "ARKANSAS",
		"artcc": "ZME",
		"type": "MW",
		"updated": "03/06/2007"
	},
	{
		"name": "WOMKU",
		"latitude": "32-44-43.11 N",
		"longitude": "88-32-55.24 W",
		"state": "MISSISSIPPI",
		"artcc": "ZME",
		"type": "MR",
		"updated": "NMM*TACAN*001.00/10.00"
	},
	{
		"name": "WONEE",
		"latitude": "34-53-39.35 N",
		"longitude": "90-47-46.77 W",
		"state": "ARKANSAS",
		"artcc": "ZME",
		"type": "RP",
		"updated": "MEM*VORTAC*259.00/40.75"
	},
	{
		"name": "WOPKI",
		"latitude": "33-31-19.44 N",
		"longitude": "90-40-44.48 W",
		"state": "MISSISSIPPI",
		"artcc": "ZME",
		"type": "RNAV",
		"updated": "11/23/2012"
	},
	{
		"name": "WOPLA",
		"latitude": "33-31-47.46 N",
		"longitude": "91-22-2.89 W",
		"state": "ARKANSAS",
		"artcc": "ZME",
		"type": "RNAV",
		"updated": "11/02/2011"
	},
	{
		"name": "WOPUP",
		"latitude": "33-26-7.02 N",
		"longitude": "88-51-0.8 W",
		"state": "MISSISSIPPI",
		"artcc": "ZME",
		"type": "RP",
		"updated": "IGB*VORTAC*256.00/17.16"
	},
	{
		"name": "WOREP",
		"latitude": "36-40-17.09 N",
		"longitude": "93-25-36.76 W",
		"state": "MISSOURI",
		"artcc": "ZME",
		"type": "RNAV",
		"updated": "09/14/2012"
	},
	{
		"name": "WORKO",
		"latitude": "35-3-30.92 N",
		"longitude": "93-18-16.6 W",
		"state": "ARKANSAS",
		"artcc": "ZME",
		"type": "RNAV",
		"updated": "08/16/2016"
	},
	{
		"name": "WORMI",
		"latitude": "34-35-40.08 N",
		"longitude": "92-24-3.71 W",
		"state": "ARKANSAS",
		"artcc": "ZME",
		"type": "RP",
		"updated": "LIT*VORTAC*240.52/12.00"
	},
	{
		"name": "WORUP",
		"latitude": "35-46-45.68 N",
		"longitude": "89-59-35.48 W",
		"state": "ARKANSAS",
		"artcc": "ZME",
		"type": "RNAV",
		"updated": "01/03/2009"
	},
	{
		"name": "WORVU",
		"latitude": "33-50-54.64 N",
		"longitude": "88-21-49.49 W",
		"state": "MISSISSIPPI",
		"artcc": "ZME",
		"type": "MR",
		"updated": "IGB*VORTAC*015.00/23.00"
	},
	{
		"name": "WOSAL",
		"latitude": "32-12-50.74 N",
		"longitude": "90-4-53.46 W",
		"state": "MISSISSIPPI",
		"artcc": "ZME",
		"type": "RNAV",
		"updated": "11/23/2012"
	},
	{
		"name": "WOSBU",
		"latitude": "32-39-18.74 N",
		"longitude": "90-16-36.67 W",
		"state": "MISSISSIPPI",
		"artcc": "ZME",
		"type": "RP",
		"updated": "MHZ*VORTAC*326.90/16.00"
	},
	{
		"name": "WOSKU",
		"latitude": "35-18-53.09 N",
		"longitude": "87-0-5.21 W",
		"state": "TENNESSEE",
		"artcc": "ZME",
		"type": "RNAV",
		"updated": "08/21/2013"
	},
	{
		"name": "WOSOR",
		"latitude": "36-4-25 N",
		"longitude": "86-55-19.22 W",
		"state": "TENNESSEE",
		"artcc": "ZME",
		"type": "RNAV",
		"updated": "09/03/2015"
	},
	{
		"name": "WOTDO",
		"latitude": "34-28-3.88 N",
		"longitude": "92-36-15.21 W",
		"state": "ARKANSAS",
		"artcc": "ZME",
		"type": "RNAV",
		"updated": "03/15/2007"
	},
	{
		"name": "WOVAD",
		"latitude": "36-15-22.88 N",
		"longitude": "94-6-25.09 W",
		"state": "ARKANSAS",
		"artcc": "ZME",
		"type": "RP",
		"updated": "RZC*VORTAC*045.64"
	},
	{
		"name": "WOWED",
		"latitude": "36-45-1.63 N",
		"longitude": "87-23-24.36 W",
		"state": "KENTUCKY",
		"artcc": "ZME",
		"type": "MR",
		"updated": "HXW*TACAN*047.88/8.00"
	},
	{
		"name": "WOXET",
		"latitude": "32-28-2.44 N",
		"longitude": "88-35-50.84 W",
		"state": "MISSISSIPPI",
		"artcc": "ZME",
		"type": "RNAV",
		"updated": "04/12/2006"
	},
	{
		"name": "WOXID",
		"latitude": "36-36-11.6 N",
		"longitude": "88-22-20.7 W",
		"state": "KENTUCKY",
		"artcc": "ZME",
		"type": "RNAV",
		"updated": "01/13/2017"
	},
	{
		"name": "WOXON",
		"latitude": "34-48-18.63 N",
		"longitude": "91-40-1.36 W",
		"state": "ARKANSAS",
		"artcc": "ZME",
		"type": "RNAV",
		"updated": "04/04/2008"
	},
	{
		"name": "WOXOT",
		"latitude": "33-33-39.69 N",
		"longitude": "91-58-29.86 W",
		"state": "ARKANSAS",
		"artcc": "ZME",
		"type": "RP",
		"updated": "MON*VOR/DME*265.80/13.00"
	},
	{
		"name": "WOXUS",
		"latitude": "35-55-35.25 N",
		"longitude": "87-24-33.86 W",
		"state": "TENNESSEE",
		"artcc": "ZME",
		"type": "RNAV",
		"updated": "11/03/2015"
	},
	{
		"name": "WOZXO",
		"latitude": "35-32-36.96 N",
		"longitude": "86-26-32.13 W",
		"state": "TENNESSEE",
		"artcc": "ZME",
		"type": "RNAV",
		"updated": "06/18/2008"
	},
	{
		"name": "WOZYE",
		"latitude": "35-20-52.14 N",
		"longitude": "87-10-40.54 W",
		"state": "TENNESSEE",
		"artcc": "ZME",
		"type": "RNAV",
		"updated": "09/27/2011"
	},
	{
		"name": "WRRTZ",
		"latitude": "34-58-5.9 N",
		"longitude": "89-45-5.99 W",
		"state": "MISSISSIPPI",
		"artcc": "ZME",
		"type": "RNAV",
		"updated": "02/11/2012"
	},
	{
		"name": "WSTIN",
		"latitude": "35-1-25.43 N",
		"longitude": "90-44-52.62 W",
		"state": "ARKANSAS",
		"artcc": "ZME",
		"type": "RNAV",
		"updated": "10/16/2013"
	},
	{
		"name": "WSTON",
		"latitude": "34-41-29.89 N",
		"longitude": "89-58-47.3 W",
		"state": "MISSISSIPPI",
		"artcc": "ZME",
		"type": "RP",
		"updated": "MEM*VORTAC*178.50/19.38"
	},
	{
		"name": "WTREE",
		"latitude": "35-10-51.35 N",
		"longitude": "90-48-24.75 W",
		"state": "ARKANSAS",
		"artcc": "ZME",
		"type": "RP",
		"updated": "MEM*VORTAC*283.00/41.75"
	},
	{
		"name": "WTWOO",
		"latitude": "35-1-27.02 N",
		"longitude": "90-48-36.17 W",
		"state": "ARKANSAS",
		"artcc": "ZME",
		"type": "RP",
		"updated": "MEM*VORTAC*270.00/40.75"
	},
	{
		"name": "WUBGA",
		"latitude": "33-10-54.87 N",
		"longitude": "89-4-11.95 W",
		"state": "MISSISSIPPI",
		"artcc": "ZME",
		"type": "RNAV",
		"updated": "12/17/2015"
	},
	{
		"name": "WUBKI",
		"latitude": "34-18-35.35 N",
		"longitude": "93-22-44.85 W",
		"state": "ARKANSAS",
		"artcc": "ZME",
		"type": "CN",
		"updated": "01/03/2007"
	},
	{
		"name": "WUBOB",
		"latitude": "33-26-52.03 N",
		"longitude": "92-17-47.09 W",
		"state": "ARKANSAS",
		"artcc": "ZME",
		"type": "RNAV",
		"updated": "01/03/2009"
	},
	{
		"name": "WUDAM",
		"latitude": "33-27-10.85 N",
		"longitude": "91-39-55.59 W",
		"state": "ARKANSAS",
		"artcc": "ZME",
		"type": "RNAV",
		"updated": "06/12/2008"
	},
	{
		"name": "WUDAP",
		"latitude": "33-25-49.98 N",
		"longitude": "91-17-26.9 W",
		"state": "ARKANSAS",
		"artcc": "ZME",
		"type": "RNAV",
		"updated": "01/26/2017"
	},
	{
		"name": "WUDSU",
		"latitude": "35-8-13.07 N",
		"longitude": "92-49-24.43 W",
		"state": "ARKANSAS",
		"artcc": "ZME",
		"type": "RNAV",
		"updated": "12/27/2007"
	},
	{
		"name": "WUDVI",
		"latitude": "32-13-36.42 N",
		"longitude": "90-24-29.72 W",
		"state": "MISSISSIPPI",
		"artcc": "ZME",
		"type": "RP",
		"updated": "MHZ*VORTAC*232.72/20.00"
	},
	{
		"name": "WUGAB",
		"latitude": "35-10-25.2 N",
		"longitude": "90-49-32.57 W",
		"state": "ARKANSAS",
		"artcc": "ZME",
		"type": "RNAV",
		"updated": "04/02/2014"
	},
	{
		"name": "WUGEK",
		"latitude": "34-18-39.81 N",
		"longitude": "90-15-37.31 W",
		"state": "MISSISSIPPI",
		"artcc": "ZME",
		"type": "RNAV",
		"updated": "09/09/2013"
	},
	{
		"name": "WUGID",
		"latitude": "34-56-18.38 N",
		"longitude": "92-4-12.46 W",
		"state": "ARKANSAS",
		"artcc": "ZME",
		"type": "MW",
		"updated": "03/06/2007"
	},
	{
		"name": "WUKAR",
		"latitude": "35-49-21.17 N",
		"longitude": "87-45-19.8 W",
		"state": "TENNESSEE",
		"artcc": "ZME",
		"type": "RNAV",
		"updated": "05/02/2011"
	},
	{
		"name": "WUKER",
		"latitude": "35-9-18.08 N",
		"longitude": "91-33-51.01 W",
		"state": "ARKANSAS",
		"artcc": "ZME",
		"type": "RNAV",
		"updated": "06/15/2012"
	},
	{
		"name": "WUKLA",
		"latitude": "32-14-22.59 N",
		"longitude": "88-41-41.83 W",
		"state": "MISSISSIPPI",
		"artcc": "ZME",
		"type": "MR",
		"updated": "MEI*VORTAC*141.20/10.00"
	},
	{
		"name": "WUKNA",
		"latitude": "33-57-55.17 N",
		"longitude": "89-58-29.74 W",
		"state": "MISSISSIPPI",
		"artcc": "ZME",
		"type": "RNAV",
		"updated": "03/26/2013"
	},
	{
		"name": "WULAR",
		"latitude": "35-20-8.41 N",
		"longitude": "94-22-58.48 W",
		"state": "ARKANSAS",
		"artcc": "ZME",
		"type": "MR",
		"updated": "FSM*VORTAC*233.00/6.31"
	},
	{
		"name": "WULBO",
		"latitude": "32-20-19.11 N",
		"longitude": "88-45-31.36 W",
		"state": "MISSISSIPPI",
		"artcc": "ZME",
		"type": "RP",
		"updated": "MEI*VORTAC*130.81/3.32"
	},
	{
		"name": "WULEN",
		"latitude": "33-33-46.39 N",
		"longitude": "88-44-35.17 W",
		"state": "MISSISSIPPI",
		"artcc": "ZME",
		"type": "RNAV",
		"updated": "10/22/2014"
	},
	{
		"name": "WULIG",
		"latitude": "36-10-36 N",
		"longitude": "86-26-0 W",
		"state": "TENNESSEE",
		"artcc": "ZME",
		"type": "RNAV",
		"updated": "08/08/2013"
	},
	{
		"name": "WULIL",
		"latitude": "35-53-55.11 N",
		"longitude": "94-9-23.15 W",
		"state": "ARKANSAS",
		"artcc": "ZME",
		"type": "RP",
		"updated": "LFH*DD*172.48/5.71"
	},
	{
		"name": "WULKI",
		"latitude": "34-44-46.76 N",
		"longitude": "89-2-20.75 W",
		"state": "MISSISSIPPI",
		"artcc": "ZME",
		"type": "RNAV",
		"updated": "08/20/2007"
	},
	{
		"name": "WUNOG",
		"latitude": "36-14-39.21 N",
		"longitude": "86-41-28.76 W",
		"state": "TENNESSEE",
		"artcc": "ZME",
		"type": "RNAV",
		"updated": "06/03/2014"
	},
	{
		"name": "WUPUK",
		"latitude": "33-17-15.35 N",
		"longitude": "90-40-41.13 W",
		"state": "MISSISSIPPI",
		"artcc": "ZME",
		"type": "RNAV",
		"updated": "11/23/2012"
	},
	{
		"name": "WUSAM",
		"latitude": "32-37-35.78 N",
		"longitude": "88-46-30.05 W",
		"state": "MISSISSIPPI",
		"artcc": "ZME",
		"type": "MR",
		"updated": "NMM*TACAN*286.00/12.00"
	},
	{
		"name": "WUSAP",
		"latitude": "35-2-1.15 N",
		"longitude": "89-31-32.3 W",
		"state": "TENNESSEE",
		"artcc": "ZME",
		"type": "RNAV",
		"updated": "06/15/2016"
	},
	{
		"name": "WUSEL",
		"latitude": "36-16-52.76 N",
		"longitude": "87-43-6.16 W",
		"state": "TENNESSEE",
		"artcc": "ZME",
		"type": "RNAV",
		"updated": "07/25/2011"
	},
	{
		"name": "WUSVO",
		"latitude": "34-23-1.05 N",
		"longitude": "89-28-45.09 W",
		"state": "MISSISSIPPI",
		"artcc": "ZME",
		"type": "RNAV",
		"updated": "10/08/2014"
	},
	{
		"name": "WUTIV",
		"latitude": "36-31-16.99 N",
		"longitude": "89-57-33.81 W",
		"state": "MISSOURI",
		"artcc": "ZME",
		"type": "RNAV",
		"updated": "03/19/2013"
	},
	{
		"name": "WUTOT",
		"latitude": "35-33-9.8 N",
		"longitude": "88-56-18.91 W",
		"state": "TENNESSEE",
		"artcc": "ZME",
		"type": "RP",
		"updated": "MKL*LD*203.23/3.60"
	},
	{
		"name": "WUVAX",
		"latitude": "35-48-22.98 N",
		"longitude": "90-41-3.53 W",
		"state": "ARKANSAS",
		"artcc": "ZME",
		"type": "RNAV",
		"updated": "03/27/2011"
	},
	{
		"name": "WUVIL",
		"latitude": "36-11-32 N",
		"longitude": "93-57-33.63 W",
		"state": "ARKANSAS",
		"artcc": "ZME",
		"type": "RNAV",
		"updated": "04/30/2013"
	},
	{
		"name": "WUWRE",
		"latitude": "32-17-47.06 N",
		"longitude": "90-12-19.55 W",
		"state": "MISSISSIPPI",
		"artcc": "ZME",
		"type": "RNAV",
		"updated": "11/03/2013"
	}
]
