	{
		"name": "XANDR",
		"latitude": "34-52-40.8 N",
		"longitude": "89-58-20.78 W",
		"state": "MISSISSIPPI",
		"artcc": "ZME",
		"type": "RNAV",
		"updated": "06/30/2017",
	},
	{
		"name": "XAYWE",
		"latitude": "35-46-48.84 N",
		"longitude": "85-39-32.37 W",
		"state": "TENNESSEE",
		"artcc": "ZME",
		"type": "RNAV",
		"updated": "01/18/2001",
	},
	{
		"name": "XBOWW",
		"latitude": "36-47-6.37 N",
		"longitude": "88-11-41.07 W",
		"state": "KENTUCKY",
		"artcc": "ZME",
		"type": "CN",
		"updated": "10/25/2011",
	},
	{
		"name": "XEFJY",
		"latitude": "36-9-27.25 N",
		"longitude": "86-39-58.49 W",
		"state": "TENNESSEE",
		"artcc": "ZME",
		"type": "RNAV",
		"updated": "02/28/2012",
	},
	{
		"name": "XEFVI",
		"latitude": "35-45-57.78 N",
		"longitude": "88-55-6.05 W",
		"state": "TENNESSEE",
		"artcc": "ZME",
		"type": "RNAV",
		"updated": "10/06/2015",
	},
	{
		"name": "XEJLI",
		"latitude": "37-11-56.1 N",
		"longitude": "87-12-23.85 W",
		"state": "KENTUCKY",
		"artcc": "ZME",
		"type": "RNAV",
		"updated": "04/25/2012",
	},
	{
		"name": "XEMFO",
		"latitude": "35-12-42.46 N",
		"longitude": "86-3-40.88 W",
		"state": "TENNESSEE",
		"artcc": "ZME",
		"type": "RNAV",
		"updated": "01/09/2001",
	},
	{
		"name": "XESSS",
		"latitude": "34-18-50.62 N",
		"longitude": "90-7-2.78 W",
		"state": "MISSISSIPPI",
		"artcc": "ZME",
		"type": "RNAV",
		"updated": "05/06/2011",
	},
	{
		"name": "XICEL",
		"latitude": "33-40-28.16 N",
		"longitude": "92-45-12.69 W",
		"state": "ARKANSAS",
		"artcc": "ZME",
		"type": "RNAV",
		"updated": "03/16/2012",
	},
	{
		"name": "XIHAM",
		"latitude": "35-58-29.67 N",
		"longitude": "91-6-15.85 W",
		"state": "ARKANSAS",
		"artcc": "ZME",
		"type": "RNAV",
		"updated": "08/19/2011",
	},
	{
		"name": "XIHZE",
		"latitude": "35-25-55.57 N",
		"longitude": "85-15-20.95 W",
		"state": "TENNESSEE",
		"artcc": "ZME",
		"type": "RNAV",
		"updated": "01/18/2001",
	},
	{
		"name": "XIKRY",
		"latitude": "34-9-6.7 N",
		"longitude": "90-19-7.34 W",
		"state": "MISSISSIPPI",
		"artcc": "ZME",
		"type": "RNAV",
		"updated": "09/09/2013",
	},
	{
		"name": "XISGY",
		"latitude": "35-42-30.71 N",
		"longitude": "88-10-54.87 W",
		"state": "TENNESSEE",
		"artcc": "ZME",
		"type": "RNAV",
		"updated": "09/03/2015",
	},
	{
		"name": "XITHO",
		"latitude": "34-52-43.88 N",
		"longitude": "85-50-51.28 W",
		"state": "ALABAMA",
		"artcc": "ZME",
		"type": "RNAV",
		"updated": "01/10/2001",
	},
	{
		"name": "XITRY",
		"latitude": "35-50-13.58 N",
		"longitude": "88-49-58.49 W",
		"state": "TENNESSEE",
		"artcc": "ZME",
		"type": "RNAV",
		"updated": "10/06/2015",
	},
	{
		"name": "XITVE",
		"latitude": "35-36-26.85 N",
		"longitude": "88-12-28.59 W",
		"state": "TENNESSEE",
		"artcc": "ZME",
		"type": "RNAV",
		"updated": "09/03/2015",
	},
	{
		"name": "XIYRI",
		"latitude": "36-9-55.3 N",
		"longitude": "86-38-47.6 W",
		"state": "TENNESSEE",
		"artcc": "ZME",
		"type": "RP",
		"updated": "SSX*LD*021.00/3.59",
	},
	{
		"name": "XOMYU",
		"latitude": "37-10-59.6 N",
		"longitude": "86-6-37.45 W",
		"state": "KENTUCKY",
		"artcc": "ZME",
		"type": "RNAV",
		"updated": "08/22/2013",
	},
	{
		"name": "XUMMY",
		"latitude": "35-50-45.03 N",
		"longitude": "89-49-42.87 W",
		"state": "ARKANSAS",
		"artcc": "ZME",
		"type": "RNAV",
		"updated": "03/25/2008",
	},
	{
		"name": "XUYLA",
		"latitude": "35-31-43.58 N",
		"longitude": "85-59-55.08 W",
		"state": "TENNESSEE",
		"artcc": "ZME",
		"type": "RNAV",
		"updated": "01/18/2001",
	},
