	{
		"name": "ZABAB",
		"latitude": "35-1-33.19 N",
		"longitude": "88-26-35.4 W",
		"state": "TENNESSEE",
		"artcc": "ZME",
		"type": "RNAV",
		"updated": "08/18/2008",
	},
	{
		"name": "ZABDO",
		"latitude": "34-48-44.44 N",
		"longitude": "92-17-14.12 W",
		"state": "ARKANSAS",
		"artcc": "ZME",
		"type": "RNAV",
		"updated": "12/28/2007",
	},
	{
		"name": "ZABIN",
		"latitude": "35-2-28.49 N",
		"longitude": "91-53-15.9 W",
		"state": "ARKANSAS",
		"artcc": "ZME",
		"type": "RNAV",
		"updated": "07/25/2005",
	},
	{
		"name": "ZABKO",
		"latitude": "36-3-14.91 N",
		"longitude": "94-10-54.68 W",
		"state": "ARKANSAS",
		"artcc": "ZME",
		"type": "RP",
		"updated": "FYV*LE*346.95/3.69",
	},
	{
		"name": "ZABUB",
		"latitude": "34-47-46.28 N",
		"longitude": "92-21-35.88 W",
		"state": "ARKANSAS",
		"artcc": "ZME",
		"type": "RNAV",
		"updated": "09/15/2008",
	},
	{
		"name": "ZABUX",
		"latitude": "37-19-16.69 N",
		"longitude": "87-52-44.3 W",
		"state": "KENTUCKY",
		"artcc": "ZME",
		"type": "RNAV",
		"updated": "02/20/2014",
	},
	{
		"name": "ZADAD",
		"latitude": "34-54-1.88 N",
		"longitude": "92-12-13.64 W",
		"state": "ARKANSAS",
		"artcc": "ZME",
		"type": "RNAV",
		"updated": "06/27/2012",
	},
	{
		"name": "ZADUL",
		"latitude": "36-20-1.16 N",
		"longitude": "89-42-7.33 W",
		"state": "MISSOURI",
		"artcc": "ZME",
		"type": "RNAV",
		"updated": "07/14/2009",
	},
	{
		"name": "ZADVI",
		"latitude": "34-41-32.94 N",
		"longitude": "86-56-40.03 W",
		"state": "ALABAMA",
		"artcc": "ZME",
		"type": "RP",
		"updated": "DCU*LD*005.12/2.99",
	},
	{
		"name": "ZAGOS",
		"latitude": "34-3-21.38 N",
		"longitude": "88-21-54.16 W",
		"state": "MISSISSIPPI",
		"artcc": "ZME",
		"type": "RNAV",
		"updated": "07/14/2009",
	},
	{
		"name": "ZAGSO",
		"latitude": "36-12-34.81 N",
		"longitude": "89-40-37.38 W",
		"state": "MISSOURI",
		"artcc": "ZME",
		"type": "RNAV",
		"updated": "05/01/2003",
	},
	{
		"name": "ZAGUM",
		"latitude": "34-22-59.05 N",
		"longitude": "89-26-8.55 W",
		"state": "MISSISSIPPI",
		"artcc": "ZME",
		"type": "RNAV",
		"updated": "10/08/2014",
	},
	{
		"name": "ZAKAN",
		"latitude": "36-14-49.35 N",
		"longitude": "94-17-27.38 W",
		"state": "ARKANSAS",
		"artcc": "ZME",
		"type": "RP",
		"updated": "FBS*LD*S CRS/3.12",
	},
	{
		"name": "ZAKID",
		"latitude": "33-45-59.24 N",
		"longitude": "92-2-21.12 W",
		"state": "ARKANSAS",
		"artcc": "ZME",
		"type": "RNAV",
		"updated": "01/03/2009",
	},
	{
		"name": "ZAKMU",
		"latitude": "35-29-39.75 N",
		"longitude": "86-8-38.33 W",
		"state": "TENNESSEE",
		"artcc": "ZME",
		"type": "RNAV",
		"updated": "07/25/2011",
	},
	{
		"name": "ZAKOP",
		"latitude": "36-38-23.03 N",
		"longitude": "88-24-33.72 W",
		"state": "KENTUCKY",
		"artcc": "ZME",
		"type": "RNAV",
		"updated": "10/25/2011",
	},
	{
		"name": "ZALDA",
		"latitude": "36-4-55 N",
		"longitude": "93-37-37 W",
		"state": "ARKANSAS",
		"artcc": "ZME",
		"type": "RNAV",
		"updated": "02/17/2006",
	},
	{
		"name": "ZALIM",
		"latitude": "34-19-20.03 N",
		"longitude": "88-46-12.06 W",
		"state": "MISSISSIPPI",
		"artcc": "ZME",
		"type": "RNAV",
		"updated": "01/27/2015",
	},
	{
		"name": "ZALOP",
		"latitude": "32-45-0.18 N",
		"longitude": "88-40-2.52 W",
		"state": "MISSISSIPPI",
		"artcc": "ZME",
		"type": "MR",
		"updated": "NMM*TACAN*331.00/12.00",
	},
	{
		"name": "ZALPI",
		"latitude": "35-28-10.3 N",
		"longitude": "87-9-32.12 W",
		"state": "TENNESSEE",
		"artcc": "ZME",
		"type": "RNAV",
		"updated": "02/11/2014",
	},
	{
		"name": "ZALZA",
		"latitude": "33-39-20.67 N",
		"longitude": "90-45-11.31 W",
		"state": "MISSISSIPPI",
		"artcc": "ZME",
		"type": "RNAV",
		"updated": "06/09/2011",
	},
	{
		"name": "ZAMET",
		"latitude": "35-2-24.82 N",
		"longitude": "89-23-3.28 W",
		"state": "TENNESSEE",
		"artcc": "ZME",
		"type": "RNAV",
		"updated": "12/05/2013",
	},
	{
		"name": "ZAMTU",
		"latitude": "33-55-42.48 N",
		"longitude": "92-11-29.39 W",
		"state": "ARKANSAS",
		"artcc": "ZME",
		"type": "RP",
		"updated": "PBF*VOR/DME*210.82/23.20",
	},
	{
		"name": "ZAMXU",
		"latitude": "34-55-13.14 N",
		"longitude": "89-28-31.11 W",
		"state": "MISSISSIPPI",
		"artcc": "ZME",
		"type": "RP",
		"updated": "MEM*VORTAC*101.63/25.68",
	},
	{
		"name": "ZANES",
		"latitude": "35-14-45.74 N",
		"longitude": "89-59-30 W",
		"state": "TENNESSEE",
		"artcc": "ZME",
		"type": "RNAV",
		"updated": "08/01/2001",
	},
	{
		"name": "ZANIX",
		"latitude": "34-24-36.82 N",
		"longitude": "92-33-30.49 W",
		"state": "ARKANSAS",
		"artcc": "ZME",
		"type": "RNAV",
		"updated": "07/14/2008",
	},
	{
		"name": "ZANOP",
		"latitude": "33-29-44.26 N",
		"longitude": "92-8-15.77 W",
		"state": "ARKANSAS",
		"artcc": "ZME",
		"type": "RNAV",
		"updated": "01/03/2009",
	},
	{
		"name": "ZANUK",
		"latitude": "32-6-2.46 N",
		"longitude": "88-35-9.49 W",
		"state": "MISSISSIPPI",
		"artcc": "ZME",
		"type": "RP",
		"updated": "MEI*VORTAC*141.20/20.00",
	},
	{
		"name": "ZANZA",
		"latitude": "34-48-6.45 N",
		"longitude": "86-28-19.33 W",
		"state": "ALABAMA",
		"artcc": "ZME",
		"type": "RNAV",
		"updated": "09/22/2012",
	},
	{
		"name": "ZAPKA",
		"latitude": "33-26-2.8 N",
		"longitude": "88-22-48.07 W",
		"state": "MISSISSIPPI",
		"artcc": "ZME",
		"type": "RNAV",
		"updated": "06/27/2017",
	},
	{
		"name": "ZAPLE",
		"latitude": "34-25-56.02 N",
		"longitude": "93-11-44.65 W",
		"state": "ARKANSAS",
		"artcc": "ZME",
		"type": "RP",
		"updated": "HOT*VOR/DME*238.00/5.90",
	},
	{
		"name": "ZARAM",
		"latitude": "35-53-34.4 N",
		"longitude": "90-4-30.53 W",
		"state": "ARKANSAS",
		"artcc": "ZME",
		"type": "RNAV",
		"updated": "01/03/2009",
	},
	{
		"name": "ZARUN",
		"latitude": "34-59-47.31 N",
		"longitude": "89-25-46.65 W",
		"state": "TENNESSEE",
		"artcc": "ZME",
		"type": "RNAV",
		"updated": "06/16/2011",
	},
	{
		"name": "ZARUP",
		"latitude": "34-57-16.93 N",
		"longitude": "92-0-45.36 W",
		"state": "ARKANSAS",
		"artcc": "ZME",
		"type": "MW",
		"updated": "03/06/2007",
	},
	{
		"name": "ZARUX",
		"latitude": "33-33-37.6 N",
		"longitude": "92-4-54.68 W",
		"state": "ARKANSAS",
		"artcc": "ZME",
		"type": "RP",
		"updated": "MON*VOR/DME*265.80/18.36",
	},
	{
		"name": "ZASEL",
		"latitude": "33-25-23.24 N",
		"longitude": "90-59-13.94 W",
		"state": "MISSISSIPPI",
		"artcc": "ZME",
		"type": "RNAV",
		"updated": "02/23/2009",
	},
	{
		"name": "ZATEL",
		"latitude": "34-27-49.78 N",
		"longitude": "88-41-30.76 W",
		"state": "MISSISSIPPI",
		"artcc": "ZME",
		"type": "RP",
		"updated": "OTB*VOR/DME*016.00/15.30",
	},
	{
		"name": "ZATKO",
		"latitude": "33-40-21.8 N",
		"longitude": "91-52-25.83 W",
		"state": "ARKANSAS",
		"artcc": "ZME",
		"type": "RNAV",
		"updated": "01/03/2009",
	},
	{
		"name": "ZAVDU",
		"latitude": "35-51-54.54 N",
		"longitude": "88-38-27.84 W",
		"state": "TENNESSEE",
		"artcc": "ZME",
		"type": "RNAV",
		"updated": "08/08/2013",
	},
	{
		"name": "ZAVEG",
		"latitude": "36-4-50.37 N",
		"longitude": "86-48-31.85 W",
		"state": "TENNESSEE",
		"artcc": "ZME",
		"type": "RNAV",
		"updated": "05/29/2014",
	},
	{
		"name": "ZAVEL",
		"latitude": "36-15-28.92 N",
		"longitude": "91-43-13.51 W",
		"state": "ARKANSAS",
		"artcc": "ZME",
		"type": "RNAV",
		"updated": "05/08/2011",
	},
	{
		"name": "ZAVOR",
		"latitude": "35-59-14.91 N",
		"longitude": "94-8-53.39 W",
		"state": "ARKANSAS",
		"artcc": "ZME",
		"type": "RNAV",
		"updated": "06/29/2005",
	},
	{
		"name": "ZAVOS",
		"latitude": "36-1-56.08 N",
		"longitude": "87-21-59.61 W",
		"state": "TENNESSEE",
		"artcc": "ZME",
		"type": "RNAV",
		"updated": "11/03/2015",
	},
	{
		"name": "ZAXOD",
		"latitude": "37-14-11.26 N",
		"longitude": "89-37-18.89 W",
		"state": "MISSOURI",
		"artcc": "ZME",
		"type": "RP",
		"updated": "CGI*LD*287.81/3.25",
	},
	{
		"name": "ZEALS",
		"latitude": "35-40-45.83 N",
		"longitude": "88-52-30.53 W",
		"state": "TENNESSEE",
		"artcc": "ZME",
		"type": "RNAV",
		"updated": "04/01/2009",
	},
	{
		"name": "ZEBEN",
		"latitude": "35-58-2.83 N",
		"longitude": "85-36-23.88 W",
		"state": "TENNESSEE",
		"artcc": "ZME",
		"type": "RNAV",
		"updated": "12/08/2008",
	},
	{
		"name": "ZEDEB",
		"latitude": "34-46-41.42 N",
		"longitude": "92-14-12.73 W",
		"state": "ARKANSAS",
		"artcc": "ZME",
		"type": "RNAV",
		"updated": "01/31/2011",
	},
	{
		"name": "ZEDER",
		"latitude": "36-11-59.69 N",
		"longitude": "86-14-19.15 W",
		"state": "TENNESSEE",
		"artcc": "ZME",
		"type": "RP",
		"updated": "BNA*VORTAC*082.00/22.00",
	},
	{
		"name": "ZEDIP",
		"latitude": "36-40-6.23 N",
		"longitude": "90-19-41.01 W",
		"state": "MISSOURI",
		"artcc": "ZME",
		"type": "RNAV",
		"updated": "06/08/2007",
	},
	{
		"name": "ZEDNU",
		"latitude": "34-18-45.93 N",
		"longitude": "86-50-32.25 W",
		"state": "ALABAMA",
		"artcc": "ZME",
		"type": "RNAV",
		"updated": "02/24/2014",
	},
	{
		"name": "ZEDOG",
		"latitude": "35-54-18.66 N",
		"longitude": "91-57-22.66 W",
		"state": "ARKANSAS",
		"artcc": "ZME",
		"type": "RNAV",
		"updated": "01/04/2013",
	},
	{
		"name": "ZEDON",
		"latitude": "35-12-53.68 N",
		"longitude": "87-20-45.15 W",
		"state": "TENNESSEE",
		"artcc": "ZME",
		"type": "RNAV",
		"updated": "05/06/2016",
	},
	{
		"name": "ZEDTU",
		"latitude": "35-6-58.55 N",
		"longitude": "90-4-55.52 W",
		"state": "TENNESSEE",
		"artcc": "ZME",
		"type": "RP",
		"updated": "GQE*VOR/DME*121.26/23.88",
	},
	{
		"name": "ZEDUK",
		"latitude": "34-47-20.01 N",
		"longitude": "91-34-16.35 W",
		"state": "ARKANSAS",
		"artcc": "ZME",
		"type": "RNAV",
		"updated": "03/15/2007",
	},
	{
		"name": "ZEDUX",
		"latitude": "35-23-55.71 N",
		"longitude": "86-3-29.16 W",
		"state": "TENNESSEE",
		"artcc": "ZME",
		"type": "RNAV",
		"updated": "06/16/2008",
	},
	{
		"name": "ZELKO",
		"latitude": "35-29-23.56 N",
		"longitude": "90-28-16.23 W",
		"state": "ARKANSAS",
		"artcc": "ZME",
		"type": "RNAV",
		"updated": "10/16/2013",
	},
	{
		"name": "ZELLO",
		"latitude": "31-37-23.23 N",
		"longitude": "89-12-18.71 W",
		"state": "MISSISSIPPI",
		"artcc": "ZME",
		"type": "RP",
		"updated": "LBY*VORTAC*023.99/14.00",
	},
	{
		"name": "ZELUL",
		"latitude": "36-56-23.15 N",
		"longitude": "86-26-18.88 W",
		"state": "KENTUCKY",
		"artcc": "ZME",
		"type": "RP",
		"updated": "BWG*VORTAC*/0.70",
	},
	{
		"name": "ZEMAK",
		"latitude": "33-52-11.62 N",
		"longitude": "90-45-46.06 W",
		"state": "MISSISSIPPI",
		"artcc": "ZME",
		"type": "RNAV",
		"updated": "02/25/2014",
	},
	{
		"name": "ZEPET",
		"latitude": "36-14-23.16 N",
		"longitude": "86-38-18.71 W",
		"state": "TENNESSEE",
		"artcc": "ZME",
		"type": "RNAV",
		"updated": "09/10/2012",
	},
	{
		"name": "ZEPLI",
		"latitude": "36-31-36.89 N",
		"longitude": "87-23-10.42 W",
		"state": "TENNESSEE",
		"artcc": "ZME",
		"type": "RNAV",
		"updated": "07/21/2016",
	},
	{
		"name": "ZEPUB",
		"latitude": "33-29-24.5 N",
		"longitude": "88-15-41.16 W",
		"state": "MISSISSIPPI",
		"artcc": "ZME",
		"type": "MW",
		"updated": "03/05/2008",
	},
	{
		"name": "ZERBA",
		"latitude": "33-25-29.25 N",
		"longitude": "90-58-55.52 W",
		"state": "MISSISSIPPI",
		"artcc": "ZME",
		"type": "RNAV",
		"updated": "01/14/2009",
	},
	{
		"name": "ZERGO",
		"latitude": "35-35-58.13 N",
		"longitude": "87-51-11.54 W",
		"state": "TENNESSEE",
		"artcc": "ZME",
		"type": "RNAV",
		"updated": "06/24/2011",
	},
	{
		"name": "ZEROV",
		"latitude": "36-45-6.17 N",
		"longitude": "89-21-35.87 W",
		"state": "MISSOURI",
		"artcc": "ZME",
		"type": "RNAV",
		"updated": "10/28/2013",
	},
	{
		"name": "ZERSU",
		"latitude": "34-23-6.06 N",
		"longitude": "89-35-39.84 W",
		"state": "MISSISSIPPI",
		"artcc": "ZME",
		"type": "RNAV",
		"updated": "10/08/2014",
	},
	{
		"name": "ZERTY",
		"latitude": "36-37-46.03 N",
		"longitude": "92-2-1.29 W",
		"state": "MISSOURI",
		"artcc": "ZME",
		"type": "RP",
		"updated": "DGD*VORTAC*118.10/46.98",
	},
	{
		"name": "ZESAM",
		"latitude": "36-7-28.16 N",
		"longitude": "90-16-15.21 W",
		"state": "ARKANSAS",
		"artcc": "ZME",
		"type": "RNAV",
		"updated": "05/06/2011",
	},
	{
		"name": "ZESBO",
		"latitude": "36-24-34.14 N",
		"longitude": "89-52-45.67 W",
		"state": "MISSOURI",
		"artcc": "ZME",
		"type": "RNAV",
		"updated": "03/19/2013",
	},
	{
		"name": "ZESBU",
		"latitude": "33-28-33.11 N",
		"longitude": "90-7-4.74 W",
		"state": "MISSISSIPPI",
		"artcc": "ZME",
		"type": "RNAV",
		"updated": "01/25/2013",
	},
	{
		"name": "ZESLO",
		"latitude": "33-0-29.23 N",
		"longitude": "88-24-49.13 W",
		"state": "MISSISSIPPI",
		"artcc": "ZME",
		"type": "RNAV",
		"updated": "02/25/2014",
	},
	{
		"name": "ZESMO",
		"latitude": "32-31-52.27 N",
		"longitude": "90-7-44 W",
		"state": "MISSISSIPPI",
		"artcc": "ZME",
		"type": "RP",
		"updated": "MHZ*VORTAC*346.75/6.00",
	},
	{
		"name": "ZETOB",
		"latitude": "37-23-58.61 N",
		"longitude": "88-26-52.02 W",
		"state": "KENTUCKY",
		"artcc": "ZME",
		"type": "RNAV",
		"updated": "01/10/2013",
	},
	{
		"name": "ZETOS",
		"latitude": "31-56-45.85 N",
		"longitude": "89-48-6.41 W",
		"state": "MISSISSIPPI",
		"artcc": "ZME",
		"type": "RNAV",
		"updated": "04/22/2014",
	},
	{
		"name": "ZETUR",
		"latitude": "34-23-19.04 N",
		"longitude": "89-57-30.67 W",
		"state": "MISSISSIPPI",
		"artcc": "ZME",
		"type": "RP",
		"updated": "HLI*VORTAC*222.17/32.35",
	},
	{
		"name": "ZEVEM",
		"latitude": "36-2-29.06 N",
		"longitude": "86-36-20.32 W",
		"state": "TENNESSEE",
		"artcc": "ZME",
		"type": "RNAV",
		"updated": "09/10/2012",
	},
	{
		"name": "ZEVPO",
		"latitude": "36-55-48.65 N",
		"longitude": "89-32-39.9 W",
		"state": "MISSOURI",
		"artcc": "ZME",
		"type": "RNAV",
		"updated": "06/15/2011",
	},
	{
		"name": "ZEVQA",
		"latitude": "36-7-54.97 N",
		"longitude": "93-51-4.67 W",
		"state": "ARKANSAS",
		"artcc": "ZME",
		"type": "RNAV",
		"updated": "04/30/2013",
	},
	{
		"name": "ZEWGU",
		"latitude": "34-57-28.8 N",
		"longitude": "86-56-7.3 W",
		"state": "ALABAMA",
		"artcc": "ZME",
		"type": "RNAV",
		"updated": "10/04/2011",
	},
	{
		"name": "ZEZTA",
		"latitude": "37-3-25.35 N",
		"longitude": "86-21-16.2 W",
		"state": "KENTUCKY",
		"artcc": "ZME",
		"type": "RNAV",
		"updated": "08/22/2013",
	},
	{
		"name": "ZIBOS",
		"latitude": "36-8-15.12 N",
		"longitude": "89-56-18.13 W",
		"state": "MISSOURI",
		"artcc": "ZME",
		"type": "RNAV",
		"updated": "03/26/2008",
	},
	{
		"name": "ZIBUG",
		"latitude": "35-58-5.95 N",
		"longitude": "90-43-59.32 W",
		"state": "ARKANSAS",
		"artcc": "ZME",
		"type": "RP",
		"updated": "JBR*VOR/DME*308.49/9.00",
	},
	{
		"name": "ZIDCU",
		"latitude": "35-18-25.66 N",
		"longitude": "89-55-43.58 W",
		"state": "TENNESSEE",
		"artcc": "ZME",
		"type": "RNAV",
		"updated": "06/16/2011",
	},
	{
		"name": "ZIDID",
		"latitude": "35-3-5.58 N",
		"longitude": "87-2-16.15 W",
		"state": "TENNESSEE",
		"artcc": "ZME",
		"type": "RNAV",
		"updated": "02/05/2014",
	},
	{
		"name": "ZIDKI",
		"latitude": "35-44-51.83 N",
		"longitude": "87-28-53.35 W",
		"state": "TENNESSEE",
		"artcc": "ZME",
		"type": "RNAV",
		"updated": "11/03/2015",
	},
	{
		"name": "ZIDPA",
		"latitude": "37-13-35.93 N",
		"longitude": "89-22-59.95 W",
		"state": "ILLINOIS",
		"artcc": "ZME",
		"type": "RNAV",
		"updated": "04/26/2013",
	},
	{
		"name": "ZIDUM",
		"latitude": "35-39-3.86 N",
		"longitude": "94-5-35.03 W",
		"state": "ARKANSAS",
		"artcc": "ZME",
		"type": "MR",
		"updated": "FSM*VORTAC*022.00/18.00",
	},
	{
		"name": "ZIFFO",
		"latitude": "35-25-9.52 N",
		"longitude": "89-0-18.55 W",
		"state": "TENNESSEE",
		"artcc": "ZME",
		"type": "RNAV",
		"updated": "04/01/2009",
	},
	{
		"name": "ZIGAS",
		"latitude": "33-14-8.44 N",
		"longitude": "91-37-58.09 W",
		"state": "ARKANSAS",
		"artcc": "ZME",
		"type": "RNAV",
		"updated": "02/28/2005",
	},
	{
		"name": "ZIGEL",
		"latitude": "32-50-6.43 N",
		"longitude": "90-27-29.22 W",
		"state": "MISSISSIPPI",
		"artcc": "ZME",
		"type": "RNAV",
		"updated": "11/21/2012",
	},
	{
		"name": "ZIGRI",
		"latitude": "36-6-2.24 N",
		"longitude": "86-30-18.39 W",
		"state": "TENNESSEE",
		"artcc": "ZME",
		"type": "RNAV",
		"updated": "08/08/2013",
	},
	{
		"name": "ZIGUN",
		"latitude": "36-2-35.44 N",
		"longitude": "85-32-30.26 W",
		"state": "TENNESSEE",
		"artcc": "ZME",
		"type": "RP",
		"updated": "SRB*LD*SW CRS/1.58",
	},
	{
		"name": "ZIKET",
		"latitude": "32-13-29.74 N",
		"longitude": "90-2-48.17 W",
		"state": "MISSISSIPPI",
		"artcc": "ZME",
		"type": "RP",
		"updated": "MHZ*VORTAC*168.83/12.81",
	},
	{
		"name": "ZIKIG",
		"latitude": "36-49-7.74 N",
		"longitude": "87-17-56.47 W",
		"state": "KENTUCKY",
		"artcc": "ZME",
		"type": "MR",
		"updated": "HXW*TACAN*047.88/14.00",
	},
	{
		"name": "ZIKJE",
		"latitude": "35-1-1.95 N",
		"longitude": "90-49-40.74 W",
		"state": "ARKANSAS",
		"artcc": "ZME",
		"type": "RNAV",
		"updated": "04/02/2014",
	},
	{
		"name": "ZIKOP",
		"latitude": "35-46-6.46 N",
		"longitude": "90-44-24.59 W",
		"state": "ARKANSAS",
		"artcc": "ZME",
		"type": "RNAV",
		"updated": "03/27/2011",
	},
	{
		"name": "ZIKUL",
		"latitude": "33-50-57.47 N",
		"longitude": "91-32-9.62 W",
		"state": "ARKANSAS",
		"artcc": "ZME",
		"type": "RNAV",
		"updated": "07/16/2013",
	},
	{
		"name": "ZILAK",
		"latitude": "33-50-13.09 N",
		"longitude": "88-29-40.05 W",
		"state": "MISSISSIPPI",
		"artcc": "ZME",
		"type": "RNAV",
		"updated": "04/17/2018",
	},
	{
		"name": "ZIMAG",
		"latitude": "34-16-46.76 N",
		"longitude": "88-46-22.14 W",
		"state": "MISSISSIPPI",
		"artcc": "ZME",
		"type": "RP",
		"updated": "OTB*VOR/DME*016.00/3.56",
	},
	{
		"name": "ZIMGA",
		"latitude": "32-47-34.65 N",
		"longitude": "88-41-52.71 W",
		"state": "MISSISSIPPI",
		"artcc": "ZME",
		"type": "MR",
		"updated": "NMM*TACAN*331.00/15.00",
	},
	{
		"name": "ZINTO",
		"latitude": "36-22-24.17 N",
		"longitude": "86-24-42.53 W",
		"state": "TENNESSEE",
		"artcc": "ZME",
		"type": "RNAV",
		"updated": "08/27/2003",
	},
	{
		"name": "ZINUM",
		"latitude": "36-11-31.43 N",
		"longitude": "86-39-26.21 W",
		"state": "TENNESSEE",
		"artcc": "ZME",
		"type": "RNAV",
		"updated": "06/03/2014",
	},
	{
		"name": "ZIPAP",
		"latitude": "36-9-0.51 N",
		"longitude": "87-42-50.15 W",
		"state": "TENNESSEE",
		"artcc": "ZME",
		"type": "RNAV",
		"updated": "05/02/2011",
	},
	{
		"name": "ZIPGI",
		"latitude": "32-27-11.92 N",
		"longitude": "90-29-34.85 W",
		"state": "MISSISSIPPI",
		"artcc": "ZME",
		"type": "RP",
		"updated": "MHZ*VORTAC*274.41/20.00",
	},
	{
		"name": "ZIPOP",
		"latitude": "34-54-57.38 N",
		"longitude": "85-39-51.98 W",
		"state": "ALABAMA",
		"artcc": "ZME",
		"type": "RNAV",
		"updated": "01/04/2007",
	},
	{
		"name": "ZIPRO",
		"latitude": "33-49-24.59 N",
		"longitude": "88-17-48.94 W",
		"state": "MISSISSIPPI",
		"artcc": "ZME",
		"type": "MR",
		"updated": "CBM*VORTAC*033.00/13.00",
	},
	{
		"name": "ZIPVA",
		"latitude": "36-2-16.46 N",
		"longitude": "91-51-19.22 W",
		"state": "ARKANSAS",
		"artcc": "ZME",
		"type": "RNAV",
		"updated": "01/07/2013",
	},
	{
		"name": "ZIRAL",
		"latitude": "36-15-10.81 N",
		"longitude": "86-44-22.24 W",
		"state": "TENNESSEE",
		"artcc": "ZME",
		"type": "RNAV",
		"updated": "05/06/2016",
	},
	{
		"name": "ZIRAS",
		"latitude": "36-48-46.49 N",
		"longitude": "87-42-24.77 W",
		"state": "KENTUCKY",
		"artcc": "ZME",
		"type": "RNAV",
		"updated": "10/03/2008",
	},
	{
		"name": "ZIRBO",
		"latitude": "33-17-5.27 N",
		"longitude": "88-1-13.79 W",
		"state": "ALABAMA",
		"artcc": "ZME",
		"type": "RNAV",
		"updated": "08/01/2012",
	},
	{
		"name": "ZIRIB",
		"latitude": "32-55-54.99 N",
		"longitude": "89-1-3.51 W",
		"state": "MISSISSIPPI",
		"artcc": "ZME",
		"type": "RNAV",
		"updated": "12/17/2015",
	},
	{
		"name": "ZIRPU",
		"latitude": "36-44-10.18 N",
		"longitude": "88-35-16.51 W",
		"state": "KENTUCKY",
		"artcc": "ZME",
		"type": "RNAV",
		"updated": "04/23/2013",
	},
	{
		"name": "ZIRUL",
		"latitude": "33-32-56.21 N",
		"longitude": "91-27-24.82 W",
		"state": "ARKANSAS",
		"artcc": "ZME",
		"type": "RP",
		"updated": "MON*VOR/DME*089.39/13.00",
	},
	{
		"name": "ZISGO",
		"latitude": "36-11-7.59 N",
		"longitude": "90-3-11.5 W",
		"state": "MISSOURI",
		"artcc": "ZME",
		"type": "RNAV",
		"updated": "01/27/2014",
	},
	{
		"name": "ZISOL",
		"latitude": "35-5-3.1 N",
		"longitude": "92-28-39.09 W",
		"state": "ARKANSAS",
		"artcc": "ZME",
		"type": "RNAV",
		"updated": "08/15/2014",
	},
	{
		"name": "ZITKU",
		"latitude": "37-10-36.97 N",
		"longitude": "87-46-25.75 W",
		"state": "KENTUCKY",
		"artcc": "ZME",
		"type": "RNAV",
		"updated": "06/06/2013",
	},
	{
		"name": "ZITPU",
		"latitude": "34-47-1.29 N",
		"longitude": "92-23-39.31 W",
		"state": "ARKANSAS",
		"artcc": "ZME",
		"type": "RNAV",
		"updated": "07/14/2008",
	},
	{
		"name": "ZITVI",
		"latitude": "36-51-58.77 N",
		"longitude": "87-24-4.4 W",
		"state": "KENTUCKY",
		"artcc": "ZME",
		"type": "RNAV",
		"updated": "01/22/2016",
	},
	{
		"name": "ZIVAT",
		"latitude": "37-13-33.45 N",
		"longitude": "88-56-56.51 W",
		"state": "KENTUCKY",
		"artcc": "ZME",
		"type": "RNAV",
		"updated": "06/21/2013",
	},
	{
		"name": "ZIVEP",
		"latitude": "34-27-5.63 N",
		"longitude": "86-55-56.33 W",
		"state": "ALABAMA",
		"artcc": "ZME",
		"type": "RNAV",
		"updated": "11/03/2014",
	},
	{
		"name": "ZIVEX",
		"latitude": "36-43-13.45 N",
		"longitude": "87-26-1.05 W",
		"state": "KENTUCKY",
		"artcc": "ZME",
		"type": "RNAV",
		"updated": "01/05/2006",
	},
	{
		"name": "ZIVNY",
		"latitude": "35-23-9.91 N",
		"longitude": "90-10-11.58 W",
		"state": "TENNESSEE",
		"artcc": "ZME",
		"type": "RP",
		"updated": "GQE*VOR/DME*077.12/15.31",
	},
	{
		"name": "ZOBMO",
		"latitude": "35-49-31.68 N",
		"longitude": "88-24-55.7 W",
		"state": "TENNESSEE",
		"artcc": "ZME",
		"type": "RNAV",
		"updated": "08/08/2013",
	},
	{
		"name": "ZODAR",
		"latitude": "33-55-17.06 N",
		"longitude": "88-13-13.48 W",
		"state": "ALABAMA",
		"artcc": "ZME",
		"type": "RNAV",
		"updated": "CBM*VORTAC*033.00/20.00",
	},
	{
		"name": "ZODEB",
		"latitude": "36-3-19.48 N",
		"longitude": "86-42-39.14 W",
		"state": "TENNESSEE",
		"artcc": "ZME",
		"type": "RNAV",
		"updated": "09/18/2012",
	},
	{
		"name": "ZODKA",
		"latitude": "36-6-18.1 N",
		"longitude": "86-33-45.27 W",
		"state": "TENNESSEE",
		"artcc": "ZME",
		"type": "RNAV",
		"updated": "09/10/2012",
	},
	{
		"name": "ZODUM",
		"latitude": "34-26-27.79 N",
		"longitude": "90-29-8.24 W",
		"state": "MISSISSIPPI",
		"artcc": "ZME",
		"type": "RNAV",
		"updated": "03/21/2011",
	},
	{
		"name": "ZOKAT",
		"latitude": "35-25-46.87 N",
		"longitude": "93-54-28.79 W",
		"state": "ARKANSAS",
		"artcc": "ZME",
		"type": "MR",
		"updated": "FSM*VORTAC*075.00/18.00",
	},
	{
		"name": "ZOKER",
		"latitude": "35-35-14.65 N",
		"longitude": "88-22-24.93 W",
		"state": "TENNESSEE",
		"artcc": "ZME",
		"type": "RNAV",
		"updated": "06/15/2012",
	},
	{
		"name": "ZOKIB",
		"latitude": "34-50-1.71 N",
		"longitude": "90-11-34.49 W",
		"state": "MISSISSIPPI",
		"artcc": "ZME",
		"type": "RP",
		"updated": "MEM*VORTAC*222.67/15.00",
	},
	{
		"name": "ZOKLU",
		"latitude": "32-19-50.32 N",
		"longitude": "90-54-49.73 W",
		"state": "LOUISIANA",
		"artcc": "ZME",
		"type": "RNAV",
		"updated": "11/06/2012",
	},
	{
		"name": "ZOKOB",
		"latitude": "37-16-39.31 N",
		"longitude": "87-3-42.26 W",
		"state": "KENTUCKY",
		"artcc": "ZME",
		"type": "RNAV",
		"updated": "04/25/2012",
	},
	{
		"name": "ZOKOL",
		"latitude": "35-15-22.76 N",
		"longitude": "86-46-59.59 W",
		"state": "TENNESSEE",
		"artcc": "ZME",
		"type": "RNAV",
		"updated": "08/08/2013",
	},
	{
		"name": "ZOKOR",
		"latitude": "35-15-38.35 N",
		"longitude": "90-8-0.9 W",
		"state": "TENNESSEE",
		"artcc": "ZME",
		"type": "RNAV",
		"updated": "06/12/2008",
	},
	{
		"name": "ZOKSI",
		"latitude": "33-26-0.92 N",
		"longitude": "88-0-0.63 W",
		"state": "ALABAMA",
		"artcc": "ZME",
		"type": "RNAV",
		"updated": "08/01/2012",
	},
	{
		"name": "ZOKUS",
		"latitude": "36-36-2.03 N",
		"longitude": "88-26-3.93 W",
		"state": "KENTUCKY",
		"artcc": "ZME",
		"type": "RNAV",
		"updated": "01/13/2017",
	},
	{
		"name": "ZOLOT",
		"latitude": "35-10-49.74 N",
		"longitude": "85-26-43.78 W",
		"state": "TENNESSEE",
		"artcc": "ZME",
		"type": "RNAV",
		"updated": "08/11/2005",
	},
	{
		"name": "ZOLTI",
		"latitude": "35-51-35.41 N",
		"longitude": "91-57-49.78 W",
		"state": "ARKANSAS",
		"artcc": "ZME",
		"type": "RNAV",
		"updated": "07/09/2007",
	},
	{
		"name": "ZOLUG",
		"latitude": "33-9-16.36 N",
		"longitude": "88-5-30.39 W",
		"state": "ALABAMA",
		"artcc": "ZME",
		"type": "RNAV",
		"updated": "02/25/2014",
	},
	{
		"name": "ZOMEX",
		"latitude": "36-12-20.33 N",
		"longitude": "86-32-36.79 W",
		"state": "TENNESSEE",
		"artcc": "ZME",
		"type": "RP",
		"updated": "BNA*VORTAC*061.00/8.00",
	},
	{
		"name": "ZOMTO",
		"latitude": "35-24-55.86 N",
		"longitude": "89-37-11.46 W",
		"state": "TENNESSEE",
		"artcc": "ZME",
		"type": "RNAV",
		"updated": "09/14/2009",
	},
	{
		"name": "ZOMXE",
		"latitude": "35-55-26.22 N",
		"longitude": "89-29-1.55 W",
		"state": "TENNESSEE",
		"artcc": "ZME",
		"type": "RNAV",
		"updated": "05/03/2011",
	},
	{
		"name": "ZONDA",
		"latitude": "33-40-12.73 N",
		"longitude": "88-47-48.65 W",
		"state": "MISSISSIPPI",
		"artcc": "ZME",
		"type": "RP",
		"updated": "IGB*VORTAC*304.00/18.00",
	},
	{
		"name": "ZONIL",
		"latitude": "34-15-40.39 N",
		"longitude": "88-46-27.89 W",
		"state": "MISSISSIPPI",
		"artcc": "ZME",
		"type": "RP",
		"updated": "OTB*VOR/DME*023.00/2.51",
	},
	{
		"name": "ZONUN",
		"latitude": "34-28-36.41 N",
		"longitude": "87-35-36.5 W",
		"state": "ALABAMA",
		"artcc": "ZME",
		"type": "RNAV",
		"updated": "07/12/2011",
	},
	{
		"name": "ZOOTS",
		"latitude": "32-45-54.53 N",
		"longitude": "88-30-49.65 W",
		"state": "MISSISSIPPI",
		"artcc": "ZME",
		"type": "MW",
		"updated": "09/16/2009",
	},
	{
		"name": "ZOPUK",
		"latitude": "35-48-39.44 N",
		"longitude": "86-32-16.65 W",
		"state": "TENNESSEE",
		"artcc": "ZME",
		"type": "RNAV",
		"updated": "08/08/2013",
	},
	{
		"name": "ZORAF",
		"latitude": "34-36-14.12 N",
		"longitude": "89-30-50.19 W",
		"state": "MISSISSIPPI",
		"artcc": "ZME",
		"type": "RP",
		"updated": "HLI*VORTAC*181.95/10.00",
	},
	{
		"name": "ZORGO",
		"latitude": "36-20-39.27 N",
		"longitude": "86-26-44.12 W",
		"state": "TENNESSEE",
		"artcc": "ZME",
		"type": "RP",
		"updated": "BNA*VORTAC*045.00/17.00",
	},
	{
		"name": "ZORIG",
		"latitude": "35-7-20.2 N",
		"longitude": "86-4-5.43 W",
		"state": "TENNESSEE",
		"artcc": "ZME",
		"type": "RNAV",
		"updated": "06/16/2008",
	},
	{
		"name": "ZOROT",
		"latitude": "32-16-56.97 N",
		"longitude": "88-45-47.41 W",
		"state": "MISSISSIPPI",
		"artcc": "ZME",
		"type": "RNAV",
		"updated": "07/05/2013",
	},
	{
		"name": "ZOSLO",
		"latitude": "33-38-27.85 N",
		"longitude": "88-49-0.66 W",
		"state": "MISSISSIPPI",
		"artcc": "ZME",
		"type": "RNAV",
		"updated": "02/09/2015",
	},
	{
		"name": "ZOTNO",
		"latitude": "37-11-13.44 N",
		"longitude": "89-35-6.22 W",
		"state": "MISSOURI",
		"artcc": "ZME",
		"type": "RP",
		"updated": "CGI*VOR/DME*196.04/2.50",
	},
	{
		"name": "ZOVID",
		"latitude": "36-44-59.91 N",
		"longitude": "86-43-33.59 W",
		"state": "KENTUCKY",
		"artcc": "ZME",
		"type": "RNAV",
		"updated": "08/22/2013",
	},
	{
		"name": "ZOVON",
		"latitude": "31-39-19.02 N",
		"longitude": "89-11-3.5 W",
		"state": "MISSISSIPPI",
		"artcc": "ZME",
		"type": "RP",
		"updated": "LBY*VORTAC*023.99/16.20",
	},
	{
		"name": "ZOVOR",
		"latitude": "34-11-40.55 N",
		"longitude": "86-56-9.75 W",
		"state": "ALABAMA",
		"artcc": "ZME",
		"type": "RNAV",
		"updated": "10/30/2014",
	},
	{
		"name": "ZOVPO",
		"latitude": "36-1-26.93 N",
		"longitude": "93-39-32.25 W",
		"state": "ARKANSAS",
		"artcc": "ZME",
		"type": "RNAV",
		"updated": "04/30/2013",
	},
	{
		"name": "ZOVRI",
		"latitude": "35-35-1.19 N",
		"longitude": "86-0-53.48 W",
		"state": "TENNESSEE",
		"artcc": "ZME",
		"type": "RNAV",
		"updated": "06/21/2013",
	},
	{
		"name": "ZOXUM",
		"latitude": "36-15-53.57 N",
		"longitude": "89-46-34.83 W",
		"state": "MISSOURI",
		"artcc": "ZME",
		"type": "RNAV",
		"updated": "03/19/2013",
	},
	{
		"name": "ZUBUK",
		"latitude": "33-43-57.08 N",
		"longitude": "90-4-51.76 W",
		"state": "MISSISSIPPI",
		"artcc": "ZME",
		"type": "RNAV",
		"updated": "01/25/2013",
	},
	{
		"name": "ZUDAG",
		"latitude": "36-6-38.28 N",
		"longitude": "85-29-1.7 W",
		"state": "TENNESSEE",
		"artcc": "ZME",
		"type": "RNAV",
		"updated": "12/08/2008",
	},
	{
		"name": "ZUGLI",
		"latitude": "36-13-9.46 N",
		"longitude": "86-35-28.63 W",
		"state": "TENNESSEE",
		"artcc": "ZME",
		"type": "RNAV",
		"updated": "06/03/2014",
	},
	{
		"name": "ZUGUB",
		"latitude": "37-2-54.08 N",
		"longitude": "89-39-22.58 W",
		"state": "MISSOURI",
		"artcc": "ZME",
		"type": "RNAV",
		"updated": "04/26/2013",
	},
	{
		"name": "ZUGUM",
		"latitude": "35-57-16.05 N",
		"longitude": "86-11-19.79 W",
		"state": "TENNESSEE",
		"artcc": "ZME",
		"type": "RNAV",
		"updated": "04/17/2013",
	},
	{
		"name": "ZUKAM",
		"latitude": "36-17-52.68 N",
		"longitude": "85-28-23.46 W",
		"state": "TENNESSEE",
		"artcc": "ZME",
		"type": "RNAV",
		"updated": "12/08/2008",
	},
	{
		"name": "ZUKNA",
		"latitude": "36-10-10.75 N",
		"longitude": "91-39-57.22 W",
		"state": "ARKANSAS",
		"artcc": "ZME",
		"type": "RNAV",
		"updated": "11/28/2016",
	},
	{
		"name": "ZULAD",
		"latitude": "34-41-50.08 N",
		"longitude": "92-14-58.15 W",
		"state": "ARKANSAS",
		"artcc": "ZME",
		"type": "RNAV",
		"updated": "01/03/2009",
	},
	{
		"name": "ZULEB",
		"latitude": "36-52-45.66 N",
		"longitude": "86-36-41.85 W",
		"state": "KENTUCKY",
		"artcc": "ZME",
		"type": "RNAV",
		"updated": "09/19/2017",
	},
	{
		"name": "ZULSO",
		"latitude": "34-10-25.57 N",
		"longitude": "92-59-7.09 W",
		"state": "ARKANSAS",
		"artcc": "ZME",
		"type": "RNAV",
		"updated": "09/17/2014",
	},
	{
		"name": "ZUMAV",
		"latitude": "35-8-56.09 N",
		"longitude": "86-34-15.32 W",
		"state": "TENNESSEE",
		"artcc": "ZME",
		"type": "RNAV",
		"updated": "05/06/2016",
	},
	{
		"name": "ZUMHA",
		"latitude": "34-29-15.05 N",
		"longitude": "88-46-13.44 W",
		"state": "MISSISSIPPI",
		"artcc": "ZME",
		"type": "RNAV",
		"updated": "01/27/2015",
	},
	{
		"name": "ZUMIT",
		"latitude": "35-10-54.87 N",
		"longitude": "90-48-42.54 W",
		"state": "ARKANSAS",
		"artcc": "ZME",
		"type": "RNAV",
		"updated": "12/17/2012",
	},
	{
		"name": "ZUNBA",
		"latitude": "37-8-14.52 N",
		"longitude": "88-51-14.33 W",
		"state": "KENTUCKY",
		"artcc": "ZME",
		"type": "RNAV",
		"updated": "06/21/2013",
	},
	{
		"name": "ZUNOG",
		"latitude": "32-17-14.77 N",
		"longitude": "88-45-43.98 W",
		"state": "MISSISSIPPI",
		"artcc": "ZME",
		"type": "RP",
		"updated": "MEI*VORTAC*153.57",
	},
	{
		"name": "ZUPGO",
		"latitude": "34-16-38.33 N",
		"longitude": "89-54-38.65 W",
		"state": "MISSISSIPPI",
		"artcc": "ZME",
		"type": "RNAV",
		"updated": "07/15/2013",
	},
	{
		"name": "ZUPIM",
		"latitude": "34-43-30.24 N",
		"longitude": "86-33-36.56 W",
		"state": "ALABAMA",
		"artcc": "ZME",
		"type": "RNAV",
		"updated": "10/31/2013",
	},
	{
		"name": "ZUPIN",
		"latitude": "35-2-40.12 N",
		"longitude": "89-59-14.4 W",
		"state": "TENNESSEE",
		"artcc": "ZME",
		"type": "RNAV",
		"updated": "05/28/2009",
	},
	{
		"name": "ZUPIS",
		"latitude": "34-44-28.16 N",
		"longitude": "89-8-24.09 W",
		"state": "MISSISSIPPI",
		"artcc": "ZME",
		"type": "RNAV",
		"updated": "08/20/2007",
	},
	{
		"name": "ZUPNA",
		"latitude": "34-59-22.34 N",
		"longitude": "87-21-13.06 W",
		"state": "ALABAMA",
		"artcc": "ZME",
		"type": "RNAV",
		"updated": "02/05/2014",
	},
	{
		"name": "ZUPTA",
		"latitude": "36-3-18.68 N",
		"longitude": "91-0-20.35 W",
		"state": "ARKANSAS",
		"artcc": "ZME",
		"type": "RNAV",
		"updated": "08/19/2011",
	},
	{
		"name": "ZURXU",
		"latitude": "33-24-15.71 N",
		"longitude": "88-46-3.97 W",
		"state": "MISSISSIPPI",
		"artcc": "ZME",
		"type": "RNAV",
		"updated": "11/01/2001",
	},
	{
		"name": "ZUTGY",
		"latitude": "35-12-44.39 N",
		"longitude": "86-24-48.2 W",
		"state": "TENNESSEE",
		"artcc": "ZME",
		"type": "RNAV",
		"updated": "02/03/2010",
	},
	{
		"name": "ZUTSI",
		"latitude": "32-12-51.17 N",
		"longitude": "90-1-24.61 W",
		"state": "MISSISSIPPI",
		"artcc": "ZME",
		"type": "RNAV",
		"updated": "07/18/2013",
	},
	{
		"name": "ZUVMA",
		"latitude": "35-13-4.04 N",
		"longitude": "92-28-34.63 W",
		"state": "ARKANSAS",
		"artcc": "ZME",
		"type": "RNAV",
		"updated": "12/27/2007",
	},
	{
		"name": "ZUXIL",
		"latitude": "33-55-38.64 N",
		"longitude": "88-19-51.62 W",
		"state": "MISSISSIPPI",
		"artcc": "ZME",
		"type": "RP",
		"updated": "IGB*VORTAC*015.00/28.00",
	},
