	{
		"name": "AACEZ",
		"latitude": "34-33-10 N",
		"longitude": "73-59-48 W",
		"state": "OFFSHORE ATLANTIC",
		"artcc": "ZDC",
		"type": "WP",
		"updated": "03/26/2002",
	},
	{
		"name": "AANNN",
		"latitude": "37-35-47 N",
		"longitude": "77-13-36.77 W",
		"state": "VIRGINIA",
		"artcc": "ZDC",
		"type": "RNAV",
		"updated": "06/11/2014",
	},
	{
		"name": "AANTS",
		"latitude": "38-43-7.16 N",
		"longitude": "78-27-45.53 W",
		"state": "VIRGINIA",
		"artcc": "ZDC",
		"type": "RP",
		"updated": "MRB*VORTAC*222.88/49.22",
	},
	{
		"name": "AAREN",
		"latitude": "36-30-39.69 N",
		"longitude": "78-57-28.25 W",
		"state": "NORTH CAROLINA",
		"artcc": "ZDC",
		"type": "RNAV",
		"updated": "11/21/2016",
	},
	{
		"name": "AAVVA",
		"latitude": "37-36-26.86 N",
		"longitude": "77-23-47.02 W",
		"state": "VIRGINIA",
		"artcc": "ZDC",
		"type": "RNAV",
		"updated": "06/11/2014",
	},
	{
		"name": "ACASU",
		"latitude": "37-8-11.98 N",
		"longitude": "80-14-7.91 W",
		"state": "VIRGINIA",
		"artcc": "ZDC",
		"type": "RNAV",
		"updated": "03/30/2009",
	},
	{
		"name": "ACCOM",
		"latitude": "37-34-16.77 N",
		"longitude": "75-48-4.68 W",
		"state": "VIRGINIA",
		"artcc": "ZDC",
		"type": "RNAV",
		"updated": "02/01/2016",
	},
	{
		"name": "ACELO",
		"latitude": "39-22-28.12 N",
		"longitude": "78-17-12.97 W",
		"state": "VIRGINIA",
		"artcc": "ZDC",
		"type": "RNAV",
		"updated": "05/14/2014",
	},
	{
		"name": "ACENO",
		"latitude": "35-19-2.84 N",
		"longitude": "78-51-23.1 W",
		"state": "NORTH CAROLINA",
		"artcc": "ZDC",
		"type": "MR",
		"updated": "POB*TACAN*049.00/12.00",
	},
	{
		"name": "ACILI",
		"latitude": "37-27-42.6 N",
		"longitude": "77-26-38.69 W",
		"state": "VIRGINIA",
		"artcc": "ZDC",
		"type": "RNAV",
		"updated": "06/11/2014",
	},
	{
		"name": "ACLIM",
		"latitude": "39-42-39.22 N",
		"longitude": "75-0-57.54 W",
		"state": "NEW JERSEY",
		"artcc": "ZDC",
		"type": "RNAV",
		"updated": "02/01/2007",
	},
	{
		"name": "ACOBI",
		"latitude": "38-55-23.65 N",
		"longitude": "78-14-0.4 W",
		"state": "VIRGINIA",
		"artcc": "ZDC",
		"type": "RNAV",
		"updated": "05/11/2007",
	},
	{
		"name": "ACORO",
		"latitude": "34-34-33.23 N",
		"longitude": "79-28-11.5 W",
		"state": "SOUTH CAROLINA",
		"artcc": "ZDC",
		"type": "RNAV",
		"updated": "06/03/2011",
	},
	{
		"name": "ACOSA",
		"latitude": "38-36-30.07 N",
		"longitude": "79-3-17.61 W",
		"state": "VIRGINIA",
		"artcc": "ZDC",
		"type": "RNAV",
		"updated": "07/13/2016",
	},
	{
		"name": "ACOTO",
		"latitude": "35-50-8.63 N",
		"longitude": "76-44-44.28 W",
		"state": "NORTH CAROLINA",
		"artcc": "ZDC",
		"type": "RNAV",
		"updated": "03/08/2007",
	},
	{
		"name": "ACROW",
		"latitude": "38-3-51.93 N",
		"longitude": "77-10-28.98 W",
		"state": "VIRGINIA",
		"artcc": "ZDC",
		"type": "RP",
		"updated": "RIC*VORTAC*020.57/34.39",
	},
	{
		"name": "ACUNO",
		"latitude": "36-51-22.96 N",
		"longitude": "76-14-12.27 W",
		"state": "VIRGINIA",
		"artcc": "ZDC",
		"type": "RP",
		"updated": "ORF*LD*226.79/3.88",
	},
	{
		"name": "ADACO",
		"latitude": "39-1-39.17 N",
		"longitude": "76-46-24.93 W",
		"state": "MARYLAND",
		"artcc": "ZDC",
		"type": "RNAV",
		"updated": "06/21/2012",
	},
	{
		"name": "ADAXE",
		"latitude": "38-54-2.61 N",
		"longitude": "77-4-5.22 W",
		"state": "DIST. OF COLUMBIA",
		"artcc": "ZDC",
		"type": "RNAV",
		"updated": "01/19/2011",
	},
	{
		"name": "ADCOK",
		"latitude": "39-13-16.34 N",
		"longitude": "76-41-41.56 W",
		"state": "MARYLAND",
		"artcc": "ZDC",
		"type": "RP",
		"updated": "BAL*VORTAC*/3.39",
	},
	{
		"name": "ADDAM",
		"latitude": "38-7-25.53 N",
		"longitude": "75-55-15.76 W",
		"state": "MARYLAND",
		"artcc": "ZDC",
		"type": "MR",
		"updated": "NHK*TACAN*122.00/25.00",
	},
	{
		"name": "ADDEK",
		"latitude": "38-40-21.67 N",
		"longitude": "77-24-26.92 W",
		"state": "VIRGINIA",
		"artcc": "ZDC",
		"type": "RNAV",
		"updated": "07/29/2010",
	},
	{
		"name": "ADDLY",
		"latitude": "35-21-34.35 N",
		"longitude": "79-13-59.55 W",
		"state": "NORTH CAROLINA",
		"artcc": "ZDC",
		"type": "RNAV",
		"updated": "12/19/2002",
	},
	{
		"name": "ADEEL",
		"latitude": "35-58-34.93 N",
		"longitude": "78-45-31.94 W",
		"state": "NORTH CAROLINA",
		"artcc": "ZDC",
		"type": "CN",
		"updated": "10/08/2010",
	},
	{
		"name": "ADEGE",
		"latitude": "35-22-7.01 N",
		"longitude": "79-1-41.18 W",
		"state": "NORTH CAROLINA",
		"artcc": "ZDC",
		"type": "MR",
		"updated": "POB*TACAN*005.00/12.00",
	},
	{
		"name": "ADINE",
		"latitude": "37-39-1.6 N",
		"longitude": "80-35-53.05 W",
		"state": "WEST VIRGINIA",
		"artcc": "ZDC",
		"type": "RP",
		"updated": "BKW*VOR/DME*113.12",
	},
	{
		"name": "ADIOS",
		"latitude": "38-27-25.13 N",
		"longitude": "78-42-10.61 W",
		"state": "VIRGINIA",
		"artcc": "ZDC",
		"type": "RNAV",
		"updated": "07/20/2009",
	},
	{
		"name": "ADOYU",
		"latitude": "39-8-43.63 N",
		"longitude": "75-27-49.84 W",
		"state": "DELAWARE",
		"artcc": "ZDC",
		"type": "MR",
		"updated": "DOV*TACAN*024.00/0.80",
	},
	{
		"name": "ADRRI",
		"latitude": "37-41-9.74 N",
		"longitude": "77-19-27.52 W",
		"state": "VIRGINIA",
		"artcc": "ZDC",
		"type": "MR",
		"updated": "RIC*VORTAC*008.00/11.01",
	},
	{
		"name": "ADUPE",
		"latitude": "39-31-35.71 N",
		"longitude": "77-22-57.54 W",
		"state": "MARYLAND",
		"artcc": "ZDC",
		"type": "RNAV",
		"updated": "01/23/2002",
	},
	{
		"name": "AFLAT",
		"latitude": "38-1-31.49 N",
		"longitude": "78-17-40.02 W",
		"state": "VIRGINIA",
		"artcc": "ZDC",
		"type": "RNAV",
		"updated": "10/18/2011",
	},
	{
		"name": "AFMUG",
		"latitude": "37-11-50.54 N",
		"longitude": "76-0-40.18 W",
		"state": "VIRGINIA",
		"artcc": "ZDC",
		"type": "MR",
		"updated": "LFI*TACAN*078.04/18.00",
	},
	{
		"name": "AFUWY",
		"latitude": "38-11-49.04 N",
		"longitude": "77-14-7.27 W",
		"state": "VIRGINIA",
		"artcc": "ZDC",
		"type": "CN",
		"updated": "03/09/2004",
	},
	{
		"name": "AGARD",
		"latitude": "39-2-36.89 N",
		"longitude": "76-4-11.14 W",
		"state": "MARYLAND",
		"artcc": "ZDC",
		"type": "RP",
		"updated": "SIE*VORTAC*276.40/59.40",
	},
	{
		"name": "AGENE",
		"latitude": "40-3-52.42 N",
		"longitude": "74-2-14.71 W",
		"state": "NEW JERSEY",
		"artcc": "ZNY",
		"type": "MW",
		"updated": "09/06/2017",
	},
	{
		"name": "AGIBE",
		"latitude": "38-56-51.65 N",
		"longitude": "75-23-26.63 W",
		"state": "DELAWARE",
		"artcc": "ZDC",
		"type": "MR",
		"updated": "ENO*VORTAC*170.00/18.00",
	},
	{
		"name": "AGLOW",
		"latitude": "37-25-11.51 N",
		"longitude": "79-11-30.09 W",
		"state": "VIRGINIA",
		"artcc": "ZDC",
		"type": "RNAV",
		"updated": "09/10/2012",
	},
	{
		"name": "AGNAS",
		"latitude": "34-58-40.16 N",
		"longitude": "78-28-10.25 W",
		"state": "NORTH CAROLINA",
		"artcc": "ZDC",
		"type": "RP",
		"updated": "FAY*VOR/DME*095.21/20.00",
	},
	{
		"name": "AGOLE",
		"latitude": "35-45-35.49 N",
		"longitude": "78-26-52.93 W",
		"state": "NORTH CAROLINA",
		"artcc": "ZDC",
		"type": "RNAV",
		"updated": "07/20/2010",
	},
	{
		"name": "AGUYA",
		"latitude": "37-2-35.68 N",
		"longitude": "77-19-5.56 W",
		"state": "VIRGINIA",
		"artcc": "ZDC",
		"type": "RNAV",
		"updated": "11/19/2012",
	},
	{
		"name": "AHAFY",
		"latitude": "37-59-22.87 N",
		"longitude": "79-45-14.34 W",
		"state": "VIRGINIA",
		"artcc": "ZDC",
		"type": "RNAV",
		"updated": "03/30/2010",
	},
	{
		"name": "AHAYY",
		"latitude": "36-56-19 N",
		"longitude": "72-52-58 W",
		"state": "OFFSHORE ATLANTIC",
		"artcc": "ZDC",
		"type": "WP",
		"updated": "03/26/2002",
	},
	{
		"name": "AHCIN",
		"latitude": "38-42-51.35 N",
		"longitude": "80-5-43.89 W",
		"state": "WEST VIRGINIA",
		"artcc": "ZDC",
		"type": "RP",
		"updated": "EKN*VORTAC*186.16/12.00",
	},
	{
		"name": "AHKEB",
		"latitude": "38-15-30.92 N",
		"longitude": "76-21-39.46 W",
		"state": "MARYLAND",
		"artcc": "ZDC",
		"type": "MW",
		"updated": "08/18/2010",
	},
	{
		"name": "AHLER",
		"latitude": "38-2-32.11 N",
		"longitude": "79-38-37.68 W",
		"state": "VIRGINIA",
		"artcc": "ZDC",
		"type": "RP",
		"updated": "MOL*VOR/DME*293.61/26.85",
	},
	{
		"name": "AHONE",
		"latitude": "37-29-2.5 N",
		"longitude": "78-4-18.41 W",
		"state": "VIRGINIA",
		"artcc": "ZDC",
		"type": "RNAV",
		"updated": "10/19/2015",
	},
	{
		"name": "AIMHI",
		"latitude": "36-16-26.4 N",
		"longitude": "78-24-45.91 W",
		"state": "NORTH CAROLINA",
		"artcc": "ZDC",
		"type": "RNAV",
		"updated": "11/07/2012",
	},
	{
		"name": "AIRLI",
		"latitude": "34-11-27.02 N",
		"longitude": "77-52-4.42 W",
		"state": "NORTH CAROLINA",
		"artcc": "ZDC",
		"type": "RNAV",
		"updated": "02/21/2014",
	},
	{
		"name": "AJDOV",
		"latitude": "34-40-40.46 N",
		"longitude": "77-47-28.47 W",
		"state": "NORTH CAROLINA",
		"artcc": "ZDC",
		"type": "RP",
		"updated": "OAJ*LD*232.39/13.50",
	},
	{
		"name": "AJIVA",
		"latitude": "36-47-5.91 N",
		"longitude": "76-34-40.27 W",
		"state": "VIRGINIA",
		"artcc": "ZDC",
		"type": "RNAV",
		"updated": "01/17/2018",
	},
	{
		"name": "AJVIW",
		"latitude": "35-47-13.57 N",
		"longitude": "78-48-52.57 W",
		"state": "NORTH CAROLINA",
		"artcc": "ZDC",
		"type": "CN",
		"updated": "07/20/2009",
	},
	{
		"name": "AJYUF",
		"latitude": "35-47-24.25 N",
		"longitude": "78-48-48.34 W",
		"state": "NORTH CAROLINA",
		"artcc": "ZDC",
		"type": "CN",
		"updated": "07/20/2009",
	},
	{
		"name": "AKEHU",
		"latitude": "35-51-27.23 N",
		"longitude": "78-53-45.63 W",
		"state": "NORTH CAROLINA",
		"artcc": "ZDC",
		"type": "CN",
		"updated": "07/22/2009",
	},
	{
		"name": "AKELE",
		"latitude": "39-50-24.19 N",
		"longitude": "74-48-56 W",
		"state": "NEW JERSEY",
		"artcc": "ZNY",
		"type": "RNAV",
		"updated": "01/26/2009",
	},
	{
		"name": "AKELL",
		"latitude": "38-32-4.23 N",
		"longitude": "78-17-43.8 W",
		"state": "VIRGINIA",
		"artcc": "ZDC",
		"type": "RNAV",
		"updated": "01/12/2015",
	},
	{
		"name": "AKIVE",
		"latitude": "34-57-9.88 N",
		"longitude": "78-23-56.02 W",
		"state": "NORTH CAROLINA",
		"artcc": "ZDC",
		"type": "RNAV",
		"updated": "03/11/2011",
	},
	{
		"name": "ALAMM",
		"latitude": "35-58-43.12 N",
		"longitude": "79-35-7.17 W",
		"state": "NORTH CAROLINA",
		"artcc": "ZDC",
		"type": "RNAV",
		"updated": "12/27/2013",
	},
	{
		"name": "ALARY",
		"latitude": "39-39-24 N",
		"longitude": "75-44-47 W",
		"state": "DELAWARE",
		"artcc": "ZDC",
		"type": "CN",
		"updated": "12/04/2014",
	},
	{
		"name": "ALDAN",
		"latitude": "36-23-52.56 N",
		"longitude": "78-56-2.86 W",
		"state": "NORTH CAROLINA",
		"artcc": "ZDC",
		"type": "RP",
		"updated": "LIB*VORTAC*046.00",
	},
	{
		"name": "ALEEX",
		"latitude": "38-59-2.29 N",
		"longitude": "77-9-30.51 W",
		"state": "MARYLAND",
		"artcc": "ZDC",
		"type": "RNAV",
		"updated": "03/11/2015",
	},
	{
		"name": "ALEWS",
		"latitude": "39-40-40.23 N",
		"longitude": "75-8-28.85 W",
		"state": "NEW JERSEY",
		"artcc": "ZDC",
		"type": "RP",
		"updated": "VCN*VOR/DME*326.19",
	},
	{
		"name": "ALEXA",
		"latitude": "34-58-51.87 N",
		"longitude": "78-37-54.21 W",
		"state": "NORTH CAROLINA",
		"artcc": "ZDC",
		"type": "RP",
		"updated": "FAY*VOR/DME*095.21/12.00",
	},
	{
		"name": "ALGEE",
		"latitude": "38-51-19.21 N",
		"longitude": "77-1-58.02 W",
		"state": "VIRGINIA",
		"artcc": "ZDC",
		"type": "WP",
		"updated": "DCA*VOR/DME*154.29/0.30",
	},
	{
		"name": "ALGTR",
		"latitude": "35-56-0.07 N",
		"longitude": "76-3-57.55 W",
		"state": "NORTH CAROLINA",
		"artcc": "ZDC",
		"type": "RP",
		"updated": "RBX*VOR/DME*280.56/18.00",
	},
	{
		"name": "ALGUY",
		"latitude": "34-33-8.6 N",
		"longitude": "77-26-11.77 W",
		"state": "NORTH CAROLINA",
		"artcc": "ZDC",
		"type": "RP",
		"updated": "NCA*LD*187.97/10.00",
	},
	{
		"name": "ALLAH",
		"latitude": "39-43-33.11 N",
		"longitude": "78-25-13.8 W",
		"state": "PENNSYLVANIA",
		"artcc": "ZDC",
		"type": "RNAV",
		"updated": "02/23/2017",
	},
	{
		"name": "ALLJO",
		"latitude": "38-57-34.48 N",
		"longitude": "77-32-45.36 W",
		"state": "VIRGINIA",
		"artcc": "ZDC",
		"type": "RP",
		"updated": "AML*VOR/DME*300.01/4.00",
	},
	{
		"name": "ALMAT",
		"latitude": "39-21-49.66 N",
		"longitude": "75-3-59.06 W",
		"state": "NEW JERSEY",
		"artcc": "ZDC",
		"type": "RNAV",
		"updated": "VCN*VOR/DME*213.90/11.40",
	},
	{
		"name": "ALWYZ",
		"latitude": "38-59-0.66 N",
		"longitude": "77-39-16.54 W",
		"state": "VIRGINIA",
		"artcc": "ZDC",
		"type": "RP",
		"updated": "AML*VOR/DME*296.50/9.27",
	},
	{
		"name": "AMBOG",
		"latitude": "35-55-23.27 N",
		"longitude": "79-10-21.7 W",
		"state": "NORTH CAROLINA",
		"artcc": "ZDC",
		"type": "WP",
		"updated": "10/30/2013",
	},
	{
		"name": "AMBRY",
		"latitude": "36-52-3.21 N",
		"longitude": "76-33-8.03 W",
		"state": "VIRGINIA",
		"artcc": "ZDC",
		"type": "RNAV",
		"updated": "05/03/2018",
	},
	{
		"name": "AMETE",
		"latitude": "36-50-42.46 N",
		"longitude": "76-38-58.36 W",
		"state": "VIRGINIA",
		"artcc": "ZDC",
		"type": "RNAV",
		"updated": "01/11/2018",
	},
	{
		"name": "AMIPE",
		"latitude": "39-27-51.05 N",
		"longitude": "74-34-22.95 W",
		"state": "NEW JERSEY",
		"artcc": "ZDC",
		"type": "RP",
		"updated": "ACY*VORTAC*027.00/0.52",
	},
	{
		"name": "AMIRS",
		"latitude": "35-32-45.8 N",
		"longitude": "79-7-6.37 W",
		"state": "NORTH CAROLINA",
		"artcc": "ZDC",
		"type": "RP",
		"updated": "TTA*LD*209.01/3.03",
	},
	{
		"name": "AMOKY",
		"latitude": "38-50-42.81 N",
		"longitude": "77-21-24.52 W",
		"state": "VIRGINIA",
		"artcc": "ZDC",
		"type": "MW",
		"updated": "04/26/2010",
	},
	{
		"name": "AMORT",
		"latitude": "35-50-53.32 N",
		"longitude": "78-49-3.66 W",
		"state": "NORTH CAROLINA",
		"artcc": "ZDC",
		"type": "RP",
		"updated": "RDU*LD*234.14/2.79",
	},
	{
		"name": "AMRTN",
		"latitude": "38-53-4.27 N",
		"longitude": "76-19-57.55 W",
		"state": "MARYLAND",
		"artcc": "ZDC",
		"type": "RNAV",
		"updated": "10/19/2015",
	},
	{
		"name": "AMRUW",
		"latitude": "34-41-33.49 N",
		"longitude": "77-26-12.09 W",
		"state": "NORTH CAROLINA",
		"artcc": "ZDC",
		"type": "MR",
		"updated": "NCA*LD*187.97/1.60",
	},
	{
		"name": "AMZAF",
		"latitude": "34-55-29.19 N",
		"longitude": "78-2-56.24 W",
		"state": "NORTH CAROLINA",
		"artcc": "ZDC",
		"type": "RNAV",
		"updated": "05/23/2011",
	},
	{
		"name": "ANABL",
		"latitude": "39-30-15.98 N",
		"longitude": "74-43-34.12 W",
		"state": "NEW JERSEY",
		"artcc": "ZDC",
		"type": "WP",
		"updated": "05/24/2012",
	},
	{
		"name": "ANAYA",
		"latitude": "39-6-40.05 N",
		"longitude": "76-3-39.74 W",
		"state": "MARYLAND",
		"artcc": "ZDC",
		"type": "RNAV",
		"updated": "04/16/2003",
	},
	{
		"name": "ANCRR",
		"latitude": "39-1-52.15 N",
		"longitude": "76-43-43.6 W",
		"state": "MARYLAND",
		"artcc": "ZDC",
		"type": "RNAV",
		"updated": "12/29/2014",
	},
	{
		"name": "ANDHW",
		"latitude": "39-50-32.33 N",
		"longitude": "75-22-3.36 W",
		"state": "PENNSYLVANIA",
		"artcc": "ZDC",
		"type": "RNAV",
		"updated": "07/09/2009",
	},
	{
		"name": "ANECU",
		"latitude": "38-53-37.79 N",
		"longitude": "77-38-29.82 W",
		"state": "VIRGINIA",
		"artcc": "ZDC",
		"type": "RNAV",
		"updated": "09/08/2003",
	},
	{
		"name": "ANERE",
		"latitude": "39-1-36.82 N",
		"longitude": "75-25-27.18 W",
		"state": "DELAWARE",
		"artcc": "ZDC",
		"type": "RP",
		"updated": "ENO*VORTAC*169.73/13.00",
	},
	{
		"name": "ANJIL",
		"latitude": "36-47-15.79 N",
		"longitude": "74-8-55.92 W",
		"state": "OFFSHORE ATLANTIC",
		"artcc": "ZDC",
		"type": "MR",
		"updated": "ORF*VORTAC*100.00/99.00",
	},
	{
		"name": "ANNAS",
		"latitude": "37-47-30.45 N",
		"longitude": "77-29-6.08 W",
		"state": "VIRGINIA",
		"artcc": "ZDC",
		"type": "RP",
		"updated": "FAK*VORTAC*051.92",
	},
	{
		"name": "ANNET",
		"latitude": "39-50-32.65 N",
		"longitude": "75-23-12.61 W",
		"state": "PENNSYLVANIA",
		"artcc": "ZDC",
		"type": "RP",
		"updated": "OOD*VORTAC*352.65",
	},
	{
		"name": "ANNGE",
		"latitude": "39-2-10.39 N",
		"longitude": "77-11-21.83 W",
		"state": "MARYLAND",
		"artcc": "ZDC",
		"type": "RP",
		"updated": "ENO*VORTAC*271.00/79.00",
	},
	{
		"name": "ANTHM",
		"latitude": "39-26-47.56 N",
		"longitude": "77-21-47.67 W",
		"state": "MARYLAND",
		"artcc": "ZDC",
		"type": "RNAV",
		"updated": "09/23/2014",
	},
	{
		"name": "ANTNY",
		"latitude": "38-25-40.44 N",
		"longitude": "77-33-17.75 W",
		"state": "VIRGINIA",
		"artcc": "ZDC",
		"type": "RP",
		"updated": "BRV*VORTAC*309.01/11.00",
	},
	{
		"name": "ANUNE",
		"latitude": "36-20-5.96 N",
		"longitude": "76-12-49.12 W",
		"state": "NORTH CAROLINA",
		"artcc": "ZDC",
		"type": "RNAV",
		"updated": "01/10/2018",
	},
	{
		"name": "ANYAB",
		"latitude": "38-42-38.31 N",
		"longitude": "77-30-34.29 W",
		"state": "VIRGINIA",
		"artcc": "ZDC",
		"type": "RNAV",
		"updated": "11/03/2015",
	},
	{
		"name": "APADE",
		"latitude": "38-19-14.02 N",
		"longitude": "76-46-4.91 W",
		"state": "MARYLAND",
		"artcc": "ZDC",
		"type": "RNAV",
		"updated": "01/24/2002",
	},
	{
		"name": "APANE",
		"latitude": "39-20-26.53 N",
		"longitude": "76-33-34.72 W",
		"state": "MARYLAND",
		"artcc": "ZDC",
		"type": "RNAV",
		"updated": "05/20/2009",
	},
	{
		"name": "APICE",
		"latitude": "34-46-22.44 N",
		"longitude": "79-23-37.42 W",
		"state": "NORTH CAROLINA",
		"artcc": "ZDC",
		"type": "RNAV",
		"updated": "06/03/2011",
	},
	{
		"name": "APIGY",
		"latitude": "37-32-53.56 N",
		"longitude": "78-5-20.34 W",
		"state": "VIRGINIA",
		"artcc": "ZDC",
		"type": "RNAV",
		"updated": "03/16/2010",
	},
	{
		"name": "APOYU",
		"latitude": "36-55-31.79 N",
		"longitude": "77-49-6.79 W",
		"state": "VIRGINIA",
		"artcc": "ZDC",
		"type": "RNAV",
		"updated": "07/28/2016",
	},
	{
		"name": "APUCU",
		"latitude": "35-55-39.73 N",
		"longitude": "78-43-9.77 W",
		"state": "NORTH CAROLINA",
		"artcc": "ZDC",
		"type": "RP",
		"updated": "LEI*LD*054.15/5.51",
	},
	{
		"name": "APUSE",
		"latitude": "38-14-31.32 N",
		"longitude": "78-23-58.28 W",
		"state": "VIRGINIA",
		"artcc": "ZDC",
		"type": "RNAV",
		"updated": "05/31/2013",
	},
	{
		"name": "ARCCO",
		"latitude": "35-32-57.52 N",
		"longitude": "77-23-53.7 W",
		"state": "NORTH CAROLINA",
		"artcc": "ZDC",
		"type": "RNAV",
		"updated": "11/30/2015",
	},
	{
		"name": "ARCUM",
		"latitude": "40-1-26.4 N",
		"longitude": "75-20-53.68 W",
		"state": "PENNSYLVANIA",
		"artcc": "ZDC",
		"type": "RNAV",
		"updated": "06/08/2011",
	},
	{
		"name": "ARDEB",
		"latitude": "36-35-34.19 N",
		"longitude": "76-23-18.34 W",
		"state": "VIRGINIA",
		"artcc": "ZDC",
		"type": "RNAV",
		"updated": "07/13/2011",
	},
	{
		"name": "AREDE",
		"latitude": "34-18-9.07 N",
		"longitude": "77-55-8.02 W",
		"state": "NORTH CAROLINA",
		"artcc": "ZDC",
		"type": "RNAV",
		"updated": "11/06/2015",
	},
	{
		"name": "AREKE",
		"latitude": "38-47-50.75 N",
		"longitude": "76-51-48.89 W",
		"state": "MARYLAND",
		"artcc": "ZDC",
		"type": "MR",
		"updated": "ADW*VORTAC*177.93/0.60",
	},
	{
		"name": "ARELE",
		"latitude": "35-52-46.95 N",
		"longitude": "77-52-14.56 W",
		"state": "NORTH CAROLINA",
		"artcc": "ZDC",
		"type": "RNAV",
		"updated": "10/29/2013",
	},
	{
		"name": "AREVE",
		"latitude": "36-42-41.16 N",
		"longitude": "80-12-20.17 W",
		"state": "VIRGINIA",
		"artcc": "ZDC",
		"type": "RNAV",
		"updated": "08/17/2010",
	},
	{
		"name": "ARGAL",
		"latitude": "36-10-16.63 N",
		"longitude": "78-9-55.31 W",
		"state": "NORTH CAROLINA",
		"artcc": "ZDC",
		"type": "RP",
		"updated": "TYI*VORTAC*302.57/25.30",
	},
	{
		"name": "ARIAN",
		"latitude": "40-16-6.77 N",
		"longitude": "74-25-29.32 W",
		"state": "NEW JERSEY",
		"artcc": "ZDC",
		"type": "RNAV",
		"updated": "07/07/2009",
	},
	{
		"name": "ARICE",
		"latitude": "37-41-19.65 N",
		"longitude": "75-44-32.37 W",
		"state": "VIRGINIA",
		"artcc": "ZDC",
		"type": "RP",
		"updated": "CCV*VORTAC*040.72/23.81",
	},
	{
		"name": "ARKAY",
		"latitude": "39-8-48.96 N",
		"longitude": "77-27-24.32 W",
		"state": "MARYLAND",
		"artcc": "ZDC",
		"type": "RP",
		"updated": "AML*VOR/DME*/12.74",
	},
	{
		"name": "ARMEL",
		"latitude": "38-56-4.49 N",
		"longitude": "77-28-0.16 W",
		"state": "VIRGINIA",
		"artcc": "ZDC",
		"type": "WP",
		"updated": "CSN*VORTAC*052.65/25.68",
	},
	{
		"name": "ARODR",
		"latitude": "39-5-22.51 N",
		"longitude": "76-3-5.54 W",
		"state": "MARYLAND",
		"artcc": "ZDC",
		"type": "WP",
		"updated": "11/02/2011",
	},
	{
		"name": "ARUYE",
		"latitude": "38-35-23.25 N",
		"longitude": "76-33-20.57 W",
		"state": "MARYLAND",
		"artcc": "ZDC",
		"type": "RP",
		"updated": "OTT*VORTAC*138.00/11.29",
	},
	{
		"name": "ARVON",
		"latitude": "37-41-13.95 N",
		"longitude": "78-21-58.75 W",
		"state": "VIRGINIA",
		"artcc": "ZDC",
		"type": "RP",
		"updated": "MOL*VOR/DME*114.72",
	},
	{
		"name": "ASALE",
		"latitude": "39-39-30.75 N",
		"longitude": "75-50-43.13 W",
		"state": "MARYLAND",
		"artcc": "ZDC",
		"type": "RP",
		"updated": "ENO*VORTAC*338.21",
	},
	{
		"name": "ASASY",
		"latitude": "38-29-43.84 N",
		"longitude": "78-59-10.67 W",
		"state": "VIRGINIA",
		"artcc": "ZDC",
		"type": "RNAV",
		"updated": "01/30/2001",
	},
	{
		"name": "ASBUR",
		"latitude": "37-49-24.41 N",
		"longitude": "80-27-51.44 W",
		"state": "WEST VIRGINIA",
		"artcc": "ZDC",
		"type": "RP",
		"updated": "BKW*VOR/DME*091.08/31.45",
	},
	{
		"name": "ASEDY",
		"latitude": "39-53-38.71 N",
		"longitude": "75-1-3.71 W",
		"state": "NEW JERSEY",
		"artcc": "ZDC",
		"type": "RNAV",
		"updated": "06/29/2011",
	},
	{
		"name": "ASGEW",
		"latitude": "39-54-11.93 N",
		"longitude": "75-3-40.59 W",
		"state": "NEW JERSEY",
		"artcc": "ZDC",
		"type": "RNAV",
		"updated": "07/09/2009",
	},
	{
		"name": "ASGOF",
		"latitude": "38-30-31.27 N",
		"longitude": "78-47-10.42 W",
		"state": "VIRGINIA",
		"artcc": "ZDC",
		"type": "RNAV",
		"updated": "07/20/2009",
	},
	{
		"name": "ASHGP",
		"latitude": "39-1-55.5 N",
		"longitude": "77-56-0.84 W",
		"state": "VIRGINIA",
		"artcc": "ZDC",
		"type": "MR",
		"updated": "LDN*VORTAC*056.00/16.60",
	},
	{
		"name": "ASHLN",
		"latitude": "39-15-14.68 N",
		"longitude": "78-18-35.11 W",
		"state": "VIRGINIA",
		"artcc": "ZDC",
		"type": "RNAV",
		"updated": "12/15/2014",
	},
	{
		"name": "ASHOR",
		"latitude": "39-13-31.64 N",
		"longitude": "76-24-18.55 W",
		"state": "MARYLAND",
		"artcc": "ZDC",
		"type": "RNAV",
		"updated": "08/12/2015",
	},
	{
		"name": "ASIGY",
		"latitude": "39-42-50.61 N",
		"longitude": "75-40-33.41 W",
		"state": "DELAWARE",
		"artcc": "ZDC",
		"type": "RNAV",
		"updated": "09/28/2010",
	},
	{
		"name": "ASIZE",
		"latitude": "38-17-39.25 N",
		"longitude": "76-25-39.82 W",
		"state": "MARYLAND",
		"artcc": "ZDC",
		"type": "RNAV",
		"updated": "07/10/2017",
	},
	{
		"name": "ASMUW",
		"latitude": "38-32-40.45 N",
		"longitude": "75-51-27.69 W",
		"state": "MARYLAND",
		"artcc": "ZDC",
		"type": "RNAV",
		"updated": "09/27/2010",
	},
	{
		"name": "ASNAY",
		"latitude": "37-47-4.66 N",
		"longitude": "77-29-32.61 W",
		"state": "VIRGINIA",
		"artcc": "ZDC",
		"type": "RP",
		"updated": "FAK*VORTAC*052.09",
	},
	{
		"name": "ASOCI",
		"latitude": "39-49-13.25 N",
		"longitude": "75-28-36.42 W",
		"state": "DELAWARE",
		"artcc": "ZDC",
		"type": "RP",
		"updated": "MXE*VORTAC*132.10",
	},
	{
		"name": "ASODY",
		"latitude": "34-40-21.34 N",
		"longitude": "79-38-15.42 W",
		"state": "SOUTH CAROLINA",
		"artcc": "ZDC",
		"type": "RNAV",
		"updated": "06/08/2010",
	},
	{
		"name": "ASPER",
		"latitude": "39-8-30.89 N",
		"longitude": "77-18-0.89 W",
		"state": "MARYLAND",
		"artcc": "ZDC",
		"type": "RP",
		"updated": "BAL*VORTAC*277.85",
	},
	{
		"name": "ASUSE",
		"latitude": "40-2-48.47 N",
		"longitude": "74-58-32.14 W",
		"state": "NEW JERSEY",
		"artcc": "ZDC",
		"type": "RNAV",
		"updated": "01/26/2012",
	},
	{
		"name": "ATCOT",
		"latitude": "39-41-15.34 N",
		"longitude": "74-57-25.48 W",
		"state": "NEW JERSEY",
		"artcc": "ZDC",
		"type": "RP",
		"updated": "VCN*VOR/DME*012.97/9.00",
	},
	{
		"name": "ATEPY",
		"latitude": "34-50-24.23 N",
		"longitude": "78-7-28.02 W",
		"state": "NORTH CAROLINA",
		"artcc": "ZDC",
		"type": "RNAV",
		"updated": "05/23/2011",
	},
	{
		"name": "ATIBY",
		"latitude": "38-31-34.56 N",
		"longitude": "78-6-52.94 W",
		"state": "VIRGINIA",
		"artcc": "ZDC",
		"type": "RNAV",
		"updated": "01/30/2001",
	},
	{
		"name": "ATIKE",
		"latitude": "38-11-30.01 N",
		"longitude": "79-3-0.56 W",
		"state": "VIRGINIA",
		"artcc": "ZDC",
		"type": "RNAV",
		"updated": "01/30/2001",
	},
	{
		"name": "ATIRE",
		"latitude": "38-27-26.2 N",
		"longitude": "77-19-6.61 W",
		"state": "VIRGINIA",
		"artcc": "ZDC",
		"type": "MW",
		"updated": "08/02/2016",
	},
	{
		"name": "ATLIC",
		"latitude": "36-55-3.84 N",
		"longitude": "75-12-47.13 W",
		"state": "OFFSHORE ATLANTIC",
		"artcc": "ZDC",
		"type": "RP",
		"updated": "02/08/1991",
	},
	{
		"name": "ATTEN",
		"latitude": "35-3-34.44 N",
		"longitude": "79-59-33.9 W",
		"state": "NORTH CAROLINA",
		"artcc": "ZDC",
		"type": "RP",
		"updated": "SDZ*VORTAC*248.00/22.00",
	},
	{
		"name": "ATUYI",
		"latitude": "37-20-30.52 N",
		"longitude": "76-43-46.77 W",
		"state": "VIRGINIA",
		"artcc": "ZDC",
		"type": "RNAV",
		"updated": "01/10/2018",
	},
	{
		"name": "ATWEL",
		"latitude": "38-59-17.98 N",
		"longitude": "75-28-20.28 W",
		"state": "DELAWARE",
		"artcc": "ZDC",
		"type": "RP",
		"updated": "ENO*VORTAC*181.04/14.73",
	},
	{
		"name": "ATWUR",
		"latitude": "41-31-28.07 N",
		"longitude": "79-40-0.76 W",
		"state": "PENNSYLVANIA",
		"artcc": "ZDC",
		"type": "RNAV",
		"updated": "08/24/2001",
	},
	{
		"name": "AUDII",
		"latitude": "36-12-7.71 N",
		"longitude": "78-48-36.26 W",
		"state": "NORTH CAROLINA",
		"artcc": "ZDC",
		"type": "RNAV",
		"updated": "03/31/2016",
	},
	{
		"name": "AVADY",
		"latitude": "38-12-30.64 N",
		"longitude": "78-9-16.38 W",
		"state": "VIRGINIA",
		"artcc": "ZDC",
		"type": "RNAV",
		"updated": "04/18/2014",
	},
	{
		"name": "AVALO",
		"latitude": "39-16-54.52 N",
		"longitude": "74-30-50.75 W",
		"state": "NEW JERSEY",
		"artcc": "ZDC",
		"type": "RP",
		"updated": "SIE*VORTAC*059.00/17.41",
	},
	{
		"name": "AVOLE",
		"latitude": "38-56-19.97 N",
		"longitude": "77-7-34.19 W",
		"state": "VIRGINIA",
		"artcc": "ZDC",
		"type": "RNAV",
		"updated": "07/15/2015",
	},
	{
		"name": "AVUTE",
		"latitude": "35-40-18.39 N",
		"longitude": "77-16-52.39 W",
		"state": "NORTH CAROLINA",
		"artcc": "ZDC",
		"type": "RNAV",
		"updated": "02/03/2009",
	},
	{
		"name": "AWFUL",
		"latitude": "38-27-18.35 N",
		"longitude": "77-6-45.49 W",
		"state": "MARYLAND",
		"artcc": "ZDC",
		"type": "RNAV",
		"updated": "03/17/2016",
	},
	{
		"name": "AWGUS",
		"latitude": "35-19-41.92 N",
		"longitude": "79-10-0.02 W",
		"state": "NORTH CAROLINA",
		"artcc": "ZDC",
		"type": "MR",
		"updated": "POB*TACAN*330.00/12.00",
	},
	{
		"name": "AWINN",
		"latitude": "39-38-20.46 N",
		"longitude": "75-51-5.15 W",
		"state": "MARYLAND",
		"artcc": "ZDC",
		"type": "RNAV",
		"updated": "09/11/2009",
	},
	{
		"name": "AXASE",
		"latitude": "38-6-13.73 N",
		"longitude": "75-19-48.29 W",
		"state": "MARYLAND",
		"artcc": "ZDC",
		"type": "RNAV",
		"updated": "08/15/2013",
	},
	{
		"name": "AXILE",
		"latitude": "35-8-45.91 N",
		"longitude": "78-41-6.76 W",
		"state": "NORTH CAROLINA",
		"artcc": "ZDC",
		"type": "MW",
		"updated": "02/08/2010",
	},
	{
		"name": "AXJAB",
		"latitude": "34-32-27.84 N",
		"longitude": "79-8-38.37 W",
		"state": "NORTH CAROLINA",
		"artcc": "ZDC",
		"type": "RNAV",
		"updated": "07/21/2011",
	},
	{
		"name": "AXJED",
		"latitude": "37-16-31.98 N",
		"longitude": "80-27-20.86 W",
		"state": "VIRGINIA",
		"artcc": "ZDC",
		"type": "RNAV",
		"updated": "04/14/2011",
	},
	{
		"name": "AYARA",
		"latitude": "37-3-40.36 N",
		"longitude": "79-31-24.92 W",
		"state": "VIRGINIA",
		"artcc": "ZDC",
		"type": "RP",
		"updated": "LYH*VORTAC*235.00/18.00",
	},
	{
		"name": "AYCEE",
		"latitude": "39-57-10.37 N",
		"longitude": "74-15-30.65 W",
		"state": "NEW JERSEY",
		"artcc": "ZNY",
		"type": "RP",
		"updated": "CYN*VORTAC*054.48/11.40",
	},
	{
		"name": "AYDEE",
		"latitude": "37-33-59.69 N",
		"longitude": "77-14-21.25 W",
		"state": "VIRGINIA",
		"artcc": "ZDC",
		"type": "RNAV",
		"updated": "06/11/2014",
	},
	{
		"name": "AYETI",
		"latitude": "38-29-21.71 N",
		"longitude": "77-18-34.84 W",
		"state": "VIRGINIA",
		"artcc": "ZDC",
		"type": "MR",
		"updated": "BRV*VORTAC*022.00/9.40",
	},
	{
		"name": "AYIVI",
		"latitude": "35-45-42.73 N",
		"longitude": "78-12-45.71 W",
		"state": "NORTH CAROLINA",
		"artcc": "ZDC",
		"type": "RNAV",
		"updated": "09/30/2013",
	},
	{
		"name": "AZLOM",
		"latitude": "38-57-27.18 N",
		"longitude": "76-13-27.24 W",
		"state": "MARYLAND",
		"artcc": "ZDC",
		"type": "RNAV",
		"updated": "11/14/2016",
	},
	{
		"name": "AZMIN",
		"latitude": "35-51-14.86 N",
		"longitude": "78-53-47.91 W",
		"state": "NORTH CAROLINA",
		"artcc": "ZDC",
		"type": "CN",
		"updated": "07/21/2009",
	},
	{
		"name": "AZXEW",
		"latitude": "39-16-13.31 N",
		"longitude": "74-46-7.38 W",
		"state": "NEW JERSEY",
		"artcc": "ZDC",
		"type": "RP",
		"updated": "VCN*VOR/DME*160.00",
	},
