	{
		"name": "BAAAM",
		"latitude": "38-49-55.01 N",
		"longitude": "77-7-3.26 W",
		"state": "VIRGINIA",
		"artcc": "ZDC",
		"type": "RNAV",
		"updated": "01/09/2015",
	},
	{
		"name": "BAABS",
		"latitude": "39-19-51.39 N",
		"longitude": "76-24-40.87 W",
		"state": "MARYLAND",
		"artcc": "ZDC",
		"type": "RNAV",
		"updated": "07/01/2013",
	},
	{
		"name": "BAAGN",
		"latitude": "36-57-7.78 N",
		"longitude": "76-8-39.23 W",
		"state": "VIRGINIA",
		"artcc": "ZDC",
		"type": "RNAV",
		"updated": "12/07/2017",
	},
	{
		"name": "BAATI",
		"latitude": "39-39-42.08 N",
		"longitude": "77-56-0.3 W",
		"state": "MARYLAND",
		"artcc": "ZDC",
		"type": "RNAV",
		"updated": "02/23/2017",
	},
	{
		"name": "BAATT",
		"latitude": "36-53-51 N",
		"longitude": "75-59-34 W",
		"state": "OFFSHORE ATLANTIC",
		"artcc": "ZDC",
		"type": "RNAV",
		"updated": "04/10/2018",
	},
	{
		"name": "BAAYY",
		"latitude": "36-48-12 N",
		"longitude": "75-20-6.71 W",
		"state": "OFFSHORE ATLANTIC",
		"artcc": "ZDC",
		"type": "MR",
		"updated": "ORF*VORTAC*104.00/42.00",
	},
	{
		"name": "BACAN",
		"latitude": "34-47-18.12 N",
		"longitude": "79-14-24.65 W",
		"state": "NORTH CAROLINA",
		"artcc": "ZDC",
		"type": "RNAV",
		"updated": "07/18/2011",
	},
	{
		"name": "BADAD",
		"latitude": "34-27-20.01 N",
		"longitude": "77-30-11.26 W",
		"state": "NORTH CAROLINA",
		"artcc": "ZDC",
		"type": "MW",
		"updated": "12/16/2014",
	},
	{
		"name": "BADDN",
		"latitude": "38-45-41.05 N",
		"longitude": "77-1-43.22 W",
		"state": "MARYLAND",
		"artcc": "ZDC",
		"type": "RP",
		"updated": "DCA*VOR/DME*185.45/5.89",
	},
	{
		"name": "BAFIL",
		"latitude": "38-43-27.81 N",
		"longitude": "76-51-13.13 W",
		"state": "MARYLAND",
		"artcc": "ZDC",
		"type": "MR",
		"updated": "ADW*VORTAC*183.20/5.00",
	},
	{
		"name": "BAINS",
		"latitude": "39-38-18.97 N",
		"longitude": "75-54-51.72 W",
		"state": "MARYLAND",
		"artcc": "ZDC",
		"type": "RP",
		"updated": "ENO*VORTAC*331.92",
	},
	{
		"name": "BAIRR",
		"latitude": "37-20-53.26 N",
		"longitude": "77-19-1.63 W",
		"state": "VIRGINIA",
		"artcc": "ZDC",
		"type": "RNAV",
		"updated": "06/11/2014",
	},
	{
		"name": "BALDN",
		"latitude": "39-51-7.25 N",
		"longitude": "75-19-9.07 W",
		"state": "PENNSYLVANIA",
		"artcc": "ZDC",
		"type": "RP",
		"updated": "OOD*VORTAC*006.70",
	},
	{
		"name": "BALES",
		"latitude": "36-35-16.23 N",
		"longitude": "79-55-9.03 W",
		"state": "VIRGINIA",
		"artcc": "ZDC",
		"type": "RP",
		"updated": "UVM*LE*125.20/6.02",
	},
	{
		"name": "BALIF",
		"latitude": "37-7-11.57 N",
		"longitude": "76-14-54.14 W",
		"state": "VIRGINIA",
		"artcc": "ZDC",
		"type": "MW",
		"updated": "10/31/1997",
	},
	{
		"name": "BAMMY",
		"latitude": "39-24-33.13 N",
		"longitude": "78-25-45.64 W",
		"state": "WEST VIRGINIA",
		"artcc": "ZDC",
		"type": "RNAV",
		"updated": "08/19/2013",
	},
	{
		"name": "BAREW",
		"latitude": "39-18-4.92 N",
		"longitude": "75-16-14.82 W",
		"state": "NEW JERSEY",
		"artcc": "ZDC",
		"type": "MR",
		"updated": "VCN*VOR/DME*235.00/20.00",
	},
	{
		"name": "BARIN",
		"latitude": "38-35-10.92 N",
		"longitude": "77-21-50.09 W",
		"state": "VIRGINIA",
		"artcc": "ZDC",
		"type": "RP",
		"updated": "BRV*VORTAC*007.01",
	},
	{
		"name": "BARLE",
		"latitude": "38-49-55.2 N",
		"longitude": "76-52-14.53 W",
		"state": "MARYLAND",
		"artcc": "ZDC",
		"type": "MR",
		"updated": "ADW*VORTAC*/1.50",
	},
	{
		"name": "BARRT",
		"latitude": "35-48-56.07 N",
		"longitude": "78-52-28.6 W",
		"state": "NORTH CAROLINA",
		"artcc": "ZDC",
		"type": "RP",
		"updated": "GKK*LD*225.15/6.89",
	},
	{
		"name": "BASYL",
		"latitude": "39-25-1.99 N",
		"longitude": "77-31-7.41 W",
		"state": "MARYLAND",
		"artcc": "ZDC",
		"type": "RNAV",
		"updated": "10/12/2016",
	},
	{
		"name": "BATRE",
		"latitude": "39-39-38.97 N",
		"longitude": "75-43-22.31 W",
		"state": "DELAWARE",
		"artcc": "ZDC",
		"type": "RNAV",
		"updated": "09/11/2009",
	},
	{
		"name": "BATTA",
		"latitude": "35-35-30.67 N",
		"longitude": "79-5-16.19 W",
		"state": "NORTH CAROLINA",
		"artcc": "ZDC",
		"type": "RNAV",
		"updated": "03/31/2016",
	},
	{
		"name": "BAUGH",
		"latitude": "38-56-48.03 N",
		"longitude": "76-53-7.14 W",
		"state": "MARYLAND",
		"artcc": "ZDC",
		"type": "RNAV",
		"updated": "03/11/2015",
	},
	{
		"name": "BAVPY",
		"latitude": "34-44-17.7 N",
		"longitude": "77-37-5.99 W",
		"state": "NORTH CAROLINA",
		"artcc": "ZDC",
		"type": "MR",
		"updated": "NCA*TACAN*290.00/9.00",
	},
	{
		"name": "BAWAW",
		"latitude": "37-52-20.79 N",
		"longitude": "77-33-26.09 W",
		"state": "VIRGINIA",
		"artcc": "ZDC",
		"type": "RP",
		"updated": "FAK*VORTAC*037.96",
	},
	{
		"name": "BAYLY",
		"latitude": "37-39-29.14 N",
		"longitude": "77-5-15.27 W",
		"state": "VIRGINIA",
		"artcc": "ZDC",
		"type": "RNAV",
		"updated": "06/11/2014",
	},
	{
		"name": "BAYPA",
		"latitude": "34-51-21 N",
		"longitude": "79-17-24.93 W",
		"state": "NORTH CAROLINA",
		"artcc": "ZDC",
		"type": "RNAV",
		"updated": "06/03/2011",
	},
	{
		"name": "BAZES",
		"latitude": "39-23-12.92 N",
		"longitude": "74-21-25.47 W",
		"state": "NEW JERSEY",
		"artcc": "ZDC",
		"type": "RP",
		"updated": "ACY*VORTAC*122.00/11.00",
	},
	{
		"name": "BBILL",
		"latitude": "38-16-3.42 N",
		"longitude": "78-4-7.76 W",
		"state": "VIRGINIA",
		"artcc": "ZDC",
		"type": "RNAV",
		"updated": "02/04/2014",
	},
	{
		"name": "BBONE",
		"latitude": "38-37-30.12 N",
		"longitude": "78-49-25.81 W",
		"state": "VIRGINIA",
		"artcc": "ZDC",
		"type": "RNAV",
		"updated": "09/22/2014",
	},
	{
		"name": "BCOAT",
		"latitude": "37-2-37.09 N",
		"longitude": "76-31-20.26 W",
		"state": "VIRGINIA",
		"artcc": "ZDC",
		"type": "RNAV",
		"updated": "05/04/2017",
	},
	{
		"name": "BEAGL",
		"latitude": "37-22-13.99 N",
		"longitude": "77-10-21.87 W",
		"state": "VIRGINIA",
		"artcc": "ZDC",
		"type": "RNAV",
		"updated": "07/24/2014",
	},
	{
		"name": "BEARI",
		"latitude": "37-12-1.97 N",
		"longitude": "78-15-23.85 W",
		"state": "VIRGINIA",
		"artcc": "ZDC",
		"type": "RNAV",
		"updated": "01/27/2014",
	},
	{
		"name": "BEATH",
		"latitude": "36-27-34.29 N",
		"longitude": "77-17-19.54 W",
		"state": "NORTH CAROLINA",
		"artcc": "ZDC",
		"type": "RP",
		"updated": "TYI*VORTAC*039.73/16.99",
	},
	{
		"name": "BEAUU",
		"latitude": "35-46-56.63 N",
		"longitude": "78-58-47.11 W",
		"state": "NORTH CAROLINA",
		"artcc": "ZDC",
		"type": "RP",
		"updated": "RDU*VORTAC*244.66/11.00",
	},
	{
		"name": "BEBLE",
		"latitude": "38-54-55.81 N",
		"longitude": "77-6-26.92 W",
		"state": "VIRGINIA",
		"artcc": "ZDC",
		"type": "RNAV",
		"updated": "01/19/2011",
	},
	{
		"name": "BECAB",
		"latitude": "37-30-11.41 N",
		"longitude": "77-13-14.78 W",
		"state": "VIRGINIA",
		"artcc": "ZDC",
		"type": "RNAV",
		"updated": "06/11/2014",
	},
	{
		"name": "BECAC",
		"latitude": "35-14-22.47 N",
		"longitude": "75-36-18.72 W",
		"state": "NORTH CAROLINA",
		"artcc": "ZDC",
		"type": "RNAV",
		"updated": "08/20/2003",
	},
	{
		"name": "BECAP",
		"latitude": "38-13-48.38 N",
		"longitude": "75-9-46.78 W",
		"state": "MARYLAND",
		"artcc": "ZDC",
		"type": "RNAV",
		"updated": "07/27/2005",
	},
	{
		"name": "BECAS",
		"latitude": "35-49-32.56 N",
		"longitude": "79-38-54.86 W",
		"state": "NORTH CAROLINA",
		"artcc": "ZDC",
		"type": "RNAV",
		"updated": "11/21/2003",
	},
	{
		"name": "BECBA",
		"latitude": "38-7-7.3 N",
		"longitude": "77-44-9.67 W",
		"state": "VIRGINIA",
		"artcc": "ZDC",
		"type": "RNAV",
		"updated": "03/27/2008",
	},
	{
		"name": "BECKE",
		"latitude": "37-49-20.62 N",
		"longitude": "75-59-54.56 W",
		"state": "VIRGINIA",
		"artcc": "ZDC",
		"type": "RP",
		"updated": "CCV*VORTAC*009.92/28.46",
	},
	{
		"name": "BEDLE",
		"latitude": "38-28-35.66 N",
		"longitude": "76-37-27.28 W",
		"state": "MARYLAND",
		"artcc": "ZDC",
		"type": "RNAV",
		"updated": "10/22/2015",
	},
	{
		"name": "BEDPE",
		"latitude": "37-46-26.64 N",
		"longitude": "76-38-37.81 W",
		"state": "VIRGINIA",
		"artcc": "ZDC",
		"type": "RNAV",
		"updated": "03/30/2017",
	},
	{
		"name": "BEEDY",
		"latitude": "38-17-12.13 N",
		"longitude": "78-52-59.32 W",
		"state": "VIRGINIA",
		"artcc": "ZDC",
		"type": "RNAV",
		"updated": "01/22/2010",
	},
	{
		"name": "BEELZ",
		"latitude": "39-39-33.42 N",
		"longitude": "75-4-12.28 W",
		"state": "NEW JERSEY",
		"artcc": "ZDC",
		"type": "RNAV",
		"updated": "04/06/2012",
	},
	{
		"name": "BEEMR",
		"latitude": "38-54-37.97 N",
		"longitude": "76-51-50.07 W",
		"state": "MARYLAND",
		"artcc": "ZDC",
		"type": "MR",
		"updated": "ADW*VORTAC*011.02/6.19",
	},
	{
		"name": "BEEVR",
		"latitude": "37-59-18.76 N",
		"longitude": "77-7-20.58 W",
		"state": "VIRGINIA",
		"artcc": "ZDC",
		"type": "RNAV",
		"updated": "10/20/2015",
	},
	{
		"name": "BEEZY",
		"latitude": "39-14-25.81 N",
		"longitude": "77-28-13.81 W",
		"state": "MARYLAND",
		"artcc": "ZDC",
		"type": "RP",
		"updated": "EMI*VORTAC*244.47",
	},
	{
		"name": "BEGBE",
		"latitude": "38-30-32.62 N",
		"longitude": "79-2-19.33 W",
		"state": "VIRGINIA",
		"artcc": "ZDC",
		"type": "RNAV",
		"updated": "01/22/2010",
	},
	{
		"name": "BEGKA",
		"latitude": "39-17-6.61 N",
		"longitude": "77-21-46.61 W",
		"state": "MARYLAND",
		"artcc": "ZDC",
		"type": "RNAV",
		"updated": "09/07/2005",
	},
	{
		"name": "BEGUE",
		"latitude": "39-3-21.85 N",
		"longitude": "76-47-3.97 W",
		"state": "MARYLAND",
		"artcc": "ZDC",
		"type": "RNAV",
		"updated": "11/29/2012",
	},
	{
		"name": "BEGVE",
		"latitude": "35-53-27.35 N",
		"longitude": "78-45-53.47 W",
		"state": "NORTH CAROLINA",
		"artcc": "ZDC",
		"type": "RP",
		"updated": "LEI*LD*054.15/2.38",
	},
	{
		"name": "BEKKY",
		"latitude": "37-30-47.49 N",
		"longitude": "77-25-43.41 W",
		"state": "VIRGINIA",
		"artcc": "ZDC",
		"type": "RNAV",
		"updated": "06/19/2014",
	},
	{
		"name": "BELGA",
		"latitude": "35-40-58.88 N",
		"longitude": "78-1-52.91 W",
		"state": "NORTH CAROLINA",
		"artcc": "ZDC",
		"type": "RP",
		"updated": "ISO*VORTAC*314.04",
	},
	{
		"name": "BELMA",
		"latitude": "38-58-19.39 N",
		"longitude": "77-35-8.04 W",
		"state": "VIRGINIA",
		"artcc": "ZDC",
		"type": "RP",
		"updated": "AML*VOR/DME*300.01/6.00",
	},
	{
		"name": "BELTS",
		"latitude": "39-5-49.97 N",
		"longitude": "76-58-10.66 W",
		"state": "MARYLAND",
		"artcc": "ZDC",
		"type": "RP",
		"updated": "BAL*VORTAC*264.00",
	},
	{
		"name": "BEMAR",
		"latitude": "37-7-40.54 N",
		"longitude": "80-12-51.81 W",
		"state": "VIRGINIA",
		"artcc": "ZDC",
		"type": "RNAV",
		"updated": "04/08/2011",
	},
	{
		"name": "BEMGE",
		"latitude": "39-59-43.19 N",
		"longitude": "74-36-28.81 W",
		"state": "NEW JERSEY",
		"artcc": "ZNY",
		"type": "MR",
		"updated": "GXU*VORTAC*224.00/1.00",
	},
	{
		"name": "BEMOH",
		"latitude": "37-1-4.39 N",
		"longitude": "79-26-9.73 W",
		"state": "VIRGINIA",
		"artcc": "ZDC",
		"type": "RNAV",
		"updated": "03/29/2016",
	},
	{
		"name": "BENSH",
		"latitude": "39-1-10.48 N",
		"longitude": "79-10-29.13 W",
		"state": "WEST VIRGINIA",
		"artcc": "ZDC",
		"type": "RNAV",
		"updated": "07/01/2013",
	},
	{
		"name": "BENTN",
		"latitude": "35-13-36.35 N",
		"longitude": "78-47-10.01 W",
		"state": "NORTH CAROLINA",
		"artcc": "ZDC",
		"type": "MR",
		"updated": "POB*TACAN*080.00/12.00",
	},
	{
		"name": "BEREW",
		"latitude": "39-48-31.45 N",
		"longitude": "74-32-24.61 W",
		"state": "NEW JERSEY",
		"artcc": "ZNY",
		"type": "RP",
		"updated": "CYN*VORTAC*274.18",
	},
	{
		"name": "BERGR",
		"latitude": "39-25-28.51 N",
		"longitude": "74-28-35.79 W",
		"state": "NEW JERSEY",
		"artcc": "ZDC",
		"type": "RP",
		"updated": "CYN*VORTAC*195.08",
	},
	{
		"name": "BERNY",
		"latitude": "39-0-26.4 N",
		"longitude": "76-30-21.86 W",
		"state": "MARYLAND",
		"artcc": "ZDC",
		"type": "WP",
		"updated": "06/13/1991",
	},
	{
		"name": "BERTI",
		"latitude": "36-3-6.87 N",
		"longitude": "76-40-12.83 W",
		"state": "NORTH CAROLINA",
		"artcc": "ZDC",
		"type": "RP",
		"updated": "ECG*VOR/DME*250.00/27.01",
	},
	{
		"name": "BESRE",
		"latitude": "36-20-46.21 N",
		"longitude": "76-10-27.24 W",
		"state": "NORTH CAROLINA",
		"artcc": "ZDC",
		"type": "RNAV",
		"updated": "02/13/2003",
	},
	{
		"name": "BESSE",
		"latitude": "38-55-38.27 N",
		"longitude": "77-6-20.23 W",
		"state": "DIST. OF COLUMBIA",
		"artcc": "ZDC",
		"type": "RP",
		"updated": "VWH*DD*326.50/6.00",
	},
	{
		"name": "BESSI",
		"latitude": "39-40-34.84 N",
		"longitude": "75-6-44.53 W",
		"state": "NEW JERSEY",
		"artcc": "ZDC",
		"type": "RP",
		"updated": "VCN*VOR/DME*331.04",
	},
	{
		"name": "BESTE",
		"latitude": "39-46-42.92 N",
		"longitude": "74-27-36.58 W",
		"state": "NEW JERSEY",
		"artcc": "ZDC",
		"type": "RNAV",
		"updated": "07/16/2015",
	},
	{
		"name": "BETEE",
		"latitude": "38-21-17.61 N",
		"longitude": "77-57-44.7 W",
		"state": "VIRGINIA",
		"artcc": "ZDC",
		"type": "RNAV",
		"updated": "02/04/2014",
	},
	{
		"name": "BEUGA",
		"latitude": "37-52-31.83 N",
		"longitude": "77-14-35.77 W",
		"state": "VIRGINIA",
		"artcc": "ZDC",
		"type": "RP",
		"updated": "FAK*VORTAC*059.08/34.76",
	},
	{
		"name": "BEULA",
		"latitude": "34-56-4.89 N",
		"longitude": "77-41-40.51 W",
		"state": "NORTH CAROLINA",
		"artcc": "ZDC",
		"type": "RP",
		"updated": "EWN*VOR/DME*263.66/33.07",
	},
	{
		"name": "BEVFE",
		"latitude": "38-44-20.78 N",
		"longitude": "79-53-51.05 W",
		"state": "WEST VIRGINIA",
		"artcc": "ZDC",
		"type": "RNAV",
		"updated": "11/02/2009",
	},
	{
		"name": "BEVGE",
		"latitude": "39-4-40.15 N",
		"longitude": "76-37-18.44 W",
		"state": "MARYLAND",
		"artcc": "ZDC",
		"type": "RNAV",
		"updated": "04/09/2010",
	},
	{
		"name": "BEWEE",
		"latitude": "38-59-29.19 N",
		"longitude": "76-27-14.23 W",
		"state": "MARYLAND",
		"artcc": "ZDC",
		"type": "RNAV",
		"updated": "03/11/2015",
	},
	{
		"name": "BEXGO",
		"latitude": "36-30-0.1 N",
		"longitude": "78-12-7.71 W",
		"state": "NORTH CAROLINA",
		"artcc": "ZDC",
		"type": "RP",
		"updated": "TYI*VORTAC*327.49",
	},
	{
		"name": "BGBRO",
		"latitude": "39-11-34.49 N",
		"longitude": "77-17-50.59 W",
		"state": "MARYLAND",
		"artcc": "ZDC",
		"type": "RNAV",
		"updated": "06/22/2007",
	},
	{
		"name": "BICAT",
		"latitude": "37-45-1.11 N",
		"longitude": "77-27-40.76 W",
		"state": "VIRGINIA",
		"artcc": "ZDC",
		"type": "RP",
		"updated": "RIC*VORTAC*344.70/16.31",
	},
	{
		"name": "BIDKY",
		"latitude": "36-30-12.31 N",
		"longitude": "77-54-52.28 W",
		"state": "NORTH CAROLINA",
		"artcc": "ZDC",
		"type": "RNAV",
		"updated": "02/10/2017",
	},
	{
		"name": "BIERS",
		"latitude": "39-44-17.21 N",
		"longitude": "74-24-20.34 W",
		"state": "NEW JERSEY",
		"artcc": "ZDC",
		"type": "RNAV",
		"updated": "07/16/2015",
	},
	{
		"name": "BIGAL",
		"latitude": "37-59-32.4 N",
		"longitude": "79-37-14.63 W",
		"state": "VIRGINIA",
		"artcc": "ZDC",
		"type": "RP",
		"updated": "MOL*VOR/DME*287.87/25.00",
	},
	{
		"name": "BIGEY",
		"latitude": "36-15-21.77 N",
		"longitude": "75-31-41.94 W",
		"state": "OFFSHORE ATLANTIC",
		"artcc": "ZDC",
		"type": "MR",
		"updated": "NTU*TACAN*154.00/42.00",
	},
	{
		"name": "BIGGZ",
		"latitude": "38-48-45.04 N",
		"longitude": "77-28-36.24 W",
		"state": "VIRGINIA",
		"artcc": "ZDC",
		"type": "RP",
		"updated": "OIU*LD*S CRS/9.66",
	},
	{
		"name": "BIHAR",
		"latitude": "39-10-4.09 N",
		"longitude": "76-34-8.94 W",
		"state": "MARYLAND",
		"artcc": "ZDC",
		"type": "RP",
		"updated": "BAL*VORTAC*/4.30",
	},
	{
		"name": "BIILY",
		"latitude": "39-14-47.57 N",
		"longitude": "76-48-6.29 W",
		"state": "MARYLAND",
		"artcc": "ZDC",
		"type": "RNAV",
		"updated": "07/13/2017",
	},
	{
		"name": "BIKTE",
		"latitude": "37-56-36.26 N",
		"longitude": "75-35-32.27 W",
		"state": "VIRGINIA",
		"artcc": "ZDC",
		"type": "RNAV",
		"updated": "11/08/2016",
	},
	{
		"name": "BILHE",
		"latitude": "39-22-47.43 N",
		"longitude": "74-45-41.78 W",
		"state": "NEW JERSEY",
		"artcc": "ZDC",
		"type": "RP",
		"updated": "VCN*VOR/DME*144.66/13.44",
	},
	{
		"name": "BILIT",
		"latitude": "38-45-15.82 N",
		"longitude": "76-3-57.59 W",
		"state": "MARYLAND",
		"artcc": "ZDC",
		"type": "RP",
		"updated": "ATR*VOR/DME*274.53/40.24",
	},
	{
		"name": "BILLA",
		"latitude": "36-14-36.35 N",
		"longitude": "78-53-22.44 W",
		"state": "NORTH CAROLINA",
		"artcc": "ZDC",
		"type": "RP",
		"updated": "LIB*VORTAC*056.46",
	},
	{
		"name": "BILLL",
		"latitude": "34-12-44.48 N",
		"longitude": "78-5-47.47 W",
		"state": "NORTH CAROLINA",
		"artcc": "ZDC",
		"type": "RP",
		"updated": "FAY*VOR/DME*144.00",
	},
	{
		"name": "BILTT",
		"latitude": "37-35-51.26 N",
		"longitude": "77-21-32.98 W",
		"state": "VIRGINIA",
		"artcc": "ZDC",
		"type": "RP",
		"updated": "RIC*VORTAC*351.00/6.00",
	},
	{
		"name": "BIMKE",
		"latitude": "38-49-37.33 N",
		"longitude": "76-52-11.57 W",
		"state": "MARYLAND",
		"artcc": "ZDC",
		"type": "MR",
		"updated": "ADW*VORTAC*001.86/1.20",
	},
	{
		"name": "BIMLE",
		"latitude": "37-2-42.58 N",
		"longitude": "76-28-28.1 W",
		"state": "VIRGINIA",
		"artcc": "ZDC",
		"type": "MR",
		"updated": "LFI*TACAN*/6.03",
	},
	{
		"name": "BINAC",
		"latitude": "36-50-33.77 N",
		"longitude": "77-48-17.81 W",
		"state": "VIRGINIA",
		"artcc": "ZDC",
		"type": "RNAV",
		"updated": "07/28/2016",
	},
	{
		"name": "BINKS",
		"latitude": "39-3-7.04 N",
		"longitude": "77-1-47.57 W",
		"state": "MARYLAND",
		"artcc": "ZDC",
		"type": "RP",
		"updated": "GVE*VORTAC*046.00/81.67",
	},
	{
		"name": "BINRE",
		"latitude": "40-13-3.98 N",
		"longitude": "74-38-4.46 W",
		"state": "NEW JERSEY",
		"artcc": "ZDC",
		"type": "MW",
		"updated": "08/12/2009",
	},
	{
		"name": "BIPME",
		"latitude": "39-13-6.94 N",
		"longitude": "78-14-43 W",
		"state": "VIRGINIA",
		"artcc": "ZDC",
		"type": "RNAV",
		"updated": "05/14/2014",
	},
	{
		"name": "BIRDZ",
		"latitude": "38-40-18.59 N",
		"longitude": "76-49-21.61 W",
		"state": "MARYLAND",
		"artcc": "ZDC",
		"type": "RP",
		"updated": "FAK*VORTAC*040.49/83.45",
	},
	{
		"name": "BIRKS",
		"latitude": "39-14-46.68 N",
		"longitude": "78-4-2.07 W",
		"state": "VIRGINIA",
		"artcc": "ZDC",
		"type": "RNAV",
		"updated": "09/22/2015",
	},
	{
		"name": "BIRPE",
		"latitude": "38-53-5.94 N",
		"longitude": "75-17-52.62 W",
		"state": "DELAWARE",
		"artcc": "ZDC",
		"type": "MW",
		"updated": "12/02/2016",
	},
	{
		"name": "BLAIK",
		"latitude": "35-50-22.84 N",
		"longitude": "75-28-26.23 W",
		"state": "NORTH CAROLINA",
		"artcc": "ZDC",
		"type": "RP",
		"updated": "NTU*TACAN*165.00/65.00",
	},
	{
		"name": "BLAMO",
		"latitude": "35-24-52.28 N",
		"longitude": "78-8-42.78 W",
		"state": "NORTH CAROLINA",
		"artcc": "ZDC",
		"type": "RP",
		"updated": "TYI*VORTAC*217.77/40.00",
	},
	{
		"name": "BLAMS",
		"latitude": "37-29-8.52 N",
		"longitude": "79-0-38.42 W",
		"state": "VIRGINIA",
		"artcc": "ZDC",
		"type": "RNAV",
		"updated": "09/10/2012",
	},
	{
		"name": "BLARE",
		"latitude": "39-24-46.5 N",
		"longitude": "75-33-10.1 W",
		"state": "DELAWARE",
		"artcc": "ZDC",
		"type": "RP",
		"updated": "VCN*VOR/DME*264.82",
	},
	{
		"name": "BLEEK",
		"latitude": "35-59-10.62 N",
		"longitude": "75-37-52.02 W",
		"state": "NORTH CAROLINA",
		"artcc": "ZDC",
		"type": "RNAV",
		"updated": "10/21/2011",
	},
	{
		"name": "BLITZ",
		"latitude": "39-10-40.67 N",
		"longitude": "77-10-26.28 W",
		"state": "MARYLAND",
		"artcc": "ZDC",
		"type": "RP",
		"updated": "MRB*VORTAC*118.40/33.79",
	},
	{
		"name": "BLNKR",
		"latitude": "36-3-23.22 N",
		"longitude": "78-50-15.6 W",
		"state": "NORTH CAROLINA",
		"artcc": "ZDC",
		"type": "RNAV",
		"updated": "07/20/2010",
	},
	{
		"name": "BLOCC",
		"latitude": "35-32-55.91 N",
		"longitude": "79-36-33.56 W",
		"state": "NORTH CAROLINA",
		"artcc": "ZDC",
		"type": "RP",
		"updated": "SDZ*VORTAC*360.00/20.00",
	},
	{
		"name": "BLOGS",
		"latitude": "35-39-25.47 N",
		"longitude": "78-15-5.43 W",
		"state": "NORTH CAROLINA",
		"artcc": "ZDC",
		"type": "RNAV",
		"updated": "10/29/2013",
	},
	{
		"name": "BLUEJ",
		"latitude": "36-29-51.5 N",
		"longitude": "79-52-20.48 W",
		"state": "NORTH CAROLINA",
		"artcc": "ZDC",
		"type": "RNAV",
		"updated": "04/28/2017",
	},
	{
		"name": "BLUES",
		"latitude": "38-47-45.11 N",
		"longitude": "77-54-27.08 W",
		"state": "VIRGINIA",
		"artcc": "ZDC",
		"type": "RP",
		"updated": "LDN*VORTAC*110.00",
	},
	{
		"name": "BLUUE",
		"latitude": "34-19-47.88 N",
		"longitude": "76-15-19.22 W",
		"state": "NORTH CAROLINA",
		"artcc": "ZDC",
		"type": "RP",
		"updated": "NKT*TACAN*147.00/46.00",
	},
	{
		"name": "BMICH",
		"latitude": "39-5-50.4 N",
		"longitude": "78-0-25.29 W",
		"state": "VIRGINIA",
		"artcc": "ZDC",
		"type": "RNAV",
		"updated": "05/02/2013",
	},
	{
		"name": "BMORE",
		"latitude": "39-21-17.49 N",
		"longitude": "76-50-22.33 W",
		"state": "MARYLAND",
		"artcc": "ZDC",
		"type": "RP",
		"updated": "BAL*VORTAC*/13.80",
	},
	{
		"name": "BNTLY",
		"latitude": "38-3-14.99 N",
		"longitude": "77-36-5.16 W",
		"state": "VIRGINIA",
		"artcc": "ZDC",
		"type": "RNAV",
		"updated": "12/15/2014",
	},
	{
		"name": "BOAST",
		"latitude": "39-8-54.44 N",
		"longitude": "76-25-38.41 W",
		"state": "MARYLAND",
		"artcc": "ZDC",
		"type": "RP",
		"updated": "ADW*VORTAC*054.98",
	},
	{
		"name": "BOBRR",
		"latitude": "34-40-18 N",
		"longitude": "74-8-38 W",
		"state": "OFFSHORE ATLANTIC",
		"artcc": "ZDC",
		"type": "WP",
		"updated": "03/26/2002",
	},
	{
		"name": "BOCAB",
		"latitude": "37-38-9.95 N",
		"longitude": "77-22-59.19 W",
		"state": "VIRGINIA",
		"artcc": "ZDC",
		"type": "RNAV",
		"updated": "06/26/2007",
	},
	{
		"name": "BOCHH",
		"latitude": "36-10-50.38 N",
		"longitude": "79-51-19.31 W",
		"state": "NORTH CAROLINA",
		"artcc": "ZDC",
		"type": "RP",
		"updated": "GSO*VORTAC*039.00/10.00",
	},
	{
		"name": "BODLY",
		"latitude": "35-57-25.15 N",
		"longitude": "78-41-59.56 W",
		"state": "NORTH CAROLINA",
		"artcc": "ZDC",
		"type": "RP",
		"updated": "DMP*LD*054.16/7.18",
	},
	{
		"name": "BODRY",
		"latitude": "37-34-0.04 N",
		"longitude": "78-20-27.06 W",
		"state": "VIRGINIA",
		"artcc": "ZDC",
		"type": "RNAV",
		"updated": "03/16/2010",
	},
	{
		"name": "BOGPE",
		"latitude": "37-15-41.64 N",
		"longitude": "76-29-42.92 W",
		"state": "VIRGINIA",
		"artcc": "ZDC",
		"type": "RNAV",
		"updated": "11/19/2012",
	},
	{
		"name": "BOHON",
		"latitude": "35-54-25.48 N",
		"longitude": "78-34-7.94 W",
		"state": "NORTH CAROLINA",
		"artcc": "ZDC",
		"type": "RNAV",
		"updated": "03/01/2005",
	},
	{
		"name": "BOIER",
		"latitude": "38-31-12.62 N",
		"longitude": "79-42-28.09 W",
		"state": "WEST VIRGINIA",
		"artcc": "ZDC",
		"type": "RP",
		"updated": "EKN*VORTAC*149.00/29.94",
	},
	{
		"name": "BOJAR",
		"latitude": "37-15-43.97 N",
		"longitude": "79-14-33.36 W",
		"state": "VIRGINIA",
		"artcc": "ZDC",
		"type": "RP",
		"updated": "LYH*VORTAC*331.94",
	},
	{
		"name": "BOKVE",
		"latitude": "38-51-46.2 N",
		"longitude": "76-43-37.67 W",
		"state": "MARYLAND",
		"artcc": "ZDC",
		"type": "RNAV",
		"updated": "06/21/2012",
	},
	{
		"name": "BOLME",
		"latitude": "38-33-55.17 N",
		"longitude": "77-4-32.68 W",
		"state": "MARYLAND",
		"artcc": "ZDC",
		"type": "RNAV",
		"updated": "03/17/2016",
	},
	{
		"name": "BONAC",
		"latitude": "35-56-3.75 N",
		"longitude": "77-49-43.79 W",
		"state": "NORTH CAROLINA",
		"artcc": "ZDC",
		"type": "RNAV",
		"updated": "09/30/2013",
	},
	{
		"name": "BONBE",
		"latitude": "38-54-58.02 N",
		"longitude": "75-22-36.78 W",
		"state": "DELAWARE",
		"artcc": "ZDC",
		"type": "MR",
		"updated": "ENO*VORTAC*170.00/20.00",
	},
	{
		"name": "BONCI",
		"latitude": "39-17-53.17 N",
		"longitude": "78-21-8.66 W",
		"state": "VIRGINIA",
		"artcc": "ZDC",
		"type": "RNAV",
		"updated": "07/19/2009",
	},
	{
		"name": "BONDS",
		"latitude": "39-0-41.45 N",
		"longitude": "77-10-4.67 W",
		"state": "MARYLAND",
		"artcc": "ZDC",
		"type": "RP",
		"updated": "DCA*VOR/DME*335.00/11.00",
	},
	{
		"name": "BONHO",
		"latitude": "37-10-30.33 N",
		"longitude": "76-0-4.69 W",
		"state": "VIRGINIA",
		"artcc": "ZDC",
		"type": "MR",
		"updated": "LFI*TACAN*082.55/18.00",
	},
	{
		"name": "BOOCK",
		"latitude": "38-24-34.35 N",
		"longitude": "76-42-50.5 W",
		"state": "MARYLAND",
		"artcc": "ZDC",
		"type": "RNAV",
		"updated": "08/25/2015",
	},
	{
		"name": "BOOME",
		"latitude": "37-54-59.8 N",
		"longitude": "79-25-46.25 W",
		"state": "VIRGINIA",
		"artcc": "ZDC",
		"type": "RP",
		"updated": "MOL*VOR/DME*278.70/15.35",
	},
	{
		"name": "BOOYA",
		"latitude": "38-24-20.5 N",
		"longitude": "77-21-46.36 W",
		"state": "VIRGINIA",
		"artcc": "ZDC",
		"type": "RNAV",
		"updated": "10/26/2001",
	},
	{
		"name": "BOOYD",
		"latitude": "36-29-17.66 N",
		"longitude": "80-7-31.33 W",
		"state": "NORTH CAROLINA",
		"artcc": "ZDC",
		"type": "RNAV",
		"updated": "09/14/2009",
	},
	{
		"name": "BOPAC",
		"latitude": "38-53-17.86 N",
		"longitude": "77-27-37.87 W",
		"state": "VIRGINIA",
		"artcc": "ZDC",
		"type": "RNAV",
		"updated": "06/26/2007",
	},
	{
		"name": "BOPVE",
		"latitude": "38-57-14.8 N",
		"longitude": "77-8-39.8 W",
		"state": "DIST. OF COLUMBIA",
		"artcc": "ZDC",
		"type": "RNAV",
		"updated": "01/22/2002",
	},
	{
		"name": "BORDA",
		"latitude": "40-9-14.33 N",
		"longitude": "74-54-28.54 W",
		"state": "PENNSYLVANIA",
		"artcc": "ZDC",
		"type": "RP",
		"updated": "ARD*VOR/DME*190.14",
	},
	{
		"name": "BORRG",
		"latitude": "35-9-40.46 N",
		"longitude": "78-6-2.92 W",
		"state": "NORTH CAROLINA",
		"artcc": "ZDC",
		"type": "RNAV",
		"updated": "03/07/2013",
	},
	{
		"name": "BOSLY",
		"latitude": "39-10-36.65 N",
		"longitude": "76-43-31.32 W",
		"state": "MARYLAND",
		"artcc": "ZDC",
		"type": "RNAV",
		"updated": "03/11/2015",
	},
	{
		"name": "BOTON",
		"latitude": "39-24-52.1 N",
		"longitude": "74-27-17.08 W",
		"state": "NEW JERSEY",
		"artcc": "ZDC",
		"type": "RP",
		"updated": "SIE*VORTAC*049.00/25.00",
	},
	{
		"name": "BOWBO",
		"latitude": "35-26-52.17 N",
		"longitude": "77-24-52.99 W",
		"state": "NORTH CAROLINA",
		"artcc": "ZDC",
		"type": "RNAV",
		"updated": "05/11/2004",
	},
	{
		"name": "BOYDS",
		"latitude": "39-12-31.01 N",
		"longitude": "77-27-21.08 W",
		"state": "MARYLAND",
		"artcc": "ZDC",
		"type": "RP",
		"updated": "MRB*VORTAC*127.00",
	},
	{
		"name": "BRAAD",
		"latitude": "36-1-0.49 N",
		"longitude": "78-36-32.47 W",
		"state": "NORTH CAROLINA",
		"artcc": "ZDC",
		"type": "RP",
		"updated": "RDU*VORTAC*/12.12",
	},
	{
		"name": "BRADE",
		"latitude": "35-38-58.57 N",
		"longitude": "78-13-59.59 W",
		"state": "NORTH CAROLINA",
		"artcc": "ZDC",
		"type": "RP",
		"updated": "TYI*VORTAC*237.98",
	},
	{
		"name": "BRAIL",
		"latitude": "37-44-24.08 N",
		"longitude": "78-32-52 W",
		"state": "VIRGINIA",
		"artcc": "ZDC",
		"type": "RP",
		"updated": "MOL*VOR/DME*114.72",
	},
	{
		"name": "BRAKN",
		"latitude": "39-51-7.42 N",
		"longitude": "75-4-40.07 W",
		"state": "NEW JERSEY",
		"artcc": "ZDC",
		"type": "RNAV",
		"updated": "05/31/2000",
	},
	{
		"name": "BRAND",
		"latitude": "40-2-6.28 N",
		"longitude": "74-44-9.5 W",
		"state": "NEW JERSEY",
		"artcc": "ZDC",
		"type": "RP",
		"updated": "CYN*VORTAC*323.00",
	},
	{
		"name": "BRANT",
		"latitude": "36-10-26.99 N",
		"longitude": "79-50-18.62 W",
		"state": "NORTH CAROLINA",
		"artcc": "ZDC",
		"type": "RP",
		"updated": "LIB*VORTAC*336.21/24.35",
	},
	{
		"name": "BRAYV",
		"latitude": "39-15-18.45 N",
		"longitude": "76-55-32.35 W",
		"state": "MARYLAND",
		"artcc": "ZDC",
		"type": "RNAV",
		"updated": "08/12/2015",
	},
	{
		"name": "BRERR",
		"latitude": "36-35-56.92 N",
		"longitude": "78-2-59.4 W",
		"state": "VIRGINIA",
		"artcc": "ZDC",
		"type": "RP",
		"updated": "AVC*LE*006.60/5.82",
	},
	{
		"name": "BRIEF",
		"latitude": "39-26-55.21 N",
		"longitude": "75-7-39.69 W",
		"state": "NEW JERSEY",
		"artcc": "ZDC",
		"type": "RP",
		"updated": "ENO*VORTAC*063.13/22.27",
	},
	{
		"name": "BRIGO",
		"latitude": "39-12-14.42 N",
		"longitude": "74-41-21.52 W",
		"state": "NEW JERSEY",
		"artcc": "ZDC",
		"type": "WP",
		"updated": "11/02/1998",
	},
	{
		"name": "BRIGS",
		"latitude": "39-31-24.72 N",
		"longitude": "74-8-19.67 W",
		"state": "NEW JERSEY",
		"artcc": "ZNY",
		"type": "RP",
		"updated": "VCN*VOR/DME*101.00/38.46",
	},
	{
		"name": "BRIGZ",
		"latitude": "37-37-40.55 N",
		"longitude": "77-22-37.65 W",
		"state": "VIRGINIA",
		"artcc": "ZDC",
		"type": "RNAV",
		"updated": "03/30/2015",
	},
	{
		"name": "BRINE",
		"latitude": "38-36-25.33 N",
		"longitude": "76-51-46.91 W",
		"state": "MARYLAND",
		"artcc": "ZDC",
		"type": "MR",
		"updated": "ADW*VORTAC*189.28/12.00",
	},
	{
		"name": "BRLSN",
		"latitude": "39-35-38.79 N",
		"longitude": "75-44-45.65 W",
		"state": "DELAWARE",
		"artcc": "ZDC",
		"type": "RNAV",
		"updated": "09/28/2010",
	},
	{
		"name": "BRNCH",
		"latitude": "39-1-22.99 N",
		"longitude": "76-59-55.76 W",
		"state": "MARYLAND",
		"artcc": "ZDC",
		"type": "RNAV",
		"updated": "01/21/2003",
	},
	{
		"name": "BROAM",
		"latitude": "35-28-17.53 N",
		"longitude": "77-16-13.93 W",
		"state": "NORTH CAROLINA",
		"artcc": "ZDC",
		"type": "RNAV",
		"updated": "12/11/2008",
	},
	{
		"name": "BROSS",
		"latitude": "39-11-28.4 N",
		"longitude": "75-52-49.88 W",
		"state": "MARYLAND",
		"artcc": "ZDC",
		"type": "RP",
		"updated": "ENO*VORTAC*271.00/17.17",
	},
	{
		"name": "BROTH",
		"latitude": "35-30-11.8 N",
		"longitude": "77-6-51.69 W",
		"state": "NORTH CAROLINA",
		"artcc": "ZDC",
		"type": "RNAV",
		"updated": "12/01/2008",
	},
	{
		"name": "BROZE",
		"latitude": "35-55-24.7 N",
		"longitude": "77-10-55.15 W",
		"state": "NORTH CAROLINA",
		"artcc": "ZDC",
		"type": "RP",
		"updated": "ISO*VORTAC*033.96/37.88",
	},
	{
		"name": "BRUCY",
		"latitude": "38-22-30.33 N",
		"longitude": "79-33-54.58 W",
		"state": "VIRGINIA",
		"artcc": "ZDC",
		"type": "RP",
		"updated": "EKN*VORTAC*149.00/40.93",
	},
	{
		"name": "BRUNC",
		"latitude": "38-55-50.89 N",
		"longitude": "76-56-24.24 W",
		"state": "MARYLAND",
		"artcc": "ZDC",
		"type": "RNAV",
		"updated": "02/16/2006",
	},
	{
		"name": "BRUTL",
		"latitude": "38-43-58.66 N",
		"longitude": "77-30-20.26 W",
		"state": "VIRGINIA",
		"artcc": "ZDC",
		"type": "RNAV",
		"updated": "01/13/2015",
	},
	{
		"name": "BRVRY",
		"latitude": "39-13-22.68 N",
		"longitude": "78-57-47.18 W",
		"state": "WEST VIRGINIA",
		"artcc": "ZDC",
		"type": "RNAV",
		"updated": "06/02/2012",
	},
	{
		"name": "BUDAY",
		"latitude": "35-53-52.36 N",
		"longitude": "77-51-29.94 W",
		"state": "NORTH CAROLINA",
		"artcc": "ZDC",
		"type": "RNAV",
		"updated": "06/01/2009",
	},
	{
		"name": "BUDYY",
		"latitude": "37-54-51.61 N",
		"longitude": "77-24-9.52 W",
		"state": "VIRGINIA",
		"artcc": "ZDC",
		"type": "RNAV",
		"updated": "09/27/2011",
	},
	{
		"name": "BUFET",
		"latitude": "36-16-19.45 N",
		"longitude": "79-42-46.14 W",
		"state": "NORTH CAROLINA",
		"artcc": "ZDC",
		"type": "RP",
		"updated": "GSO*VORTAC*046.28/18.65",
	},
	{
		"name": "BUFFR",
		"latitude": "39-27-33.65 N",
		"longitude": "77-35-53.93 W",
		"state": "MARYLAND",
		"artcc": "ZDC",
		"type": "RP",
		"updated": "BAL*VORTAC*302.90",
	},
	{
		"name": "BUFIY",
		"latitude": "37-11-58.8 N",
		"longitude": "80-25-59.42 W",
		"state": "VIRGINIA",
		"artcc": "ZDC",
		"type": "RP",
		"updated": "ROA*VOR/DME*247.73",
	},
	{
		"name": "BUGAY",
		"latitude": "35-45-55.6 N",
		"longitude": "77-57-54.31 W",
		"state": "NORTH CAROLINA",
		"artcc": "ZDC",
		"type": "RNAV",
		"updated": "09/30/2013",
	},
	{
		"name": "BUGEL",
		"latitude": "38-45-0.6 N",
		"longitude": "79-44-7.31 W",
		"state": "WEST VIRGINIA",
		"artcc": "ZDC",
		"type": "RP",
		"updated": "EKN*VORTAC*126.88/19.70",
	},
	{
		"name": "BUHBE",
		"latitude": "36-56-18 N",
		"longitude": "73-5-16 W",
		"state": "OFFSHORE ATLANTIC",
		"artcc": "ZDC",
		"type": "WP",
		"updated": "03/26/2002",
	},
	{
		"name": "BUKYY",
		"latitude": "38-42-20 N",
		"longitude": "76-44-42.63 W",
		"state": "MARYLAND",
		"artcc": "ZDC",
		"type": "RNAV",
		"updated": "04/07/2017",
	},
	{
		"name": "BULBS",
		"latitude": "35-21-53.67 N",
		"longitude": "77-51-16.46 W",
		"state": "NORTH CAROLINA",
		"artcc": "ZDC",
		"type": "MR",
		"updated": "GSB*TACAN*080.71/6.00",
	},
	{
		"name": "BULII",
		"latitude": "38-4-16.37 N",
		"longitude": "77-17-54.53 W",
		"state": "VIRGINIA",
		"artcc": "ZDC",
		"type": "RNAV",
		"updated": "01/08/2015",
	},
	{
		"name": "BULRD",
		"latitude": "39-15-16.4 N",
		"longitude": "76-34-6 W",
		"state": "MARYLAND",
		"artcc": "ZDC",
		"type": "RNAV",
		"updated": "12/29/2016",
	},
	{
		"name": "BUMPP",
		"latitude": "37-56-32.97 N",
		"longitude": "77-51-10.53 W",
		"state": "VIRGINIA",
		"artcc": "ZDC",
		"type": "RNAV",
		"updated": "09/27/2011",
	},
	{
		"name": "BUNEW",
		"latitude": "35-18-4.94 N",
		"longitude": "79-18-27.18 W",
		"state": "NORTH CAROLINA",
		"artcc": "ZDC",
		"type": "RNAV",
		"updated": "02/25/2014",
	},
	{
		"name": "BUNKK",
		"latitude": "37-31-33.73 N",
		"longitude": "77-3-53.98 W",
		"state": "VIRGINIA",
		"artcc": "ZDC",
		"type": "RNAV",
		"updated": "07/24/2014",
	},
	{
		"name": "BUNZZ",
		"latitude": "38-52-21.37 N",
		"longitude": "77-55-36.98 W",
		"state": "VIRGINIA",
		"artcc": "ZDC",
		"type": "RNAV",
		"updated": "06/01/2012",
	},
	{
		"name": "BURDK",
		"latitude": "39-30-18.55 N",
		"longitude": "74-40-23.82 W",
		"state": "NEW JERSEY",
		"artcc": "ZDC",
		"type": "RP",
		"updated": "CYN*VORTAC*220.97",
	},
	{
		"name": "BURGY",
		"latitude": "39-28-9.6 N",
		"longitude": "77-44-9.85 W",
		"state": "MARYLAND",
		"artcc": "ZDC",
		"type": "RP",
		"updated": "HGR*VOR*164.90",
	},
	{
		"name": "BURRZ",
		"latitude": "36-20-11.05 N",
		"longitude": "80-0-21.64 W",
		"state": "NORTH CAROLINA",
		"artcc": "ZDC",
		"type": "RNAV",
		"updated": "03/29/2016",
	},
	{
		"name": "BURTT",
		"latitude": "38-26-2.29 N",
		"longitude": "79-48-52.75 W",
		"state": "WEST VIRGINIA",
		"artcc": "ZDC",
		"type": "RNAV",
		"updated": "06/01/2012",
	},
	{
		"name": "BUSHI",
		"latitude": "37-47-0.55 N",
		"longitude": "80-28-13.91 W",
		"state": "WEST VIRGINIA",
		"artcc": "ZDC",
		"type": "RP",
		"updated": "LWB*VOR/DME*/6.09",
	},
	{
		"name": "BUSSI",
		"latitude": "36-31-0.99 N",
		"longitude": "78-50-2.44 W",
		"state": "NORTH CAROLINA",
		"artcc": "ZDC",
		"type": "RNAV",
		"updated": "07/21/2009",
	},
	{
		"name": "BUTAY",
		"latitude": "38-17-9.11 N",
		"longitude": "78-2-13.94 W",
		"state": "VIRGINIA",
		"artcc": "ZDC",
		"type": "RNAV",
		"updated": "10/18/2011",
	},
	{
		"name": "BUTER",
		"latitude": "35-18-5.18 N",
		"longitude": "77-47-15.35 W",
		"state": "NORTH CAROLINA",
		"artcc": "ZDC",
		"type": "RP",
		"updated": "ISO*VORTAC*254.76/12.00",
	},
	{
		"name": "BUTGE",
		"latitude": "35-49-47.75 N",
		"longitude": "77-11-44.25 W",
		"state": "NORTH CAROLINA",
		"artcc": "ZDC",
		"type": "RNAV",
		"updated": "04/04/2014",
	},
	{
		"name": "BUTRZ",
		"latitude": "38-31-35.7 N",
		"longitude": "77-47-40.45 W",
		"state": "VIRGINIA",
		"artcc": "ZDC",
		"type": "RNAV",
		"updated": "04/04/2016",
	},
	{
		"name": "BUTTS",
		"latitude": "36-9-12.97 N",
		"longitude": "78-42-46.51 W",
		"state": "NORTH CAROLINA",
		"artcc": "ZDC",
		"type": "RNAV",
		"updated": "11/19/2012",
	},
	{
		"name": "BUUSH",
		"latitude": "38-54-24.02 N",
		"longitude": "76-52-15.35 W",
		"state": "MARYLAND",
		"artcc": "ZDC",
		"type": "RNAV",
		"updated": "11/24/2004",
	},
	{
		"name": "BUVBE",
		"latitude": "38-15-30.73 N",
		"longitude": "78-2-28.97 W",
		"state": "VIRGINIA",
		"artcc": "ZDC",
		"type": "RP",
		"updated": "GVE*VORTAC*025.75/15.60",
	},
	{
		"name": "BUYAP",
		"latitude": "37-12-18.88 N",
		"longitude": "77-51-18.57 W",
		"state": "VIRGINIA",
		"artcc": "ZDC",
		"type": "MW",
		"updated": "05/27/2005",
	},
	{
		"name": "BUZIE",
		"latitude": "39-34-57.93 N",
		"longitude": "75-47-42.45 W",
		"state": "DELAWARE",
		"artcc": "ZDC",
		"type": "RNAV",
		"updated": "10/22/2001",
	},
	{
		"name": "BUZZY",
		"latitude": "35-30-19.14 N",
		"longitude": "79-23-8.68 W",
		"state": "NORTH CAROLINA",
		"artcc": "ZDC",
		"type": "RP",
		"updated": "SDZ*VORTAC*032.69/20.00",
	},
	{
		"name": "BWINE",
		"latitude": "39-48-13.79 N",
		"longitude": "75-33-30.61 W",
		"state": "DELAWARE",
		"artcc": "ZDC",
		"type": "RP",
		"updated": "MXE*VORTAC*151.81/8.59",
	},
	{
		"name": "BYNAM",
		"latitude": "38-10-18.47 N",
		"longitude": "76-37-23.98 W",
		"state": "MARYLAND",
		"artcc": "ZDC",
		"type": "MR",
		"updated": "NHK*TACAN*247.00/12.00",
	},
	{
		"name": "BYRNE",
		"latitude": "35-3-54.71 N",
		"longitude": "78-36-28.59 W",
		"state": "NORTH CAROLINA",
		"artcc": "ZDC",
		"type": "RP",
		"updated": "FAY*VOR/DME*074.00/14.00",
	},
	{
		"name": "BYTON",
		"latitude": "36-15-35.47 N",
		"longitude": "76-13-25.39 W",
		"state": "NORTH CAROLINA",
		"artcc": "ZDC",
		"type": "RP",
		"updated": "NTU*TACAN*205.00/35.00",
	},
	{
		"name": "BZNGA",
		"latitude": "36-24-52.8 N",
		"longitude": "78-29-49.08 W",
		"state": "NORTH CAROLINA",
		"artcc": "ZDC",
		"type": "RNAV",
		"updated": "12/01/2015",
	},
