[
	{
		"name": "CAARY",
		"latitude": "38-19-39.69 N",
		"longitude": "78-23-37.11 W",
		"state": "VIRGINIA",
		"artcc": "ZDC",
		"type": "RNAV",
		"updated": "08/19/2013"
	},
	{
		"name": "CAASH",
		"latitude": "38-34-23.77 N",
		"longitude": "78-8-18.29 W",
		"state": "VIRGINIA",
		"artcc": "ZDC",
		"type": "RNAV",
		"updated": "01/12/2015"
	},
	{
		"name": "CABED",
		"latitude": "35-43-37.18 N",
		"longitude": "78-24-2.54 W",
		"state": "NORTH CAROLINA",
		"artcc": "ZDC",
		"type": "RNAV",
		"updated": "07/20/2010"
	},
	{
		"name": "CABID",
		"latitude": "37-9-36.06 N",
		"longitude": "80-17-31.64 W",
		"state": "VIRGINIA",
		"artcc": "ZDC",
		"type": "RNAV",
		"updated": "03/30/2009"
	},
	{
		"name": "CABOD",
		"latitude": "39-58-12.42 N",
		"longitude": "74-44-57.36 W",
		"state": "NEW JERSEY",
		"artcc": "ZDC",
		"type": "RNAV",
		"updated": "06/29/2011"
	},
	{
		"name": "CABOO",
		"latitude": "37-6-55.88 N",
		"longitude": "76-14-24.47 W",
		"state": "VIRGINIA",
		"artcc": "ZDC",
		"type": "MR",
		"updated": "LFI*TACAN*082.55/6.00"
	},
	{
		"name": "CACAS",
		"latitude": "39-16-44.25 N",
		"longitude": "77-38-42.31 W",
		"state": "VIRGINIA",
		"artcc": "ZDC",
		"type": "RNAV",
		"updated": "04/23/2012"
	},
	{
		"name": "CACYE",
		"latitude": "38-20-15.58 N",
		"longitude": "80-38-16.68 W",
		"state": "WEST VIRGINIA",
		"artcc": "ZDC",
		"type": "RNAV",
		"updated": "01/12/2015"
	},
	{
		"name": "CADDO",
		"latitude": "39-57-58.86 N",
		"longitude": "74-41-7.24 W",
		"state": "NEW JERSEY",
		"artcc": "ZNY",
		"type": "RNAV",
		"updated": "01/26/2009"
	},
	{
		"name": "CADEN",
		"latitude": "39-51-22.69 N",
		"longitude": "77-48-22.59 W",
		"state": "PENNSYLVANIA",
		"artcc": "ZDC",
		"type": "MW",
		"updated": "THS*VORTAC*131.57/8.12"
	},
	{
		"name": "CAGAS",
		"latitude": "39-0-38.82 N",
		"longitude": "75-25-6.64 W",
		"state": "DELAWARE",
		"artcc": "ZDC",
		"type": "MR",
		"updated": "ENO*VORTAC*170.00/14.00"
	},
	{
		"name": "CAGER",
		"latitude": "36-59-32.39 N",
		"longitude": "76-37-59.49 W",
		"state": "VIRGINIA",
		"artcc": "ZDC",
		"type": "MW",
		"updated": "02/05/1998"
	},
	{
		"name": "CAGLU",
		"latitude": "35-40-33.38 N",
		"longitude": "76-49-42.63 W",
		"state": "NORTH CAROLINA",
		"artcc": "ZDC",
		"type": "RNAV",
		"updated": "12/01/2008"
	},
	{
		"name": "CAGON",
		"latitude": "39-47-37.91 N",
		"longitude": "74-18-58.77 W",
		"state": "NEW JERSEY",
		"artcc": "ZNY",
		"type": "MW",
		"updated": "09/06/2017"
	},
	{
		"name": "CAGXY",
		"latitude": "37-36-4.4 N",
		"longitude": "75-47-45.15 W",
		"state": "VIRGINIA",
		"artcc": "ZDC",
		"type": "RP",
		"updated": "CCV*VORTAC*042.31/18.00"
	},
	{
		"name": "CAJIN",
		"latitude": "36-50-29.43 N",
		"longitude": "76-8-44.96 W",
		"state": "VIRGINIA",
		"artcc": "ZDC",
		"type": "RP",
		"updated": "ORF*VORTAC*146.00/4.00"
	},
	{
		"name": "CAKEY",
		"latitude": "35-47-51.76 N",
		"longitude": "78-53-53.34 W",
		"state": "NORTH CAROLINA",
		"artcc": "ZDC",
		"type": "RNAV",
		"updated": "11/19/2012"
	},
	{
		"name": "CAKIX",
		"latitude": "37-19-0.87 N",
		"longitude": "79-59-30.73 W",
		"state": "VIRGINIA",
		"artcc": "ZDC",
		"type": "RNAV",
		"updated": "06/12/2015"
	},
	{
		"name": "CAKOM",
		"latitude": "38-59-10.75 N",
		"longitude": "78-0-37.7 W",
		"state": "VIRGINIA",
		"artcc": "ZDC",
		"type": "RNAV",
		"updated": "05/11/2007"
	},
	{
		"name": "CAKPO",
		"latitude": "37-9-13.35 N",
		"longitude": "80-19-46.08 W",
		"state": "VIRGINIA",
		"artcc": "ZDC",
		"type": "WP",
		"updated": "04/19/2013"
	},
	{
		"name": "CAKUN",
		"latitude": "36-50-20.28 N",
		"longitude": "76-44-41.83 W",
		"state": "VIRGINIA",
		"artcc": "ZDC",
		"type": "RNAV",
		"updated": "01/10/2018"
	},
	{
		"name": "CALAT",
		"latitude": "38-17-33.43 N",
		"longitude": "78-50-43.02 W",
		"state": "VIRGINIA",
		"artcc": "ZDC",
		"type": "RNAV",
		"updated": "09/22/2015"
	},
	{
		"name": "CALEY",
		"latitude": "36-44-27.24 N",
		"longitude": "76-20-52.36 W",
		"state": "VIRGINIA",
		"artcc": "ZDC",
		"type": "RP",
		"updated": "ORF*VORTAC*225.20/11.51"
	},
	{
		"name": "CALMI",
		"latitude": "37-44-0.99 N",
		"longitude": "77-14-11.94 W",
		"state": "VIRGINIA",
		"artcc": "ZDC",
		"type": "RNAV",
		"updated": "06/26/2007"
	},
	{
		"name": "CALPE",
		"latitude": "38-36-55.27 N",
		"longitude": "77-47-53.12 W",
		"state": "VIRGINIA",
		"artcc": "ZDC",
		"type": "RNAV",
		"updated": "10/25/2007"
	},
	{
		"name": "CALPU",
		"latitude": "38-30-29.44 N",
		"longitude": "77-4-53.97 W",
		"state": "MARYLAND",
		"artcc": "ZDC",
		"type": "RNAV",
		"updated": "03/17/2016"
	},
	{
		"name": "CALVN",
		"latitude": "37-21-51.77 N",
		"longitude": "78-52-10.88 W",
		"state": "VIRGINIA",
		"artcc": "ZDC",
		"type": "RNAV",
		"updated": "12/04/2006"
	},
	{
		"name": "CAMIR",
		"latitude": "38-13-45.37 N",
		"longitude": "77-29-48.01 W",
		"state": "VIRGINIA",
		"artcc": "ZDC",
		"type": "RNAV",
		"updated": "01/11/2011"
	},
	{
		"name": "CAMUP",
		"latitude": "38-54-58.24 N",
		"longitude": "79-51-26.77 W",
		"state": "WEST VIRGINIA",
		"artcc": "ZDC",
		"type": "RP",
		"updated": "OUW*DD*015.11/1.81"
	},
	{
		"name": "CANNY",
		"latitude": "39-3-39.92 N",
		"longitude": "75-40-40.65 W",
		"state": "DELAWARE",
		"artcc": "ZDC",
		"type": "RP",
		"updated": "SIE*VORTAC*276.40/41.06"
	},
	{
		"name": "CANOB",
		"latitude": "36-45-35.07 N",
		"longitude": "76-0-56.05 W",
		"state": "VIRGINIA",
		"artcc": "ZDC",
		"type": "MR",
		"updated": "NTU*TACAN*175.00/4.00"
	},
	{
		"name": "CANUV",
		"latitude": "39-25-42.65 N",
		"longitude": "75-37-16.43 W",
		"state": "DELAWARE",
		"artcc": "ZDC",
		"type": "RP",
		"updated": "OOD*VORTAC*240.00/19.32"
	},
	{
		"name": "CAPAB",
		"latitude": "37-16-13.57 N",
		"longitude": "79-14-13.92 W",
		"state": "VIRGINIA",
		"artcc": "ZDC",
		"type": "RNAV",
		"updated": "08/30/2007"
	},
	{
		"name": "CAPAL",
		"latitude": "38-40-41.04 N",
		"longitude": "77-0-37.9 W",
		"state": "MARYLAND",
		"artcc": "ZDC",
		"type": "RNAV",
		"updated": "04/12/2004"
	},
	{
		"name": "CAPIN",
		"latitude": "37-10-38.91 N",
		"longitude": "79-17-15.32 W",
		"state": "VIRGINIA",
		"artcc": "ZDC",
		"type": "RNAV",
		"updated": "09/10/2012"
	},
	{
		"name": "CAPIV",
		"latitude": "38-56-5.08 N",
		"longitude": "79-1-26.16 W",
		"state": "WEST VIRGINIA",
		"artcc": "ZDC",
		"type": "RNAV",
		"updated": "03/30/2017"
	},
	{
		"name": "CAPKO",
		"latitude": "38-42-20.52 N",
		"longitude": "76-44-42.54 W",
		"state": "MARYLAND",
		"artcc": "ZDC",
		"type": "RP",
		"updated": "ENO*VORTAC*250.66/65.59"
	},
	{
		"name": "CAPOE",
		"latitude": "38-51-13.13 N",
		"longitude": "78-22-27.45 W",
		"state": "VIRGINIA",
		"artcc": "ZDC",
		"type": "RNAV",
		"updated": "07/01/2013"
	},
	{
		"name": "CAPON",
		"latitude": "39-18-19.79 N",
		"longitude": "78-25-47.19 W",
		"state": "WEST VIRGINIA",
		"artcc": "ZDC",
		"type": "RP",
		"updated": "ESL*VOR/DME*085.40/26.52"
	},
	{
		"name": "CAPSS",
		"latitude": "38-12-2.82 N",
		"longitude": "77-15-27.99 W",
		"state": "VIRGINIA",
		"artcc": "ZDC",
		"type": "RNAV",
		"updated": "01/08/2015"
	},
	{
		"name": "CAPVC",
		"latitude": "38-44-58.8 N",
		"longitude": "77-2-4.96 W",
		"state": "MARYLAND",
		"artcc": "ZDC",
		"type": "RNAV",
		"updated": "05/01/2015"
	},
	{
		"name": "CARLL",
		"latitude": "38-45-36.98 N",
		"longitude": "77-26-34.59 W",
		"state": "VIRGINIA",
		"artcc": "ZDC",
		"type": "RNAV",
		"updated": "01/18/2007"
	},
	{
		"name": "CARML",
		"latitude": "37-21-42.54 N",
		"longitude": "77-58-8.41 W",
		"state": "VIRGINIA",
		"artcc": "ZDC",
		"type": "RP",
		"updated": "FAK*VORTAC*220.00"
	},
	{
		"name": "CARRY",
		"latitude": "38-48-24.01 N",
		"longitude": "77-27-42.12 W",
		"state": "VIRGINIA",
		"artcc": "ZDC",
		"type": "RP",
		"updated": "AML*VOR/DME*/7.67"
	},
	{
		"name": "CARUM",
		"latitude": "39-19-6.33 N",
		"longitude": "74-42-52.15 W",
		"state": "NEW JERSEY",
		"artcc": "ZDC",
		"type": "RP",
		"updated": "VCN*VOR/DME*148.13"
	},
	{
		"name": "CARUS",
		"latitude": "37-30-2.45 N",
		"longitude": "79-37-53.34 W",
		"state": "VIRGINIA",
		"artcc": "ZDC",
		"type": "RNAV",
		"updated": "11/01/2001"
	},
	{
		"name": "CARVU",
		"latitude": "39-17-47.83 N",
		"longitude": "76-47-31.75 W",
		"state": "MARYLAND",
		"artcc": "ZDC",
		"type": "RNAV",
		"updated": "12/29/2015"
	},
	{
		"name": "CARYL",
		"latitude": "39-32-50.87 N",
		"longitude": "74-47-37.1 W",
		"state": "NEW JERSEY",
		"artcc": "ZDC",
		"type": "RP",
		"updated": "CYN*VORTAC*236.14"
	},
	{
		"name": "CASEE",
		"latitude": "37-18-3.72 N",
		"longitude": "77-23-20.14 W",
		"state": "VIRGINIA",
		"artcc": "ZDC",
		"type": "RP",
		"updated": "HPW*VORTAC*268.81"
	},
	{
		"name": "CASLY",
		"latitude": "38-3-14.42 N",
		"longitude": "77-51-39.73 W",
		"state": "VIRGINIA",
		"artcc": "ZDC",
		"type": "RNAV",
		"updated": "05/04/2015"
	},
	{
		"name": "CASTE",
		"latitude": "37-32-49.25 N",
		"longitude": "80-18-20.31 W",
		"state": "VIRGINIA",
		"artcc": "ZDC",
		"type": "RP",
		"updated": "ROA*VOR/DME*321.42/16.59"
	},
	{
		"name": "CASTL",
		"latitude": "39-38-39.73 N",
		"longitude": "75-36-24.06 W",
		"state": "DELAWARE",
		"artcc": "ZDC",
		"type": "RP",
		"updated": "OOD*VORTAC*282.13"
	},
	{
		"name": "CATAL",
		"latitude": "37-26-25.83 N",
		"longitude": "77-36-9.06 W",
		"state": "VIRGINIA",
		"artcc": "ZDC",
		"type": "RP",
		"updated": "FAK*VORTAC*122.00/12.00"
	},
	{
		"name": "CATAR",
		"latitude": "35-50-7.45 N",
		"longitude": "79-18-0.65 W",
		"state": "NORTH CAROLINA",
		"artcc": "ZDC",
		"type": "RNAV",
		"updated": "11/07/2012"
	},
	{
		"name": "CATAS",
		"latitude": "37-11-5.85 N",
		"longitude": "76-41-29.51 W",
		"state": "VIRGINIA",
		"artcc": "ZDC",
		"type": "MW",
		"updated": "10/15/2008"
	},
	{
		"name": "CATAY",
		"latitude": "39-6-40.84 N",
		"longitude": "76-46-23.38 W",
		"state": "MARYLAND",
		"artcc": "ZDC",
		"type": "RNAV",
		"updated": "06/21/2012"
	},
	{
		"name": "CATEL",
		"latitude": "34-31-31.61 N",
		"longitude": "77-26-11.58 W",
		"state": "NORTH CAROLINA",
		"artcc": "ZDC",
		"type": "MW",
		"updated": "09/21/2010"
	},
	{
		"name": "CATIT",
		"latitude": "39-1-18.93 N",
		"longitude": "75-59-27.01 W",
		"state": "MARYLAND",
		"artcc": "ZDC",
		"type": "WP",
		"updated": "11/02/2011"
	},
	{
		"name": "CATNU",
		"latitude": "35-45-52.11 N",
		"longitude": "78-13-13.99 W",
		"state": "NORTH CAROLINA",
		"artcc": "ZDC",
		"type": "RNAV",
		"updated": "02/12/2008"
	},
	{
		"name": "CATOP",
		"latitude": "39-13-45.16 N",
		"longitude": "75-20-39.71 W",
		"state": "DELAWARE",
		"artcc": "ZDC",
		"type": "MR",
		"updated": "ENO*VORTAC*100.00/8.00"
	},
	{
		"name": "CATVI",
		"latitude": "39-5-52.59 N",
		"longitude": "76-49-15.21 W",
		"state": "MARYLAND",
		"artcc": "ZDC",
		"type": "RNAV",
		"updated": "11/29/2012"
	},
	{
		"name": "CAVDI",
		"latitude": "38-25-33.43 N",
		"longitude": "76-54-43.49 W",
		"state": "MARYLAND",
		"artcc": "ZDC",
		"type": "RNAV",
		"updated": "02/16/2006"
	},
	{
		"name": "CAVLR",
		"latitude": "38-14-21.14 N",
		"longitude": "77-29-0.9 W",
		"state": "VIRGINIA",
		"artcc": "ZDC",
		"type": "RNAV",
		"updated": "04/02/2015"
	},
	{
		"name": "CAVOX",
		"latitude": "36-28-21 N",
		"longitude": "76-13-26.12 W",
		"state": "NORTH CAROLINA",
		"artcc": "ZDC",
		"type": "RNAV",
		"updated": "01/11/2018"
	},
	{
		"name": "CAVUM",
		"latitude": "39-5-38.74 N",
		"longitude": "76-54-51.57 W",
		"state": "MARYLAND",
		"artcc": "ZDC",
		"type": "RNAV",
		"updated": "01/10/2002"
	},
	{
		"name": "CAXES",
		"latitude": "40-14-48.3 N",
		"longitude": "74-41-16.97 W",
		"state": "NEW JERSEY",
		"artcc": "ZDC",
		"type": "RNAV",
		"updated": "08/16/2012"
	},
	{
		"name": "CAXID",
		"latitude": "36-2-53.31 N",
		"longitude": "78-41-35.8 W",
		"state": "NORTH CAROLINA",
		"artcc": "ZDC",
		"type": "RNAV",
		"updated": "10/08/2010"
	},
	{
		"name": "CAXIT",
		"latitude": "35-2-4.97 N",
		"longitude": "76-3-49.36 W",
		"state": "NORTH CAROLINA",
		"artcc": "ZDC",
		"type": "RNAV",
		"updated": "02/13/2002"
	},
	{
		"name": "CAXWO",
		"latitude": "37-54-36.16 N",
		"longitude": "80-4-50.48 W",
		"state": "VIRGINIA",
		"artcc": "ZDC",
		"type": "RP",
		"updated": "ROA*VOR/DME*003.18/33.96"
	},
	{
		"name": "CAYAV",
		"latitude": "35-39-40.74 N",
		"longitude": "79-32-10.64 W",
		"state": "NORTH CAROLINA",
		"artcc": "ZDC",
		"type": "RNAV",
		"updated": "11/10/2014"
	},
	{
		"name": "CBEAV",
		"latitude": "38-22-19.01 N",
		"longitude": "75-15-53.18 W",
		"state": "MARYLAND",
		"artcc": "ZDC",
		"type": "RP",
		"updated": "SBY*VORTAC*094.00/11.71"
	},
	{
		"name": "CCHIP",
		"latitude": "37-56-6.81 N",
		"longitude": "79-6-49.81 W",
		"state": "VIRGINIA",
		"artcc": "ZDC",
		"type": "RNAV",
		"updated": "02/04/2014"
	},
	{
		"name": "CEBEE",
		"latitude": "36-52-52.82 N",
		"longitude": "76-9-29.51 W",
		"state": "VIRGINIA",
		"artcc": "ZDC",
		"type": "RNAV",
		"updated": "08/01/2005"
	},
	{
		"name": "CEBER",
		"latitude": "39-26-10.21 N",
		"longitude": "77-51-31.11 W",
		"state": "WEST VIRGINIA",
		"artcc": "ZDC",
		"type": "RNAV",
		"updated": "08/01/2008"
	},
	{
		"name": "CEBET",
		"latitude": "36-58-50.34 N",
		"longitude": "76-55-54.34 W",
		"state": "VIRGINIA",
		"artcc": "ZDC",
		"type": "RNAV",
		"updated": "11/19/2012"
	},
	{
		"name": "CEDER",
		"latitude": "39-2-24.09 N",
		"longitude": "78-0-21.56 W",
		"state": "VIRGINIA",
		"artcc": "ZDC",
		"type": "RP",
		"updated": "LDN*VORTAC*045.95"
	},
	{
		"name": "CEDNA",
		"latitude": "35-46-53.98 N",
		"longitude": "77-57-30.17 W",
		"state": "NORTH CAROLINA",
		"artcc": "ZDC",
		"type": "RNAV",
		"updated": "02/13/2003"
	},
	{
		"name": "CEGAD",
		"latitude": "34-47-23.64 N",
		"longitude": "79-4-48.94 W",
		"state": "NORTH CAROLINA",
		"artcc": "ZDC",
		"type": "RP",
		"updated": "FAY*VOR/DME*224.89/15.49"
	},
	{
		"name": "CEGAV",
		"latitude": "35-11-12.01 N",
		"longitude": "78-4-28.42 W",
		"state": "NORTH CAROLINA",
		"artcc": "ZDC",
		"type": "RNAV",
		"updated": "03/07/2013"
	},
	{
		"name": "CEGAX",
		"latitude": "37-27-5.11 N",
		"longitude": "77-24-50.91 W",
		"state": "VIRGINIA",
		"artcc": "ZDC",
		"type": "RNAV",
		"updated": "01/18/2011"
	},
	{
		"name": "CEGLI",
		"latitude": "36-53-50.65 N",
		"longitude": "76-18-43.93 W",
		"state": "VIRGINIA",
		"artcc": "ZDC",
		"type": "RP",
		"updated": "12/07/2017"
	},
	{
		"name": "CEGNI",
		"latitude": "37-21-55.24 N",
		"longitude": "76-41-20.64 W",
		"state": "VIRGINIA",
		"artcc": "ZDC",
		"type": "RNAV",
		"updated": "01/10/2018"
	},
	{
		"name": "CEGRU",
		"latitude": "36-6-6.14 N",
		"longitude": "76-7-25.74 W",
		"state": "NORTH CAROLINA",
		"artcc": "ZDC",
		"type": "RNAV",
		"updated": "02/13/2003"
	},
	{
		"name": "CEKAD",
		"latitude": "36-38-22.41 N",
		"longitude": "76-20-41.77 W",
		"state": "VIRGINIA",
		"artcc": "ZDC",
		"type": "RP",
		"updated": "EYK*LD*227.90/2.57"
	},
	{
		"name": "CEKAR",
		"latitude": "38-45-53.49 N",
		"longitude": "76-45-1.37 W",
		"state": "MARYLAND",
		"artcc": "ZDC",
		"type": "MR",
		"updated": "ADW*VORTAC*125.00/6.00"
	},
	{
		"name": "CEKID",
		"latitude": "34-3-33.56 N",
		"longitude": "77-57-23.23 W",
		"state": "NORTH CAROLINA",
		"artcc": "ZDC",
		"type": "RNAV",
		"updated": "04/07/2017"
	},
	{
		"name": "CEKOP",
		"latitude": "35-32-24.13 N",
		"longitude": "79-43-47.15 W",
		"state": "NORTH CAROLINA",
		"artcc": "ZDC",
		"type": "RNAV",
		"updated": "11/10/2014"
	},
	{
		"name": "CEKVO",
		"latitude": "36-28-27.23 N",
		"longitude": "76-3-35.11 W",
		"state": "NORTH CAROLINA",
		"artcc": "ZDC",
		"type": "MR",
		"updated": "NTU*TACAN*193.00/21.00"
	},
	{
		"name": "CELAD",
		"latitude": "34-44-49.76 N",
		"longitude": "77-26-12.2 W",
		"state": "NORTH CAROLINA",
		"artcc": "ZDC",
		"type": "MW",
		"updated": "12/16/2014"
	},
	{
		"name": "CELAG",
		"latitude": "39-2-35.95 N",
		"longitude": "78-45-53.22 W",
		"state": "WEST VIRGINIA",
		"artcc": "ZDC",
		"type": "RNAV",
		"updated": "08/06/2013"
	},
	{
		"name": "CEMEK",
		"latitude": "39-49-55.36 N",
		"longitude": "75-12-30.54 W",
		"state": "NEW JERSEY",
		"artcc": "ZDC",
		"type": "RNAV",
		"updated": "05/05/2011"
	},
	{
		"name": "CENAM",
		"latitude": "39-46-32.78 N",
		"longitude": "75-17-48.76 W",
		"state": "NEW JERSEY",
		"artcc": "ZDC",
		"type": "RNAV",
		"updated": "09/25/2007"
	},
	{
		"name": "CENKO",
		"latitude": "35-4-2.56 N",
		"longitude": "78-39-46.82 W",
		"state": "NORTH CAROLINA",
		"artcc": "ZDC",
		"type": "RNAV",
		"updated": "01/14/2003"
	},
	{
		"name": "CENPA",
		"latitude": "35-54-24.4 N",
		"longitude": "79-37-10 W",
		"state": "NORTH CAROLINA",
		"artcc": "ZDC",
		"type": "RP",
		"updated": "LIB*VORTAC*359.65/5.71"
	},
	{
		"name": "CEPTO",
		"latitude": "38-40-19.48 N",
		"longitude": "77-27-41.62 W",
		"state": "VIRGINIA",
		"artcc": "ZDC",
		"type": "RNAV",
		"updated": "11/26/2012"
	},
	{
		"name": "CERAV",
		"latitude": "38-51-59.99 N",
		"longitude": "76-8-39.48 W",
		"state": "MARYLAND",
		"artcc": "ZDC",
		"type": "RNAV",
		"updated": "04/15/2008"
	},
	{
		"name": "CERIN",
		"latitude": "36-53-55.93 N",
		"longitude": "76-12-55.4 W",
		"state": "VIRGINIA",
		"artcc": "ZDC",
		"type": "RNAV",
		"updated": "07/16/2002"
	},
	{
		"name": "CEROL",
		"latitude": "38-18-59.12 N",
		"longitude": "78-47-38.77 W",
		"state": "VIRGINIA",
		"artcc": "ZDC",
		"type": "RP",
		"updated": "MOL*VOR/DME*035.62/29.00"
	},
	{
		"name": "CERYA",
		"latitude": "35-27-54.51 N",
		"longitude": "79-34-42.81 W",
		"state": "NORTH CAROLINA",
		"artcc": "ZDC",
		"type": "RNAV",
		"updated": "11/10/2014"
	},
	{
		"name": "CERZI",
		"latitude": "35-57-56.76 N",
		"longitude": "75-40-10.03 W",
		"state": "NORTH CAROLINA",
		"artcc": "ZDC",
		"type": "RNAV",
		"updated": "01/11/2018"
	},
	{
		"name": "CESET",
		"latitude": "39-18-29.25 N",
		"longitude": "78-10-8.62 W",
		"state": "VIRGINIA",
		"artcc": "ZDC",
		"type": "RNAV",
		"updated": "09/22/2015"
	},
	{
		"name": "CESIL",
		"latitude": "39-1-40.79 N",
		"longitude": "77-45-50.83 W",
		"state": "VIRGINIA",
		"artcc": "ZDC",
		"type": "RP",
		"updated": "AML*VOR/DME*300.01/15.00"
	},
	{
		"name": "CETLA",
		"latitude": "38-49-42.82 N",
		"longitude": "78-25-12.96 W",
		"state": "VIRGINIA",
		"artcc": "ZDC",
		"type": "RNAV",
		"updated": "11/17/2011"
	},
	{
		"name": "CEVTO",
		"latitude": "33-58-45.69 N",
		"longitude": "77-57-49.56 W",
		"state": "NORTH CAROLINA",
		"artcc": "ZDC",
		"type": "RNAV",
		"updated": "04/07/2017"
	},
	{
		"name": "CEXAK",
		"latitude": "37-48-53.82 N",
		"longitude": "79-24-13.2 W",
		"state": "VIRGINIA",
		"artcc": "ZDC",
		"type": "RNAV",
		"updated": "04/05/2018"
	},
	{
		"name": "CEXAS",
		"latitude": "37-56-4.24 N",
		"longitude": "79-52-9.23 W",
		"state": "VIRGINIA",
		"artcc": "ZDC",
		"type": "RNAV",
		"updated": "03/30/2010"
	},
	{
		"name": "CEXIK",
		"latitude": "37-38-43.6 N",
		"longitude": "77-25-37.1 W",
		"state": "VIRGINIA",
		"artcc": "ZDC",
		"type": "CN",
		"updated": "01/18/2011"
	},
	{
		"name": "CEXOL",
		"latitude": "36-49-8.33 N",
		"longitude": "76-34-2.3 W",
		"state": "VIRGINIA",
		"artcc": "ZDC",
		"type": "RNAV",
		"updated": "01/17/2018"
	},
	{
		"name": "CEYAC",
		"latitude": "39-7-40.01 N",
		"longitude": "77-34-44.96 W",
		"state": "VIRGINIA",
		"artcc": "ZDC",
		"type": "RNAV",
		"updated": "08/01/2010"
	},
	{
		"name": "CFBBS",
		"latitude": "35-9-31.1 N",
		"longitude": "78-45-30.66 W",
		"state": "NORTH CAROLINA",
		"artcc": "ZDC",
		"type": "CN",
		"updated": "02/24/2012"
	},
	{
		"name": "CFBBX",
		"latitude": "39-6-21.87 N",
		"longitude": "76-44-51.56 W",
		"state": "MARYLAND",
		"artcc": "ZDC",
		"type": "CN",
		"updated": "11/29/2012"
	},
	{
		"name": "CFBBZ",
		"latitude": "39-8-27.86 N",
		"longitude": "76-46-43.37 W",
		"state": "MARYLAND",
		"artcc": "ZDC",
		"type": "CN",
		"updated": "11/29/2012"
	},
	{
		"name": "CFBDR",
		"latitude": "38-42-58.88 N",
		"longitude": "77-30-59.79 W",
		"state": "VIRGINIA",
		"artcc": "ZDC",
		"type": "CN",
		"updated": "11/03/2015"
	},
	{
		"name": "CFBDS",
		"latitude": "36-15-38.42 N",
		"longitude": "78-41-2.41 W",
		"state": "NORTH CAROLINA",
		"artcc": "ZDC",
		"type": "CN",
		"updated": "01/29/2015"
	},
	{
		"name": "CFBFK",
		"latitude": "38-50-17.63 N",
		"longitude": "77-6-17.14 W",
		"state": "VIRGINIA",
		"artcc": "ZDC",
		"type": "CN",
		"updated": "04/09/2012"
	},
	{
		"name": "CFBGQ",
		"latitude": "39-39-14.88 N",
		"longitude": "75-53-53.15 W",
		"state": "MARYLAND",
		"artcc": "ZDC",
		"type": "CN",
		"updated": "01/09/2012"
	},
	{
		"name": "CFBGW",
		"latitude": "38-56-2.83 N",
		"longitude": "77-4-36.88 W",
		"state": "DIST. OF COLUMBIA",
		"artcc": "ZDC",
		"type": "CN",
		"updated": "03/25/2015"
	},
	{
		"name": "CFBLJ",
		"latitude": "38-59-4.92 N",
		"longitude": "77-41-13.17 W",
		"state": "VIRGINIA",
		"artcc": "ZDC",
		"type": "CN",
		"updated": "01/31/2013"
	},
	{
		"name": "CFBLT",
		"latitude": "37-13-27.15 N",
		"longitude": "79-16-3.48 W",
		"state": "VIRGINIA",
		"artcc": "ZDC",
		"type": "CN",
		"updated": "12/02/2014"
	},
	{
		"name": "CFBMT",
		"latitude": "35-11-35.77 N",
		"longitude": "77-45-20.16 W",
		"state": "NORTH CAROLINA",
		"artcc": "ZDC",
		"type": "CN",
		"updated": "04/16/2014"
	},
	{
		"name": "CFBMX",
		"latitude": "37-34-56.86 N",
		"longitude": "77-21-48.26 W",
		"state": "VIRGINIA",
		"artcc": "ZDC",
		"type": "CN",
		"updated": "06/11/2014"
	},
	{
		"name": "CFBMZ",
		"latitude": "37-33-43.61 N",
		"longitude": "77-15-24.28 W",
		"state": "VIRGINIA",
		"artcc": "ZDC",
		"type": "CN",
		"updated": "06/11/2014"
	},
	{
		"name": "CFBNB",
		"latitude": "37-32-30.53 N",
		"longitude": "77-24-21.32 W",
		"state": "VIRGINIA",
		"artcc": "ZDC",
		"type": "CN",
		"updated": "06/11/2014"
	},
	{
		"name": "CFBNC",
		"latitude": "37-35-12.2 N",
		"longitude": "77-19-3.31 W",
		"state": "VIRGINIA",
		"artcc": "ZDC",
		"type": "CN",
		"updated": "06/11/2014"
	},
	{
		"name": "CFBND",
		"latitude": "37-25-31.53 N",
		"longitude": "77-18-45.55 W",
		"state": "VIRGINIA",
		"artcc": "ZDC",
		"type": "CN",
		"updated": "06/11/2014"
	},
	{
		"name": "CFBNF",
		"latitude": "37-28-12.95 N",
		"longitude": "77-13-27.84 W",
		"state": "VIRGINIA",
		"artcc": "ZDC",
		"type": "CN",
		"updated": "06/11/2014"
	},
	{
		"name": "CFBNH",
		"latitude": "37-27-9.16 N",
		"longitude": "77-23-42.77 W",
		"state": "VIRGINIA",
		"artcc": "ZDC",
		"type": "CN",
		"updated": "06/11/2014"
	},
	{
		"name": "CFBNJ",
		"latitude": "37-26-2.09 N",
		"longitude": "77-17-51.05 W",
		"state": "VIRGINIA",
		"artcc": "ZDC",
		"type": "CN",
		"updated": "06/11/2014"
	},
	{
		"name": "CFBNK",
		"latitude": "37-5-55.98 N",
		"longitude": "77-59-44.69 W",
		"state": "VIRGINIA",
		"artcc": "ZDC",
		"type": "CN",
		"updated": "06/10/2014"
	},
	{
		"name": "CFBPM",
		"latitude": "39-18-32.1 N",
		"longitude": "75-27-2.59 W",
		"state": "DELAWARE",
		"artcc": "ZDC",
		"type": "CN",
		"updated": "07/21/2016"
	},
	{
		"name": "CFBPP",
		"latitude": "38-57-38.16 N",
		"longitude": "77-41-12.78 W",
		"state": "VIRGINIA",
		"artcc": "ZDC",
		"type": "CN",
		"updated": "12/24/2013"
	},
	{
		"name": "CFBXJ",
		"latitude": "38-43-38.84 N",
		"longitude": "77-31-9.8 W",
		"state": "VIRGINIA",
		"artcc": "ZDC",
		"type": "CN",
		"updated": "01/31/2013"
	},
	{
		"name": "CFBZH",
		"latitude": "34-57-51.77 N",
		"longitude": "77-7-16.26 W",
		"state": "NORTH CAROLINA",
		"artcc": "ZDC",
		"type": "CN",
		"updated": "10/08/2015"
	},
	{
		"name": "CFCJX",
		"latitude": "36-55-53.7 N",
		"longitude": "76-6-40.43 W",
		"state": "VIRGINIA",
		"artcc": "ZDC",
		"type": "CN",
		"updated": "11/30/2017"
	},
	{
		"name": "CFFBT",
		"latitude": "36-51-53.01 N",
		"longitude": "76-17-18 W",
		"state": "VIRGINIA",
		"artcc": "ZDC",
		"type": "CN",
		"updated": "11/30/2017"
	},
	{
		"name": "CFFGQ",
		"latitude": "39-13-28.22 N",
		"longitude": "76-50-7.59 W",
		"state": "MARYLAND",
		"artcc": "ZDC",
		"type": "CN",
		"updated": "12/07/2012"
	},
	{
		"name": "CFFHD",
		"latitude": "37-31-16 N",
		"longitude": "76-46-17.06 W",
		"state": "VIRGINIA",
		"artcc": "ZDC",
		"type": "CN",
		"updated": "08/11/2016"
	},
	{
		"name": "CFFHG",
		"latitude": "40-14-28.15 N",
		"longitude": "74-56-40.36 W",
		"state": "PENNSYLVANIA",
		"artcc": "ZDC",
		"type": "CN",
		"updated": "08/16/2012"
	},
	{
		"name": "CFFHH",
		"latitude": "40-10-37.6 N",
		"longitude": "74-51-54.26 W",
		"state": "PENNSYLVANIA",
		"artcc": "ZDC",
		"type": "CN",
		"updated": "08/16/2012"
	},
	{
		"name": "CFFHN",
		"latitude": "39-8-2 N",
		"longitude": "76-34-6.08 W",
		"state": "MARYLAND",
		"artcc": "ZDC",
		"type": "CN",
		"updated": "11/07/2014"
	},
	{
		"name": "CFFHP",
		"latitude": "39-5-6.53 N",
		"longitude": "76-39-18.88 W",
		"state": "MARYLAND",
		"artcc": "ZDC",
		"type": "CN",
		"updated": "11/07/2014"
	},
	{
		"name": "CFFJL",
		"latitude": "38-52-11.7 N",
		"longitude": "77-3-36.52 W",
		"state": "VIRGINIA",
		"artcc": "ZDC",
		"type": "CN",
		"updated": "03/25/2015"
	},
	{
		"name": "CFFJM",
		"latitude": "38-52-48.93 N",
		"longitude": "77-5-28.67 W",
		"state": "VIRGINIA",
		"artcc": "ZDC",
		"type": "CN",
		"updated": "03/25/2015"
	},
	{
		"name": "CFGBK",
		"latitude": "35-56-11.62 N",
		"longitude": "77-46-9.55 W",
		"state": "NORTH CAROLINA",
		"artcc": "ZDC",
		"type": "CN",
		"updated": "11/28/2000"
	},
	{
		"name": "CFGJM",
		"latitude": "36-15-2.31 N",
		"longitude": "79-47-56.71 W",
		"state": "NORTH CAROLINA",
		"artcc": "ZDC",
		"type": "CN",
		"updated": "11/28/2000"
	},
	{
		"name": "CFHQY",
		"latitude": "35-53-10.39 N",
		"longitude": "77-19-25.04 W",
		"state": "NORTH CAROLINA",
		"artcc": "ZDC",
		"type": "CN",
		"updated": "11/28/2000"
	},
	{
		"name": "CFLFX",
		"latitude": "39-52-53.33 N",
		"longitude": "75-12-45.52 W",
		"state": "PENNSYLVANIA",
		"artcc": "ZDC",
		"type": "CN",
		"updated": "12/11/2017"
	},
	{
		"name": "CFNRT",
		"latitude": "38-57-6.73 N",
		"longitude": "75-28-35.43 W",
		"state": "DELAWARE",
		"artcc": "ZDC",
		"type": "CN",
		"updated": "07/21/2016"
	},
	{
		"name": "CFPHR",
		"latitude": "35-22-44.97 N",
		"longitude": "78-28-33.62 W",
		"state": "NORTH CAROLINA",
		"artcc": "ZDC",
		"type": "CN",
		"updated": "03/04/2015"
	},
	{
		"name": "CFSDN",
		"latitude": "38-51-41.73 N",
		"longitude": "77-2-33.52 W",
		"state": "VIRGINIA",
		"artcc": "ZDC",
		"type": "CN",
		"updated": "07/16/2015"
	},
	{
		"name": "CFVKL",
		"latitude": "36-1-23.45 N",
		"longitude": "75-39-46.49 W",
		"state": "NORTH CAROLINA",
		"artcc": "ZDC",
		"type": "CN",
		"updated": "04/28/2017"
	},
	{
		"name": "CFVVL",
		"latitude": "35-50-57.93 N",
		"longitude": "78-54-19.65 W",
		"state": "NORTH CAROLINA",
		"artcc": "ZDC",
		"type": "CN",
		"updated": "03/05/2013"
	},
	{
		"name": "CFVVM",
		"latitude": "35-46-54.08 N",
		"longitude": "78-49-37.28 W",
		"state": "NORTH CAROLINA",
		"artcc": "ZDC",
		"type": "CN",
		"updated": "03/05/2013"
	},
	{
		"name": "CFVVN",
		"latitude": "35-54-19.73 N",
		"longitude": "78-40-26.73 W",
		"state": "NORTH CAROLINA",
		"artcc": "ZDC",
		"type": "CN",
		"updated": "03/05/2013"
	},
	{
		"name": "CFVVP",
		"latitude": "35-58-35.23 N",
		"longitude": "78-44-54.98 W",
		"state": "NORTH CAROLINA",
		"artcc": "ZDC",
		"type": "CN",
		"updated": "03/05/2013"
	},
	{
		"name": "CHALZ",
		"latitude": "34-43-28.85 N",
		"longitude": "77-54-28.57 W",
		"state": "NORTH CAROLINA",
		"artcc": "ZDC",
		"type": "RNAV",
		"updated": "02/07/2018"
	},
	{
		"name": "CHAPL",
		"latitude": "35-53-28.15 N",
		"longitude": "79-2-56.34 W",
		"state": "NORTH CAROLINA",
		"artcc": "ZDC",
		"type": "RP",
		"updated": "SBV*VORTAC*187.05"
	},
	{
		"name": "CHAYN",
		"latitude": "38-55-48 N",
		"longitude": "77-7-0 W",
		"state": "DIST. OF COLUMBIA",
		"artcc": "ZDC",
		"type": "RNAV",
		"updated": "04/30/2010"
	},
	{
		"name": "CHEAZ",
		"latitude": "39-44-17.98 N",
		"longitude": "75-22-45.71 W",
		"state": "NEW JERSEY",
		"artcc": "ZDC",
		"type": "RNAV",
		"updated": "04/06/2012"
	},
	{
		"name": "CHETM",
		"latitude": "39-48-4.21 N",
		"longitude": "75-27-42.05 W",
		"state": "DELAWARE",
		"artcc": "ZDC",
		"type": "RNAV",
		"updated": "07/09/2009"
	},
	{
		"name": "CHIMB",
		"latitude": "35-32-17.31 N",
		"longitude": "79-1-56.14 W",
		"state": "NORTH CAROLINA",
		"artcc": "ZDC",
		"type": "RNAV",
		"updated": "04/25/2017"
	},
	{
		"name": "CHOPS",
		"latitude": "38-45-41.81 N",
		"longitude": "75-57-36.18 W",
		"state": "MARYLAND",
		"artcc": "ZDC",
		"type": "RP",
		"updated": "BAL*VORTAC*137.57"
	},
	{
		"name": "CHUMI",
		"latitude": "39-6-15.58 N",
		"longitude": "77-3-10.52 W",
		"state": "MARYLAND",
		"artcc": "ZDC",
		"type": "WP",
		"updated": "DCA*VOR/DME*006.00/14.70"
	},
	{
		"name": "CHURK",
		"latitude": "38-29-4.74 N",
		"longitude": "76-13-5.7 W",
		"state": "MARYLAND",
		"artcc": "ZDC",
		"type": "RP",
		"updated": "OTT*VORTAC*128.00"
	},
	{
		"name": "CIBAC",
		"latitude": "37-31-28.86 N",
		"longitude": "76-42-0.98 W",
		"state": "VIRGINIA",
		"artcc": "ZDC",
		"type": "RNAV",
		"updated": "03/31/2008"
	},
	{
		"name": "CIBAG",
		"latitude": "34-42-52.21 N",
		"longitude": "76-43-29.64 W",
		"state": "NORTH CAROLINA",
		"artcc": "ZDC",
		"type": "RNAV",
		"updated": "10/28/2013"
	},
	{
		"name": "CIBEN",
		"latitude": "37-18-56.67 N",
		"longitude": "76-38-22.76 W",
		"state": "VIRGINIA",
		"artcc": "ZDC",
		"type": "MR",
		"updated": "HCM*VORTAC*163.76/8.67"
	},
	{
		"name": "CIBIG",
		"latitude": "37-30-39.82 N",
		"longitude": "78-19-38.36 W",
		"state": "VIRGINIA",
		"artcc": "ZDC",
		"type": "RNAV",
		"updated": "07/20/2011"
	},
	{
		"name": "CIBOP",
		"latitude": "39-51-40.86 N",
		"longitude": "74-53-54.92 W",
		"state": "NEW JERSEY",
		"artcc": "ZDC",
		"type": "RNAV",
		"updated": "06/27/2011"
	},
	{
		"name": "CIBRA",
		"latitude": "36-49-19.43 N",
		"longitude": "77-43-2.97 W",
		"state": "VIRGINIA",
		"artcc": "ZDC",
		"type": "RNAV",
		"updated": "02/21/2014"
	},
	{
		"name": "CIBRO",
		"latitude": "38-11-36.84 N",
		"longitude": "78-57-59.38 W",
		"state": "VIRGINIA",
		"artcc": "ZDC",
		"type": "RNAV",
		"updated": "07/20/2009"
	},
	{
		"name": "CIDGO",
		"latitude": "37-56-31.93 N",
		"longitude": "75-21-1.73 W",
		"state": "VIRGINIA",
		"artcc": "ZDC",
		"type": "RNAV",
		"updated": "08/15/2013"
	},
	{
		"name": "CIDOB",
		"latitude": "39-25-46.91 N",
		"longitude": "75-58-43.4 W",
		"state": "MARYLAND",
		"artcc": "ZDC",
		"type": "RNAV",
		"updated": "06/10/2011"
	},
	{
		"name": "CIDPU",
		"latitude": "37-28-19 N",
		"longitude": "79-46-21.34 W",
		"state": "VIRGINIA",
		"artcc": "ZDC",
		"type": "RP",
		"updated": "ODR*VOR*056.04"
	},
	{
		"name": "CIGOR",
		"latitude": "34-47-38.41 N",
		"longitude": "76-29-8.87 W",
		"state": "NORTH CAROLINA",
		"artcc": "ZDC",
		"type": "RNAV",
		"updated": "03/28/2013"
	},
	{
		"name": "CIGVE",
		"latitude": "36-51-13.1 N",
		"longitude": "75-59-11.92 W",
		"state": "VIRGINIA",
		"artcc": "ZDC",
		"type": "MR",
		"updated": "NTU*TACAN*064.00/3.00"
	},
	{
		"name": "CIKOR",
		"latitude": "36-7-19.25 N",
		"longitude": "78-14-13.08 W",
		"state": "NORTH CAROLINA",
		"artcc": "ZDC",
		"type": "RNAV",
		"updated": "03/01/2005"
	},
	{
		"name": "CIKSO",
		"latitude": "39-35-18.28 N",
		"longitude": "74-47-14.29 W",
		"state": "NEW JERSEY",
		"artcc": "ZDC",
		"type": "RNAV",
		"updated": "08/02/2010"
	},
	{
		"name": "CILAN",
		"latitude": "40-0-26.73 N",
		"longitude": "74-48-39.7 W",
		"state": "NEW JERSEY",
		"artcc": "ZDC",
		"type": "RNAV",
		"updated": "05/11/2012"
	},
	{
		"name": "CILED",
		"latitude": "34-49-47.37 N",
		"longitude": "77-45-18.85 W",
		"state": "NORTH CAROLINA",
		"artcc": "ZDC",
		"type": "RNAV",
		"updated": "10/07/2014"
	},
	{
		"name": "CILER",
		"latitude": "34-46-2.59 N",
		"longitude": "77-26-12.09 W",
		"state": "NORTH CAROLINA",
		"artcc": "ZDC",
		"type": "MW",
		"updated": "12/16/2014"
	},
	{
		"name": "CILGO",
		"latitude": "34-51-37.77 N",
		"longitude": "79-28-46.54 W",
		"state": "NORTH CAROLINA",
		"artcc": "ZDC",
		"type": "RNAV",
		"updated": "12/05/2003"
	},
	{
		"name": "CILRU",
		"latitude": "34-58-55.79 N",
		"longitude": "80-3-17.53 W",
		"state": "NORTH CAROLINA",
		"artcc": "ZDC",
		"type": "RP",
		"updated": "AFP*LD*161.55/3.19"
	},
	{
		"name": "CIMOG",
		"latitude": "36-54-6.39 N",
		"longitude": "78-51-43.16 W",
		"state": "VIRGINIA",
		"artcc": "ZDC",
		"type": "RNAV",
		"updated": "07/20/2009"
	},
	{
		"name": "CINDI",
		"latitude": "39-14-52.2 N",
		"longitude": "76-18-51.6 W",
		"state": "MARYLAND",
		"artcc": "ZDC",
		"type": "RP",
		"updated": "BAL*VORTAC*085.01"
	},
	{
		"name": "CINLO",
		"latitude": "34-54-39.11 N",
		"longitude": "78-56-27.53 W",
		"state": "NORTH CAROLINA",
		"artcc": "ZDC",
		"type": "RP",
		"updated": "GRA*LD*218.18/6.46"
	},
	{
		"name": "CINNA",
		"latitude": "38-40-53.82 N",
		"longitude": "77-28-43.05 W",
		"state": "VIRGINIA",
		"artcc": "ZDC",
		"type": "RP",
		"updated": "CSN*VORTAC*088.29"
	},
	{
		"name": "CIPAC",
		"latitude": "36-51-44.11 N",
		"longitude": "76-19-5.86 W",
		"state": "VIRGINIA",
		"artcc": "ZDC",
		"type": "RNAV",
		"updated": "05/03/2018"
	},
	{
		"name": "CIPOK",
		"latitude": "39-44-46.38 N",
		"longitude": "74-58-26.67 W",
		"state": "NEW JERSEY",
		"artcc": "ZDC",
		"type": "RNAV",
		"updated": "07/09/2009"
	},
	{
		"name": "CIPVA",
		"latitude": "35-32-36.12 N",
		"longitude": "78-27-34.04 W",
		"state": "NORTH CAROLINA",
		"artcc": "ZDC",
		"type": "RNAV",
		"updated": "12/05/2003"
	},
	{
		"name": "CIRAN",
		"latitude": "38-8-42.82 N",
		"longitude": "75-13-48.88 W",
		"state": "MARYLAND",
		"artcc": "ZDC",
		"type": "RNAV",
		"updated": "07/27/2005"
	},
	{
		"name": "CIRAX",
		"latitude": "39-1-18.95 N",
		"longitude": "79-56-26.48 W",
		"state": "WEST VIRGINIA",
		"artcc": "ZDC",
		"type": "RNAV",
		"updated": "07/12/2011"
	},
	{
		"name": "CIREP",
		"latitude": "39-5-4.91 N",
		"longitude": "77-27-27.59 W",
		"state": "MARYLAND",
		"artcc": "ZDC",
		"type": "RNAV",
		"updated": "06/26/2007"
	},
	{
		"name": "CIRKO",
		"latitude": "35-24-39.62 N",
		"longitude": "78-42-2.37 W",
		"state": "NORTH CAROLINA",
		"artcc": "ZDC",
		"type": "RNAV",
		"updated": "09/06/2007"
	},
	{
		"name": "CIROM",
		"latitude": "39-37-33.93 N",
		"longitude": "75-36-31.6 W",
		"state": "DELAWARE",
		"artcc": "ZDC",
		"type": "RNAV",
		"updated": "09/11/2009"
	},
	{
		"name": "CIRUT",
		"latitude": "36-42-55.35 N",
		"longitude": "79-4-20.15 W",
		"state": "VIRGINIA",
		"artcc": "ZDC",
		"type": "RNAV",
		"updated": "10/06/2015"
	},
	{
		"name": "CISOM",
		"latitude": "35-52-46.13 N",
		"longitude": "77-47-37.99 W",
		"state": "NORTH CAROLINA",
		"artcc": "ZDC",
		"type": "RNAV",
		"updated": "12/05/2003"
	},
	{
		"name": "CISSY",
		"latitude": "39-38-20.1 N",
		"longitude": "75-51-7.38 W",
		"state": "MARYLAND",
		"artcc": "ZDC",
		"type": "WP",
		"updated": "OOD*VORTAC*280.56/25.45"
	},
	{
		"name": "CISUK",
		"latitude": "34-49-20.07 N",
		"longitude": "77-14-26.29 W",
		"state": "NORTH CAROLINA",
		"artcc": "ZDC",
		"type": "RNAV",
		"updated": "12/05/2003"
	},
	{
		"name": "CITNU",
		"latitude": "37-5-7.09 N",
		"longitude": "79-48-0.48 W",
		"state": "VIRGINIA",
		"artcc": "ZDC",
		"type": "RNAV",
		"updated": "03/02/2018"
	},
	{
		"name": "CITOK",
		"latitude": "37-14-1.23 N",
		"longitude": "80-6-54.4 W",
		"state": "VIRGINIA",
		"artcc": "ZDC",
		"type": "RNAV",
		"updated": "02/14/2018"
	},
	{
		"name": "CITRA",
		"latitude": "34-47-27 N",
		"longitude": "74-17-28 W",
		"state": "OFFSHORE ATLANTIC",
		"artcc": "ZDC",
		"type": "WP",
		"updated": "03/26/2002"
	},
	{
		"name": "CITTY",
		"latitude": "39-13-51.4 N",
		"longitude": "76-32-16.8 W",
		"state": "MARYLAND",
		"artcc": "ZDC",
		"type": "RNAV",
		"updated": "12/29/2016"
	},
	{
		"name": "CIXAK",
		"latitude": "35-56-17.16 N",
		"longitude": "77-34-56.51 W",
		"state": "NORTH CAROLINA",
		"artcc": "ZDC",
		"type": "RNAV",
		"updated": "09/30/2013"
	},
	{
		"name": "CIYAS",
		"latitude": "37-13-57.4 N",
		"longitude": "80-28-7.22 W",
		"state": "VIRGINIA",
		"artcc": "ZDC",
		"type": "RP",
		"updated": "BCB*LE*NW CRS/3.69"
	},
	{
		"name": "CIYAT",
		"latitude": "37-22-32.5 N",
		"longitude": "79-22-1.57 W",
		"state": "VIRGINIA",
		"artcc": "ZDC",
		"type": "RNAV",
		"updated": "04/05/2012"
	},
	{
		"name": "CJAAE",
		"latitude": "37-51-49.68 N",
		"longitude": "80-23-31.3 W",
		"state": "WEST VIRGINIA",
		"artcc": "ZDC",
		"type": "RNAV",
		"updated": "01/12/2015"
	},
	{
		"name": "CLADD",
		"latitude": "39-0-18.4 N",
		"longitude": "77-57-33.94 W",
		"state": "VIRGINIA",
		"artcc": "ZDC",
		"type": "RP",
		"updated": "LDN*VORTAC*057.83"
	},
	{
		"name": "CLAMB",
		"latitude": "38-17-15.77 N",
		"longitude": "76-24-1.22 W",
		"state": "MARYLAND",
		"artcc": "ZDC",
		"type": "RNAV",
		"updated": "04/24/2017"
	},
	{
		"name": "CLAMI",
		"latitude": "39-50-39.07 N",
		"longitude": "74-48-38.74 W",
		"state": "NEW JERSEY",
		"artcc": "ZNY",
		"type": "MR",
		"updated": "GXU*VORTAC*/14.00"
	},
	{
		"name": "CLAMM",
		"latitude": "37-14-59.63 N",
		"longitude": "80-9-55.05 W",
		"state": "VIRGINIA",
		"artcc": "ZDC",
		"type": "RNAV",
		"updated": "06/12/2015"
	},
	{
		"name": "CLAPY",
		"latitude": "35-35-40.98 N",
		"longitude": "76-54-34.3 W",
		"state": "NORTH CAROLINA",
		"artcc": "ZDC",
		"type": "RP",
		"updated": "ORF*VORTAC*211.10/85.00"
	},
	{
		"name": "CLASY",
		"latitude": "38-48-11.01 N",
		"longitude": "75-55-16.29 W",
		"state": "MARYLAND",
		"artcc": "ZDC",
		"type": "RP",
		"updated": "BRV*VORTAC*076.00/72.95"
	},
	{
		"name": "CLAYY",
		"latitude": "39-5-38.33 N",
		"longitude": "77-28-21.52 W",
		"state": "VIRGINIA",
		"artcc": "ZDC",
		"type": "RP",
		"updated": "ISU*LD*N CRS/7.22"
	},
	{
		"name": "CLEAT",
		"latitude": "39-11-30.38 N",
		"longitude": "76-58-18.22 W",
		"state": "MARYLAND",
		"artcc": "ZDC",
		"type": "RP",
		"updated": "BAL*VORTAC*286.00/14.54"
	},
	{
		"name": "CLIFE",
		"latitude": "35-56-48.66 N",
		"longitude": "78-42-44.75 W",
		"state": "NORTH CAROLINA",
		"artcc": "ZDC",
		"type": "RNAV",
		"updated": "03/05/2013"
	},
	{
		"name": "CLIPT",
		"latitude": "36-22-25.87 N",
		"longitude": "76-12-5.98 W",
		"state": "NORTH CAROLINA",
		"artcc": "ZDC",
		"type": "RNAV",
		"updated": "01/11/2018"
	},
	{
		"name": "CLLEG",
		"latitude": "38-40-46.87 N",
		"longitude": "78-23-30.47 W",
		"state": "VIRGINIA",
		"artcc": "ZDC",
		"type": "RP",
		"updated": "AML*VOR/DME*258.89/46.00"
	},
	{
		"name": "CLORY",
		"latitude": "39-12-15.38 N",
		"longitude": "77-3-34.72 W",
		"state": "MARYLAND",
		"artcc": "ZDC",
		"type": "WP",
		"updated": "DCA*VOR/DME*006.00/20.70"
	},
	{
		"name": "CLTCH",
		"latitude": "38-26-51.62 N",
		"longitude": "77-54-20.14 W",
		"state": "VIRGINIA",
		"artcc": "ZDC",
		"type": "RNAV",
		"updated": "04/04/2016"
	},
	{
		"name": "CLYFF",
		"latitude": "37-40-9.45 N",
		"longitude": "79-9-12.76 W",
		"state": "VIRGINIA",
		"artcc": "ZDC",
		"type": "RP",
		"updated": "ROA*VOR/DME*069.68/47.93"
	},
	{
		"name": "CMBRG",
		"latitude": "35-47-7.01 N",
		"longitude": "78-48-44.75 W",
		"state": "NORTH CAROLINA",
		"artcc": "ZDC",
		"type": "CN",
		"updated": "07/21/2009"
	},
	{
		"name": "COATT",
		"latitude": "37-57-29.81 N",
		"longitude": "77-34-36.49 W",
		"state": "VIRGINIA",
		"artcc": "ZDC",
		"type": "RP",
		"updated": "FAK*VORTAC*030.84/28.40"
	},
	{
		"name": "COBBE",
		"latitude": "38-21-31.93 N",
		"longitude": "80-31-48.09 W",
		"state": "WEST VIRGINIA",
		"artcc": "ZDC",
		"type": "RNAV",
		"updated": "06/30/2009"
	},
	{
		"name": "COBUS",
		"latitude": "40-3-21 N",
		"longitude": "74-48-35.69 W",
		"state": "NEW JERSEY",
		"artcc": "ZDC",
		"type": "RP",
		"updated": "ARD*VOR/DME*169.18"
	},
	{
		"name": "COCAV",
		"latitude": "39-1-42.14 N",
		"longitude": "77-28-42.95 W",
		"state": "VIRGINIA",
		"artcc": "ZDC",
		"type": "RNAV",
		"updated": "10/06/2008"
	},
	{
		"name": "CODAC",
		"latitude": "38-19-24.08 N",
		"longitude": "77-22-24.5 W",
		"state": "VIRGINIA",
		"artcc": "ZDC",
		"type": "RP",
		"updated": "BRV*VORTAC*240.61"
	},
	{
		"name": "CODNI",
		"latitude": "38-19-11.9 N",
		"longitude": "75-13-44.83 W",
		"state": "MARYLAND",
		"artcc": "ZDC",
		"type": "RP",
		"updated": "ATR*VOR/DME*190.64"
	},
	{
		"name": "COGAG",
		"latitude": "35-25-22.03 N",
		"longitude": "78-1-25.28 W",
		"state": "NORTH CAROLINA",
		"artcc": "ZDC",
		"type": "RNAV",
		"updated": "08/08/2005"
	},
	{
		"name": "COGAN",
		"latitude": "39-5-10.39 N",
		"longitude": "78-4-3.74 W",
		"state": "VIRGINIA",
		"artcc": "ZDC",
		"type": "RP",
		"updated": "LDN*VORTAC*030.86"
	},
	{
		"name": "COGBO",
		"latitude": "36-3-6.68 N",
		"longitude": "78-18-12.04 W",
		"state": "NORTH CAROLINA",
		"artcc": "ZDC",
		"type": "RNAV",
		"updated": "08/01/2011"
	},
	{
		"name": "COHAN",
		"latitude": "35-26-25.73 N",
		"longitude": "77-52-23.9 W",
		"state": "NORTH CAROLINA",
		"artcc": "ZDC",
		"type": "RP",
		"updated": "ISO*VORTAC*290.00/16.00"
	},
	{
		"name": "COINZ",
		"latitude": "38-34-52.91 N",
		"longitude": "77-22-23.58 W",
		"state": "VIRGINIA",
		"artcc": "ZDC",
		"type": "RNAV",
		"updated": "12/09/2015"
	},
	{
		"name": "COKLI",
		"latitude": "36-48-42.34 N",
		"longitude": "76-16-47.03 W",
		"state": "VIRGINIA",
		"artcc": "ZDC",
		"type": "RNAV",
		"updated": "07/13/2011"
	},
	{
		"name": "COLAB",
		"latitude": "37-35-32.29 N",
		"longitude": "78-25-40.69 W",
		"state": "VIRGINIA",
		"artcc": "ZDC",
		"type": "RP",
		"updated": "GVE*VORTAC*213.46/28.43"
	},
	{
		"name": "COLBE",
		"latitude": "38-16-37.77 N",
		"longitude": "75-23-58.16 W",
		"state": "MARYLAND",
		"artcc": "ZDC",
		"type": "RP",
		"updated": "SBY*VORTAC*139.74/6.64"
	},
	{
		"name": "COLEX",
		"latitude": "39-45-26 N",
		"longitude": "74-43-33 W",
		"state": "NEW JERSEY",
		"artcc": "ZNY",
		"type": "MW",
		"updated": "08/12/2009"
	},
	{
		"name": "COLIN",
		"latitude": "38-5-59.23 N",
		"longitude": "76-39-50.85 W",
		"state": "VIRGINIA",
		"artcc": "ZDC",
		"type": "RP",
		"updated": "BRV*VORTAC*122.31"
	},
	{
		"name": "COLKI",
		"latitude": "36-11-40.92 N",
		"longitude": "79-41-19.21 W",
		"state": "NORTH CAROLINA",
		"artcc": "ZDC",
		"type": "RNAV",
		"updated": "09/17/2009"
	},
	{
		"name": "COLNS",
		"latitude": "38-50-25.48 N",
		"longitude": "79-11-48.61 W",
		"state": "WEST VIRGINIA",
		"artcc": "ZDC",
		"type": "RP",
		"updated": "MRB*VORTAC*250.00/70.95"
	},
	{
		"name": "COLUM",
		"latitude": "39-11-12.29 N",
		"longitude": "76-54-12.98 W",
		"state": "MARYLAND",
		"artcc": "ZDC",
		"type": "RP",
		"updated": "BAL*VORTAC*285.83/11.35"
	},
	{
		"name": "COMOZ",
		"latitude": "35-20-44.19 N",
		"longitude": "77-55-49.68 W",
		"state": "NORTH CAROLINA",
		"artcc": "ZDC",
		"type": "MR",
		"updated": "GSB*TACAN*080.71/2.10"
	},
	{
		"name": "CONCA",
		"latitude": "35-36-22.71 N",
		"longitude": "78-44-36.64 W",
		"state": "NORTH CAROLINA",
		"artcc": "ZDC",
		"type": "RNAV",
		"updated": "12/02/2002"
	},
	{
		"name": "CONCO",
		"latitude": "37-18-26.32 N",
		"longitude": "78-58-22.96 W",
		"state": "VIRGINIA",
		"artcc": "ZDC",
		"type": "RP",
		"updated": "SBV*VORTAC*008.00"
	},
	{
		"name": "CONEB",
		"latitude": "39-55-33.6 N",
		"longitude": "74-39-51.28 W",
		"state": "NEW JERSEY",
		"artcc": "ZNY",
		"type": "MR",
		"updated": "GXU*VORTAC*224.00/5.90"
	},
	{
		"name": "CONEP",
		"latitude": "36-41-17.99 N",
		"longitude": "80-9-6.74 W",
		"state": "VIRGINIA",
		"artcc": "ZDC",
		"type": "RNAV",
		"updated": "08/17/2010"
	},
	{
		"name": "CONLE",
		"latitude": "38-41-30.26 N",
		"longitude": "76-35-1.62 W",
		"state": "MARYLAND",
		"artcc": "ZDC",
		"type": "RNAV",
		"updated": "03/11/2015"
	},
	{
		"name": "CONOM",
		"latitude": "35-44-40 N",
		"longitude": "78-37-55.07 W",
		"state": "NORTH CAROLINA",
		"artcc": "ZDC",
		"type": "CN",
		"updated": "07/21/2009"
	},
	{
		"name": "COOPC",
		"latitude": "37-10-0.53 N",
		"longitude": "76-44-58.85 W",
		"state": "VIRGINIA",
		"artcc": "ZDC",
		"type": "MR",
		"updated": "PXT*VORTAC*204.01/69.21"
	},
	{
		"name": "COPIG",
		"latitude": "36-55-11.95 N",
		"longitude": "76-40-18.15 W",
		"state": "VIRGINIA",
		"artcc": "ZDC",
		"type": "RNAV",
		"updated": "01/10/2018"
	},
	{
		"name": "COPIL",
		"latitude": "35-11-14.3 N",
		"longitude": "78-59-47.64 W",
		"state": "NORTH CAROLINA",
		"artcc": "ZDC",
		"type": "MR",
		"updated": "POB*TACAN*052.00/1.60"
	},
	{
		"name": "COPIX",
		"latitude": "40-12-32.9 N",
		"longitude": "74-54-17.24 W",
		"state": "PENNSYLVANIA",
		"artcc": "ZDC",
		"type": "RP",
		"updated": "GXU*VORTAC*322.25"
	},
	{
		"name": "CORET",
		"latitude": "37-43-48.84 N",
		"longitude": "76-30-55.18 W",
		"state": "VIRGINIA",
		"artcc": "ZDC",
		"type": "RP",
		"updated": "CCV*VORTAC*323.00/33.71"
	},
	{
		"name": "CORIL",
		"latitude": "36-30-31.17 N",
		"longitude": "75-18-24.12 W",
		"state": "VIRGINIA",
		"artcc": "ZDC",
		"type": "MR",
		"updated": "NTU*TACAN*127.00/40.00"
	},
	{
		"name": "CORNE",
		"latitude": "38-46-58 N",
		"longitude": "74-9-52 W",
		"state": "OFFSHORE ATLANTIC",
		"artcc": "ZDC",
		"type": "RNAV",
		"updated": "03/23/2018"
	},
	{
		"name": "COSDU",
		"latitude": "38-33-31.35 N",
		"longitude": "79-2-48.45 W",
		"state": "VIRGINIA",
		"artcc": "ZDC",
		"type": "RNAV",
		"updated": "01/22/2010"
	},
	{
		"name": "COSHA",
		"latitude": "38-57-57.57 N",
		"longitude": "75-30-51.59 W",
		"state": "DELAWARE",
		"artcc": "ZDC",
		"type": "RNAV",
		"updated": "08/20/2015"
	},
	{
		"name": "COSUR",
		"latitude": "38-47-38.79 N",
		"longitude": "76-52-9.99 W",
		"state": "MARYLAND",
		"artcc": "ZDC",
		"type": "MR",
		"updated": "ADW*VORTAC*200.77/0.80"
	},
	{
		"name": "COTED",
		"latitude": "39-22-1.23 N",
		"longitude": "75-12-32.07 W",
		"state": "NEW JERSEY",
		"artcc": "ZDC",
		"type": "RNAV",
		"updated": "05/31/2011"
	},
	{
		"name": "COTEN",
		"latitude": "35-32-17.89 N",
		"longitude": "79-37-39.63 W",
		"state": "NORTH CAROLINA",
		"artcc": "ZDC",
		"type": "RNAV",
		"updated": "11/10/2014"
	},
	{
		"name": "COTMA",
		"latitude": "39-28-39.77 N",
		"longitude": "75-37-32.72 W",
		"state": "DELAWARE",
		"artcc": "ZDC",
		"type": "RNAV",
		"updated": "09/11/2009"
	},
	{
		"name": "COTUB",
		"latitude": "34-32-32.43 N",
		"longitude": "78-49-3.44 W",
		"state": "NORTH CAROLINA",
		"artcc": "ZDC",
		"type": "RP",
		"updated": "FAY*VOR/DME*177.88/26.70"
	},
	{
		"name": "COTUL",
		"latitude": "37-26-42.87 N",
		"longitude": "78-26-47.49 W",
		"state": "VIRGINIA",
		"artcc": "ZDC",
		"type": "RNAV",
		"updated": "07/20/2011"
	},
	{
		"name": "COTUR",
		"latitude": "37-26-51.19 N",
		"longitude": "78-58-19.36 W",
		"state": "VIRGINIA",
		"artcc": "ZDC",
		"type": "RNAV",
		"updated": "07/20/2011"
	},
	{
		"name": "COULD",
		"latitude": "35-25-18.11 N",
		"longitude": "77-11-19.41 W",
		"state": "NORTH CAROLINA",
		"artcc": "ZDC",
		"type": "RNAV",
		"updated": "12/01/2008"
	},
	{
		"name": "COUPN",
		"latitude": "36-42-50.83 N",
		"longitude": "77-0-44.04 W",
		"state": "VIRGINIA",
		"artcc": "ZDC",
		"type": "RNAV",
		"updated": "04/28/2017"
	},
	{
		"name": "COURG",
		"latitude": "39-12-1.14 N",
		"longitude": "78-43-44.52 W",
		"state": "WEST VIRGINIA",
		"artcc": "ZDC",
		"type": "RNAV",
		"updated": "06/02/2012"
	},
	{
		"name": "COVAP",
		"latitude": "37-29-59.65 N",
		"longitude": "77-5-5.94 W",
		"state": "VIRGINIA",
		"artcc": "ZDC",
		"type": "RNAV",
		"updated": "06/21/2013"
	},
	{
		"name": "COVEY",
		"latitude": "37-36-58.03 N",
		"longitude": "80-4-31.34 W",
		"state": "VIRGINIA",
		"artcc": "ZDC",
		"type": "RP",
		"updated": "ROA*VOR/DME*003.17"
	},
	{
		"name": "COVKU",
		"latitude": "35-37-26.3 N",
		"longitude": "79-33-50.64 W",
		"state": "NORTH CAROLINA",
		"artcc": "ZDC",
		"type": "RNAV",
		"updated": "11/10/2014"
	},
	{
		"name": "COVSO",
		"latitude": "37-24-0.48 N",
		"longitude": "77-16-13.95 W",
		"state": "VIRGINIA",
		"artcc": "ZDC",
		"type": "RNAV",
		"updated": "06/11/2014"
	},
	{
		"name": "COVTO",
		"latitude": "38-56-49.58 N",
		"longitude": "77-8-2.23 W",
		"state": "VIRGINIA",
		"artcc": "ZDC",
		"type": "RNAV",
		"updated": "01/20/2011"
	},
	{
		"name": "COVUK",
		"latitude": "39-40-27.71 N",
		"longitude": "77-59-18.1 W",
		"state": "MARYLAND",
		"artcc": "ZDC",
		"type": "RP",
		"updated": "MRB*VORTAC*346.47"
	},
	{
		"name": "COVUR",
		"latitude": "39-21-32.66 N",
		"longitude": "77-27-12.49 W",
		"state": "MARYLAND",
		"artcc": "ZDC",
		"type": "RNAV",
		"updated": "07/25/2014"
	},
	{
		"name": "COXOG",
		"latitude": "36-53-22.91 N",
		"longitude": "75-57-30.31 W",
		"state": "VIRGINIA",
		"artcc": "ZDC",
		"type": "MW",
		"updated": "01/12/2015"
	},
	{
		"name": "COYRO",
		"latitude": "37-26-17.82 N",
		"longitude": "77-33-25.42 W",
		"state": "VIRGINIA",
		"artcc": "ZDC",
		"type": "RNAV",
		"updated": "03/02/2010"
	},
	{
		"name": "CRABZ",
		"latitude": "39-21-34.81 N",
		"longitude": "76-30-45.57 W",
		"state": "MARYLAND",
		"artcc": "ZDC",
		"type": "RNAV",
		"updated": "08/12/2015"
	},
	{
		"name": "CRADD",
		"latitude": "37-35-52.22 N",
		"longitude": "75-59-53.13 W",
		"state": "VIRGINIA",
		"artcc": "ZDC",
		"type": "RP",
		"updated": "CCV*VORTAC*009.92/15.00"
	},
	{
		"name": "CRAIN",
		"latitude": "39-26-42.06 N",
		"longitude": "77-24-15.46 W",
		"state": "MARYLAND",
		"artcc": "ZDC",
		"type": "RNAV",
		"updated": "06/30/2015"
	},
	{
		"name": "CRAKO",
		"latitude": "35-54-55.18 N",
		"longitude": "77-48-11.41 W",
		"state": "NORTH CAROLINA",
		"artcc": "ZDC",
		"type": "RP",
		"updated": "TYI*VORTAC*237.79/6.08"
	},
	{
		"name": "CRESI",
		"latitude": "39-36-39.32 N",
		"longitude": "74-37-34.66 W",
		"state": "NEW JERSEY",
		"artcc": "ZDC",
		"type": "RP",
		"updated": "CYN*VORTAC*226.00/15.30"
	},
	{
		"name": "CREWE",
		"latitude": "37-1-22.85 N",
		"longitude": "78-13-3.62 W",
		"state": "VIRGINIA",
		"artcc": "ZDC",
		"type": "RP",
		"updated": "RIC*VORTAC*245.52/51.70"
	},
	{
		"name": "CRIKK",
		"latitude": "35-24-20.96 N",
		"longitude": "77-42-56.71 W",
		"state": "NORTH CAROLINA",
		"artcc": "ZDC",
		"type": "RP",
		"updated": "ISO*VORTAC*290.18/8.00"
	},
	{
		"name": "CRLYL",
		"latitude": "34-36-29.97 N",
		"longitude": "78-45-46.48 W",
		"state": "NORTH CAROLINA",
		"artcc": "ZDC",
		"type": "RNAV",
		"updated": "07/01/2011"
	},
	{
		"name": "CRLYN",
		"latitude": "38-31-2.13 N",
		"longitude": "77-38-1.72 W",
		"state": "VIRGINIA",
		"artcc": "ZDC",
		"type": "RNAV",
		"updated": "02/13/2012"
	},
	{
		"name": "CROAK",
		"latitude": "36-56-18.66 N",
		"longitude": "73-0-0.06 W",
		"state": "VIRGINIA",
		"artcc": "ZDC",
		"type": "RP",
		"updated": "05/11/1990"
	},
	{
		"name": "CROFT",
		"latitude": "38-47-39.15 N",
		"longitude": "76-58-40.81 W",
		"state": "MARYLAND",
		"artcc": "ZDC",
		"type": "RNAV",
		"updated": "07/16/2015"
	},
	{
		"name": "CROOM",
		"latitude": "36-50-29.5 N",
		"longitude": "76-15-3.8 W",
		"state": "VIRGINIA",
		"artcc": "ZDC",
		"type": "RNAV",
		"updated": "12/01/2017"
	},
	{
		"name": "CROOZ",
		"latitude": "39-4-12.51 N",
		"longitude": "77-16-48.76 W",
		"state": "MARYLAND",
		"artcc": "ZDC",
		"type": "RP",
		"updated": "ASO*DD*329.00/17.00"
	},
	{
		"name": "CROPS",
		"latitude": "36-10-50.82 N",
		"longitude": "76-14-54.12 W",
		"state": "NORTH CAROLINA",
		"artcc": "ZDC",
		"type": "RP",
		"updated": "ECG*VOR/DME*224.53/5.80"
	},
	{
		"name": "CROSE",
		"latitude": "39-22-0.84 N",
		"longitude": "74-56-13.35 W",
		"state": "NEW JERSEY",
		"artcc": "ZDC",
		"type": "RNAV",
		"updated": "04/13/2006"
	},
	{
		"name": "CRRIS",
		"latitude": "39-18-52 N",
		"longitude": "76-16-45 W",
		"state": "MARYLAND",
		"artcc": "ZDC",
		"type": "RNAV",
		"updated": "10/22/2001"
	},
	{
		"name": "CRROL",
		"latitude": "38-42-1.64 N",
		"longitude": "77-1-31.18 W",
		"state": "MARYLAND",
		"artcc": "ZDC",
		"type": "RNAV",
		"updated": "04/02/2007"
	},
	{
		"name": "CRUMB",
		"latitude": "37-28-9.44 N",
		"longitude": "78-8-27.69 W",
		"state": "VIRGINIA",
		"artcc": "ZDC",
		"type": "RP",
		"updated": "FAK*VORTAC*263.00/15.00"
	},
	{
		"name": "CRVER",
		"latitude": "39-18-39.24 N",
		"longitude": "77-40-55.79 W",
		"state": "VIRGINIA",
		"artcc": "ZDC",
		"type": "RNAV",
		"updated": "06/22/2007"
	},
	{
		"name": "CTHRO",
		"latitude": "37-52-34.53 N",
		"longitude": "78-34-19.29 W",
		"state": "VIRGINIA",
		"artcc": "ZDC",
		"type": "RNAV",
		"updated": "06/24/2011"
	},
	{
		"name": "CUBBE",
		"latitude": "39-46-48.5 N",
		"longitude": "75-35-27.88 W",
		"state": "DELAWARE",
		"artcc": "ZDC",
		"type": "RNAV",
		"updated": "09/11/2009"
	},
	{
		"name": "CUBEG",
		"latitude": "36-53-14.36 N",
		"longitude": "78-13-22.81 W",
		"state": "VIRGINIA",
		"artcc": "ZDC",
		"type": "RNAV",
		"updated": "11/16/2010"
	},
	{
		"name": "CUBRU",
		"latitude": "36-6-11.93 N",
		"longitude": "78-52-44.56 W",
		"state": "NORTH CAROLINA",
		"artcc": "ZDC",
		"type": "RNAV",
		"updated": "07/21/2009"
	},
	{
		"name": "CUBUT",
		"latitude": "39-54-55.88 N",
		"longitude": "75-1-11.17 W",
		"state": "NEW JERSEY",
		"artcc": "ZDC",
		"type": "RNAV",
		"updated": "07/09/2009"
	},
	{
		"name": "CUGET",
		"latitude": "39-25-38.99 N",
		"longitude": "75-8-54.59 W",
		"state": "NEW JERSEY",
		"artcc": "ZDC",
		"type": "RNAV",
		"updated": "04/12/2006"
	},
	{
		"name": "CUKAT",
		"latitude": "38-47-20.01 N",
		"longitude": "76-40-48.59 W",
		"state": "MARYLAND",
		"artcc": "ZDC",
		"type": "RNAV",
		"updated": "06/21/2012"
	},
	{
		"name": "CUKES",
		"latitude": "34-37-0.67 N",
		"longitude": "76-28-42.76 W",
		"state": "NORTH CAROLINA",
		"artcc": "ZDC",
		"type": "RP",
		"updated": "NKT*TACAN*140.00/26.00"
	},
	{
		"name": "CUKLI",
		"latitude": "38-59-10.33 N",
		"longitude": "77-16-34.81 W",
		"state": "VIRGINIA",
		"artcc": "ZDC",
		"type": "RNAV",
		"updated": "05/04/2015"
	},
	{
		"name": "CULAT",
		"latitude": "35-12-31.49 N",
		"longitude": "75-54-49.04 W",
		"state": "NORTH CAROLINA",
		"artcc": "ZDC",
		"type": "RNAV",
		"updated": "01/02/2003"
	},
	{
		"name": "CUMBE",
		"latitude": "39-24-45.12 N",
		"longitude": "76-36-22.86 W",
		"state": "MARYLAND",
		"artcc": "ZDC",
		"type": "RP",
		"updated": "BAL*VORTAC*021.00/14.70"
	},
	{
		"name": "CUMBY",
		"latitude": "36-56-17 N",
		"longitude": "73-18-16 W",
		"state": "OFFSHORE ATLANTIC",
		"artcc": "ZDC",
		"type": "RNAV",
		"updated": "03/23/2018"
	},
	{
		"name": "CUMIV",
		"latitude": "35-34-44.14 N",
		"longitude": "77-52-13.74 W",
		"state": "NORTH CAROLINA",
		"artcc": "ZDC",
		"type": "RNAV",
		"updated": "09/30/2013"
	},
	{
		"name": "CUMKU",
		"latitude": "36-56-30.34 N",
		"longitude": "75-50-6.73 W",
		"state": "VIRGINIA",
		"artcc": "ZDC",
		"type": "MR",
		"updated": "NTU*TACAN*064.00/12.00"
	},
	{
		"name": "CUMTO",
		"latitude": "34-45-11.22 N",
		"longitude": "76-41-16.34 W",
		"state": "NORTH CAROLINA",
		"artcc": "ZDC",
		"type": "RNAV",
		"updated": "03/26/2012"
	},
	{
		"name": "CUMUT",
		"latitude": "35-34-31.54 N",
		"longitude": "78-22-19.2 W",
		"state": "NORTH CAROLINA",
		"artcc": "ZDC",
		"type": "RNAV",
		"updated": "03/04/2015"
	},
	{
		"name": "CUNED",
		"latitude": "39-10-40.79 N",
		"longitude": "76-44-47.43 W",
		"state": "MARYLAND",
		"artcc": "ZDC",
		"type": "CN",
		"updated": "12/04/2014"
	},
	{
		"name": "CUNNY",
		"latitude": "38-43-44.19 N",
		"longitude": "78-24-17.66 W",
		"state": "VIRGINIA",
		"artcc": "ZDC",
		"type": "RP",
		"updated": "LDN*VORTAC*237.26/12.00"
	},
	{
		"name": "CUNUP",
		"latitude": "37-43-31.75 N",
		"longitude": "79-29-53.75 W",
		"state": "VIRGINIA",
		"artcc": "ZDC",
		"type": "RNAV",
		"updated": "04/05/2018"
	},
	{
		"name": "CUPLI",
		"latitude": "34-56-49.19 N",
		"longitude": "79-50-51.53 W",
		"state": "NORTH CAROLINA",
		"artcc": "ZDC",
		"type": "RNAV",
		"updated": "04/27/2010"
	},
	{
		"name": "CUPSI",
		"latitude": "36-54-36.24 N",
		"longitude": "75-28-24.27 W",
		"state": "OFFSHORE ATLANTIC",
		"artcc": "ZDC",
		"type": "MR",
		"updated": "ORF*VORTAC*095.00/35.00"
	},
	{
		"name": "CUPUS",
		"latitude": "35-43-46.5 N",
		"longitude": "79-40-58.91 W",
		"state": "NORTH CAROLINA",
		"artcc": "ZDC",
		"type": "RNAV",
		"updated": "11/21/2003"
	},
	{
		"name": "CURAB",
		"latitude": "37-46-15.29 N",
		"longitude": "75-35-41.03 W",
		"state": "VIRGINIA",
		"artcc": "ZDC",
		"type": "RNAV",
		"updated": "08/15/2013"
	},
	{
		"name": "CURAC",
		"latitude": "38-58-20.03 N",
		"longitude": "80-1-35.52 W",
		"state": "WEST VIRGINIA",
		"artcc": "ZDC",
		"type": "RNAV",
		"updated": "07/12/2011"
	},
	{
		"name": "CURBY",
		"latitude": "39-33-17.96 N",
		"longitude": "78-36-35.74 W",
		"state": "MARYLAND",
		"artcc": "ZDC",
		"type": "RNAV",
		"updated": "09/23/2014"
	},
	{
		"name": "CURLS",
		"latitude": "34-33-34.72 N",
		"longitude": "77-24-20.32 W",
		"state": "NORTH CAROLINA",
		"artcc": "ZDC",
		"type": "MR",
		"updated": "NCA*TACAN*177.00/9.00"
	},
	{
		"name": "CURUB",
		"latitude": "37-7-13.29 N",
		"longitude": "76-14-47.94 W",
		"state": "VIRGINIA",
		"artcc": "ZDC",
		"type": "MR",
		"updated": "LFI*TACAN*/5.80"
	},
	{
		"name": "CUSOP",
		"latitude": "38-32-16.98 N",
		"longitude": "78-36-44.21 W",
		"state": "VIRGINIA",
		"artcc": "ZDC",
		"type": "RNAV",
		"updated": "07/20/2011"
	},
	{
		"name": "CUTOM",
		"latitude": "38-5-7.72 N",
		"longitude": "79-4-26.08 W",
		"state": "VIRGINIA",
		"artcc": "ZDC",
		"type": "RP",
		"updated": "MOL*VOR/DME*013.02"
	},
	{
		"name": "CUTOP",
		"latitude": "39-10-5.17 N",
		"longitude": "76-58-16.47 W",
		"state": "MARYLAND",
		"artcc": "ZDC",
		"type": "RP",
		"updated": "BAL*VORTAC*280.39"
	},
	{
		"name": "CUTSI",
		"latitude": "41-37-34.56 N",
		"longitude": "71-30-30 W",
		"state": "RHODE ISLAND",
		"artcc": "ZDC",
		"type": "RP",
		"updated": "PVD*LD*227.16/7.50"
	},
	{
		"name": "CUUBE",
		"latitude": "34-42-16.4 N",
		"longitude": "79-13-19.24 W",
		"state": "NORTH CAROLINA",
		"artcc": "ZDC",
		"type": "RNAV",
		"updated": "07/18/2011"
	},
	{
		"name": "CUVAL",
		"latitude": "34-40-38.08 N",
		"longitude": "77-47-31.29 W",
		"state": "NORTH CAROLINA",
		"artcc": "ZDC",
		"type": "RNAV",
		"updated": "04/07/2012"
	},
	{
		"name": "CUVAR",
		"latitude": "36-31-21.76 N",
		"longitude": "78-42-36.56 W",
		"state": "NORTH CAROLINA",
		"artcc": "ZDC",
		"type": "RNAV",
		"updated": "07/20/2009"
	},
	{
		"name": "CUVOL",
		"latitude": "39-1-35.66 N",
		"longitude": "79-11-24.53 W",
		"state": "WEST VIRGINIA",
		"artcc": "ZDC",
		"type": "RNAV",
		"updated": "08/12/2013"
	},
	{
		"name": "CUXAS",
		"latitude": "37-23-41.13 N",
		"longitude": "76-38-17.9 W",
		"state": "VIRGINIA",
		"artcc": "ZDC",
		"type": "RNAV",
		"updated": "01/10/2018"
	},
	{
		"name": "CUXOK",
		"latitude": "39-0-57.38 N",
		"longitude": "75-27-23.2 W",
		"state": "DELAWARE",
		"artcc": "ZDC",
		"type": "MR",
		"updated": "DOV*TACAN*187.80/7.00"
	},
	{
		"name": "CUXOW",
		"latitude": "38-17-11.84 N",
		"longitude": "75-33-5.88 W",
		"state": "MARYLAND",
		"artcc": "ZDC",
		"type": "CN",
		"updated": "12/04/2014"
	},
	{
		"name": "CUXYY",
		"latitude": "38-22-32.92 N",
		"longitude": "75-27-37.74 W",
		"state": "MARYLAND",
		"artcc": "ZDC",
		"type": "CN",
		"updated": "12/04/2014"
	},
	{
		"name": "CUYJI",
		"latitude": "38-18-1.18 N",
		"longitude": "75-26-51.53 W",
		"state": "MARYLAND",
		"artcc": "ZDC",
		"type": "CN",
		"updated": "12/04/2014"
	},
	{
		"name": "CWINE",
		"latitude": "39-12-15.5 N",
		"longitude": "78-4-13.26 W",
		"state": "VIRGINIA",
		"artcc": "ZDC",
		"type": "RP",
		"updated": "MRB*VORTAC*230.65/15.00"
	}
]
