	{
		"name": "DAANY",
		"latitude": "35-54-46.79 N",
		"longitude": "78-57-40.08 W",
		"state": "NORTH CAROLINA",
		"artcc": "ZDC",
		"type": "RP",
		"updated": "RDU*VORTAC*289.68/9.00",
	},
	{
		"name": "DAASH",
		"latitude": "39-50-18.85 N",
		"longitude": "74-57-46.13 W",
		"state": "NEW JERSEY",
		"artcc": "ZDC",
		"type": "RNAV",
		"updated": "05/31/2000",
	},
	{
		"name": "DADEY",
		"latitude": "39-13-52.68 N",
		"longitude": "77-25-54.59 W",
		"state": "MARYLAND",
		"artcc": "ZDC",
		"type": "RP",
		"updated": "SGC*LD*010.67/18.68",
	},
	{
		"name": "DAGME",
		"latitude": "38-28-36.18 N",
		"longitude": "77-49-47.39 W",
		"state": "VIRGINIA",
		"artcc": "ZDC",
		"type": "RNAV",
		"updated": "04/18/2014",
	},
	{
		"name": "DAILY",
		"latitude": "38-33-37.83 N",
		"longitude": "76-43-31.05 W",
		"state": "MARYLAND",
		"artcc": "ZDC",
		"type": "RP",
		"updated": "OTT*VORTAC*184.00/8.76",
	},
	{
		"name": "DAKEY",
		"latitude": "39-1-56.27 N",
		"longitude": "76-5-45.67 W",
		"state": "MARYLAND",
		"artcc": "ZDC",
		"type": "RNAV",
		"updated": "04/16/2003",
	},
	{
		"name": "DALNE",
		"latitude": "36-27-27.23 N",
		"longitude": "76-3-38.99 W",
		"state": "NORTH CAROLINA",
		"artcc": "ZDC",
		"type": "MR",
		"updated": "NTU*TACAN*193.00/22.00",
	},
	{
		"name": "DALNN",
		"latitude": "35-17-22.57 N",
		"longitude": "77-58-5.12 W",
		"state": "NORTH CAROLINA",
		"artcc": "ZDC",
		"type": "RNAV",
		"updated": "03/07/2013",
	},
	{
		"name": "DALSY",
		"latitude": "36-11-54.2 N",
		"longitude": "79-14-12.88 W",
		"state": "NORTH CAROLINA",
		"artcc": "ZDC",
		"type": "WP",
		"updated": "12/23/2013",
	},
	{
		"name": "DALTO",
		"latitude": "37-9-10.65 N",
		"longitude": "77-37-9.69 W",
		"state": "VIRGINIA",
		"artcc": "ZDC",
		"type": "RP",
		"updated": "RIC*VORTAC*223.45/25.36",
	},
	{
		"name": "DAMTE",
		"latitude": "39-48-40.79 N",
		"longitude": "74-45-25.09 W",
		"state": "NEW JERSEY",
		"artcc": "ZNY",
		"type": "MR",
		"updated": "GXU*VORTAC*224.00/14.00",
	},
	{
		"name": "DANCC",
		"latitude": "39-10-42.29 N",
		"longitude": "77-31-44.77 W",
		"state": "VIRGINIA",
		"artcc": "ZDC",
		"type": "RNAV",
		"updated": "11/28/2017",
	},
	{
		"name": "DANMO",
		"latitude": "39-10-6.06 N",
		"longitude": "77-35-48.55 W",
		"state": "VIRGINIA",
		"artcc": "ZDC",
		"type": "RP",
		"updated": "FDK*VOR*223.31",
	},
	{
		"name": "DANOO",
		"latitude": "38-4-27.24 N",
		"longitude": "78-15-8.96 W",
		"state": "VIRGINIA",
		"artcc": "ZDC",
		"type": "RNAV",
		"updated": "05/04/2015",
	},
	{
		"name": "DAREZ",
		"latitude": "35-56-17.06 N",
		"longitude": "76-12-34.28 W",
		"state": "NORTH CAROLINA",
		"artcc": "ZDC",
		"type": "RP",
		"updated": "ECG*VOR/DME*191.93",
	},
	{
		"name": "DARIC",
		"latitude": "38-57-49.71 N",
		"longitude": "77-8-28.4 W",
		"state": "MARYLAND",
		"artcc": "ZDC",
		"type": "RNAV",
		"updated": "03/25/2015",
	},
	{
		"name": "DARKO",
		"latitude": "34-50-4.23 N",
		"longitude": "79-52-21.13 W",
		"state": "NORTH CAROLINA",
		"artcc": "ZDC",
		"type": "MR",
		"updated": "RDU*VORTAC*225.00/82.00",
	},
	{
		"name": "DARNS",
		"latitude": "38-56-39.4 N",
		"longitude": "75-20-39.81 W",
		"state": "DELAWARE",
		"artcc": "ZDC",
		"type": "MR",
		"updated": "ENO*VORTAC*164.00/19.00",
	},
	{
		"name": "DARTT",
		"latitude": "37-17-36 N",
		"longitude": "75-30-0 W",
		"state": "VIRGINIA",
		"artcc": "ZDC",
		"type": "RP",
		"updated": "LFI*TACAN*082.93/43.04",
	},
	{
		"name": "DASHA",
		"latitude": "38-52-19.09 N",
		"longitude": "74-20-40.37 W",
		"state": "OFFSHORE ATLANTIC",
		"artcc": "ZDC",
		"type": "RNAV",
		"updated": "11/08/2012",
	},
	{
		"name": "DASYA",
		"latitude": "37-14-34.96 N",
		"longitude": "76-42-35.61 W",
		"state": "VIRGINIA",
		"artcc": "ZDC",
		"type": "RNAV",
		"updated": "02/19/2008",
	},
	{
		"name": "DATED",
		"latitude": "39-13-42.92 N",
		"longitude": "76-58-21.21 W",
		"state": "MARYLAND",
		"artcc": "ZDC",
		"type": "RP",
		"updated": "BAL*VORTAC*294.46/14.92",
	},
	{
		"name": "DATNE",
		"latitude": "34-39-57.7 N",
		"longitude": "79-27-41.7 W",
		"state": "NORTH CAROLINA",
		"artcc": "ZDC",
		"type": "RNAV",
		"updated": "06/22/2010",
	},
	{
		"name": "DATTO",
		"latitude": "35-46-26.19 N",
		"longitude": "79-20-34.23 W",
		"state": "NORTH CAROLINA",
		"artcc": "ZDC",
		"type": "RNAV",
		"updated": "04/18/2016",
	},
	{
		"name": "DAVYS",
		"latitude": "39-55-20.6 N",
		"longitude": "74-53-49.77 W",
		"state": "NEW JERSEY",
		"artcc": "ZDC",
		"type": "RP",
		"updated": "CYN*VORTAC*296.48",
	},
	{
		"name": "DAWNZ",
		"latitude": "39-11-5.34 N",
		"longitude": "77-49-0.06 W",
		"state": "WEST VIRGINIA",
		"artcc": "ZDC",
		"type": "RP",
		"updated": "CSN*VORTAC*010.00/32.67",
	},
	{
		"name": "DAYAD",
		"latitude": "39-10-47.84 N",
		"longitude": "74-31-35.98 W",
		"state": "NEW JERSEY",
		"artcc": "ZDC",
		"type": "RNAV",
		"updated": "12/20/2012",
	},
	{
		"name": "DAYYU",
		"latitude": "37-58-15.2 N",
		"longitude": "79-35-21.42 W",
		"state": "VIRGINIA",
		"artcc": "ZDC",
		"type": "RNAV",
		"updated": "03/30/2010",
	},
	{
		"name": "DEALE",
		"latitude": "38-47-51.91 N",
		"longitude": "76-32-0.34 W",
		"state": "MARYLAND",
		"artcc": "ZDC",
		"type": "RP",
		"updated": "BAL*VORTAC*176.00",
	},
	{
		"name": "DEAND",
		"latitude": "37-48-25.53 N",
		"longitude": "77-29-28.9 W",
		"state": "VIRGINIA",
		"artcc": "ZDC",
		"type": "RP",
		"updated": "FAK*VORTAC*049.76/23.16",
	},
	{
		"name": "DEBZZ",
		"latitude": "38-5-13.91 N",
		"longitude": "80-15-18.05 W",
		"state": "WEST VIRGINIA",
		"artcc": "ZDC",
		"type": "RNAV",
		"updated": "06/04/2012",
	},
	{
		"name": "DECAF",
		"latitude": "37-14-15.45 N",
		"longitude": "79-15-11.22 W",
		"state": "VIRGINIA",
		"artcc": "ZDC",
		"type": "RNAV",
		"updated": "09/10/2012",
	},
	{
		"name": "DECES",
		"latitude": "38-26-11.45 N",
		"longitude": "77-24-14.95 W",
		"state": "VIRGINIA",
		"artcc": "ZDC",
		"type": "RP",
		"updated": "BRV*VORTAC*347.09",
	},
	{
		"name": "DECOI",
		"latitude": "35-22-18.49 N",
		"longitude": "77-6-25.25 W",
		"state": "NORTH CAROLINA",
		"artcc": "ZDC",
		"type": "RNAV",
		"updated": "12/01/2008",
	},
	{
		"name": "DECON",
		"latitude": "38-49-29.78 N",
		"longitude": "76-39-13.94 W",
		"state": "MARYLAND",
		"artcc": "ZDC",
		"type": "RNAV",
		"updated": "10/22/2015",
	},
	{
		"name": "DEDLE",
		"latitude": "39-14-11.27 N",
		"longitude": "76-53-10.99 W",
		"state": "MARYLAND",
		"artcc": "ZDC",
		"type": "RNAV",
		"updated": "11/29/2012",
	},
	{
		"name": "DEEER",
		"latitude": "37-37-55.3 N",
		"longitude": "77-39-56.26 W",
		"state": "VIRGINIA",
		"artcc": "ZDC",
		"type": "RNAV",
		"updated": "06/11/2014",
	},
	{
		"name": "DEEMS",
		"latitude": "36-44-31.54 N",
		"longitude": "76-23-43.84 W",
		"state": "VIRGINIA",
		"artcc": "ZDC",
		"type": "RP",
		"updated": "ORF*VORTAC*233.39/13.00",
	},
	{
		"name": "DEENE",
		"latitude": "36-4-32.86 N",
		"longitude": "77-29-51.42 W",
		"state": "NORTH CAROLINA",
		"artcc": "ZDC",
		"type": "RP",
		"updated": "ISO*VORTAC*009.00",
	},
	{
		"name": "DEFND",
		"latitude": "39-19-42.08 N",
		"longitude": "77-28-10.94 W",
		"state": "MARYLAND",
		"artcc": "ZDC",
		"type": "RNAV",
		"updated": "04/13/2006",
	},
	{
		"name": "DEGAY",
		"latitude": "37-50-15.01 N",
		"longitude": "77-15-4.22 W",
		"state": "VIRGINIA",
		"artcc": "ZDC",
		"type": "RP",
		"updated": "RIC*VORTAC*018.29/20.35",
	},
	{
		"name": "DEKAY",
		"latitude": "38-32-59.01 N",
		"longitude": "79-17-49.08 W",
		"state": "WEST VIRGINIA",
		"artcc": "ZDC",
		"type": "RP",
		"updated": "EKN*VORTAC*126.88/43.55",
	},
	{
		"name": "DELET",
		"latitude": "36-37-4.05 N",
		"longitude": "78-50-28.81 W",
		"state": "VIRGINIA",
		"artcc": "ZDC",
		"type": "RNAV",
		"updated": "11/21/2016",
	},
	{
		"name": "DELFS",
		"latitude": "38-20-33.68 N",
		"longitude": "78-44-5.15 W",
		"state": "VIRGINIA",
		"artcc": "ZDC",
		"type": "RNAV",
		"updated": "09/22/2015",
	},
	{
		"name": "DELIA",
		"latitude": "39-40-31.01 N",
		"longitude": "78-2-6.77 W",
		"state": "MARYLAND",
		"artcc": "ZDC",
		"type": "RNAV",
		"updated": "02/23/2017",
	},
	{
		"name": "DELKO",
		"latitude": "34-20-4.73 N",
		"longitude": "78-9-19.53 W",
		"state": "NORTH CAROLINA",
		"artcc": "ZDC",
		"type": "RP",
		"updated": "FLO*VORTAC*087.91",
	},
	{
		"name": "DELPP",
		"latitude": "36-56-15 N",
		"longitude": "73-30-16 W",
		"state": "OFFSHORE ATLANTIC",
		"artcc": "ZDC",
		"type": "RNAV",
		"updated": "03/23/2018",
	},
	{
		"name": "DEMOY",
		"latitude": "39-11-1.39 N",
		"longitude": "76-28-38.73 W",
		"state": "MARYLAND",
		"artcc": "ZDC",
		"type": "RNAV",
		"updated": "10/21/2014",
	},
	{
		"name": "DEMVE",
		"latitude": "36-31-31.28 N",
		"longitude": "77-42-3.3 W",
		"state": "NORTH CAROLINA",
		"artcc": "ZDC",
		"type": "RNAV",
		"updated": "11/19/2012",
	},
	{
		"name": "DENBY",
		"latitude": "37-13-9.85 N",
		"longitude": "76-10-23.96 W",
		"state": "VIRGINIA",
		"artcc": "ZDC",
		"type": "MR",
		"updated": "LFI*TACAN*058.00/12.00",
	},
	{
		"name": "DENII",
		"latitude": "38-55-1.09 N",
		"longitude": "76-27-48.45 W",
		"state": "MARYLAND",
		"artcc": "ZDC",
		"type": "RNAV",
		"updated": "09/13/2006",
	},
	{
		"name": "DENIL",
		"latitude": "35-20-5.58 N",
		"longitude": "78-50-21.08 W",
		"state": "NORTH CAROLINA",
		"artcc": "ZDC",
		"type": "RP",
		"updated": "FAY*VOR/DME*008.81/21.00",
	},
	{
		"name": "DENLE",
		"latitude": "37-56-27.34 N",
		"longitude": "80-19-32.2 W",
		"state": "WEST VIRGINIA",
		"artcc": "ZDC",
		"type": "RNAV",
		"updated": "10/17/2017",
	},
	{
		"name": "DENNN",
		"latitude": "38-5-5.9 N",
		"longitude": "78-12-27.54 W",
		"state": "VIRGINIA",
		"artcc": "ZDC",
		"type": "RNAV",
		"updated": "08/19/2013",
	},
	{
		"name": "DENNY",
		"latitude": "37-52-0.15 N",
		"longitude": "79-44-13.75 W",
		"state": "VIRGINIA",
		"artcc": "ZDC",
		"type": "RP",
		"updated": "MOL*VOR/DME*271.32/30.00",
	},
	{
		"name": "DENVE",
		"latitude": "38-48-46.22 N",
		"longitude": "76-39-11.34 W",
		"state": "MARYLAND",
		"artcc": "ZDC",
		"type": "MR",
		"updated": "ADW*VORTAC*098.00/10.00",
	},
	{
		"name": "DEPNE",
		"latitude": "34-58-53.29 N",
		"longitude": "76-8-30.61 W",
		"state": "NORTH CAROLINA",
		"artcc": "ZDC",
		"type": "RNAV",
		"updated": "02/13/2002",
	},
	{
		"name": "DEPOY",
		"latitude": "37-27-40.98 N",
		"longitude": "78-23-23.02 W",
		"state": "VIRGINIA",
		"artcc": "ZDC",
		"type": "RNAV",
		"updated": "03/16/2010",
	},
	{
		"name": "DEREE",
		"latitude": "39-14-32.48 N",
		"longitude": "75-27-19.97 W",
		"state": "DELAWARE",
		"artcc": "ZDC",
		"type": "MR",
		"updated": "DOV*TACAN*016.79/6.61",
	},
	{
		"name": "DERIN",
		"latitude": "38-52-45.74 N",
		"longitude": "79-47-27 W",
		"state": "WEST VIRGINIA",
		"artcc": "ZDC",
		"type": "RP",
		"updated": "EKN*VORTAC*105.18/14.60",
	},
	{
		"name": "DESAC",
		"latitude": "37-52-26.08 N",
		"longitude": "76-39-11.11 W",
		"state": "VIRGINIA",
		"artcc": "ZDC",
		"type": "RNAV",
		"updated": "03/30/2017",
	},
	{
		"name": "DEWET",
		"latitude": "37-5-54.2 N",
		"longitude": "79-51-18.02 W",
		"state": "VIRGINIA",
		"artcc": "ZDC",
		"type": "RP",
		"updated": "ROA*VOR/DME*148.83",
	},
	{
		"name": "DEWIR",
		"latitude": "39-13-17.59 N",
		"longitude": "75-56-7.56 W",
		"state": "MARYLAND",
		"artcc": "ZDC",
		"type": "CN",
		"updated": "12/04/2014",
	},
	{
		"name": "DEXTO",
		"latitude": "35-15-17.47 N",
		"longitude": "77-56-24.79 W",
		"state": "NORTH CAROLINA",
		"artcc": "ZDC",
		"type": "RP",
		"updated": "ISO*VORTAC*254.76/20.00",
	},
	{
		"name": "DEYEC",
		"latitude": "39-48-57.99 N",
		"longitude": "74-34-5.88 W",
		"state": "NEW JERSEY",
		"artcc": "ZNY",
		"type": "MW",
		"updated": "06/16/2011",
	},
	{
		"name": "DFORT",
		"latitude": "38-13-41.68 N",
		"longitude": "77-7-54.66 W",
		"state": "VIRGINIA",
		"artcc": "ZDC",
		"type": "RP",
		"updated": "BRV*VORTAC*130.73",
	},
	{
		"name": "DIBNE",
		"latitude": "35-46-33.75 N",
		"longitude": "76-59-32.32 W",
		"state": "NORTH CAROLINA",
		"artcc": "ZDC",
		"type": "RNAV",
		"updated": "12/01/2008",
	},
	{
		"name": "DICKE",
		"latitude": "39-42-25.63 N",
		"longitude": "74-58-21.26 W",
		"state": "NEW JERSEY",
		"artcc": "ZDC",
		"type": "RNAV",
		"updated": "05/31/2000",
	},
	{
		"name": "DICTE",
		"latitude": "36-4-14.22 N",
		"longitude": "79-27-11.74 W",
		"state": "NORTH CAROLINA",
		"artcc": "ZDC",
		"type": "RNAV",
		"updated": "11/21/2003",
	},
	{
		"name": "DICYE",
		"latitude": "36-42-11.36 N",
		"longitude": "78-52-43.05 W",
		"state": "VIRGINIA",
		"artcc": "ZDC",
		"type": "RP",
		"updated": "SBV*VORTAC*080.55/6.77",
	},
	{
		"name": "DILDE",
		"latitude": "35-11-28.03 N",
		"longitude": "78-59-33.81 W",
		"state": "NORTH CAROLINA",
		"artcc": "ZDC",
		"type": "MW",
		"updated": "05/23/2013",
	},
	{
		"name": "DILNN",
		"latitude": "38-16-20.05 N",
		"longitude": "79-43-52.31 W",
		"state": "VIRGINIA",
		"artcc": "ZDC",
		"type": "RP",
		"updated": "BKW*VOR/DME*071.50/72.29",
	},
	{
		"name": "DIMKE",
		"latitude": "39-18-32.78 N",
		"longitude": "77-27-15.78 W",
		"state": "MARYLAND",
		"artcc": "ZDC",
		"type": "RNAV",
		"updated": "06/30/2015",
	},
	{
		"name": "DINKS",
		"latitude": "37-12-18.54 N",
		"longitude": "76-45-3.52 W",
		"state": "VIRGINIA",
		"artcc": "ZDC",
		"type": "WP",
		"updated": "HCM*VORTAC*194.41/14.70",
	},
	{
		"name": "DINUW",
		"latitude": "39-16-11.54 N",
		"longitude": "77-31-40.28 W",
		"state": "MARYLAND",
		"artcc": "ZDC",
		"type": "WP",
		"updated": "11/02/1998",
	},
	{
		"name": "DIPTE",
		"latitude": "35-51-14.5 N",
		"longitude": "77-56-1.24 W",
		"state": "NORTH CAROLINA",
		"artcc": "ZDC",
		"type": "RNAV",
		"updated": "02/13/2003",
	},
	{
		"name": "DIRTE",
		"latitude": "38-32-31.8 N",
		"longitude": "77-15-2.14 W",
		"state": "MARYLAND",
		"artcc": "ZDC",
		"type": "RP",
		"updated": "OTT*VORTAC*257.74",
	},
	{
		"name": "DITCH",
		"latitude": "39-47-37.86 N",
		"longitude": "74-42-59.88 W",
		"state": "NEW JERSEY",
		"artcc": "ZNY",
		"type": "RP",
		"updated": "CYN*VORTAC*274.00/13.25",
	},
	{
		"name": "DITTO",
		"latitude": "34-27-23.8 N",
		"longitude": "77-30-36.44 W",
		"state": "NORTH CAROLINA",
		"artcc": "ZDC",
		"type": "MR",
		"updated": "NCA*TACAN*201.00/15.40",
	},
	{
		"name": "DIVTY",
		"latitude": "36-25-39.6 N",
		"longitude": "78-40-9.67 W",
		"state": "NORTH CAROLINA",
		"artcc": "ZDC",
		"type": "RNAV",
		"updated": "08/18/2015",
	},
	{
		"name": "DIXIE",
		"latitude": "40-5-57.72 N",
		"longitude": "74-9-52.17 W",
		"state": "NEW JERSEY",
		"artcc": "ZNY",
		"type": "RP",
		"updated": "COL*VOR/DME*191.99",
	},
	{
		"name": "DIXXY",
		"latitude": "37-12-40.53 N",
		"longitude": "80-15-53.02 W",
		"state": "VIRGINIA",
		"artcc": "ZDC",
		"type": "RP",
		"updated": "LWB*VOR/DME*179.13",
	},
	{
		"name": "DIZZL",
		"latitude": "36-29-54.61 N",
		"longitude": "79-57-40.47 W",
		"state": "NORTH CAROLINA",
		"artcc": "ZDC",
		"type": "RNAV",
		"updated": "09/14/2009",
	},
	{
		"name": "DLTON",
		"latitude": "38-50-31.09 N",
		"longitude": "77-46-45.04 W",
		"state": "VIRGINIA",
		"artcc": "ZDC",
		"type": "RNAV",
		"updated": "03/05/2007",
	},
	{
		"name": "DMBUB",
		"latitude": "36-2-49.26 N",
		"longitude": "77-35-19.86 W",
		"state": "NORTH CAROLINA",
		"artcc": "ZDC",
		"type": "CN",
		"updated": "01/05/2001",
	},
	{
		"name": "DMKRT",
		"latitude": "38-42-34.33 N",
		"longitude": "77-13-24.61 W",
		"state": "VIRGINIA",
		"artcc": "ZDC",
		"type": "RNAV",
		"updated": "05/04/2015",
	},
	{
		"name": "DMLPB",
		"latitude": "39-17-50.69 N",
		"longitude": "74-44-7.94 W",
		"state": "NEW JERSEY",
		"artcc": "ZDC",
		"type": "CN",
		"updated": "12/04/2014",
	},
	{
		"name": "DMMWV",
		"latitude": "34-42-35.83 N",
		"longitude": "79-5-13.23 W",
		"state": "NORTH CAROLINA",
		"artcc": "ZDC",
		"type": "CN",
		"updated": "11/28/2000",
	},
	{
		"name": "DMYMC",
		"latitude": "37-6-39.35 N",
		"longitude": "79-18-6.38 W",
		"state": "VIRGINIA",
		"artcc": "ZDC",
		"type": "CN",
		"updated": "12/04/2014",
	},
	{
		"name": "DNKEY",
		"latitude": "38-38-45.05 N",
		"longitude": "77-47-58.01 W",
		"state": "VIRGINIA",
		"artcc": "ZDC",
		"type": "RNAV",
		"updated": "01/12/2015",
	},
	{
		"name": "DOCAT",
		"latitude": "36-1-15.78 N",
		"longitude": "78-36-13.18 W",
		"state": "NORTH CAROLINA",
		"artcc": "ZDC",
		"type": "RP",
		"updated": "LEI*LD*054.15/13.45",
	},
	{
		"name": "DOCCS",
		"latitude": "38-42-48.01 N",
		"longitude": "78-16-17.39 W",
		"state": "VIRGINIA",
		"artcc": "ZDC",
		"type": "RP",
		"updated": "LDN*VORTAC*206.12/9.00",
	},
	{
		"name": "DOCEV",
		"latitude": "37-34-52.11 N",
		"longitude": "77-42-7.47 W",
		"state": "VIRGINIA",
		"artcc": "ZDC",
		"type": "RNAV",
		"updated": "06/02/2005",
	},
	{
		"name": "DOCMO",
		"latitude": "36-51-1.55 N",
		"longitude": "78-23-21.07 W",
		"state": "VIRGINIA",
		"artcc": "ZDC",
		"type": "RP",
		"updated": "FAK*VORTAC*219.67/48.73",
	},
	{
		"name": "DOCTR",
		"latitude": "39-0-35.58 N",
		"longitude": "76-24-50.75 W",
		"state": "MARYLAND",
		"artcc": "ZDC",
		"type": "RNAV",
		"updated": "11/14/2016",
	},
	{
		"name": "DOFAD",
		"latitude": "38-40-42.86 N",
		"longitude": "79-59-17.95 W",
		"state": "WEST VIRGINIA",
		"artcc": "ZDC",
		"type": "RNAV",
		"updated": "11/02/2009",
	},
	{
		"name": "DOGEC",
		"latitude": "37-24-24.37 N",
		"longitude": "78-57-56.38 W",
		"state": "VIRGINIA",
		"artcc": "ZDC",
		"type": "RNAV",
		"updated": "07/20/2011",
	},
	{
		"name": "DOGTE",
		"latitude": "37-56-28.94 N",
		"longitude": "75-13-26.66 W",
		"state": "VIRGINIA",
		"artcc": "ZDC",
		"type": "RNAV",
		"updated": "08/15/2013",
	},
	{
		"name": "DOGUE",
		"latitude": "39-2-30.96 N",
		"longitude": "77-5-56.51 W",
		"state": "MARYLAND",
		"artcc": "ZDC",
		"type": "RNAV",
		"updated": "03/11/2015",
	},
	{
		"name": "DOKME",
		"latitude": "38-36-30.33 N",
		"longitude": "76-50-9.76 W",
		"state": "MARYLAND",
		"artcc": "ZDC",
		"type": "MR",
		"updated": "ADW*VORTAC*183.20/12.00",
	},
	{
		"name": "DOMJY",
		"latitude": "36-56-29.88 N",
		"longitude": "76-17-1.33 W",
		"state": "VIRGINIA",
		"artcc": "ZDC",
		"type": "WP",
		"updated": "11/02/1998",
	},
	{
		"name": "DOMSE",
		"latitude": "39-1-31.11 N",
		"longitude": "77-26-5.75 W",
		"state": "VIRGINIA",
		"artcc": "ZDC",
		"type": "RP",
		"updated": "AML*VOR/DME*023.28",
	},
	{
		"name": "DONIL",
		"latitude": "39-4-35.44 N",
		"longitude": "75-18-18.92 W",
		"state": "DELAWARE",
		"artcc": "ZDC",
		"type": "RP",
		"updated": "SIE*VORTAC*276.40/23.62",
	},
	{
		"name": "DONLE",
		"latitude": "35-7-20.65 N",
		"longitude": "79-32-34.13 W",
		"state": "NORTH CAROLINA",
		"artcc": "ZDC",
		"type": "MR",
		"updated": "SDZ*VORTAC*161.26/6.00",
	},
	{
		"name": "DOPUY",
		"latitude": "37-49-48.77 N",
		"longitude": "77-38-52.76 W",
		"state": "VIRGINIA",
		"artcc": "ZDC",
		"type": "RNAV",
		"updated": "06/26/2007",
	},
	{
		"name": "DORBY",
		"latitude": "35-8-19.17 N",
		"longitude": "78-49-9.48 W",
		"state": "NORTH CAROLINA",
		"artcc": "ZDC",
		"type": "MW",
		"updated": "02/08/2010",
	},
	{
		"name": "DORDE",
		"latitude": "38-18-34.7 N",
		"longitude": "78-51-2.43 W",
		"state": "VIRGINIA",
		"artcc": "ZDC",
		"type": "RNAV",
		"updated": "07/20/2009",
	},
	{
		"name": "DORGE",
		"latitude": "38-49-0.07 N",
		"longitude": "77-34-58.27 W",
		"state": "VIRGINIA",
		"artcc": "ZDC",
		"type": "RP",
		"updated": "AML*VOR/DME*225.64",
	},
	{
		"name": "DORGY",
		"latitude": "38-56-41.87 N",
		"longitude": "78-2-0.48 W",
		"state": "VIRGINIA",
		"artcc": "ZDC",
		"type": "RNAV",
		"updated": "07/19/2009",
	},
	{
		"name": "DORRN",
		"latitude": "37-31-54.04 N",
		"longitude": "77-53-37.62 W",
		"state": "VIRGINIA",
		"artcc": "ZDC",
		"type": "RNAV",
		"updated": "12/15/2014",
	},
	{
		"name": "DORTH",
		"latitude": "39-43-34.73 N",
		"longitude": "74-40-14.22 W",
		"state": "NEW JERSEY",
		"artcc": "ZNY",
		"type": "RP",
		"updated": "VCN*VOR/DME*060.46/17.80",
	},
	{
		"name": "DORYN",
		"latitude": "37-56-53.78 N",
		"longitude": "78-38-1.39 W",
		"state": "VIRGINIA",
		"artcc": "ZDC",
		"type": "RNAV",
		"updated": "06/24/2011",
	},
	{
		"name": "DOTLE",
		"latitude": "38-57-6.14 N",
		"longitude": "78-7-59 W",
		"state": "VIRGINIA",
		"artcc": "ZDC",
		"type": "RNAV",
		"updated": "05/11/2007",
	},
	{
		"name": "DOUGG",
		"latitude": "37-25-27.58 N",
		"longitude": "79-8-55.7 W",
		"state": "VIRGINIA",
		"artcc": "ZDC",
		"type": "RP",
		"updated": "LYH*VORTAC*027.39/11.00",
	},
	{
		"name": "DOUGS",
		"latitude": "34-54-34 N",
		"longitude": "74-26-19 W",
		"state": "OFFSHORE ATLANTIC",
		"artcc": "ZDC",
		"type": "WP",
		"updated": "03/26/2002",
	},
	{
		"name": "DOVAY",
		"latitude": "38-7-4.93 N",
		"longitude": "75-33-23.75 W",
		"state": "MARYLAND",
		"artcc": "ZDC",
		"type": "RNAV",
		"updated": "08/15/2013",
	},
	{
		"name": "DOWSE",
		"latitude": "34-25-38.79 N",
		"longitude": "78-30-36.77 W",
		"state": "NORTH CAROLINA",
		"artcc": "ZDC",
		"type": "RNAV",
		"updated": "02/29/2016",
	},
	{
		"name": "DOYAS",
		"latitude": "36-47-25.01 N",
		"longitude": "77-13-25.83 W",
		"state": "VIRGINIA",
		"artcc": "ZDC",
		"type": "RNAV",
		"updated": "11/19/2012",
	},
	{
		"name": "DOYAT",
		"latitude": "38-42-17.61 N",
		"longitude": "77-44-11.81 W",
		"state": "VIRGINIA",
		"artcc": "ZDC",
		"type": "RNAV",
		"updated": "10/25/2007",
	},
	{
		"name": "DOYSU",
		"latitude": "38-8-57.9 N",
		"longitude": "75-21-33.98 W",
		"state": "MARYLAND",
		"artcc": "ZDC",
		"type": "RNAV",
		"updated": "01/03/2011",
	},
	{
		"name": "DRAIK",
		"latitude": "37-8-2.15 N",
		"longitude": "78-58-58.56 W",
		"state": "VIRGINIA",
		"artcc": "ZDC",
		"type": "RP",
		"updated": "RIC*VORTAC*264.00/82.58",
	},
	{
		"name": "DREFF",
		"latitude": "39-33-27.23 N",
		"longitude": "75-49-41.72 W",
		"state": "MARYLAND",
		"artcc": "ZDC",
		"type": "RNAV",
		"updated": "09/11/2009",
	},
	{
		"name": "DRIFT",
		"latitude": "39-48-53.56 N",
		"longitude": "73-40-49.53 W",
		"state": "NEW JERSEY",
		"artcc": "ZNY",
		"type": "RP",
		"updated": "CYN*VORTAC*100.00/34.73",
	},
	{
		"name": "DRIVE",
		"latitude": "36-54-10.64 N",
		"longitude": "76-34-6.22 W",
		"state": "VIRGINIA",
		"artcc": "ZDC",
		"type": "RP",
		"updated": "HPW*VORTAC*140.00",
	},
	{
		"name": "DRONE",
		"latitude": "36-31-45.23 N",
		"longitude": "76-40-15.05 W",
		"state": "NORTH CAROLINA",
		"artcc": "ZDC",
		"type": "RP",
		"updated": "ORF*VORTAC*233.39/31.42",
	},
	{
		"name": "DROPN",
		"latitude": "38-3-3.45 N",
		"longitude": "78-23-41.34 W",
		"state": "VIRGINIA",
		"artcc": "ZDC",
		"type": "RNAV",
		"updated": "10/18/2011",
	},
	{
		"name": "DRRON",
		"latitude": "39-16-22.12 N",
		"longitude": "79-33-35.86 W",
		"state": "WEST VIRGINIA",
		"artcc": "ZDC",
		"type": "RNAV",
		"updated": "05/07/2013",
	},
	{
		"name": "DRUZZ",
		"latitude": "39-9-48.28 N",
		"longitude": "78-21-28.71 W",
		"state": "VIRGINIA",
		"artcc": "ZDC",
		"type": "RP",
		"updated": "ESL*VOR/DME*103.00/29.69",
	},
	{
		"name": "DUBYA",
		"latitude": "39-0-24.36 N",
		"longitude": "76-52-16.38 W",
		"state": "MARYLAND",
		"artcc": "ZDC",
		"type": "RNAV",
		"updated": "04/15/2008",
	},
	{
		"name": "DUCXS",
		"latitude": "37-27-47.2 N",
		"longitude": "77-39-16 W",
		"state": "VIRGINIA",
		"artcc": "ZDC",
		"type": "RNAV",
		"updated": "06/19/2014",
	},
	{
		"name": "DUDDD",
		"latitude": "38-53-20.08 N",
		"longitude": "77-34-47.64 W",
		"state": "VIRGINIA",
		"artcc": "ZDC",
		"type": "RNAV",
		"updated": "02/05/2016",
	},
	{
		"name": "DUDDS",
		"latitude": "39-0-48.21 N",
		"longitude": "76-30-10.61 W",
		"state": "MARYLAND",
		"artcc": "ZDC",
		"type": "RP",
		"updated": "ADW*VORTAC*063.89",
	},
	{
		"name": "DUDNG",
		"latitude": "38-51-18.34 N",
		"longitude": "77-36-38.03 W",
		"state": "VIRGINIA",
		"artcc": "ZDC",
		"type": "RNAV",
		"updated": "12/24/2013",
	},
	{
		"name": "DUFFI",
		"latitude": "36-20-57.87 N",
		"longitude": "77-47-29.22 W",
		"state": "NORTH CAROLINA",
		"artcc": "ZDC",
		"type": "RP",
		"updated": "HPW*VORTAC*215.20/67.10",
	},
	{
		"name": "DUHAM",
		"latitude": "36-3-5.96 N",
		"longitude": "78-50-4.25 W",
		"state": "NORTH CAROLINA",
		"artcc": "ZDC",
		"type": "RP",
		"updated": "LIB*VORTAC*072.00/40.55",
	},
	{
		"name": "DUKES",
		"latitude": "38-54-34.41 N",
		"longitude": "77-23-15.05 W",
		"state": "VIRGINIA",
		"artcc": "ZDC",
		"type": "RP",
		"updated": "BRV*VORTAC*006.29",
	},
	{
		"name": "DULTS",
		"latitude": "36-50-17.09 N",
		"longitude": "76-9-32.62 W",
		"state": "VIRGINIA",
		"artcc": "ZDC",
		"type": "RNAV",
		"updated": "12/05/2017",
	},
	{
		"name": "DUMIW",
		"latitude": "38-1-54.47 N",
		"longitude": "79-36-13.27 W",
		"state": "VIRGINIA",
		"artcc": "ZDC",
		"type": "RP",
		"updated": "MOL*VOR/DME*293.61/24.85",
	},
	{
		"name": "DUMMI",
		"latitude": "38-5-31.16 N",
		"longitude": "78-7-0.92 W",
		"state": "VIRGINIA",
		"artcc": "ZDC",
		"type": "RP",
		"updated": "GVE*VORTAC*026.00/5.00",
	},
	{
		"name": "DUNCE",
		"latitude": "36-50-52 N",
		"longitude": "79-29-18.2 W",
		"state": "VIRGINIA",
		"artcc": "ZDC",
		"type": "RP",
		"updated": "SBV*VORTAC*299.51",
	},
	{
		"name": "DUNFE",
		"latitude": "37-53-18.83 N",
		"longitude": "75-35-29.39 W",
		"state": "VIRGINIA",
		"artcc": "ZDC",
		"type": "RP",
		"updated": "SBY*VORTAC*200.00/27.62",
	},
	{
		"name": "DUPEY",
		"latitude": "38-2-12.84 N",
		"longitude": "76-45-6.47 W",
		"state": "VIRGINIA",
		"artcc": "ZDC",
		"type": "RP",
		"updated": "PXT*VORTAC*237.99/22.43",
	},
	{
		"name": "DURAN",
		"latitude": "37-59-13.52 N",
		"longitude": "79-45-33.9 W",
		"state": "VIRGINIA",
		"artcc": "ZDC",
		"type": "RNAV",
		"updated": "04/18/2018",
	},
	{
		"name": "DURGE",
		"latitude": "37-58-25.51 N",
		"longitude": "76-39-44.51 W",
		"state": "VIRGINIA",
		"artcc": "ZDC",
		"type": "RNAV",
		"updated": "03/30/2017",
	},
	{
		"name": "DURST",
		"latitude": "35-42-15.2 N",
		"longitude": "79-16-5.58 W",
		"state": "NORTH CAROLINA",
		"artcc": "ZDC",
		"type": "RNAV",
		"updated": "03/31/2016",
	},
	{
		"name": "DURWO",
		"latitude": "38-23-9.05 N",
		"longitude": "77-17-41.26 W",
		"state": "VIRGINIA",
		"artcc": "ZDC",
		"type": "RNAV",
		"updated": "01/11/2011",
	},
	{
		"name": "DUTLE",
		"latitude": "37-30-31.34 N",
		"longitude": "77-11-20.69 W",
		"state": "VIRGINIA",
		"artcc": "ZDC",
		"type": "RNAV",
		"updated": "06/21/2013",
	},
	{
		"name": "DUTSE",
		"latitude": "39-6-56.54 N",
		"longitude": "75-26-36.52 W",
		"state": "DELAWARE",
		"artcc": "ZDC",
		"type": "MR",
		"updated": "DOV*TACAN*143.84/1.50",
	},
	{
		"name": "DUTTU",
		"latitude": "39-45-37 N",
		"longitude": "74-53-50.94 W",
		"state": "NEW JERSEY",
		"artcc": "ZNY",
		"type": "RNAV",
		"updated": "01/26/2009",
	},
	{
		"name": "DUVTE",
		"latitude": "37-28-10.37 N",
		"longitude": "78-21-46.08 W",
		"state": "VIRGINIA",
		"artcc": "ZDC",
		"type": "RNAV",
		"updated": "07/20/2011",
	},
	{
		"name": "DUWEE",
		"latitude": "39-44-49.13 N",
		"longitude": "75-31-32.98 W",
		"state": "DELAWARE",
		"artcc": "ZDC",
		"type": "RNAV",
		"updated": "07/09/2009",
	},
	{
		"name": "DUYEV",
		"latitude": "38-19-41.85 N",
		"longitude": "76-37-31.69 W",
		"state": "MARYLAND",
		"artcc": "ZDC",
		"type": "RNAV",
		"updated": "03/05/2007",
	},
	{
		"name": "DWEED",
		"latitude": "37-39-54.27 N",
		"longitude": "77-24-15.82 W",
		"state": "VIRGINIA",
		"artcc": "ZDC",
		"type": "RNAV",
		"updated": "03/30/2015",
	},
	{
		"name": "DXOON",
		"latitude": "37-46-14.83 N",
		"longitude": "78-30-3.11 W",
		"state": "VIRGINIA",
		"artcc": "ZDC",
		"type": "RNAV",
		"updated": "11/10/2014",
	},
	{
		"name": "DYLIN",
		"latitude": "40-17-14.89 N",
		"longitude": "74-51-35.25 W",
		"state": "NEW JERSEY",
		"artcc": "ZDC",
		"type": "RP",
		"updated": "ARD*VOR/DME*057.01/3.00",
	},
