	{
		"name": "EAARL",
		"latitude": "37-24-49.36 N",
		"longitude": "77-24-27.01 W",
		"state": "VIRGINIA",
		"artcc": "ZDC",
		"type": "RNAV",
		"updated": "06/11/2014",
	},
	{
		"name": "EAGER",
		"latitude": "35-30-53.13 N",
		"longitude": "78-42-23.77 W",
		"state": "NORTH CAROLINA",
		"artcc": "ZDC",
		"type": "RNAV",
		"updated": "11/07/2012",
	},
	{
		"name": "EAGLL",
		"latitude": "39-27-2.08 N",
		"longitude": "77-44-7.71 W",
		"state": "MARYLAND",
		"artcc": "ZDC",
		"type": "RNAV",
		"updated": "09/23/2014",
	},
	{
		"name": "EARNY",
		"latitude": "36-6-5.38 N",
		"longitude": "75-47-6.6 W",
		"state": "NORTH CAROLINA",
		"artcc": "ZDC",
		"type": "RNAV",
		"updated": "10/21/2011",
	},
	{
		"name": "EBALY",
		"latitude": "38-0-28.85 N",
		"longitude": "80-19-32.49 W",
		"state": "WEST VIRGINIA",
		"artcc": "ZDC",
		"type": "RP",
		"updated": "RNL*VOR*088.94",
	},
	{
		"name": "EBELE",
		"latitude": "39-59-28.86 N",
		"longitude": "74-36-0.87 W",
		"state": "NEW JERSEY",
		"artcc": "ZNY",
		"type": "MR",
		"updated": "GXU*VORTAC*201.00/1.10",
	},
	{
		"name": "EBOOK",
		"latitude": "35-30-42.83 N",
		"longitude": "79-1-30.48 W",
		"state": "NORTH CAROLINA",
		"artcc": "ZDC",
		"type": "RNAV",
		"updated": "03/31/2016",
	},
	{
		"name": "EBURY",
		"latitude": "34-41-1.68 N",
		"longitude": "78-39-3.41 W",
		"state": "NORTH CAROLINA",
		"artcc": "ZDC",
		"type": "RNAV",
		"updated": "08/14/2010",
	},
	{
		"name": "ECENO",
		"latitude": "37-25-17.29 N",
		"longitude": "79-1-33.15 W",
		"state": "VIRGINIA",
		"artcc": "ZDC",
		"type": "RNAV",
		"updated": "07/20/2011",
	},
	{
		"name": "ECEUS",
		"latitude": "38-17-16.29 N",
		"longitude": "78-24-18.31 W",
		"state": "VIRGINIA",
		"artcc": "ZDC",
		"type": "RNAV",
		"updated": "08/31/2006",
	},
	{
		"name": "ECHOZ",
		"latitude": "38-36-7.45 N",
		"longitude": "78-0-13.62 W",
		"state": "VIRGINIA",
		"artcc": "ZDC",
		"type": "RNAV",
		"updated": "01/12/2015",
	},
	{
		"name": "ECLEJ",
		"latitude": "35-10-40 N",
		"longitude": "78-48-21.94 W",
		"state": "NORTH CAROLINA",
		"artcc": "ZDC",
		"type": "RNAV",
		"updated": "03/30/2004",
	},
	{
		"name": "ECOGA",
		"latitude": "35-6-7.73 N",
		"longitude": "79-0-34.81 W",
		"state": "NORTH CAROLINA",
		"artcc": "ZDC",
		"type": "MR",
		"updated": "POB*TACAN*180.00/4.00",
	},
	{
		"name": "ECTAP",
		"latitude": "36-59-34.46 N",
		"longitude": "76-21-56.68 W",
		"state": "VIRGINIA",
		"artcc": "ZDC",
		"type": "WP",
		"updated": "11/02/1998",
	},
	{
		"name": "ECUDO",
		"latitude": "38-59-12.28 N",
		"longitude": "80-9-10.97 W",
		"state": "WEST VIRGINIA",
		"artcc": "ZDC",
		"type": "RNAV",
		"updated": "07/12/2011",
	},
	{
		"name": "ECUXE",
		"latitude": "39-26-17.78 N",
		"longitude": "78-56-43.65 W",
		"state": "WEST VIRGINIA",
		"artcc": "ZDC",
		"type": "RNAV",
		"updated": "07/15/2011",
	},
	{
		"name": "EDACI",
		"latitude": "38-25-23.37 N",
		"longitude": "78-38-23.33 W",
		"state": "VIRGINIA",
		"artcc": "ZDC",
		"type": "RNAV",
		"updated": "06/24/2011",
	},
	{
		"name": "EDDGY",
		"latitude": "38-48-21.71 N",
		"longitude": "76-46-53.29 W",
		"state": "MARYLAND",
		"artcc": "ZDC",
		"type": "RP",
		"updated": "ADW*VORTAC*101.00/3.98",
	},
	{
		"name": "EDDWD",
		"latitude": "38-58-34.8 N",
		"longitude": "77-1-38.25 W",
		"state": "MARYLAND",
		"artcc": "ZDC",
		"type": "RNAV",
		"updated": "12/19/2007",
	},
	{
		"name": "EDDYS",
		"latitude": "36-26-25.59 N",
		"longitude": "76-27-0.39 W",
		"state": "NORTH CAROLINA",
		"artcc": "ZDC",
		"type": "RP",
		"updated": "ORF*VORTAC*211.10/29.62",
	},
	{
		"name": "EDEDE",
		"latitude": "37-25-26.5 N",
		"longitude": "78-23-21.96 W",
		"state": "VIRGINIA",
		"artcc": "ZDC",
		"type": "RNAV",
		"updated": "07/20/2011",
	},
	{
		"name": "EDITH",
		"latitude": "38-15-16.73 N",
		"longitude": "75-35-30.23 W",
		"state": "MARYLAND",
		"artcc": "ZDC",
		"type": "RNAV",
		"updated": "09/27/2010",
	},
	{
		"name": "EDJER",
		"latitude": "39-50-55.42 N",
		"longitude": "74-57-49.97 W",
		"state": "NEW JERSEY",
		"artcc": "ZDC",
		"type": "RP",
		"updated": "CYN*VORTAC*284.55/24.67",
	},
	{
		"name": "EDMEF",
		"latitude": "39-10-59.62 N",
		"longitude": "76-50-21.44 W",
		"state": "MARYLAND",
		"artcc": "ZDC",
		"type": "RNAV",
		"updated": "11/29/2012",
	},
	{
		"name": "EDORY",
		"latitude": "36-18-37.45 N",
		"longitude": "76-5-34.33 W",
		"state": "NORTH CAROLINA",
		"artcc": "ZDC",
		"type": "RNAV",
		"updated": "04/22/2009",
	},
	{
		"name": "EDTAJ",
		"latitude": "36-36-17.91 N",
		"longitude": "76-34-23.35 W",
		"state": "VIRGINIA",
		"artcc": "ZDC",
		"type": "RP",
		"updated": "ORF*VORTAC*233.39/24.88",
	},
	{
		"name": "EDWIN",
		"latitude": "36-37-13.23 N",
		"longitude": "79-19-34.22 W",
		"state": "VIRGINIA",
		"artcc": "ZDC",
		"type": "RP",
		"updated": "DAN*VOR*015.33",
	},
	{
		"name": "EEGEL",
		"latitude": "35-28-57.43 N",
		"longitude": "77-23-12.27 W",
		"state": "NORTH CAROLINA",
		"artcc": "ZDC",
		"type": "MR",
		"updated": "GSB*TACAN*080.71/30.00",
	},
	{
		"name": "EEMIL",
		"latitude": "37-25-37.23 N",
		"longitude": "77-13-3.33 W",
		"state": "VIRGINIA",
		"artcc": "ZDC",
		"type": "RNAV",
		"updated": "06/11/2014",
	},
	{
		"name": "EETEE",
		"latitude": "35-24-23.36 N",
		"longitude": "79-40-35.6 W",
		"state": "NORTH CAROLINA",
		"artcc": "ZDC",
		"type": "RP",
		"updated": "GSO*VORTAC*161.98/41.00",
	},
	{
		"name": "EFEWY",
		"latitude": "39-30-36.13 N",
		"longitude": "74-32-37.6 W",
		"state": "NEW JERSEY",
		"artcc": "ZDC",
		"type": "RNAV",
		"updated": "12/20/2012",
	},
	{
		"name": "EGABE",
		"latitude": "34-44-19.55 N",
		"longitude": "77-59-24.05 W",
		"state": "NORTH CAROLINA",
		"artcc": "ZDC",
		"type": "RNAV",
		"updated": "05/23/2011",
	},
	{
		"name": "EGAPE",
		"latitude": "35-1-44.77 N",
		"longitude": "78-17-3.5 W",
		"state": "NORTH CAROLINA",
		"artcc": "ZDC",
		"type": "RNAV",
		"updated": "03/11/2011",
	},
	{
		"name": "EGEKE",
		"latitude": "35-47-16.92 N",
		"longitude": "77-12-31.52 W",
		"state": "NORTH CAROLINA",
		"artcc": "ZDC",
		"type": "RNAV",
		"updated": "11/19/2004",
	},
	{
		"name": "EGEYO",
		"latitude": "36-26-27.23 N",
		"longitude": "76-3-42.86 W",
		"state": "NORTH CAROLINA",
		"artcc": "ZDC",
		"type": "MR",
		"updated": "NTU*TACAN*193.00/23.00",
	},
	{
		"name": "EGGAB",
		"latitude": "36-9-15.88 N",
		"longitude": "76-18-10.76 W",
		"state": "NORTH CAROLINA",
		"artcc": "ZDC",
		"type": "RNAV",
		"updated": "11/04/2009",
	},
	{
		"name": "EGGAR",
		"latitude": "38-15-31.53 N",
		"longitude": "76-18-23.34 W",
		"state": "MARYLAND",
		"artcc": "ZDC",
		"type": "MW",
		"updated": "08/18/2010",
	},
	{
		"name": "EGIBE",
		"latitude": "40-1-21.63 N",
		"longitude": "74-20-31.09 W",
		"state": "NEW JERSEY",
		"artcc": "ZNY",
		"type": "MR",
		"updated": "NEL*TACAN*160.00/1.00",
	},
	{
		"name": "EGILE",
		"latitude": "39-1-55.51 N",
		"longitude": "76-3-52.37 W",
		"state": "MARYLAND",
		"artcc": "ZDC",
		"type": "WP",
		"updated": "11/02/2011",
	},
	{
		"name": "EGOBE",
		"latitude": "36-48-46.11 N",
		"longitude": "76-0-37.95 W",
		"state": "VIRGINIA",
		"artcc": "ZDC",
		"type": "MW",
		"updated": "05/10/2013",
	},
	{
		"name": "EGUDE",
		"latitude": "39-1-26.82 N",
		"longitude": "76-52-16.69 W",
		"state": "MARYLAND",
		"artcc": "ZDC",
		"type": "MR",
		"updated": "ADW*VORTAC*008.96/13.00",
	},
	{
		"name": "EHEKY",
		"latitude": "37-6-45.87 N",
		"longitude": "77-55-57.45 W",
		"state": "VIRGINIA",
		"artcc": "ZDC",
		"type": "RNAV",
		"updated": "11/17/2010",
	},
	{
		"name": "EJABI",
		"latitude": "34-43-59.37 N",
		"longitude": "77-47-13.37 W",
		"state": "NORTH CAROLINA",
		"artcc": "ZDC",
		"type": "RNAV",
		"updated": "10/07/2014",
	},
	{
		"name": "EJAZO",
		"latitude": "35-48-18.21 N",
		"longitude": "78-54-20.12 W",
		"state": "NORTH CAROLINA",
		"artcc": "ZDC",
		"type": "RNAV",
		"updated": "07/21/2009",
	},
	{
		"name": "EJNUX",
		"latitude": "36-19-26.23 N",
		"longitude": "77-4-7.63 W",
		"state": "NORTH CAROLINA",
		"artcc": "ZDC",
		"type": "RP",
		"updated": "CVI*VORTAC*262.00/10.00",
	},
	{
		"name": "EJOCU",
		"latitude": "39-6-24.41 N",
		"longitude": "79-4-4.17 W",
		"state": "WEST VIRGINIA",
		"artcc": "ZDC",
		"type": "RP",
		"updated": "ESL*VOR/DME*213.21/8.00",
	},
	{
		"name": "EJUBO",
		"latitude": "39-58-20.27 N",
		"longitude": "75-3-19.09 W",
		"state": "NEW JERSEY",
		"artcc": "ZDC",
		"type": "RNAV",
		"updated": "06/29/2011",
	},
	{
		"name": "EJUYE",
		"latitude": "35-2-13.15 N",
		"longitude": "77-4-13.55 W",
		"state": "NORTH CAROLINA",
		"artcc": "ZDC",
		"type": "CN",
		"updated": "11/28/2000",
	},
	{
		"name": "EKBAW",
		"latitude": "35-8-43.81 N",
		"longitude": "76-59-25.38 W",
		"state": "NORTH CAROLINA",
		"artcc": "ZDC",
		"type": "RNAV",
		"updated": "11/19/2012",
	},
	{
		"name": "EKFIT",
		"latitude": "34-59-49.64 N",
		"longitude": "78-47-42.5 W",
		"state": "NORTH CAROLINA",
		"artcc": "ZDC",
		"type": "CN",
		"updated": "11/28/2000",
	},
	{
		"name": "EKLAW",
		"latitude": "35-49-18.16 N",
		"longitude": "78-31-11.94 W",
		"state": "NORTH CAROLINA",
		"artcc": "ZDC",
		"type": "RP",
		"updated": "TYI*VORTAC*262.10",
	},
	{
		"name": "EKSEW",
		"latitude": "39-49-46.58 N",
		"longitude": "75-28-20.94 W",
		"state": "PENNSYLVANIA",
		"artcc": "ZDC",
		"type": "RP",
		"updated": "DQO*VORTAC*044.41",
	},
	{
		"name": "EKVAY",
		"latitude": "35-50-29.65 N",
		"longitude": "78-44-6.01 W",
		"state": "NORTH CAROLINA",
		"artcc": "ZDC",
		"type": "CN",
		"updated": "11/28/2000",
	},
	{
		"name": "ELAPP",
		"latitude": "37-53-40.21 N",
		"longitude": "77-21-10.46 W",
		"state": "VIRGINIA",
		"artcc": "ZDC",
		"type": "RNAV",
		"updated": "09/28/2015",
	},
	{
		"name": "ELEME",
		"latitude": "38-46-12 N",
		"longitude": "79-56-2.57 W",
		"state": "WEST VIRGINIA",
		"artcc": "ZDC",
		"type": "RNAV",
		"updated": "11/02/2009",
	},
	{
		"name": "ELGEE",
		"latitude": "39-30-48.56 N",
		"longitude": "78-27-22.47 W",
		"state": "WEST VIRGINIA",
		"artcc": "ZDC",
		"type": "RP",
		"updated": "ESL*VOR/DME*061.00/30.23",
	},
	{
		"name": "ELIME",
		"latitude": "38-11-8.72 N",
		"longitude": "78-13-6.37 W",
		"state": "VIRGINIA",
		"artcc": "ZDC",
		"type": "RNAV",
		"updated": "04/22/2014",
	},
	{
		"name": "ELINE",
		"latitude": "35-43-13.59 N",
		"longitude": "78-1-20.92 W",
		"state": "NORTH CAROLINA",
		"artcc": "ZDC",
		"type": "CN",
		"updated": "11/28/2000",
	},
	{
		"name": "ELISN",
		"latitude": "38-56-4.35 N",
		"longitude": "77-34-47.64 W",
		"state": "VIRGINIA",
		"artcc": "ZDC",
		"type": "RNAV",
		"updated": "07/24/2014",
	},
	{
		"name": "ELLAS",
		"latitude": "34-45-3.26 N",
		"longitude": "77-42-17.73 W",
		"state": "NORTH CAROLINA",
		"artcc": "ZDC",
		"type": "RP",
		"updated": "OAJ*LD*232.39/7.39",
	},
	{
		"name": "ELLON",
		"latitude": "37-30-6.59 N",
		"longitude": "79-11-13.79 W",
		"state": "VIRGINIA",
		"artcc": "ZDC",
		"type": "RP",
		"updated": "LYH*VORTAC*014.03/15.00",
	},
	{
		"name": "ELMER",
		"latitude": "37-10-22.21 N",
		"longitude": "76-0-1.56 W",
		"state": "VIRGINIA",
		"artcc": "ZDC",
		"type": "RP",
		"updated": "LFI*TACAN*083.00/18.00",
	},
	{
		"name": "ELOHI",
		"latitude": "35-49-54.64 N",
		"longitude": "77-56-31.14 W",
		"state": "NORTH CAROLINA",
		"artcc": "ZDC",
		"type": "CN",
		"updated": "11/28/2000",
	},
	{
		"name": "ELOPY",
		"latitude": "38-24-54.32 N",
		"longitude": "78-44-42.1 W",
		"state": "VIRGINIA",
		"artcc": "ZDC",
		"type": "RNAV",
		"updated": "07/20/2009",
	},
	{
		"name": "ELUCO",
		"latitude": "38-15-18.29 N",
		"longitude": "75-2-50.02 W",
		"state": "MARYLAND",
		"artcc": "ZDC",
		"type": "RNAV",
		"updated": "07/07/2009",
	},
	{
		"name": "ELUDE",
		"latitude": "39-39-11.28 N",
		"longitude": "75-48-8.43 W",
		"state": "MARYLAND",
		"artcc": "ZDC",
		"type": "RP",
		"updated": "DQO*VORTAC*270.65/9.17",
	},
	{
		"name": "ELUXY",
		"latitude": "38-59-0.78 N",
		"longitude": "79-47-57.93 W",
		"state": "WEST VIRGINIA",
		"artcc": "ZDC",
		"type": "RNAV",
		"updated": "11/02/2009",
	},
	{
		"name": "EMERY",
		"latitude": "35-1-42 N",
		"longitude": "74-35-10 W",
		"state": "OFFSHORE ATLANTIC",
		"artcc": "ZDC",
		"type": "WP",
		"updated": "03/26/2002",
	},
	{
		"name": "EMMIE",
		"latitude": "37-50-16.5 N",
		"longitude": "77-51-52.14 W",
		"state": "VIRGINIA",
		"artcc": "ZDC",
		"type": "RP",
		"updated": "FAK*VORTAC*000.69/18.62",
	},
	{
		"name": "EMNAR",
		"latitude": "39-14-54.91 N",
		"longitude": "78-17-8.28 W",
		"state": "VIRGINIA",
		"artcc": "ZDC",
		"type": "RNAV",
		"updated": "05/14/2014",
	},
	{
		"name": "EMUNY",
		"latitude": "40-14-48.4 N",
		"longitude": "74-51-11.32 W",
		"state": "PENNSYLVANIA",
		"artcc": "ZDC",
		"type": "RP",
		"updated": "GXU*VORTAC*332.38",
	},
	{
		"name": "EMWHY",
		"latitude": "37-25-34.86 N",
		"longitude": "77-28-13.42 W",
		"state": "VIRGINIA",
		"artcc": "ZDC",
		"type": "RNAV",
		"updated": "06/11/2014",
	},
	{
		"name": "ENEDE",
		"latitude": "39-5-40.38 N",
		"longitude": "77-27-27.08 W",
		"state": "MARYLAND",
		"artcc": "ZDC",
		"type": "RP",
		"updated": "AML*VOR/DME*/9.60",
	},
	{
		"name": "ENEYO",
		"latitude": "37-14-14.4 N",
		"longitude": "80-31-3.08 W",
		"state": "VIRGINIA",
		"artcc": "ZDC",
		"type": "RNAV",
		"updated": "04/15/2011",
	},
	{
		"name": "ENOWS",
		"latitude": "38-54-59.24 N",
		"longitude": "74-54-17.65 W",
		"state": "NEW JERSEY",
		"artcc": "ZDC",
		"type": "RNAV",
		"updated": "08/16/2017",
	},
	{
		"name": "ENSUE",
		"latitude": "39-18-25.63 N",
		"longitude": "76-32-38.53 W",
		"state": "MARYLAND",
		"artcc": "ZDC",
		"type": "RP",
		"updated": "BAL*VORTAC*044.78/9.82",
	},
	{
		"name": "ENTUK",
		"latitude": "36-45-58.11 N",
		"longitude": "79-32-18.87 W",
		"state": "VIRGINIA",
		"artcc": "ZDC",
		"type": "RP",
		"updated": "DAN*VOR*326.56",
	},
	{
		"name": "ENZEW",
		"latitude": "39-56-40.98 N",
		"longitude": "74-52-2.14 W",
		"state": "NEW JERSEY",
		"artcc": "ZDC",
		"type": "RP",
		"updated": "RBV*VORTAC*238.10/23.08",
	},
	{
		"name": "EPAHY",
		"latitude": "38-52-56.74 N",
		"longitude": "79-50-44.88 W",
		"state": "WEST VIRGINIA",
		"artcc": "ZDC",
		"type": "RNAV",
		"updated": "11/02/2009",
	},
	{
		"name": "EPECU",
		"latitude": "39-56-41.11 N",
		"longitude": "74-52-1.94 W",
		"state": "NEW JERSEY",
		"artcc": "ZDC",
		"type": "RNAV",
		"updated": "01/26/2012",
	},
	{
		"name": "EPICS",
		"latitude": "37-47-12.26 N",
		"longitude": "77-15-41.98 W",
		"state": "VIRGINIA",
		"artcc": "ZDC",
		"type": "RP",
		"updated": "FAK*VORTAC*066.00",
	},
	{
		"name": "EPKAW",
		"latitude": "39-41-32.71 N",
		"longitude": "75-46-48.8 W",
		"state": "DELAWARE",
		"artcc": "ZDC",
		"type": "RNAV",
		"updated": "09/28/2010",
	},
	{
		"name": "EPOCH",
		"latitude": "36-4-23.46 N",
		"longitude": "79-21-55.68 W",
		"state": "NORTH CAROLINA",
		"artcc": "ZDC",
		"type": "RNAV",
		"updated": "11/07/2012",
	},
	{
		"name": "EPUVE",
		"latitude": "39-21-50.05 N",
		"longitude": "76-26-38.14 W",
		"state": "MARYLAND",
		"artcc": "ZDC",
		"type": "RNAV",
		"updated": "05/20/2009",
	},
	{
		"name": "EPUYO",
		"latitude": "35-19-43.04 N",
		"longitude": "78-50-39.67 W",
		"state": "NORTH CAROLINA",
		"artcc": "ZDC",
		"type": "MW",
		"updated": "05/23/2013",
	},
	{
		"name": "EPXOP",
		"latitude": "39-5-44.33 N",
		"longitude": "79-38-17.73 W",
		"state": "WEST VIRGINIA",
		"artcc": "ZDC",
		"type": "RNAV",
		"updated": "11/03/2009",
	},
	{
		"name": "ERACE",
		"latitude": "38-42-43.85 N",
		"longitude": "77-27-47.04 W",
		"state": "VIRGINIA",
		"artcc": "ZDC",
		"type": "RP",
		"updated": "CSN*VORTAC*083.20",
	},
	{
		"name": "ERAHI",
		"latitude": "37-59-18.99 N",
		"longitude": "80-16-58.37 W",
		"state": "WEST VIRGINIA",
		"artcc": "ZDC",
		"type": "RNAV",
		"updated": "10/17/2017",
	},
	{
		"name": "ERECA",
		"latitude": "38-55-7.67 N",
		"longitude": "76-51-7.09 W",
		"state": "MARYLAND",
		"artcc": "ZDC",
		"type": "RNAV",
		"updated": "09/29/2017",
	},
	{
		"name": "ERIKE",
		"latitude": "38-58-37.69 N",
		"longitude": "77-36-15 W",
		"state": "VIRGINIA",
		"artcc": "ZDC",
		"type": "RP",
		"updated": "AML*VOR/DME*299.66/6.92",
	},
	{
		"name": "ERROX",
		"latitude": "36-25-20.76 N",
		"longitude": "76-11-12.02 W",
		"state": "NORTH CAROLINA",
		"artcc": "ZDC",
		"type": "RNAV",
		"updated": "01/11/2018",
	},
	{
		"name": "ERUYO",
		"latitude": "35-58-53.96 N",
		"longitude": "78-22-10.56 W",
		"state": "NORTH CAROLINA",
		"artcc": "ZDC",
		"type": "RNAV",
		"updated": "08/01/2011",
	},
	{
		"name": "ESERY",
		"latitude": "39-30-58.05 N",
		"longitude": "78-51-51.1 W",
		"state": "WEST VIRGINIA",
		"artcc": "ZDC",
		"type": "RNAV",
		"updated": "07/15/2011",
	},
	{
		"name": "ESISE",
		"latitude": "37-4-9.52 N",
		"longitude": "79-38-25.12 W",
		"state": "VIRGINIA",
		"artcc": "ZDC",
		"type": "RNAV",
		"updated": "05/19/2011",
	},
	{
		"name": "ESKOE",
		"latitude": "39-54-33.98 N",
		"longitude": "75-5-38.98 W",
		"state": "NEW JERSEY",
		"artcc": "ZDC",
		"type": "RP",
		"updated": "LLH*LD*084.93/6.35",
	},
	{
		"name": "ESORE",
		"latitude": "37-37-40.94 N",
		"longitude": "77-21-52.1 W",
		"state": "VIRGINIA",
		"artcc": "ZDC",
		"type": "RNAV",
		"updated": "06/11/2014",
	},
	{
		"name": "ESSSO",
		"latitude": "39-17-3 N",
		"longitude": "75-39-13 W",
		"state": "DELAWARE",
		"artcc": "ZDC",
		"type": "RNAV",
		"updated": "04/06/2012",
	},
	{
		"name": "ESTER",
		"latitude": "35-28-49.04 N",
		"longitude": "77-49-17.29 W",
		"state": "NORTH CAROLINA",
		"artcc": "ZDC",
		"type": "RP",
		"updated": "ISO*VORTAC*301.99/14.47",
	},
	{
		"name": "ESTMA",
		"latitude": "36-6-47.36 N",
		"longitude": "78-41-53.86 W",
		"state": "NORTH CAROLINA",
		"artcc": "ZDC",
		"type": "RP",
		"updated": "RDU*VORTAC*025.00/15.00",
	},
	{
		"name": "ESTON",
		"latitude": "39-20-40.23 N",
		"longitude": "75-24-33.63 W",
		"state": "DELAWARE",
		"artcc": "ZDC",
		"type": "MR",
		"updated": "DOV*TACAN*024.00/13.00",
	},
	{
		"name": "ESURE",
		"latitude": "34-27-3.1 N",
		"longitude": "78-26-52.07 W",
		"state": "NORTH CAROLINA",
		"artcc": "ZDC",
		"type": "RNAV",
		"updated": "08/14/2010",
	},
	{
		"name": "ETAVE",
		"latitude": "35-41-27.15 N",
		"longitude": "77-55-7.86 W",
		"state": "NORTH CAROLINA",
		"artcc": "ZDC",
		"type": "RNAV",
		"updated": "02/14/2003",
	},
	{
		"name": "ETBUY",
		"latitude": "35-6-48.43 N",
		"longitude": "79-29-25.22 W",
		"state": "NORTH CAROLINA",
		"artcc": "ZDC",
		"type": "RNAV",
		"updated": "11/19/2012",
	},
	{
		"name": "ETMEY",
		"latitude": "36-56-14 N",
		"longitude": "73-43-16 W",
		"state": "OFFSHORE ATLANTIC",
		"artcc": "ZDC",
		"type": "RNAV",
		"updated": "03/23/2018",
	},
	{
		"name": "ETRIK",
		"latitude": "37-13-52.67 N",
		"longitude": "77-23-6.83 W",
		"state": "VIRGINIA",
		"artcc": "ZDC",
		"type": "RP",
		"updated": "HPW*VORTAC*251.69/14.16",
	},
	{
		"name": "ETUME",
		"latitude": "36-40-6.87 N",
		"longitude": "77-8-53.01 W",
		"state": "VIRGINIA",
		"artcc": "ZDC",
		"type": "RNAV",
		"updated": "01/05/2012",
	},
	{
		"name": "EVAPE",
		"latitude": "36-50-57.26 N",
		"longitude": "76-8-10.99 W",
		"state": "VIRGINIA",
		"artcc": "ZDC",
		"type": "RNAV",
		"updated": "07/16/2002",
	},
	{
		"name": "EVAXY",
		"latitude": "35-42-51.05 N",
		"longitude": "77-22-17.09 W",
		"state": "NORTH CAROLINA",
		"artcc": "ZDC",
		"type": "RNAV",
		"updated": "11/30/2015",
	},
	{
		"name": "EVIGY",
		"latitude": "35-37-37.2 N",
		"longitude": "78-55-47.4 W",
		"state": "NORTH CAROLINA",
		"artcc": "ZDC",
		"type": "RNAV",
		"updated": "09/01/2010",
	},
	{
		"name": "EVINN",
		"latitude": "36-50-45.01 N",
		"longitude": "76-15-37.67 W",
		"state": "VIRGINIA",
		"artcc": "ZDC",
		"type": "RNAV",
		"updated": "12/28/2015",
	},
	{
		"name": "EVIPE",
		"latitude": "38-36-54.03 N",
		"longitude": "77-4-48.58 W",
		"state": "MARYLAND",
		"artcc": "ZDC",
		"type": "RNAV",
		"updated": "04/12/2004",
	},
	{
		"name": "EVODY",
		"latitude": "39-55-42.6 N",
		"longitude": "74-51-19.95 W",
		"state": "NEW JERSEY",
		"artcc": "ZDC",
		"type": "RNAV",
		"updated": "12/30/2016",
	},
	{
		"name": "EWESS",
		"latitude": "38-21-50.31 N",
		"longitude": "80-6-52.03 W",
		"state": "WEST VIRGINIA",
		"artcc": "ZDC",
		"type": "RNAV",
		"updated": "01/16/2014",
	},
	{
		"name": "EWIVO",
		"latitude": "36-13-2.47 N",
		"longitude": "77-10-5.43 W",
		"state": "NORTH CAROLINA",
		"artcc": "ZDC",
		"type": "RNAV",
		"updated": "03/04/2015",
	},
	{
		"name": "EWOLO",
		"latitude": "35-20-4.62 N",
		"longitude": "79-5-34.35 W",
		"state": "NORTH CAROLINA",
		"artcc": "ZDC",
		"type": "RNAV",
		"updated": "07/08/2011",
	},
	{
		"name": "EWOOD",
		"latitude": "37-31-10.55 N",
		"longitude": "75-52-9.26 W",
		"state": "VIRGINIA",
		"artcc": "ZDC",
		"type": "RP",
		"updated": "HCM*VORTAC*090.71",
	},
	{
		"name": "EWWEL",
		"latitude": "38-23-44.31 N",
		"longitude": "75-36-5.09 W",
		"state": "MARYLAND",
		"artcc": "ZDC",
		"type": "RNAV",
		"updated": "09/27/2010",
	},
	{
		"name": "EWYAH",
		"latitude": "38-32-44.03 N",
		"longitude": "78-52-33.41 W",
		"state": "VIRGINIA",
		"artcc": "ZDC",
		"type": "RNAV",
		"updated": "01/30/2001",
	},
	{
		"name": "EXAVE",
		"latitude": "34-41-45.43 N",
		"longitude": "76-36-44.88 W",
		"state": "NORTH CAROLINA",
		"artcc": "ZDC",
		"type": "RNAV",
		"updated": "03/29/2012",
	},
	{
		"name": "EXBEL",
		"latitude": "34-45-53.93 N",
		"longitude": "78-43-19.53 W",
		"state": "NORTH CAROLINA",
		"artcc": "ZDC",
		"type": "RNAV",
		"updated": "08/15/2010",
	},
	{
		"name": "EXBOP",
		"latitude": "34-53-56.4 N",
		"longitude": "78-14-49.05 W",
		"state": "NORTH CAROLINA",
		"artcc": "ZDC",
		"type": "RNAV",
		"updated": "05/23/2011",
	},
	{
		"name": "EXEVE",
		"latitude": "39-8-32.62 N",
		"longitude": "76-37-18.93 W",
		"state": "MARYLAND",
		"artcc": "ZDC",
		"type": "RP",
		"updated": "BAL*VORTAC*/2.51",
	},
	{
		"name": "EXINE",
		"latitude": "35-35-55.49 N",
		"longitude": "77-29-21.03 W",
		"state": "NORTH CAROLINA",
		"artcc": "ZDC",
		"type": "RNAV",
		"updated": "02/03/2009",
	},
	{
		"name": "EXMOR",
		"latitude": "37-33-32.28 N",
		"longitude": "75-49-46.56 W",
		"state": "VIRGINIA",
		"artcc": "ZDC",
		"type": "RP",
		"updated": "CCV*VORTAC*042.31/15.00",
	},
	{
		"name": "EXRAS",
		"latitude": "38-6-58 N",
		"longitude": "79-29-18.08 W",
		"state": "VIRGINIA",
		"artcc": "ZDC",
		"type": "RP",
		"updated": "MOL*VOR/DME*310.65",
	},
	{
		"name": "EXULE",
		"latitude": "35-56-25.38 N",
		"longitude": "78-5-32.96 W",
		"state": "NORTH CAROLINA",
		"artcc": "ZDC",
		"type": "RP",
		"updated": "TYI*VORTAC*268.55/19.06",
	},
	{
		"name": "EXUNE",
		"latitude": "37-12-36.79 N",
		"longitude": "80-16-2.77 W",
		"state": "VIRGINIA",
		"artcc": "ZDC",
		"type": "RP",
		"updated": "SZK*DD*252.25/15.39",
	},
	{
		"name": "EXURE",
		"latitude": "36-58-14.73 N",
		"longitude": "76-45-1.02 W",
		"state": "VIRGINIA",
		"artcc": "ZDC",
		"type": "MR",
		"updated": "LFI*TACAN*260.00/20.00",
	},
	{
		"name": "EXUZO",
		"latitude": "36-22-54.44 N",
		"longitude": "77-37-31.08 W",
		"state": "NORTH CAROLINA",
		"artcc": "ZDC",
		"type": "RNAV",
		"updated": "07/21/2011",
	},
	{
		"name": "EYAGI",
		"latitude": "38-44-58.18 N",
		"longitude": "77-53-35.11 W",
		"state": "VIRGINIA",
		"artcc": "ZDC",
		"type": "RNAV",
		"updated": "HWY*LE*328.82/13.59",
	},
	{
		"name": "EYESS",
		"latitude": "38-58-18.75 N",
		"longitude": "76-53-48.84 W",
		"state": "MARYLAND",
		"artcc": "ZDC",
		"type": "RNAV",
		"updated": "01/12/2012",
	},
	{
		"name": "EYILI",
		"latitude": "36-7-11.91 N",
		"longitude": "77-55-19.42 W",
		"state": "NORTH CAROLINA",
		"artcc": "ZDC",
		"type": "RNAV",
		"updated": "09/30/2013",
	},
	{
		"name": "EYOBI",
		"latitude": "34-47-10.9 N",
		"longitude": "78-50-57.02 W",
		"state": "NORTH CAROLINA",
		"artcc": "ZDC",
		"type": "RP",
		"updated": "FAY*VOR/DME*177.88/12.00",
	},
	{
		"name": "EYOGI",
		"latitude": "36-7-3.37 N",
		"longitude": "79-39-2.13 W",
		"state": "NORTH CAROLINA",
		"artcc": "ZDC",
		"type": "RNAV",
		"updated": "11/21/2003",
	},
	{
		"name": "EYPEC",
		"latitude": "38-33-37.81 N",
		"longitude": "77-59-41.76 W",
		"state": "VIRGINIA",
		"artcc": "ZDC",
		"type": "RNAV",
		"updated": "01/30/2001",
	},
	{
		"name": "EYTEE",
		"latitude": "38-58-45.23 N",
		"longitude": "78-51-32.82 W",
		"state": "WEST VIRGINIA",
		"artcc": "ZDC",
		"type": "RP",
		"updated": "ESL*VOR/DME*163.54",
	},
	{
		"name": "EYUFI",
		"latitude": "36-7-2.9 N",
		"longitude": "76-34-11.79 W",
		"state": "NORTH CAROLINA",
		"artcc": "ZDC",
		"type": "RP",
		"updated": "ECG*VOR/DME*253.45",
	},
	{
		"name": "EYUGO",
		"latitude": "36-50-35.76 N",
		"longitude": "77-37-1.54 W",
		"state": "VIRGINIA",
		"artcc": "ZDC",
		"type": "RNAV",
		"updated": "02/21/2014",
	},
	{
		"name": "EZBOX",
		"latitude": "34-31-55.69 N",
		"longitude": "78-31-6.65 W",
		"state": "NORTH CAROLINA",
		"artcc": "ZDC",
		"type": "RNAV",
		"updated": "08/15/2010",
	},
	{
		"name": "EZETY",
		"latitude": "38-11-30.01 N",
		"longitude": "78-55-23.92 W",
		"state": "VIRGINIA",
		"artcc": "ZDC",
		"type": "RNAV",
		"updated": "05/14/2012",
	},
	{
		"name": "EZIMY",
		"latitude": "41-31-2.95 N",
		"longitude": "79-47-58.85 W",
		"state": "PENNSYLVANIA",
		"artcc": "ZDC",
		"type": "RNAV",
		"updated": "08/24/2001",
	},
	{
		"name": "EZIZI",
		"latitude": "38-36-12.96 N",
		"longitude": "75-30-38.1 W",
		"state": "DELAWARE",
		"artcc": "ZDC",
		"type": "RP",
		"updated": "ATR*VOR/DME*237.76",
	},
	{
		"name": "EZUWI",
		"latitude": "35-28-27.71 N",
		"longitude": "78-30-8.71 W",
		"state": "NORTH CAROLINA",
		"artcc": "ZDC",
		"type": "RNAV",
		"updated": "09/06/2007",
	},
	{
		"name": "EZZZZ",
		"latitude": "39-22-54.31 N",
		"longitude": "77-51-27.43 W",
		"state": "WEST VIRGINIA",
		"artcc": "ZDC",
		"type": "RNAV",
		"updated": "12/16/2014",
	},
