[
	{
		"name": "HABKI",
		"latitude": "36-34-17.29 N",
		"longitude": "75-51-59.3 W",
		"state": "VIRGINIA",
		"artcc": "ZDC",
		"type": "RNAV",
		"updated": "03/30/2009"
	},
	{
		"name": "HABMI",
		"latitude": "37-21-37.31 N",
		"longitude": "79-55-42.91 W",
		"state": "VIRGINIA",
		"artcc": "ZDC",
		"type": "RP",
		"updated": "ODR*VOR*056.04"
	},
	{
		"name": "HABUR",
		"latitude": "36-1-58.94 N",
		"longitude": "78-53-35.83 W",
		"state": "NORTH CAROLINA",
		"artcc": "ZDC",
		"type": "RNAV",
		"updated": "07/21/2009"
	},
	{
		"name": "HACKO",
		"latitude": "39-42-21.11 N",
		"longitude": "75-12-33.65 W",
		"state": "NEW JERSEY",
		"artcc": "ZDC",
		"type": "RP",
		"updated": "VCN*VOR/DME*322.00"
	},
	{
		"name": "HADIN",
		"latitude": "39-34-52.61 N",
		"longitude": "75-36-50.09 W",
		"state": "DELAWARE",
		"artcc": "ZDC",
		"type": "RNAV",
		"updated": "02/28/2014"
	},
	{
		"name": "HADKA",
		"latitude": "39-29-35.2 N",
		"longitude": "77-20-4.67 W",
		"state": "MARYLAND",
		"artcc": "ZDC",
		"type": "RNAV",
		"updated": "01/23/2002"
	},
	{
		"name": "HADMI",
		"latitude": "39-42-20.16 N",
		"longitude": "77-44-56.07 W",
		"state": "MARYLAND",
		"artcc": "ZDC",
		"type": "RP",
		"updated": "UYK*LD*271.50/1.81"
	},
	{
		"name": "HADNI",
		"latitude": "39-53-3.22 N",
		"longitude": "75-10-39.44 W",
		"state": "PENNSYLVANIA",
		"artcc": "ZDC",
		"type": "RP",
		"updated": "PDP*LD*087.50/2.01"
	},
	{
		"name": "HADOR",
		"latitude": "39-22-15.27 N",
		"longitude": "76-30-28.73 W",
		"state": "MARYLAND",
		"artcc": "ZDC",
		"type": "RNAV",
		"updated": "05/20/2009"
	},
	{
		"name": "HADRU",
		"latitude": "37-27-7.31 N",
		"longitude": "77-36-35.43 W",
		"state": "VIRGINIA",
		"artcc": "ZDC",
		"type": "RNAV",
		"updated": "01/18/2011"
	},
	{
		"name": "HAFNR",
		"latitude": "38-23-50.46 N",
		"longitude": "77-33-58.95 W",
		"state": "VIRGINIA",
		"artcc": "ZDC",
		"type": "RP",
		"updated": "GVE*VORTAC*056.16/36.04"
	},
	{
		"name": "HAGIB",
		"latitude": "35-46-3.29 N",
		"longitude": "78-8-16.33 W",
		"state": "NORTH CAROLINA",
		"artcc": "ZDC",
		"type": "RNAV",
		"updated": "02/13/2003"
	},
	{
		"name": "HAGLI",
		"latitude": "37-20-44.23 N",
		"longitude": "77-11-13.06 W",
		"state": "VIRGINIA",
		"artcc": "ZDC",
		"type": "RNAV",
		"updated": "01/18/2011"
	},
	{
		"name": "HAGON",
		"latitude": "39-28-37.86 N",
		"longitude": "78-54-17.51 W",
		"state": "WEST VIRGINIA",
		"artcc": "ZDC",
		"type": "RNAV",
		"updated": "07/15/2011"
	},
	{
		"name": "HAGOR",
		"latitude": "39-45-8.97 N",
		"longitude": "77-51-23.95 W",
		"state": "PENNSYLVANIA",
		"artcc": "ZDC",
		"type": "MR",
		"updated": "MRB*VORTAC*006.00/22.00"
	},
	{
		"name": "HAGSO",
		"latitude": "35-42-19.73 N",
		"longitude": "77-14-12.19 W",
		"state": "NORTH CAROLINA",
		"artcc": "ZDC",
		"type": "RNAV",
		"updated": "12/01/2008"
	},
	{
		"name": "HAIGS",
		"latitude": "39-45-19.32 N",
		"longitude": "77-21-31.39 W",
		"state": "PENNSYLVANIA",
		"artcc": "ZDC",
		"type": "RP",
		"updated": "THS*VORTAC*118.10"
	},
	{
		"name": "HAKDA",
		"latitude": "36-40-10.02 N",
		"longitude": "80-6-28.87 W",
		"state": "VIRGINIA",
		"artcc": "ZDC",
		"type": "RNAV",
		"updated": "11/26/2002"
	},
	{
		"name": "HAKDY",
		"latitude": "36-14-26.93 N",
		"longitude": "76-9-10.36 W",
		"state": "NORTH CAROLINA",
		"artcc": "ZDC",
		"type": "RNAV",
		"updated": "03/30/2009"
	},
	{
		"name": "HAKIS",
		"latitude": "39-42-58.86 N",
		"longitude": "78-20-50.13 W",
		"state": "MARYLAND",
		"artcc": "ZDC",
		"type": "RNAV",
		"updated": "02/23/2017"
	},
	{
		"name": "HAKOK",
		"latitude": "36-9-28.29 N",
		"longitude": "78-31-58 W",
		"state": "NORTH CAROLINA",
		"artcc": "ZDC",
		"type": "RP",
		"updated": "RDU*VORTAC*039.43/21.00"
	},
	{
		"name": "HAKON",
		"latitude": "38-13-12.49 N",
		"longitude": "78-6-8.45 W",
		"state": "VIRGINIA",
		"artcc": "ZDC",
		"type": "RNAV",
		"updated": "10/18/2011"
	},
	{
		"name": "HALAX",
		"latitude": "35-43-33.67 N",
		"longitude": "76-54-37.29 W",
		"state": "NORTH CAROLINA",
		"artcc": "ZDC",
		"type": "RNAV",
		"updated": "12/01/2008"
	},
	{
		"name": "HALLL",
		"latitude": "38-31-7.19 N",
		"longitude": "77-0-33.68 W",
		"state": "MARYLAND",
		"artcc": "ZDC",
		"type": "RNAV",
		"updated": "01/08/2015"
	},
	{
		"name": "HALNO",
		"latitude": "35-21-16.97 N",
		"longitude": "77-53-55.78 W",
		"state": "NORTH CAROLINA",
		"artcc": "ZDC",
		"type": "MW",
		"updated": "03/19/2015"
	},
	{
		"name": "HALPU",
		"latitude": "38-46-33.69 N",
		"longitude": "78-19-48.83 W",
		"state": "VIRGINIA",
		"artcc": "ZDC",
		"type": "RP",
		"updated": "LDN*VORTAC*237.26/7.50"
	},
	{
		"name": "HALTS",
		"latitude": "36-55-55 N",
		"longitude": "74-20-15 W",
		"state": "OFFSHORE ATLANTIC",
		"artcc": "ZDC",
		"type": "WP",
		"updated": "03/26/2002"
	},
	{
		"name": "HALUP",
		"latitude": "41-2-36.76 N",
		"longitude": "74-19-28.88 W",
		"state": "NEW JERSEY",
		"artcc": "ZDC",
		"type": "RNAV",
		"updated": "03/05/2007"
	},
	{
		"name": "HALVA",
		"latitude": "36-15-58.74 N",
		"longitude": "77-10-11.32 W",
		"state": "NORTH CAROLINA",
		"artcc": "ZDC",
		"type": "RNAV",
		"updated": "03/04/2015"
	},
	{
		"name": "HAMAT",
		"latitude": "34-48-25.25 N",
		"longitude": "79-34-11.58 W",
		"state": "NORTH CAROLINA",
		"artcc": "ZDC",
		"type": "RNAV",
		"updated": "06/22/2010"
	},
	{
		"name": "HAMIM",
		"latitude": "36-50-41.01 N",
		"longitude": "76-21-21.81 W",
		"state": "VIRGINIA",
		"artcc": "ZDC",
		"type": "RNAV",
		"updated": "05/03/2018"
	},
	{
		"name": "HAMMA",
		"latitude": "40-12-16.84 N",
		"longitude": "74-44-51.19 W",
		"state": "NEW JERSEY",
		"artcc": "ZDC",
		"type": "RNAV",
		"updated": "08/16/2012"
	},
	{
		"name": "HAMME",
		"latitude": "38-42-29.69 N",
		"longitude": "79-14-39.39 W",
		"state": "WEST VIRGINIA",
		"artcc": "ZDC",
		"type": "RNAV",
		"updated": "07/01/2013"
	},
	{
		"name": "HANEY",
		"latitude": "38-17-17.16 N",
		"longitude": "77-55-4.28 W",
		"state": "VIRGINIA",
		"artcc": "ZDC",
		"type": "RP",
		"updated": "FAK*VORTAC*000.69/45.73"
	},
	{
		"name": "HANKC",
		"latitude": "37-45-9.18 N",
		"longitude": "77-15-2.62 W",
		"state": "VIRGINIA",
		"artcc": "ZDC",
		"type": "RNAV",
		"updated": "10/20/2015"
	},
	{
		"name": "HANOK",
		"latitude": "38-34-36.49 N",
		"longitude": "77-21-14.38 W",
		"state": "VIRGINIA",
		"artcc": "ZDC",
		"type": "RNAV",
		"updated": "09/08/2003"
	},
	{
		"name": "HAPED",
		"latitude": "38-20-43.52 N",
		"longitude": "78-48-53.53 W",
		"state": "VIRGINIA",
		"artcc": "ZDC",
		"type": "RNAV",
		"updated": "07/20/2009"
	},
	{
		"name": "HAPEN",
		"latitude": "37-31-57.75 N",
		"longitude": "77-15-15.28 W",
		"state": "VIRGINIA",
		"artcc": "ZDC",
		"type": "RNAV",
		"updated": "04/06/2017"
	},
	{
		"name": "HAPRO",
		"latitude": "33-57-18.52 N",
		"longitude": "77-59-58.34 W",
		"state": "NORTH CAROLINA",
		"artcc": "ZDC",
		"type": "RNAV",
		"updated": "04/07/2017"
	},
	{
		"name": "HAPUP",
		"latitude": "38-45-45.63 N",
		"longitude": "76-52-13.75 W",
		"state": "MARYLAND",
		"artcc": "ZDC",
		"type": "MR",
		"updated": "ADW*VORTAC*/2.68"
	},
	{
		"name": "HARED",
		"latitude": "38-21-39.82 N",
		"longitude": "76-43-50.47 W",
		"state": "MARYLAND",
		"artcc": "ZDC",
		"type": "RNAV",
		"updated": "01/24/2002"
	},
	{
		"name": "HARLU",
		"latitude": "39-46-35.33 N",
		"longitude": "75-10-51.41 W",
		"state": "NEW JERSEY",
		"artcc": "ZDC",
		"type": "RNAV",
		"updated": "07/19/2016"
	},
	{
		"name": "HARMR",
		"latitude": "39-0-26.76 N",
		"longitude": "76-52-16.51 W",
		"state": "MARYLAND",
		"artcc": "ZDC",
		"type": "MR",
		"updated": "ADW*VORTAC*/12.00"
	},
	{
		"name": "HARPP",
		"latitude": "39-10-34.42 N",
		"longitude": "77-55-43.21 W",
		"state": "VIRGINIA",
		"artcc": "ZDC",
		"type": "RP",
		"updated": "MRB*VORTAC*203.63"
	},
	{
		"name": "HARRA",
		"latitude": "37-24-27.83 N",
		"longitude": "77-4-54.89 W",
		"state": "VIRGINIA",
		"artcc": "ZDC",
		"type": "RP",
		"updated": "HPW*VORTAC*025.00/5.00"
	},
	{
		"name": "HARSH",
		"latitude": "36-14-25.98 N",
		"longitude": "78-47-29.18 W",
		"state": "NORTH CAROLINA",
		"artcc": "ZDC",
		"type": "RNAV",
		"updated": "11/19/2012"
	},
	{
		"name": "HARVY",
		"latitude": "36-44-46.2 N",
		"longitude": "78-28-18.98 W",
		"state": "VIRGINIA",
		"artcc": "ZDC",
		"type": "RP",
		"updated": "FAK*VORTAC*219.57/56.14"
	},
	{
		"name": "HASBA",
		"latitude": "37-14-32.34 N",
		"longitude": "76-16-4.6 W",
		"state": "VIRGINIA",
		"artcc": "ZDC",
		"type": "RP",
		"updated": "ORF*VORTAC*358.23"
	},
	{
		"name": "HASET",
		"latitude": "34-29-50.78 N",
		"longitude": "78-50-58.87 W",
		"state": "NORTH CAROLINA",
		"artcc": "ZDC",
		"type": "RP",
		"updated": "TYI*VORTAC*217.77/105.00"
	},
	{
		"name": "HATAL",
		"latitude": "38-57-3.85 N",
		"longitude": "77-8-8.16 W",
		"state": "VIRGINIA",
		"artcc": "ZDC",
		"type": "RP",
		"updated": "VWH*DD*326.50/8.00"
	},
	{
		"name": "HATIE",
		"latitude": "36-44-44.45 N",
		"longitude": "76-16-35.55 W",
		"state": "VIRGINIA",
		"artcc": "ZDC",
		"type": "RP",
		"updated": "ORF*VORTAC*209.76/9.50"
	},
	{
		"name": "HATTY",
		"latitude": "35-46-46.69 N",
		"longitude": "76-10-53.52 W",
		"state": "NORTH CAROLINA",
		"artcc": "ZDC",
		"type": "RP",
		"updated": "FKN*VORTAC*153.00/69.00"
	},
	{
		"name": "HATUP",
		"latitude": "39-59-21.3 N",
		"longitude": "74-42-49.48 W",
		"state": "NEW JERSEY",
		"artcc": "ZDC",
		"type": "RNAV",
		"updated": "06/29/2011"
	},
	{
		"name": "HATVE",
		"latitude": "35-46-32.98 N",
		"longitude": "75-41-32.84 W",
		"state": "OFFSHORE ATLANTIC",
		"artcc": "ZDC",
		"type": "MR",
		"updated": "NTU*TACAN*175.00/65.00"
	},
	{
		"name": "HAVEV",
		"latitude": "38-46-44.47 N",
		"longitude": "78-52-14.21 W",
		"state": "WEST VIRGINIA",
		"artcc": "ZDC",
		"type": "RNAV",
		"updated": "08/07/2013"
	},
	{
		"name": "HAVGU",
		"latitude": "35-54-22.11 N",
		"longitude": "78-27-49.55 W",
		"state": "NORTH CAROLINA",
		"artcc": "ZDC",
		"type": "RNAV",
		"updated": "07/20/2009"
	},
	{
		"name": "HAVUB",
		"latitude": "36-38-27.23 N",
		"longitude": "76-2-56.29 W",
		"state": "VIRGINIA",
		"artcc": "ZDC",
		"type": "MR",
		"updated": "NTU*TACAN*193.00/11.00"
	},
	{
		"name": "HAWKI",
		"latitude": "38-28-44.6 N",
		"longitude": "80-14-54.37 W",
		"state": "WEST VIRGINIA",
		"artcc": "ZDC",
		"type": "RP",
		"updated": "EKN*VORTAC*202.08/27.02"
	},
	{
		"name": "HAXAK",
		"latitude": "39-8-51.82 N",
		"longitude": "76-38-49.67 W",
		"state": "MARYLAND",
		"artcc": "ZDC",
		"type": "RP",
		"updated": "BAL*VORTAC*/1.55"
	},
	{
		"name": "HAXEG",
		"latitude": "36-20-7.76 N",
		"longitude": "78-34-9.33 W",
		"state": "NORTH CAROLINA",
		"artcc": "ZDC",
		"type": "RNAV",
		"updated": "01/29/2015"
	},
	{
		"name": "HAYDO",
		"latitude": "39-12-23.41 N",
		"longitude": "75-22-50.2 W",
		"state": "DELAWARE",
		"artcc": "ZDC",
		"type": "RP",
		"updated": "SIE*VORTAC*292.99"
	},
	{
		"name": "HAYGR",
		"latitude": "39-23-18.32 N",
		"longitude": "77-46-37.08 W",
		"state": "WEST VIRGINIA",
		"artcc": "ZDC",
		"type": "RNAV",
		"updated": "08/24/2015"
	},
	{
		"name": "HAYYU",
		"latitude": "37-43-46.39 N",
		"longitude": "76-42-8.44 W",
		"state": "VIRGINIA",
		"artcc": "ZDC",
		"type": "RNAV",
		"updated": "12/23/2013"
	},
	{
		"name": "HBUDA",
		"latitude": "37-29-35.62 N",
		"longitude": "77-31-36.86 W",
		"state": "VIRGINIA",
		"artcc": "ZDC",
		"type": "RNAV",
		"updated": "01/26/2015"
	},
	{
		"name": "HEAVE",
		"latitude": "35-55-21.22 N",
		"longitude": "78-53-16.24 W",
		"state": "NORTH CAROLINA",
		"artcc": "ZDC",
		"type": "RNAV",
		"updated": "11/19/2012"
	},
	{
		"name": "HEBIR",
		"latitude": "37-30-13.47 N",
		"longitude": "78-25-37.17 W",
		"state": "VIRGINIA",
		"artcc": "ZDC",
		"type": "RNAV",
		"updated": "07/20/2011"
	},
	{
		"name": "HEBLA",
		"latitude": "38-34-52.25 N",
		"longitude": "78-33-43.74 W",
		"state": "VIRGINIA",
		"artcc": "ZDC",
		"type": "RNAV",
		"updated": "07/20/2011"
	},
	{
		"name": "HEBNO",
		"latitude": "35-5-24.83 N",
		"longitude": "79-34-32.93 W",
		"state": "NORTH CAROLINA",
		"artcc": "ZDC",
		"type": "RP",
		"updated": "SOP*LD*234.23/13.39"
	},
	{
		"name": "HECOO",
		"latitude": "35-22-50 N",
		"longitude": "75-1-55 W",
		"state": "OFFSHORE ATLANTIC",
		"artcc": "ZDC",
		"type": "WP",
		"updated": "03/26/2002"
	},
	{
		"name": "HEDGE",
		"latitude": "38-53-32.11 N",
		"longitude": "75-50-14.46 W",
		"state": "MARYLAND",
		"artcc": "ZDC",
		"type": "RP",
		"updated": "ATR*VOR/DME*288.76/29.76"
	},
	{
		"name": "HEDUR",
		"latitude": "34-59-16.75 N",
		"longitude": "78-53-53.46 W",
		"state": "NORTH CAROLINA",
		"artcc": "ZDC",
		"type": "RNAV",
		"updated": "01/14/2003"
	},
	{
		"name": "HEDYY",
		"latitude": "35-29-8.11 N",
		"longitude": "79-8-48.55 W",
		"state": "NORTH CAROLINA",
		"artcc": "ZDC",
		"type": "RP",
		"updated": "TTA*LD*209.01/6.91"
	},
	{
		"name": "HEELS",
		"latitude": "37-25-54 N",
		"longitude": "75-30-0 W",
		"state": "VIRGINIA",
		"artcc": "ZDC",
		"type": "RP",
		"updated": "LFI*TACAN*073.00/46.09"
	},
	{
		"name": "HEFLN",
		"latitude": "39-3-29.11 N",
		"longitude": "77-45-8.64 W",
		"state": "VIRGINIA",
		"artcc": "ZDC",
		"type": "RNAV",
		"updated": "09/22/2014"
	},
	{
		"name": "HEGAT",
		"latitude": "38-58-58.03 N",
		"longitude": "80-14-18.79 W",
		"state": "WEST VIRGINIA",
		"artcc": "ZDC",
		"type": "RP",
		"updated": "EKN*VORTAC*309.19/7.70"
	},
	{
		"name": "HEGIG",
		"latitude": "38-15-3.72 N",
		"longitude": "76-28-9.06 W",
		"state": "MARYLAND",
		"artcc": "ZDC",
		"type": "MR",
		"updated": "NHK*TACAN*247.00/3.30"
	},
	{
		"name": "HEGIM",
		"latitude": "35-38-12.66 N",
		"longitude": "79-6-28 W",
		"state": "NORTH CAROLINA",
		"artcc": "ZDC",
		"type": "RNAV",
		"updated": "04/24/2017"
	},
	{
		"name": "HEGIR",
		"latitude": "34-48-6.08 N",
		"longitude": "76-42-47.38 W",
		"state": "NORTH CAROLINA",
		"artcc": "ZDC",
		"type": "RP",
		"updated": "NKT*TACAN*136.00/10.00"
	},
	{
		"name": "HEGNO",
		"latitude": "38-19-3.63 N",
		"longitude": "78-47-24.17 W",
		"state": "VIRGINIA",
		"artcc": "ZDC",
		"type": "RNAV",
		"updated": "09/22/2015"
	},
	{
		"name": "HEGUX",
		"latitude": "36-22-7.75 N",
		"longitude": "76-6-10.4 W",
		"state": "NORTH CAROLINA",
		"artcc": "ZDC",
		"type": "RNAV",
		"updated": "12/11/2006"
	},
	{
		"name": "HEKAN",
		"latitude": "35-51-23.47 N",
		"longitude": "75-43-7.16 W",
		"state": "NORTH CAROLINA",
		"artcc": "ZDC",
		"type": "MR",
		"updated": "NTU*TACAN*175.00/60.00"
	},
	{
		"name": "HEKLE",
		"latitude": "39-55-21.9 N",
		"longitude": "74-55-0.57 W",
		"state": "NEW JERSEY",
		"artcc": "ZDC",
		"type": "RNAV",
		"updated": "06/29/2011"
	},
	{
		"name": "HEKMN",
		"latitude": "39-22-37.47 N",
		"longitude": "74-54-22.94 W",
		"state": "NEW JERSEY",
		"artcc": "ZDC",
		"type": "RNAV",
		"updated": "04/06/2012"
	},
	{
		"name": "HELBA",
		"latitude": "36-43-49.2 N",
		"longitude": "76-6-56.91 W",
		"state": "VIRGINIA",
		"artcc": "ZDC",
		"type": "RNAV",
		"updated": "07/16/2002"
	},
	{
		"name": "HELEM",
		"latitude": "38-11-58.23 N",
		"longitude": "76-9-20.81 W",
		"state": "MARYLAND",
		"artcc": "ZDC",
		"type": "MR",
		"updated": "NHK*TACAN*122.00/13.00"
	},
	{
		"name": "HELNA",
		"latitude": "34-37-57.88 N",
		"longitude": "77-55-17.2 W",
		"state": "NORTH CAROLINA",
		"artcc": "ZDC",
		"type": "RP",
		"updated": "FAY*VOR/DME*117.89"
	},
	{
		"name": "HEMAX",
		"latitude": "39-29-37.06 N",
		"longitude": "74-39-44.6 W",
		"state": "NEW JERSEY",
		"artcc": "ZDC",
		"type": "RNAV",
		"updated": "03/15/2001"
	},
	{
		"name": "HEMEV",
		"latitude": "37-16-37.72 N",
		"longitude": "79-26-34.2 W",
		"state": "VIRGINIA",
		"artcc": "ZDC",
		"type": "RP",
		"updated": "LYH*VORTAC*282.85/9.98"
	},
	{
		"name": "HEMME",
		"latitude": "37-41-15.1 N",
		"longitude": "78-6-23.9 W",
		"state": "VIRGINIA",
		"artcc": "ZDC",
		"type": "RNAV",
		"updated": "11/10/2014"
	},
	{
		"name": "HEMTA",
		"latitude": "37-11-1.18 N",
		"longitude": "79-29-51.84 W",
		"state": "VIRGINIA",
		"artcc": "ZDC",
		"type": "RNAV",
		"updated": "05/09/2011"
	},
	{
		"name": "HENBY",
		"latitude": "36-43-10.15 N",
		"longitude": "80-1-29.31 W",
		"state": "VIRGINIA",
		"artcc": "ZDC",
		"type": "RP",
		"updated": "ROA*VOR/DME*180.63/37.46"
	},
	{
		"name": "HENEG",
		"latitude": "38-59-32.85 N",
		"longitude": "77-6-11.48 W",
		"state": "MARYLAND",
		"artcc": "ZDC",
		"type": "RNAV",
		"updated": "01/22/2002"
	},
	{
		"name": "HENET",
		"latitude": "35-56-26.03 N",
		"longitude": "75-37-52.17 W",
		"state": "NORTH CAROLINA",
		"artcc": "ZDC",
		"type": "RNAV",
		"updated": "01/11/2018"
	},
	{
		"name": "HENIP",
		"latitude": "36-57-5.44 N",
		"longitude": "75-53-19.27 W",
		"state": "VIRGINIA",
		"artcc": "ZDC",
		"type": "MW",
		"updated": "11/06/2014"
	},
	{
		"name": "HEPKA",
		"latitude": "39-51-0.35 N",
		"longitude": "75-20-54.68 W",
		"state": "PENNSYLVANIA",
		"artcc": "ZDC",
		"type": "RNAV",
		"updated": "07/09/2009"
	},
	{
		"name": "HEPLA",
		"latitude": "35-53-36.27 N",
		"longitude": "78-40-43.84 W",
		"state": "NORTH CAROLINA",
		"artcc": "ZDC",
		"type": "CN",
		"updated": "10/08/2010"
	},
	{
		"name": "HEROO",
		"latitude": "38-37-37.42 N",
		"longitude": "77-6-22.27 W",
		"state": "MARYLAND",
		"artcc": "ZDC",
		"type": "RNAV",
		"updated": "06/04/2012"
	},
	{
		"name": "HEROR",
		"latitude": "36-18-53.5 N",
		"longitude": "79-49-54.08 W",
		"state": "NORTH CAROLINA",
		"artcc": "ZDC",
		"type": "RNAV",
		"updated": "09/17/2009"
	},
	{
		"name": "HESEE",
		"latitude": "38-29-56.75 N",
		"longitude": "79-29-42.95 W",
		"state": "WEST VIRGINIA",
		"artcc": "ZDC",
		"type": "RNAV",
		"updated": "05/02/2013"
	},
	{
		"name": "HESGI",
		"latitude": "39-41-29.42 N",
		"longitude": "77-51-26.81 W",
		"state": "MARYLAND",
		"artcc": "ZDC",
		"type": "RP",
		"updated": "MRB*VORTAC*005.68"
	},
	{
		"name": "HESKU",
		"latitude": "38-8-2.92 N",
		"longitude": "78-52-37.11 W",
		"state": "VIRGINIA",
		"artcc": "ZDC",
		"type": "RNAV",
		"updated": "07/13/2016"
	},
	{
		"name": "HESLO",
		"latitude": "38-53-27.62 N",
		"longitude": "77-4-31.65 W",
		"state": "VIRGINIA",
		"artcc": "ZDC",
		"type": "RNAV",
		"updated": "10/25/2007"
	},
	{
		"name": "HESUV",
		"latitude": "37-11-53.81 N",
		"longitude": "78-8-26.33 W",
		"state": "VIRGINIA",
		"artcc": "ZDC",
		"type": "RNAV",
		"updated": "08/07/2017"
	},
	{
		"name": "HEVED",
		"latitude": "36-11-2.77 N",
		"longitude": "79-51-2.48 W",
		"state": "NORTH CAROLINA",
		"artcc": "ZDC",
		"type": "RP",
		"updated": "LIB*VORTAC*335.62/25.15"
	},
	{
		"name": "HEVEN",
		"latitude": "39-26-4.64 N",
		"longitude": "77-51-51.65 W",
		"state": "WEST VIRGINIA",
		"artcc": "ZDC",
		"type": "RP",
		"updated": "MRB*VORTAC*352.81"
	},
	{
		"name": "HEVSO",
		"latitude": "36-36-58.08 N",
		"longitude": "79-19-19.82 W",
		"state": "VIRGINIA",
		"artcc": "ZDC",
		"type": "RNAV",
		"updated": "03/12/2010"
	},
	{
		"name": "HEXEP",
		"latitude": "38-17-16.81 N",
		"longitude": "76-20-1.92 W",
		"state": "MARYLAND",
		"artcc": "ZDC",
		"type": "CN",
		"updated": "08/18/2010"
	},
	{
		"name": "HHANK",
		"latitude": "37-59-20.52 N",
		"longitude": "77-38-20.11 W",
		"state": "VIRGINIA",
		"artcc": "ZDC",
		"type": "RNAV",
		"updated": "09/27/2011"
	},
	{
		"name": "HHARP",
		"latitude": "38-14-40.21 N",
		"longitude": "80-10-30.28 W",
		"state": "WEST VIRGINIA",
		"artcc": "ZDC",
		"type": "RNAV",
		"updated": "06/01/2012"
	},
	{
		"name": "HHOBB",
		"latitude": "36-52-52.1 N",
		"longitude": "75-50-30.61 W",
		"state": "VIRGINIA",
		"artcc": "ZDC",
		"type": "MR",
		"updated": "NTU*TACAN*080.00/10.00"
	},
	{
		"name": "HHOLZ",
		"latitude": "38-38-1.96 N",
		"longitude": "79-41-33.22 W",
		"state": "WEST VIRGINIA",
		"artcc": "ZDC",
		"type": "RNAV",
		"updated": "07/01/2013"
	},
	{
		"name": "HIBAN",
		"latitude": "37-25-3.04 N",
		"longitude": "79-50-34.53 W",
		"state": "VIRGINIA",
		"artcc": "ZDC",
		"type": "RNAV",
		"updated": "06/13/2011"
	},
	{
		"name": "HIBOM",
		"latitude": "37-46-52.68 N",
		"longitude": "77-23-44.58 W",
		"state": "VIRGINIA",
		"artcc": "ZDC",
		"type": "RNAV",
		"updated": "01/18/2011"
	},
	{
		"name": "HIFRE",
		"latitude": "39-12-58.41 N",
		"longitude": "77-43-51.55 W",
		"state": "VIRGINIA",
		"artcc": "ZDC",
		"type": "WP",
		"updated": "11/02/1998"
	},
	{
		"name": "HIGAD",
		"latitude": "40-6-30.86 N",
		"longitude": "74-36-52.74 W",
		"state": "NEW JERSEY",
		"artcc": "ZDC",
		"type": "MR",
		"updated": "GXU*VORTAC*004.00/6.00"
	},
	{
		"name": "HIGAL",
		"latitude": "37-18-54.67 N",
		"longitude": "76-42-51.79 W",
		"state": "VIRGINIA",
		"artcc": "ZDC",
		"type": "RP",
		"updated": "HPW*VORTAC*098.32"
	},
	{
		"name": "HIGAP",
		"latitude": "38-16-15.29 N",
		"longitude": "77-9-28.7 W",
		"state": "VIRGINIA",
		"artcc": "ZDC",
		"type": "RP",
		"updated": "BRV*VORTAC*122.00/10.00"
	},
	{
		"name": "HIGDI",
		"latitude": "36-0-20.61 N",
		"longitude": "78-41-20.31 W",
		"state": "NORTH CAROLINA",
		"artcc": "ZDC",
		"type": "RNAV",
		"updated": "10/08/2010"
	},
	{
		"name": "HIGPO",
		"latitude": "38-22-16.09 N",
		"longitude": "77-22-19.97 W",
		"state": "VIRGINIA",
		"artcc": "ZDC",
		"type": "RNAV",
		"updated": "09/22/2014"
	},
	{
		"name": "HIGRU",
		"latitude": "35-36-13.13 N",
		"longitude": "77-51-30.43 W",
		"state": "NORTH CAROLINA",
		"artcc": "ZDC",
		"type": "RNAV",
		"updated": "02/13/2003"
	},
	{
		"name": "HIICH",
		"latitude": "38-42-41.33 N",
		"longitude": "77-43-31.22 W",
		"state": "VIRGINIA",
		"artcc": "ZDC",
		"type": "RNAV",
		"updated": "05/04/2015"
	},
	{
		"name": "HIJOK",
		"latitude": "37-14-56.42 N",
		"longitude": "79-9-52.24 W",
		"state": "VIRGINIA",
		"artcc": "ZDC",
		"type": "RNAV",
		"updated": "08/05/2013"
	},
	{
		"name": "HIKOR",
		"latitude": "36-0-3.42 N",
		"longitude": "78-31-8.65 W",
		"state": "NORTH CAROLINA",
		"artcc": "ZDC",
		"type": "RNAV",
		"updated": "04/11/2018"
	},
	{
		"name": "HIKPO",
		"latitude": "39-43-42.03 N",
		"longitude": "75-35-49.34 W",
		"state": "DELAWARE",
		"artcc": "ZDC",
		"type": "RNAV",
		"updated": "09/11/2009"
	},
	{
		"name": "HILNU",
		"latitude": "38-52-35.96 N",
		"longitude": "76-0-43.97 W",
		"state": "MARYLAND",
		"artcc": "ZDC",
		"type": "RNAV",
		"updated": "09/26/2011"
	},
	{
		"name": "HILSI",
		"latitude": "35-57-31.28 N",
		"longitude": "78-51-37.91 W",
		"state": "NORTH CAROLINA",
		"artcc": "ZDC",
		"type": "RNAV",
		"updated": "10/30/2013"
	},
	{
		"name": "HIMBA",
		"latitude": "37-53-36.35 N",
		"longitude": "75-38-56.85 W",
		"state": "VIRGINIA",
		"artcc": "ZDC",
		"type": "RNAV",
		"updated": "01/11/2012"
	},
	{
		"name": "HIMDA",
		"latitude": "39-57-13.59 N",
		"longitude": "74-16-6.28 W",
		"state": "NEW JERSEY",
		"artcc": "ZNY",
		"type": "MW",
		"updated": "09/06/2017"
	},
	{
		"name": "HIMEM",
		"latitude": "38-42-55.83 N",
		"longitude": "77-37-41.94 W",
		"state": "VIRGINIA",
		"artcc": "ZDC",
		"type": "RNAV",
		"updated": "12/28/2000"
	},
	{
		"name": "HIMRA",
		"latitude": "38-53-14.51 N",
		"longitude": "77-28-32.34 W",
		"state": "VIRGINIA",
		"artcc": "ZDC",
		"type": "RNAV",
		"updated": "10/06/2008"
	},
	{
		"name": "HINDS",
		"latitude": "39-52-26 N",
		"longitude": "75-20-47.08 W",
		"state": "PENNSYLVANIA",
		"artcc": "ZDC",
		"type": "WP",
		"updated": "OOD*VORTAC*002.00/14.40"
	},
	{
		"name": "HIPMA",
		"latitude": "38-59-34.03 N",
		"longitude": "76-25-18.51 W",
		"state": "MARYLAND",
		"artcc": "ZDC",
		"type": "RNAV",
		"updated": "11/14/2016"
	},
	{
		"name": "HIRCK",
		"latitude": "38-43-51.35 N",
		"longitude": "77-29-57.7 W",
		"state": "VIRGINIA",
		"artcc": "ZDC",
		"type": "RNAV",
		"updated": "12/11/2015"
	},
	{
		"name": "HIRDU",
		"latitude": "36-54-59.36 N",
		"longitude": "75-9-42.37 W",
		"state": "OFFSHORE ATLANTIC",
		"artcc": "ZDC",
		"type": "MR",
		"updated": "ORF*VORTAC*095.00/50.00"
	},
	{
		"name": "HIRTO",
		"latitude": "35-55-29.59 N",
		"longitude": "78-44-6.02 W",
		"state": "NORTH CAROLINA",
		"artcc": "ZDC",
		"type": "RP",
		"updated": "RDU*VORTAC*317.19/3.00"
	},
	{
		"name": "HISAM",
		"latitude": "36-56-14.56 N",
		"longitude": "76-23-43.26 W",
		"state": "VIRGINIA",
		"artcc": "ZDC",
		"type": "MR",
		"updated": "NGU*TACAN*/5.68"
	},
	{
		"name": "HITAN",
		"latitude": "37-14-58.44 N",
		"longitude": "77-25-48.86 W",
		"state": "VIRGINIA",
		"artcc": "ZDC",
		"type": "RNAV",
		"updated": "02/13/2017"
	},
	{
		"name": "HITEK",
		"latitude": "38-41-19 N",
		"longitude": "76-56-9 W",
		"state": "MARYLAND",
		"artcc": "ZDC",
		"type": "RNAV",
		"updated": "02/16/2006"
	},
	{
		"name": "HIVAR",
		"latitude": "38-56-30.63 N",
		"longitude": "76-13-56.76 W",
		"state": "MARYLAND",
		"artcc": "ZDC",
		"type": "RNAV",
		"updated": "03/26/2008"
	},
	{
		"name": "HIVDO",
		"latitude": "36-45-11.5 N",
		"longitude": "79-16-20.29 W",
		"state": "VIRGINIA",
		"artcc": "ZDC",
		"type": "RNAV",
		"updated": "03/12/2010"
	},
	{
		"name": "HIVLU",
		"latitude": "37-17-10.46 N",
		"longitude": "80-4-16.57 W",
		"state": "VIRGINIA",
		"artcc": "ZDC",
		"type": "RNAV",
		"updated": "06/14/2011"
	},
	{
		"name": "HIXOX",
		"latitude": "37-12-53.19 N",
		"longitude": "80-1-55.57 W",
		"state": "VIRGINIA",
		"artcc": "ZDC",
		"type": "RNAV",
		"updated": "02/14/2018"
	},
	{
		"name": "HMBGR",
		"latitude": "38-56-38.04 N",
		"longitude": "76-36-59.08 W",
		"state": "MARYLAND",
		"artcc": "ZDC",
		"type": "RNAV",
		"updated": "03/16/2015"
	},
	{
		"name": "HOAGE",
		"latitude": "39-7-42.96 N",
		"longitude": "78-5-12.41 W",
		"state": "VIRGINIA",
		"artcc": "ZDC",
		"type": "RP",
		"updated": "MRB*VORTAC*222.88/18.99"
	},
	{
		"name": "HOBLU",
		"latitude": "36-36-50.96 N",
		"longitude": "76-12-22.23 W",
		"state": "VIRGINIA",
		"artcc": "ZDC",
		"type": "MR",
		"updated": "NTU*TACAN*223.00/15.00"
	},
	{
		"name": "HOBNU",
		"latitude": "37-8-29.56 N",
		"longitude": "79-38-57.95 W",
		"state": "VIRGINIA",
		"artcc": "ZDC",
		"type": "RNAV",
		"updated": "03/05/2018"
	},
	{
		"name": "HOBOS",
		"latitude": "37-42-54.07 N",
		"longitude": "79-44-33.18 W",
		"state": "VIRGINIA",
		"artcc": "ZDC",
		"type": "RP",
		"updated": "ROA*VOR/DME*039.00/27.21"
	},
	{
		"name": "HOBVU",
		"latitude": "35-53-34.52 N",
		"longitude": "77-9-41.73 W",
		"state": "NORTH CAROLINA",
		"artcc": "ZDC",
		"type": "RNAV",
		"updated": "04/04/2014"
	},
	{
		"name": "HODFU",
		"latitude": "38-2-10.59 N",
		"longitude": "80-14-24.34 W",
		"state": "WEST VIRGINIA",
		"artcc": "ZDC",
		"type": "RNAV",
		"updated": "10/17/2017"
	},
	{
		"name": "HODOG",
		"latitude": "34-46-52.18 N",
		"longitude": "79-34-34.53 W",
		"state": "NORTH CAROLINA",
		"artcc": "ZDC",
		"type": "RNAV",
		"updated": "04/27/2010"
	},
	{
		"name": "HODOR",
		"latitude": "35-31-42.35 N",
		"longitude": "77-53-53.8 W",
		"state": "NORTH CAROLINA",
		"artcc": "ZDC",
		"type": "RP",
		"updated": "ISO*VORTAC*304.61"
	},
	{
		"name": "HODVI",
		"latitude": "37-18-0.88 N",
		"longitude": "79-52-40.92 W",
		"state": "VIRGINIA",
		"artcc": "ZDC",
		"type": "RNAV",
		"updated": "02/14/2018"
	},
	{
		"name": "HOGEY",
		"latitude": "39-18-18.73 N",
		"longitude": "75-38-59.71 W",
		"state": "DELAWARE",
		"artcc": "ZDC",
		"type": "RP",
		"updated": "VCN*VOR/DME*256.52"
	},
	{
		"name": "HOGIL",
		"latitude": "34-57-19.4 N",
		"longitude": "79-31-13.93 W",
		"state": "NORTH CAROLINA",
		"artcc": "ZDC",
		"type": "RNAV",
		"updated": "11/19/2012"
	},
	{
		"name": "HOGVO",
		"latitude": "39-21-9.79 N",
		"longitude": "76-28-25.73 W",
		"state": "MARYLAND",
		"artcc": "ZDC",
		"type": "RNAV",
		"updated": "11/30/2016"
	},
	{
		"name": "HOJPA",
		"latitude": "35-54-47.54 N",
		"longitude": "79-22-31.68 W",
		"state": "NORTH CAROLINA",
		"artcc": "ZDC",
		"type": "RP",
		"updated": "GSO*VORTAC*108.00/30.32"
	},
	{
		"name": "HOKEB",
		"latitude": "35-56-41.53 N",
		"longitude": "78-41-53.28 W",
		"state": "NORTH CAROLINA",
		"artcc": "ZDC",
		"type": "RNAV",
		"updated": "07/20/2009"
	},
	{
		"name": "HOKEE",
		"latitude": "37-2-10.87 N",
		"longitude": "79-44-45.61 W",
		"state": "VIRGINIA",
		"artcc": "ZDC",
		"type": "RP",
		"updated": "ODR*VOR*155.00"
	},
	{
		"name": "HOKIB",
		"latitude": "36-53-48.24 N",
		"longitude": "76-12-35.72 W",
		"state": "VIRGINIA",
		"artcc": "ZDC",
		"type": "RP",
		"updated": "ORF*VORTAC*309.09/0.55"
	},
	{
		"name": "HOKMU",
		"latitude": "35-11-6.59 N",
		"longitude": "78-51-16.55 W",
		"state": "NORTH CAROLINA",
		"artcc": "ZDC",
		"type": "RP",
		"updated": "FAY*VOR/DME*008.81/12.00"
	},
	{
		"name": "HOLAD",
		"latitude": "38-2-50.69 N",
		"longitude": "78-53-33.36 W",
		"state": "VIRGINIA",
		"artcc": "ZDC",
		"type": "RNAV",
		"updated": "06/24/2011"
	},
	{
		"name": "HOLEY",
		"latitude": "39-58-17.71 N",
		"longitude": "74-49-36.76 W",
		"state": "NEW JERSEY",
		"artcc": "ZDC",
		"type": "RP",
		"updated": "CYN*VORTAC*307.00"
	},
	{
		"name": "HOLIO",
		"latitude": "38-39-52.85 N",
		"longitude": "76-38-24.74 W",
		"state": "MARYLAND",
		"artcc": "ZDC",
		"type": "RNAV",
		"updated": "10/22/2015"
	},
	{
		"name": "HOMFY",
		"latitude": "35-4-44.55 N",
		"longitude": "79-14-2.58 W",
		"state": "NORTH CAROLINA",
		"artcc": "ZDC",
		"type": "MW",
		"updated": "02/08/2010"
	},
	{
		"name": "HOMGU",
		"latitude": "36-36-39.39 N",
		"longitude": "79-58-21.05 W",
		"state": "VIRGINIA",
		"artcc": "ZDC",
		"type": "RP",
		"updated": "UVM*LE*125.20/3.09"
	},
	{
		"name": "HOMUB",
		"latitude": "36-56-54.11 N",
		"longitude": "78-11-19 W",
		"state": "VIRGINIA",
		"artcc": "ZDC",
		"type": "RNAV",
		"updated": "11/16/2010"
	},
	{
		"name": "HOMUL",
		"latitude": "35-6-19.82 N",
		"longitude": "79-33-23.55 W",
		"state": "NORTH CAROLINA",
		"artcc": "ZDC",
		"type": "RP",
		"updated": "06/08/2017"
	},
	{
		"name": "HOMUS",
		"latitude": "34-58-11.19 N",
		"longitude": "76-48-54.68 W",
		"state": "NORTH CAROLINA",
		"artcc": "ZDC",
		"type": "MR",
		"updated": "NKT*TACAN*045.00/5.00"
	},
	{
		"name": "HONNR",
		"latitude": "39-14-46.59 N",
		"longitude": "79-14-8.91 W",
		"state": "WEST VIRGINIA",
		"artcc": "ZDC",
		"type": "RP",
		"updated": "ESL*VOR/DME*282.27/11.55"
	},
	{
		"name": "HONTA",
		"latitude": "37-25-11.02 N",
		"longitude": "78-23-53.49 W",
		"state": "VIRGINIA",
		"artcc": "ZDC",
		"type": "RNAV",
		"updated": "11/10/2014"
	},
	{
		"name": "HONVO",
		"latitude": "39-0-51.63 N",
		"longitude": "80-23-49.67 W",
		"state": "WEST VIRGINIA",
		"artcc": "ZDC",
		"type": "RNAV",
		"updated": "07/12/2011"
	},
	{
		"name": "HOOCH",
		"latitude": "39-55-18.94 N",
		"longitude": "75-15-11.25 W",
		"state": "PENNSYLVANIA",
		"artcc": "ZDC",
		"type": "RP",
		"updated": "MXE*VORTAC*098.18"
	},
	{
		"name": "HOODE",
		"latitude": "38-27-21.59 N",
		"longitude": "78-10-49.67 W",
		"state": "VIRGINIA",
		"artcc": "ZDC",
		"type": "RP",
		"updated": "GVE*VORTAC*003.21/26.55"
	},
	{
		"name": "HOOKZ",
		"latitude": "35-16-49.19 N",
		"longitude": "78-55-27.09 W",
		"state": "NORTH CAROLINA",
		"artcc": "ZDC",
		"type": "RNAV",
		"updated": "11/07/2012"
	},
	{
		"name": "HOOOK",
		"latitude": "39-4-15.21 N",
		"longitude": "76-26-26.84 W",
		"state": "MARYLAND",
		"artcc": "ZDC",
		"type": "RNAV",
		"updated": "11/13/2017"
	},
	{
		"name": "HOOSR",
		"latitude": "39-13-34.29 N",
		"longitude": "77-27-20.15 W",
		"state": "MARYLAND",
		"artcc": "ZDC",
		"type": "RP",
		"updated": "AML*VOR/DME*/17.49"
	},
	{
		"name": "HOOTE",
		"latitude": "36-37-33.1 N",
		"longitude": "80-0-30.04 W",
		"state": "VIRGINIA",
		"artcc": "ZDC",
		"type": "RNAV",
		"updated": "09/14/2009"
	},
	{
		"name": "HOPEE",
		"latitude": "38-53-25.35 N",
		"longitude": "76-51-28.37 W",
		"state": "MARYLAND",
		"artcc": "ZDC",
		"type": "RP",
		"updated": "ADW*VORTAC*014.50/5.00"
	},
	{
		"name": "HOPEM",
		"latitude": "34-46-54.31 N",
		"longitude": "76-37-50.96 W",
		"state": "NORTH CAROLINA",
		"artcc": "ZDC",
		"type": "RNAV",
		"updated": "03/22/2013"
	},
	{
		"name": "HOPIM",
		"latitude": "35-26-47.72 N",
		"longitude": "77-44-24.32 W",
		"state": "NORTH CAROLINA",
		"artcc": "ZDC",
		"type": "RP",
		"updated": "ISO*VORTAC*302.00/10.00"
	},
	{
		"name": "HORAN",
		"latitude": "36-36-30.03 N",
		"longitude": "77-13-24.27 W",
		"state": "VIRGINIA",
		"artcc": "ZDC",
		"type": "RNAV",
		"updated": "05/12/2017"
	},
	{
		"name": "HORKU",
		"latitude": "35-3-19.45 N",
		"longitude": "77-5-21.46 W",
		"state": "NORTH CAROLINA",
		"artcc": "ZDC",
		"type": "MR",
		"updated": "NKT*TACAN*320.00/14.00"
	},
	{
		"name": "HORNR",
		"latitude": "37-37-7.43 N",
		"longitude": "77-23-53.2 W",
		"state": "VIRGINIA",
		"artcc": "ZDC",
		"type": "RNAV",
		"updated": "06/11/2014"
	},
	{
		"name": "HORSA",
		"latitude": "35-49-45.05 N",
		"longitude": "79-15-37.73 W",
		"state": "NORTH CAROLINA",
		"artcc": "ZDC",
		"type": "RNAV",
		"updated": "10/30/2013"
	},
	{
		"name": "HORTO",
		"latitude": "39-7-4.5 N",
		"longitude": "77-27-49.3 W",
		"state": "MARYLAND",
		"artcc": "ZDC",
		"type": "RNAV",
		"updated": "05/01/2015"
	},
	{
		"name": "HORTU",
		"latitude": "39-4-40.374 N",
		"longitude": "76-44-1.95 W",
		"state": "MARYLAND",
		"artcc": "ZDC",
		"type": "RNAV",
		"updated": "09/07/2005"
	},
	{
		"name": "HORUN",
		"latitude": "35-42-22.18 N",
		"longitude": "79-35-5.29 W",
		"state": "NORTH CAROLINA",
		"artcc": "ZDC",
		"type": "RNAV",
		"updated": "11/21/2003"
	},
	{
		"name": "HOSFE",
		"latitude": "37-53-52.94 N",
		"longitude": "79-56-42.68 W",
		"state": "VIRGINIA",
		"artcc": "ZDC",
		"type": "RNAV",
		"updated": "07/19/2009"
	},
	{
		"name": "HOSIN",
		"latitude": "35-59-52.97 N",
		"longitude": "79-35-11.71 W",
		"state": "NORTH CAROLINA",
		"artcc": "ZDC",
		"type": "RNAV",
		"updated": "11/21/2003"
	},
	{
		"name": "HOTTZ",
		"latitude": "38-46-51.78 N",
		"longitude": "75-39-53.86 W",
		"state": "DELAWARE",
		"artcc": "ZDC",
		"type": "RNAV",
		"updated": "12/16/2014"
	},
	{
		"name": "HOVNI",
		"latitude": "35-27-26.64 N",
		"longitude": "77-20-15.38 W",
		"state": "NORTH CAROLINA",
		"artcc": "ZDC",
		"type": "RP",
		"updated": "ISO*VORTAC*069.37/12.00"
	},
	{
		"name": "HOWIE",
		"latitude": "39-34-57.82 N",
		"longitude": "74-39-9.97 W",
		"state": "NEW JERSEY",
		"artcc": "ZDC",
		"type": "RP",
		"updated": "CYN*VORTAC*226.13/17.40"
	},
	{
		"name": "HOWLL",
		"latitude": "38-26-53.48 N",
		"longitude": "77-17-59.76 W",
		"state": "MARYLAND",
		"artcc": "ZDC",
		"type": "RNAV",
		"updated": "12/16/2014"
	},
	{
		"name": "HOXQU",
		"latitude": "39-2-16.05 N",
		"longitude": "74-54-21.34 W",
		"state": "NEW JERSEY",
		"artcc": "ZDC",
		"type": "RP",
		"updated": "SIE*VORTAC*243.99"
	},
	{
		"name": "HOYAS",
		"latitude": "38-20-12.69 N",
		"longitude": "77-12-52.3 W",
		"state": "VIRGINIA",
		"artcc": "ZDC",
		"type": "RNAV",
		"updated": "09/30/2015"
	},
	{
		"name": "HUBBS",
		"latitude": "37-57-42.77 N",
		"longitude": "76-38-45.54 W",
		"state": "VIRGINIA",
		"artcc": "ZDC",
		"type": "RP",
		"updated": "OTT*VORTAC*184.00/44.84"
	},
	{
		"name": "HUBUL",
		"latitude": "34-54-10.17 N",
		"longitude": "79-13-53.35 W",
		"state": "NORTH CAROLINA",
		"artcc": "ZDC",
		"type": "RNAV",
		"updated": "06/06/2011"
	},
	{
		"name": "HUDEX",
		"latitude": "39-29-59.14 N",
		"longitude": "75-14-30.84 W",
		"state": "NEW JERSEY",
		"artcc": "ZDC",
		"type": "RNAV",
		"updated": "04/12/2006"
	},
	{
		"name": "HUDGI",
		"latitude": "36-40-19.08 N",
		"longitude": "78-30-37.65 W",
		"state": "VIRGINIA",
		"artcc": "ZDC",
		"type": "RNAV",
		"updated": "04/10/2012"
	},
	{
		"name": "HUGEE",
		"latitude": "36-42-13 N",
		"longitude": "75-52-22.11 W",
		"state": "VIRGINIA",
		"artcc": "ZDC",
		"type": "MW",
		"updated": "05/10/2013"
	},
	{
		"name": "HUGHS",
		"latitude": "37-33-8.21 N",
		"longitude": "77-12-20.95 W",
		"state": "VIRGINIA",
		"artcc": "ZDC",
		"type": "RNAV",
		"updated": "06/11/2014"
	},
	{
		"name": "HUKID",
		"latitude": "34-50-18.78 N",
		"longitude": "79-25-29.95 W",
		"state": "NORTH CAROLINA",
		"artcc": "ZDC",
		"type": "RNAV",
		"updated": "10/21/2014"
	},
	{
		"name": "HUKOR",
		"latitude": "35-24-18.32 N",
		"longitude": "77-31-49.14 W",
		"state": "NORTH CAROLINA",
		"artcc": "ZDC",
		"type": "RNAV",
		"updated": "04/16/2014"
	},
	{
		"name": "HULAN",
		"latitude": "35-2-46.58 N",
		"longitude": "77-3-13.86 W",
		"state": "NORTH CAROLINA",
		"artcc": "ZDC",
		"type": "RNAV",
		"updated": "09/26/2017"
	},
	{
		"name": "HULIP",
		"latitude": "35-7-46.77 N",
		"longitude": "75-48-31.92 W",
		"state": "NORTH CAROLINA",
		"artcc": "ZDC",
		"type": "RNAV",
		"updated": "06/02/2006"
	},
	{
		"name": "HULIR",
		"latitude": "35-34-47.99 N",
		"longitude": "78-25-3.61 W",
		"state": "NORTH CAROLINA",
		"artcc": "ZDC",
		"type": "RNAV",
		"updated": "09/15/2015"
	},
	{
		"name": "HULIV",
		"latitude": "39-42-5.21 N",
		"longitude": "77-46-51.49 W",
		"state": "MARYLAND",
		"artcc": "ZDC",
		"type": "RNAV",
		"updated": "07/15/2013"
	},
	{
		"name": "HULVI",
		"latitude": "39-1-26.72 N",
		"longitude": "76-51-51.26 W",
		"state": "MARYLAND",
		"artcc": "ZDC",
		"type": "MR",
		"updated": "ADW*VORTAC*010.42/13.00"
	},
	{
		"name": "HUMAL",
		"latitude": "37-10-55.22 N",
		"longitude": "76-51-18.39 W",
		"state": "VIRGINIA",
		"artcc": "ZDC",
		"type": "MW",
		"updated": "10/15/2008"
	},
	{
		"name": "HUMIV",
		"latitude": "36-46-54.78 N",
		"longitude": "76-29-35.68 W",
		"state": "VIRGINIA",
		"artcc": "ZDC",
		"type": "RNAV",
		"updated": "08/07/2014"
	},
	{
		"name": "HUNNN",
		"latitude": "39-5-23.1 N",
		"longitude": "76-52-54.35 W",
		"state": "MARYLAND",
		"artcc": "ZDC",
		"type": "RNAV",
		"updated": "12/29/2014"
	},
	{
		"name": "HUNOP",
		"latitude": "34-35-4.42 N",
		"longitude": "79-5-28.5 W",
		"state": "NORTH CAROLINA",
		"artcc": "ZDC",
		"type": "RNAV",
		"updated": "07/18/2011"
	},
	{
		"name": "HUNUL",
		"latitude": "35-43-0.9 N",
		"longitude": "78-17-48.18 W",
		"state": "NORTH CAROLINA",
		"artcc": "ZDC",
		"type": "RNAV",
		"updated": "03/04/2015"
	},
	{
		"name": "HUPOV",
		"latitude": "38-16-42.87 N",
		"longitude": "76-23-45.11 W",
		"state": "MARYLAND",
		"artcc": "ZDC",
		"type": "MW",
		"updated": "04/03/2008"
	},
	{
		"name": "HURIC",
		"latitude": "35-56-17.69 N",
		"longitude": "78-6-57.34 W",
		"state": "NORTH CAROLINA",
		"artcc": "ZDC",
		"type": "RNAV",
		"updated": "11/07/2012"
	},
	{
		"name": "HURLU",
		"latitude": "36-45-31.45 N",
		"longitude": "79-2-28.21 W",
		"state": "VIRGINIA",
		"artcc": "ZDC",
		"type": "RNAV",
		"updated": "10/06/2015"
	},
	{
		"name": "HURPI",
		"latitude": "38-43-17.69 N",
		"longitude": "79-33-40.87 W",
		"state": "WEST VIRGINIA",
		"artcc": "ZDC",
		"type": "RNAV",
		"updated": "11/03/2009"
	},
	{
		"name": "HURTT",
		"latitude": "37-5-57.34 N",
		"longitude": "79-19-58.97 W",
		"state": "VIRGINIA",
		"artcc": "ZDC",
		"type": "RP",
		"updated": "SBV*VORTAC*334.00"
	},
	{
		"name": "HURTZ",
		"latitude": "39-9-28.71 N",
		"longitude": "76-24-8.21 W",
		"state": "MARYLAND",
		"artcc": "ZDC",
		"type": "RP",
		"updated": "BAL*VORTAC*104.63/12.11"
	},
	{
		"name": "HUSEL",
		"latitude": "39-9-51.6 N",
		"longitude": "77-21-27.6 W",
		"state": "MARYLAND",
		"artcc": "ZDC",
		"type": "RP",
		"updated": "BAL*VORTAC*280.51"
	},
	{
		"name": "HUSER",
		"latitude": "36-50-28.63 N",
		"longitude": "80-17-16.51 W",
		"state": "VIRGINIA",
		"artcc": "ZDC",
		"type": "RNAV",
		"updated": "08/17/2010"
	},
	{
		"name": "HUSLO",
		"latitude": "35-52-46.19 N",
		"longitude": "77-51-19.49 W",
		"state": "NORTH CAROLINA",
		"artcc": "ZDC",
		"type": "RNAV",
		"updated": "02/03/2016"
	},
	{
		"name": "HUTSU",
		"latitude": "34-46-58.01 N",
		"longitude": "77-16-40.89 W",
		"state": "NORTH CAROLINA",
		"artcc": "ZDC",
		"type": "RNAV",
		"updated": "10/21/2014"
	},
	{
		"name": "HUTUM",
		"latitude": "38-45-28.44 N",
		"longitude": "78-38-38.07 W",
		"state": "VIRGINIA",
		"artcc": "ZDC",
		"type": "RNAV",
		"updated": "11/17/2011"
	},
	{
		"name": "HUVIT",
		"latitude": "37-7-24.26 N",
		"longitude": "80-23-12.86 W",
		"state": "VIRGINIA",
		"artcc": "ZDC",
		"type": "WP",
		"updated": "04/19/2013"
	},
	{
		"name": "HUVOX",
		"latitude": "38-51-16.65 N",
		"longitude": "75-13-24.96 W",
		"state": "DELAWARE",
		"artcc": "ZDC",
		"type": "RNAV",
		"updated": "08/08/2014"
	},
	{
		"name": "HUXOL",
		"latitude": "36-57-52.31 N",
		"longitude": "76-6-12.17 W",
		"state": "VIRGINIA",
		"artcc": "ZDC",
		"type": "RNAV",
		"updated": "12/05/2017"
	},
	{
		"name": "HYALO",
		"latitude": "39-16-26.31 N",
		"longitude": "77-20-38.97 W",
		"state": "MARYLAND",
		"artcc": "ZDC",
		"type": "RNAV",
		"updated": "07/27/2000"
	},
	{
		"name": "HYDRS",
		"latitude": "38-27-22.57 N",
		"longitude": "75-42-18.89 W",
		"state": "MARYLAND",
		"artcc": "ZDC",
		"type": "RNAV",
		"updated": "10/07/2010"
	},
	{
		"name": "HYILL",
		"latitude": "39-58-57.44 N",
		"longitude": "75-17-0.01 W",
		"state": "PENNSYLVANIA",
		"artcc": "ZDC",
		"type": "RP",
		"updated": "MXE*VORTAC*086.66"
	}
]
