[
	{
		"name": "IBEKE",
		"latitude": "34-24-7.43 N",
		"longitude": "78-31-46.31 W",
		"state": "NORTH CAROLINA",
		"artcc": "ZDC",
		"type": "RNAV",
		"updated": "08/15/2010"
	},
	{
		"name": "IBODY",
		"latitude": "36-7-42.04 N",
		"longitude": "79-20-54.09 W",
		"state": "NORTH CAROLINA",
		"artcc": "ZDC",
		"type": "WP",
		"updated": "12/23/2013"
	},
	{
		"name": "IBUWE",
		"latitude": "35-27-3.94 N",
		"longitude": "78-39-34.49 W",
		"state": "NORTH CAROLINA",
		"artcc": "ZDC",
		"type": "RNAV",
		"updated": "09/06/2007"
	},
	{
		"name": "IBXAL",
		"latitude": "37-2-53.69 N",
		"longitude": "76-58-56.42 W",
		"state": "VIRGINIA",
		"artcc": "ZDC",
		"type": "CN",
		"updated": "12/04/2014"
	},
	{
		"name": "ICABO",
		"latitude": "36-1-22.99 N",
		"longitude": "79-1-39.29 W",
		"state": "NORTH CAROLINA",
		"artcc": "ZDC",
		"type": "RNAV",
		"updated": "07/21/2009"
	},
	{
		"name": "ICACO",
		"latitude": "37-30-22.25 N",
		"longitude": "77-2-21.47 W",
		"state": "VIRGINIA",
		"artcc": "ZDC",
		"type": "RNAV",
		"updated": "03/31/2008"
	},
	{
		"name": "ICAVE",
		"latitude": "36-37-33.51 N",
		"longitude": "78-2-51.82 W",
		"state": "VIRGINIA",
		"artcc": "ZDC",
		"type": "CN",
		"updated": "12/04/2014"
	},
	{
		"name": "ICCOR",
		"latitude": "36-43-29.38 N",
		"longitude": "78-29-51.22 W",
		"state": "VIRGINIA",
		"artcc": "ZDC",
		"type": "CN",
		"updated": "12/04/2014"
	},
	{
		"name": "ICDUV",
		"latitude": "36-38-8.55 N",
		"longitude": "77-25-25.06 W",
		"state": "VIRGINIA",
		"artcc": "ZDC",
		"type": "CN",
		"updated": "12/04/2014"
	},
	{
		"name": "ICENO",
		"latitude": "38-47-56 N",
		"longitude": "77-34-29 W",
		"state": "VIRGINIA",
		"artcc": "ZDC",
		"type": "CN",
		"updated": "12/04/2014"
	},
	{
		"name": "ICIYU",
		"latitude": "39-15-18.28 N",
		"longitude": "77-6-0.39 W",
		"state": "MARYLAND",
		"artcc": "ZDC",
		"type": "RNAV",
		"updated": "04/18/2012"
	},
	{
		"name": "ICNAK",
		"latitude": "38-18-23.8 N",
		"longitude": "79-0-3.45 W",
		"state": "VIRGINIA",
		"artcc": "ZDC",
		"type": "CN",
		"updated": "12/04/2014"
	},
	{
		"name": "ICORE",
		"latitude": "34-49-58.9 N",
		"longitude": "76-57-56.17 W",
		"state": "NORTH CAROLINA",
		"artcc": "ZDC",
		"type": "RNAV",
		"updated": "09/26/2017"
	},
	{
		"name": "ICUKY",
		"latitude": "38-28-0.5 N",
		"longitude": "77-52-53.21 W",
		"state": "VIRGINIA",
		"artcc": "ZDC",
		"type": "CN",
		"updated": "12/04/2014"
	},
	{
		"name": "IDGER",
		"latitude": "38-3-21.57 N",
		"longitude": "76-21-51.2 W",
		"state": "MARYLAND",
		"artcc": "ZDC",
		"type": "RP",
		"updated": "PXT*VORTAC*183.00/14.00"
	},
	{
		"name": "IDOGE",
		"latitude": "36-55-52.81 N",
		"longitude": "76-12-57.11 W",
		"state": "VIRGINIA",
		"artcc": "ZDC",
		"type": "MR",
		"updated": "NGU*TACAN*110.00/3.00"
	},
	{
		"name": "IDONE",
		"latitude": "37-24-19.36 N",
		"longitude": "77-14-5.04 W",
		"state": "VIRGINIA",
		"artcc": "ZDC",
		"type": "RNAV",
		"updated": "06/11/2014"
	},
	{
		"name": "IDORE",
		"latitude": "39-23-51.5 N",
		"longitude": "77-34-6.19 W",
		"state": "MARYLAND",
		"artcc": "ZDC",
		"type": "RNAV",
		"updated": "07/25/2014"
	},
	{
		"name": "IDUNE",
		"latitude": "38-17-30.54 N",
		"longitude": "77-55-10.36 W",
		"state": "VIRGINIA",
		"artcc": "ZDC",
		"type": "RNAV",
		"updated": "04/18/2014"
	},
	{
		"name": "IDWAP",
		"latitude": "36-13-5.82 N",
		"longitude": "76-34-12.49 W",
		"state": "NORTH CAROLINA",
		"artcc": "ZDC",
		"type": "RP",
		"updated": "ECG*VOR/DME*270.11/19.29"
	},
	{
		"name": "IDZAT",
		"latitude": "36-38-49.01 N",
		"longitude": "76-41-39.36 W",
		"state": "VIRGINIA",
		"artcc": "ZDC",
		"type": "RNAV",
		"updated": "07/18/2011"
	},
	{
		"name": "IFAVU",
		"latitude": "37-59-30.78 N",
		"longitude": "79-27-5.71 W",
		"state": "VIRGINIA",
		"artcc": "ZDC",
		"type": "RP",
		"updated": "MOL*VOR/DME*293.61/17.25"
	},
	{
		"name": "IFDOS",
		"latitude": "34-29-58.57 N",
		"longitude": "78-21-57.49 W",
		"state": "NORTH CAROLINA",
		"artcc": "ZDC",
		"type": "RNAV",
		"updated": "08/15/2010"
	},
	{
		"name": "IFESO",
		"latitude": "37-32-58.99 N",
		"longitude": "76-26-31.78 W",
		"state": "VIRGINIA",
		"artcc": "ZDC",
		"type": "WP",
		"updated": "11/16/1998"
	},
	{
		"name": "IFKIN",
		"latitude": "36-13-48.63 N",
		"longitude": "79-4-15.2 W",
		"state": "NORTH CAROLINA",
		"artcc": "ZDC",
		"type": "RNAV",
		"updated": "03/27/2009"
	},
	{
		"name": "IFPIG",
		"latitude": "37-42-6.49 N",
		"longitude": "77-28-20.45 W",
		"state": "VIRGINIA",
		"artcc": "ZDC",
		"type": "RNAV",
		"updated": "01/18/2011"
	},
	{
		"name": "IGAGE",
		"latitude": "35-56-49.21 N",
		"longitude": "78-57-44.07 W",
		"state": "NORTH CAROLINA",
		"artcc": "ZDC",
		"type": "WP",
		"updated": "10/30/2013"
	},
	{
		"name": "IGANE",
		"latitude": "37-14-23 N",
		"longitude": "77-17-19.33 W",
		"state": "VIRGINIA",
		"artcc": "ZDC",
		"type": "RNAV",
		"updated": "01/18/2011"
	},
	{
		"name": "IGAYA",
		"latitude": "35-55-23.01 N",
		"longitude": "78-44-30.81 W",
		"state": "NORTH CAROLINA",
		"artcc": "ZDC",
		"type": "RNAV",
		"updated": "08/10/2009"
	},
	{
		"name": "IGEDE",
		"latitude": "37-14-57.03 N",
		"longitude": "78-10-12.51 W",
		"state": "VIRGINIA",
		"artcc": "ZDC",
		"type": "RNAV",
		"updated": "11/17/2010"
	},
	{
		"name": "IGFIL",
		"latitude": "37-15-13.75 N",
		"longitude": "80-31-13.63 W",
		"state": "VIRGINIA",
		"artcc": "ZDC",
		"type": "RP",
		"updated": "BCB*LE*NW CRS/6.47"
	},
	{
		"name": "IGGGY",
		"latitude": "39-17-17.68 N",
		"longitude": "78-22-11.3 W",
		"state": "VIRGINIA",
		"artcc": "ZDC",
		"type": "RNAV",
		"updated": "06/01/2012"
	},
	{
		"name": "IJADE",
		"latitude": "35-18-30.35 N",
		"longitude": "78-48-19.84 W",
		"state": "NORTH CAROLINA",
		"artcc": "ZDC",
		"type": "RP",
		"updated": "HRJ*LE*227.95/6.12"
	},
	{
		"name": "IKTOW",
		"latitude": "35-24-10.74 N",
		"longitude": "79-11-7.86 W",
		"state": "NORTH CAROLINA",
		"artcc": "ZDC",
		"type": "RP",
		"updated": "LIB*VORTAC*142.39/32.19"
	},
	{
		"name": "IKUGE",
		"latitude": "39-8-42.74 N",
		"longitude": "75-27-45.29 W",
		"state": "DELAWARE",
		"artcc": "ZDC",
		"type": "MR",
		"updated": "DOV*TACAN*028.36/0.80"
	},
	{
		"name": "ILLSA",
		"latitude": "37-38-55.85 N",
		"longitude": "80-13-18.44 W",
		"state": "VIRGINIA",
		"artcc": "ZDC",
		"type": "RNAV",
		"updated": "01/16/2014"
	},
	{
		"name": "ILTOJ",
		"latitude": "36-7-2.09 N",
		"longitude": "77-9-53.42 W",
		"state": "NORTH CAROLINA",
		"artcc": "ZDC",
		"type": "RNAV",
		"updated": "03/19/2015"
	},
	{
		"name": "ILUXY",
		"latitude": "34-27-53.05 N",
		"longitude": "77-59-35.68 W",
		"state": "NORTH CAROLINA",
		"artcc": "ZDC",
		"type": "RNAV",
		"updated": "07/08/2013"
	},
	{
		"name": "IMASE",
		"latitude": "37-41-12.82 N",
		"longitude": "77-16-22.8 W",
		"state": "VIRGINIA",
		"artcc": "ZDC",
		"type": "RNAV",
		"updated": "10/15/2003"
	},
	{
		"name": "IMELL",
		"latitude": "36-55-38 N",
		"longitude": "74-32-4 W",
		"state": "OFFSHORE ATLANTIC",
		"artcc": "ZDC",
		"type": "WP",
		"updated": "03/26/2002"
	},
	{
		"name": "IMHEM",
		"latitude": "39-13-2.9 N",
		"longitude": "78-14-37.5 W",
		"state": "VIRGINIA",
		"artcc": "ZDC",
		"type": "RNAV",
		"updated": "07/19/2009"
	},
	{
		"name": "IMIYU",
		"latitude": "38-28-31.7 N",
		"longitude": "78-40-6.85 W",
		"state": "VIRGINIA",
		"artcc": "ZDC",
		"type": "RNAV",
		"updated": "02/06/2012"
	},
	{
		"name": "IMORE",
		"latitude": "36-52-23.66 N",
		"longitude": "75-57-10.88 W",
		"state": "VIRGINIA",
		"artcc": "ZDC",
		"type": "MR",
		"updated": "NTU*TACAN*064.00/5.00"
	},
	{
		"name": "IMULE",
		"latitude": "39-52-35.34 N",
		"longitude": "74-11-9.45 W",
		"state": "NEW JERSEY",
		"artcc": "ZNY",
		"type": "MW",
		"updated": "09/06/2017"
	},
	{
		"name": "INIMY",
		"latitude": "33-59-52.36 N",
		"longitude": "78-0-11.83 W",
		"state": "NORTH CAROLINA",
		"artcc": "ZDC",
		"type": "RNAV",
		"updated": "05/03/2012"
	},
	{
		"name": "INJUN",
		"latitude": "35-0-47.49 N",
		"longitude": "79-6-58.21 W",
		"state": "NORTH CAROLINA",
		"artcc": "ZDC",
		"type": "RP",
		"updated": "FAY*VOR/DME*282.00/12.00"
	},
	{
		"name": "INLYT",
		"latitude": "36-54-39.2 N",
		"longitude": "76-4-21.42 W",
		"state": "VIRGINIA",
		"artcc": "ZDC",
		"type": "MR",
		"updated": "NGU*TACAN*110.00/10.00"
	},
	{
		"name": "INNER",
		"latitude": "36-46-56.02 N",
		"longitude": "76-4-15.41 W",
		"state": "VIRGINIA",
		"artcc": "ZDC",
		"type": "MR",
		"updated": "NTU*TACAN*223.00/3.00"
	},
	{
		"name": "INNEZ",
		"latitude": "39-47-18.95 N",
		"longitude": "74-46-45.56 W",
		"state": "NEW JERSEY",
		"artcc": "ZNY",
		"type": "RP",
		"updated": "CYN*VORTAC*273.99/16.17"
	},
	{
		"name": "INSAC",
		"latitude": "37-11-33.65 N",
		"longitude": "78-41-7.47 W",
		"state": "VIRGINIA",
		"artcc": "ZDC",
		"type": "RP",
		"updated": "SBV*VORTAC*031.94/34.83"
	},
	{
		"name": "IPAYA",
		"latitude": "36-7-42.38 N",
		"longitude": "78-6-3.84 W",
		"state": "NORTH CAROLINA",
		"artcc": "ZDC",
		"type": "RNAV",
		"updated": "03/01/2005"
	},
	{
		"name": "IPBEH",
		"latitude": "39-50-40.3 N",
		"longitude": "74-52-9.31 W",
		"state": "NEW JERSEY",
		"artcc": "ZDC",
		"type": "RNAV",
		"updated": "05/29/2001"
	},
	{
		"name": "IPKOH",
		"latitude": "35-24-5.67 N",
		"longitude": "75-28-53.27 W",
		"state": "NORTH CAROLINA",
		"artcc": "ZDC",
		"type": "RNAV",
		"updated": "02/09/2018"
	},
	{
		"name": "IPSIQ",
		"latitude": "35-46-23.74 N",
		"longitude": "79-27-10.24 W",
		"state": "NORTH CAROLINA",
		"artcc": "ZDC",
		"type": "RNAV",
		"updated": "11/10/2014"
	},
	{
		"name": "IQJAZ",
		"latitude": "36-37-7.46 N",
		"longitude": "77-25-28.03 W",
		"state": "VIRGINIA",
		"artcc": "ZDC",
		"type": "RP",
		"updated": "EMV*LE*155.40"
	},
	{
		"name": "IRAKE",
		"latitude": "35-41-31.44 N",
		"longitude": "77-20-25.44 W",
		"state": "NORTH CAROLINA",
		"artcc": "ZDC",
		"type": "RP",
		"updated": "ISO*VORTAC*033.96/22.00"
	},
	{
		"name": "IRAXE",
		"latitude": "37-17-27.54 N",
		"longitude": "79-4-24.34 W",
		"state": "VIRGINIA",
		"artcc": "ZDC",
		"type": "RNAV",
		"updated": "01/07/2015"
	},
	{
		"name": "IROKT",
		"latitude": "39-32-3.71 N",
		"longitude": "74-45-2.87 W",
		"state": "NEW JERSEY",
		"artcc": "ZDC",
		"type": "RNAV",
		"updated": "04/06/2012"
	},
	{
		"name": "IRONS",
		"latitude": "38-31-51.96 N",
		"longitude": "77-6-21.94 W",
		"state": "MARYLAND",
		"artcc": "ZDC",
		"type": "RP",
		"updated": "OTT*VORTAC*248.46"
	},
	{
		"name": "IROXE",
		"latitude": "39-3-27.79 N",
		"longitude": "77-53-38.87 W",
		"state": "VIRGINIA",
		"artcc": "ZDC",
		"type": "MR",
		"updated": "LDN*VORTAC*056.00/19.00"
	},
	{
		"name": "IRULE",
		"latitude": "34-4-28.32 N",
		"longitude": "77-48-53.8 W",
		"state": "NORTH CAROLINA",
		"artcc": "ZDC",
		"type": "RNAV",
		"updated": "07/08/2013"
	},
	{
		"name": "IRUPE",
		"latitude": "37-52-5.32 N",
		"longitude": "79-20-50.3 W",
		"state": "VIRGINIA",
		"artcc": "ZDC",
		"type": "RNAV",
		"updated": "04/05/2018"
	},
	{
		"name": "IRWOX",
		"latitude": "35-13-52.67 N",
		"longitude": "78-53-2.86 W",
		"state": "NORTH CAROLINA",
		"artcc": "ZDC",
		"type": "RP",
		"updated": "FAY*VOR/DME*002.27/14.73"
	},
	{
		"name": "ISILE",
		"latitude": "38-49-43.83 N",
		"longitude": "76-51-50.69 W",
		"state": "MARYLAND",
		"artcc": "ZDC",
		"type": "MR",
		"updated": "ADW*VORTAC*014.50/1.30"
	},
	{
		"name": "ISSIG",
		"latitude": "37-54-52.56 N",
		"longitude": "77-27-59.04 W",
		"state": "VIRGINIA",
		"artcc": "ZDC",
		"type": "RNAV",
		"updated": "06/27/2007"
	},
	{
		"name": "ISUBE",
		"latitude": "36-16-7.24 N",
		"longitude": "76-24-26.7 W",
		"state": "NORTH CAROLINA",
		"artcc": "ZDC",
		"type": "RP",
		"updated": "EPR*LD*283.39/12.08"
	},
	{
		"name": "ISUJU",
		"latitude": "34-47-28.49 N",
		"longitude": "76-44-17.8 W",
		"state": "NORTH CAROLINA",
		"artcc": "ZDC",
		"type": "RNAV",
		"updated": "03/26/2012"
	},
	{
		"name": "ITARE",
		"latitude": "37-27-36.76 N",
		"longitude": "76-29-10.04 W",
		"state": "VIRGINIA",
		"artcc": "ZDC",
		"type": "RNAV",
		"updated": "02/19/2008"
	},
	{
		"name": "ITGUY",
		"latitude": "34-45-31.77 N",
		"longitude": "76-58-14.43 W",
		"state": "NORTH CAROLINA",
		"artcc": "ZDC",
		"type": "MR",
		"updated": "NJM*TACAN*042.00/2.00"
	},
	{
		"name": "ITIBE",
		"latitude": "38-15-18.22 N",
		"longitude": "76-27-13.05 W",
		"state": "MARYLAND",
		"artcc": "ZDC",
		"type": "MW",
		"updated": "08/28/2015"
	},
	{
		"name": "ITOLE",
		"latitude": "34-40-23.21 N",
		"longitude": "76-50-55.11 W",
		"state": "NORTH CAROLINA",
		"artcc": "ZDC",
		"type": "RNAV",
		"updated": "03/27/2012"
	},
	{
		"name": "ITOTE",
		"latitude": "38-36-54.08 N",
		"longitude": "78-30-5.44 W",
		"state": "VIRGINIA",
		"artcc": "ZDC",
		"type": "RNAV",
		"updated": "07/20/2011"
	},
	{
		"name": "ITQUH",
		"latitude": "38-0-22.99 N",
		"longitude": "78-0-8.42 W",
		"state": "VIRGINIA",
		"artcc": "ZDC",
		"type": "RNAV",
		"updated": "06/24/2010"
	},
	{
		"name": "ITTEM",
		"latitude": "37-28-18.98 N",
		"longitude": "77-33-16.46 W",
		"state": "VIRGINIA",
		"artcc": "ZDC",
		"type": "RNAV",
		"updated": "12/23/2013"
	},
	{
		"name": "ITUPE",
		"latitude": "34-7-40.28 N",
		"longitude": "78-9-25.42 W",
		"state": "NORTH CAROLINA",
		"artcc": "ZDC",
		"type": "RNAV",
		"updated": "04/03/2001"
	},
	{
		"name": "IVADE",
		"latitude": "39-19-23.36 N",
		"longitude": "77-35-1.38 W",
		"state": "MARYLAND",
		"artcc": "ZDC",
		"type": "RNAV",
		"updated": "11/28/2017"
	},
	{
		"name": "IVOTY",
		"latitude": "36-0-43.6 N",
		"longitude": "76-34-11.05 W",
		"state": "NORTH CAROLINA",
		"artcc": "ZDC",
		"type": "WP",
		"updated": "11/02/1998"
	},
	{
		"name": "IVVVY",
		"latitude": "38-45-12.04 N",
		"longitude": "77-21-19.02 W",
		"state": "VIRGINIA",
		"artcc": "ZDC",
		"type": "RP",
		"updated": "BRV*VORTAC*008.74/25.00"
	},
	{
		"name": "IWOSE",
		"latitude": "35-59-52.35 N",
		"longitude": "75-44-0.75 W",
		"state": "NORTH CAROLINA",
		"artcc": "ZDC",
		"type": "RNAV",
		"updated": "10/21/2011"
	},
	{
		"name": "IXUME",
		"latitude": "35-29-50 N",
		"longitude": "75-10-55 W",
		"state": "OFFSHORE ATLANTIC",
		"artcc": "ZDC",
		"type": "WP",
		"updated": "03/26/2002"
	},
	{
		"name": "IYBAY",
		"latitude": "39-28-44.39 N",
		"longitude": "75-42-21.92 W",
		"state": "DELAWARE",
		"artcc": "ZDC",
		"type": "RP",
		"updated": "09/28/2010"
	},
	{
		"name": "IYEPU",
		"latitude": "39-2-49.57 N",
		"longitude": "79-12-52.15 W",
		"state": "WEST VIRGINIA",
		"artcc": "ZDC",
		"type": "RNAV",
		"updated": "08/07/2013"
	},
	{
		"name": "IYHUD",
		"latitude": "34-31-4.71 N",
		"longitude": "77-48-20.33 W",
		"state": "NORTH CAROLINA",
		"artcc": "ZDC",
		"type": "RNAV",
		"updated": "02/10/2011"
	},
	{
		"name": "IYPET",
		"latitude": "34-46-43.55 N",
		"longitude": "79-44-9.24 W",
		"state": "SOUTH CAROLINA",
		"artcc": "ZDC",
		"type": "RNAV",
		"updated": "09/12/2013"
	},
	{
		"name": "IZUMI",
		"latitude": "39-11-52.58 N",
		"longitude": "77-25-56.4 W",
		"state": "MARYLAND",
		"artcc": "ZDC",
		"type": "RP",
		"updated": "MRB*VORTAC*127.00"
	}
]
