	{
		"name": "KABKE",
		"latitude": "39-58-39.42 N",
		"longitude": "74-44-39.71 W",
		"state": "NEW JERSEY",
		"artcc": "ZDC",
		"type": "RNAV",
		"updated": "01/26/2012",
	},
	{
		"name": "KADAF",
		"latitude": "34-50-21.09 N",
		"longitude": "76-58-9.14 W",
		"state": "NORTH CAROLINA",
		"artcc": "ZDC",
		"type": "MR",
		"updated": "NKT*TACAN*240.00/6.00",
	},
	{
		"name": "KAFKA",
		"latitude": "37-25-52.6 N",
		"longitude": "77-15-19.06 W",
		"state": "VIRGINIA",
		"artcc": "ZDC",
		"type": "RNAV",
		"updated": "02/21/2014",
	},
	{
		"name": "KAGYS",
		"latitude": "39-12-41.34 N",
		"longitude": "74-54-26.84 W",
		"state": "NEW JERSEY",
		"artcc": "ZDC",
		"type": "RP",
		"updated": "SIE*VORTAC*333.31",
	},
	{
		"name": "KAHOE",
		"latitude": "39-43-16.62 N",
		"longitude": "75-21-41.21 W",
		"state": "NEW JERSEY",
		"artcc": "ZDC",
		"type": "RNAV",
		"updated": "09/13/2009",
	},
	{
		"name": "KAIJE",
		"latitude": "38-44-34.79 N",
		"longitude": "78-42-48.47 W",
		"state": "VIRGINIA",
		"artcc": "ZDC",
		"type": "RNAV",
		"updated": "08/19/2013",
	},
	{
		"name": "KAKLE",
		"latitude": "35-54-25.11 N",
		"longitude": "79-41-53.51 W",
		"state": "NORTH CAROLINA",
		"artcc": "ZDC",
		"type": "RP",
		"updated": "HB*NDB*059.98",
	},
	{
		"name": "KAKTE",
		"latitude": "39-26-5.5 N",
		"longitude": "75-37-50.32 W",
		"state": "DELAWARE",
		"artcc": "ZDC",
		"type": "CN",
		"updated": "11/09/2009",
	},
	{
		"name": "KALDA",
		"latitude": "37-50-31.05 N",
		"longitude": "75-37-35.34 W",
		"state": "VIRGINIA",
		"artcc": "ZDC",
		"type": "RP",
		"updated": "SWL*VORTAC*219.00/15.00",
	},
	{
		"name": "KALEC",
		"latitude": "38-21-23.61 N",
		"longitude": "78-5-36.33 W",
		"state": "VIRGINIA",
		"artcc": "ZDC",
		"type": "RNAV",
		"updated": "10/18/2011",
	},
	{
		"name": "KALLI",
		"latitude": "37-27-54.5 N",
		"longitude": "77-38-50.85 W",
		"state": "VIRGINIA",
		"artcc": "ZDC",
		"type": "RNAV",
		"updated": "12/23/2013",
	},
	{
		"name": "KAMMI",
		"latitude": "37-54-28.55 N",
		"longitude": "76-54-31.82 W",
		"state": "VIRGINIA",
		"artcc": "ZDC",
		"type": "RNAV",
		"updated": "12/23/2013",
	},
	{
		"name": "KANKE",
		"latitude": "39-54-24.37 N",
		"longitude": "75-5-12.22 W",
		"state": "NEW JERSEY",
		"artcc": "ZDC",
		"type": "RNAV",
		"updated": "06/27/2011",
	},
	{
		"name": "KAPTN",
		"latitude": "38-55-41.79 N",
		"longitude": "76-29-51.72 W",
		"state": "MARYLAND",
		"artcc": "ZDC",
		"type": "RNAV",
		"updated": "12/29/2014",
	},
	{
		"name": "KARBY",
		"latitude": "36-30-58.89 N",
		"longitude": "78-36-42.45 W",
		"state": "NORTH CAROLINA",
		"artcc": "ZDC",
		"type": "RNAV",
		"updated": "04/10/2012",
	},
	{
		"name": "KAROO",
		"latitude": "36-7-18.9 N",
		"longitude": "78-16-5.35 W",
		"state": "NORTH CAROLINA",
		"artcc": "ZDC",
		"type": "RNAV",
		"updated": "11/19/2012",
	},
	{
		"name": "KASDY",
		"latitude": "38-29-57.17 N",
		"longitude": "77-23-30.01 W",
		"state": "VIRGINIA",
		"artcc": "ZDC",
		"type": "RNAV",
		"updated": "12/16/2014",
	},
	{
		"name": "KASLE",
		"latitude": "35-54-21.33 N",
		"longitude": "78-49-13.64 W",
		"state": "NORTH CAROLINA",
		"artcc": "ZDC",
		"type": "RNAV",
		"updated": "12/02/2002",
	},
	{
		"name": "KASVE",
		"latitude": "35-13-14.48 N",
		"longitude": "75-47-22.78 W",
		"state": "NORTH CAROLINA",
		"artcc": "ZDC",
		"type": "RNAV",
		"updated": "02/13/2002",
	},
	{
		"name": "KATFI",
		"latitude": "35-1-18.29 N",
		"longitude": "77-4-47.36 W",
		"state": "NORTH CAROLINA",
		"artcc": "ZDC",
		"type": "RNAV",
		"updated": "10/08/2015",
	},
	{
		"name": "KATRN",
		"latitude": "38-40-53.9 N",
		"longitude": "77-1-14.37 W",
		"state": "MARYLAND",
		"artcc": "ZDC",
		"type": "RP",
		"updated": "DCA*VOR/DME*185.02/10.68",
	},
	{
		"name": "KATZN",
		"latitude": "36-58-7.24 N",
		"longitude": "76-47-0.25 W",
		"state": "VIRGINIA",
		"artcc": "ZDC",
		"type": "RP",
		"updated": "CVI*VORTAC*015.77/35.95",
	},
	{
		"name": "KAYCE",
		"latitude": "34-59-58.03 N",
		"longitude": "78-59-44.11 W",
		"state": "NORTH CAROLINA",
		"artcc": "ZDC",
		"type": "RP",
		"updated": "FAY*VOR/DME*282.00/6.00",
	},
	{
		"name": "KAZOB",
		"latitude": "37-55-34.85 N",
		"longitude": "78-34-36 W",
		"state": "VIRGINIA",
		"artcc": "ZDC",
		"type": "RNAV",
		"updated": "06/24/2011",
	},
	{
		"name": "KEANN",
		"latitude": "34-52-22.26 N",
		"longitude": "77-26-12.57 W",
		"state": "NORTH CAROLINA",
		"artcc": "ZDC",
		"type": "MW",
		"updated": "09/21/2010",
	},
	{
		"name": "KEBLE",
		"latitude": "39-52-15.15 N",
		"longitude": "74-48-14.05 W",
		"state": "NEW JERSEY",
		"artcc": "ZNY",
		"type": "RNAV",
		"updated": "05/11/2012",
	},
	{
		"name": "KECEN",
		"latitude": "35-12-49.33 N",
		"longitude": "78-58-6.25 W",
		"state": "NORTH CAROLINA",
		"artcc": "ZDC",
		"type": "MR",
		"updated": "POB*TACAN*/3.70",
	},
	{
		"name": "KECNE",
		"latitude": "39-44-27.05 N",
		"longitude": "77-52-5.64 W",
		"state": "PENNSYLVANIA",
		"artcc": "ZDC",
		"type": "RNAV",
		"updated": "07/18/2013",
	},
	{
		"name": "KEESH",
		"latitude": "39-30-38.33 N",
		"longitude": "78-24-8.14 W",
		"state": "WEST VIRGINIA",
		"artcc": "ZDC",
		"type": "RNAV",
		"updated": "08/13/2015",
	},
	{
		"name": "KEEYY",
		"latitude": "39-12-43.16 N",
		"longitude": "76-28-15.62 W",
		"state": "MARYLAND",
		"artcc": "ZDC",
		"type": "RNAV",
		"updated": "09/23/2014",
	},
	{
		"name": "KEGME",
		"latitude": "37-28-39.98 N",
		"longitude": "77-9-1.51 W",
		"state": "VIRGINIA",
		"artcc": "ZDC",
		"type": "RNAV",
		"updated": "07/24/2014",
	},
	{
		"name": "KEKBE",
		"latitude": "35-38-37.91 N",
		"longitude": "77-14-57.91 W",
		"state": "NORTH CAROLINA",
		"artcc": "ZDC",
		"type": "RNAV",
		"updated": "12/01/2008",
	},
	{
		"name": "KEKBY",
		"latitude": "38-32-36.24 N",
		"longitude": "78-3-17.4 W",
		"state": "VIRGINIA",
		"artcc": "ZDC",
		"type": "RNAV",
		"updated": "01/30/2001",
	},
	{
		"name": "KELCE",
		"latitude": "37-11-6.38 N",
		"longitude": "77-54-58.73 W",
		"state": "VIRGINIA",
		"artcc": "ZDC",
		"type": "RNAV",
		"updated": "04/04/2018",
	},
	{
		"name": "KELEE",
		"latitude": "39-50-17.25 N",
		"longitude": "75-23-18.45 W",
		"state": "PENNSYLVANIA",
		"artcc": "ZDC",
		"type": "RP",
		"updated": "MXE*VORTAC*119.08",
	},
	{
		"name": "KELLE",
		"latitude": "37-10-46.29 N",
		"longitude": "77-48-18.72 W",
		"state": "VIRGINIA",
		"artcc": "ZDC",
		"type": "RP",
		"updated": "ORF*VORTAC*290.08/79.00",
	},
	{
		"name": "KELLS",
		"latitude": "36-35-10.19 N",
		"longitude": "79-47-10.2 W",
		"state": "VIRGINIA",
		"artcc": "ZDC",
		"type": "RP",
		"updated": "LYH*VORTAC*218.61/48.00",
	},
	{
		"name": "KEMMP",
		"latitude": "39-6-36.24 N",
		"longitude": "76-36-44.28 W",
		"state": "MARYLAND",
		"artcc": "ZDC",
		"type": "RNAV",
		"updated": "10/19/2015",
	},
	{
		"name": "KEMPR",
		"latitude": "36-44-58.04 N",
		"longitude": "76-29-19.52 W",
		"state": "VIRGINIA",
		"artcc": "ZDC",
		"type": "RNAV",
		"updated": "08/01/2005",
	},
	{
		"name": "KENCH",
		"latitude": "35-50-2.64 N",
		"longitude": "78-41-22.96 W",
		"state": "NORTH CAROLINA",
		"artcc": "ZDC",
		"type": "RNAV",
		"updated": "11/19/2012",
	},
	{
		"name": "KENIR",
		"latitude": "35-52-25.24 N",
		"longitude": "77-20-43.22 W",
		"state": "NORTH CAROLINA",
		"artcc": "ZDC",
		"type": "RP",
		"updated": "ISO*VORTAC*024.02/31.87",
	},
	{
		"name": "KENNI",
		"latitude": "37-51-47.72 N",
		"longitude": "78-35-38.83 W",
		"state": "VIRGINIA",
		"artcc": "ZDC",
		"type": "RP",
		"updated": "GVE*VORTAC*252.85/22.79",
	},
	{
		"name": "KERME",
		"latitude": "34-41-26.71 N",
		"longitude": "77-26-11.2 W",
		"state": "NORTH CAROLINA",
		"artcc": "ZDC",
		"type": "MR",
		"updated": "NCA*TACAN*177.00/1.00",
	},
	{
		"name": "KERNO",
		"latitude": "39-18-36.25 N",
		"longitude": "76-2-34.92 W",
		"state": "MARYLAND",
		"artcc": "ZDC",
		"type": "RP",
		"updated": "ENO*VORTAC*290.00/25.00",
	},
	{
		"name": "KERRE",
		"latitude": "38-38-30.98 N",
		"longitude": "78-31-56.58 W",
		"state": "VIRGINIA",
		"artcc": "ZDC",
		"type": "RP",
		"updated": "MRB*VORTAC*222.88/54.87",
	},
	{
		"name": "KERRK",
		"latitude": "38-10-33.77 N",
		"longitude": "78-23-35.86 W",
		"state": "VIRGINIA",
		"artcc": "ZDC",
		"type": "RNAV",
		"updated": "04/04/2016",
	},
	{
		"name": "KETRE",
		"latitude": "38-58-46.14 N",
		"longitude": "76-9-39.23 W",
		"state": "MARYLAND",
		"artcc": "ZDC",
		"type": "WP",
		"updated": "11/02/2011",
	},
	{
		"name": "KEVPE",
		"latitude": "34-12-53.39 N",
		"longitude": "78-11-6.57 W",
		"state": "NORTH CAROLINA",
		"artcc": "ZDC",
		"type": "RNAV",
		"updated": "07/08/2013",
	},
	{
		"name": "KEVVN",
		"latitude": "39-15-56.34 N",
		"longitude": "76-45-23.43 W",
		"state": "MARYLAND",
		"artcc": "ZDC",
		"type": "RP",
		"updated": "BAL*VORTAC*/7.20",
	},
	{
		"name": "KEXFI",
		"latitude": "38-31-0 N",
		"longitude": "78-44-59 W",
		"state": "VIRGINIA",
		"artcc": "ZDC",
		"type": "RNAV",
		"updated": "01/30/2001",
	},
	{
		"name": "KEYEL",
		"latitude": "38-18-38.84 N",
		"longitude": "75-7-39.2 W",
		"state": "MARYLAND",
		"artcc": "ZDC",
		"type": "RP",
		"updated": "SBY*VORTAC*108.35/18.20",
	},
	{
		"name": "KEYER",
		"latitude": "39-27-53.29 N",
		"longitude": "78-43-42.1 W",
		"state": "WEST VIRGINIA",
		"artcc": "ZDC",
		"type": "RP",
		"updated": "MGW*VORTAC*100.62",
	},
	{
		"name": "KHOOD",
		"latitude": "37-52-55.24 N",
		"longitude": "77-41-51.57 W",
		"state": "VIRGINIA",
		"artcc": "ZDC",
		"type": "RNAV",
		"updated": "12/16/2014",
	},
	{
		"name": "KHORT",
		"latitude": "39-10-37.87 N",
		"longitude": "76-43-57.26 W",
		"state": "MARYLAND",
		"artcc": "ZDC",
		"type": "RP",
		"updated": "BAL*VORTAC*/3.35",
	},
	{
		"name": "KIESS",
		"latitude": "38-42-47.12 N",
		"longitude": "77-34-10.29 W",
		"state": "VIRGINIA",
		"artcc": "ZDC",
		"type": "RNAV",
		"updated": "02/10/2005",
	},
	{
		"name": "KIFGA",
		"latitude": "41-31-15.58 N",
		"longitude": "79-43-59.82 W",
		"state": "PENNSYLVANIA",
		"artcc": "ZDC",
		"type": "RNAV",
		"updated": "08/24/2001",
	},
	{
		"name": "KIKKR",
		"latitude": "39-19-25.99 N",
		"longitude": "78-34-3.12 W",
		"state": "WEST VIRGINIA",
		"artcc": "ZDC",
		"type": "RNAV",
		"updated": "06/01/2012",
	},
	{
		"name": "KILBE",
		"latitude": "37-6-39.92 N",
		"longitude": "79-20-31.17 W",
		"state": "VIRGINIA",
		"artcc": "ZDC",
		"type": "RP",
		"updated": "SBV*VORTAC*334.00/30.52",
	},
	{
		"name": "KILMR",
		"latitude": "38-43-51.73 N",
		"longitude": "78-22-35.12 W",
		"state": "VIRGINIA",
		"artcc": "ZDC",
		"type": "RNAV",
		"updated": "06/01/2012",
	},
	{
		"name": "KIMBA",
		"latitude": "39-6-8.15 N",
		"longitude": "74-54-23.31 W",
		"state": "NEW JERSEY",
		"artcc": "ZDC",
		"type": "RP",
		"updated": "SIE*VORTAC*283.70",
	},
	{
		"name": "KIMES",
		"latitude": "35-57-49.89 N",
		"longitude": "79-36-12.09 W",
		"state": "NORTH CAROLINA",
		"artcc": "ZDC",
		"type": "RP",
		"updated": "LIB*VORTAC*005.82",
	},
	{
		"name": "KINKE",
		"latitude": "37-37-25.32 N",
		"longitude": "76-59-30.58 W",
		"state": "VIRGINIA",
		"artcc": "ZDC",
		"type": "RP",
		"updated": "HPW*VORTAC*024.51/18.64",
	},
	{
		"name": "KINSE",
		"latitude": "37-44-46.83 N",
		"longitude": "75-59-53.99 W",
		"state": "VIRGINIA",
		"artcc": "ZDC",
		"type": "RP",
		"updated": "CCV*VORTAC*009.92/23.90",
	},
	{
		"name": "KIRKK",
		"latitude": "39-33-19.5 N",
		"longitude": "75-45-11.42 W",
		"state": "DELAWARE",
		"artcc": "ZDC",
		"type": "RP",
		"updated": "DQO*VORTAC*232.68/10.00",
	},
	{
		"name": "KISGE",
		"latitude": "39-3-16.03 N",
		"longitude": "75-21-20.98 W",
		"state": "DELAWARE",
		"artcc": "ZDC",
		"type": "MR",
		"updated": "DOV*TACAN*143.84/7.00",
	},
	{
		"name": "KITTE",
		"latitude": "36-2-2.42 N",
		"longitude": "75-46-35.19 W",
		"state": "NORTH CAROLINA",
		"artcc": "ZDC",
		"type": "MR",
		"updated": "NTU*TACAN*175.00/49.00",
	},
	{
		"name": "KIWCE",
		"latitude": "37-19-38.52 N",
		"longitude": "78-15-8.72 W",
		"state": "VIRGINIA",
		"artcc": "ZDC",
		"type": "RNAV",
		"updated": "11/17/2010",
	},
	{
		"name": "KIWII",
		"latitude": "36-34-56.91 N",
		"longitude": "78-40-3.92 W",
		"state": "VIRGINIA",
		"artcc": "ZDC",
		"type": "RNAV",
		"updated": "01/16/2014",
	},
	{
		"name": "KIYEC",
		"latitude": "37-38-30.31 N",
		"longitude": "78-43-1.62 W",
		"state": "VIRGINIA",
		"artcc": "ZDC",
		"type": "RNAV",
		"updated": "06/24/2011",
	},
	{
		"name": "KIYEK",
		"latitude": "35-2-0.78 N",
		"longitude": "77-3-30.97 W",
		"state": "NORTH CAROLINA",
		"artcc": "ZDC",
		"type": "MR",
		"updated": "NKT*TACAN*320.00/12.00",
	},
	{
		"name": "KKING",
		"latitude": "34-49-48.15 N",
		"longitude": "76-47-43.79 W",
		"state": "NORTH CAROLINA",
		"artcc": "ZDC",
		"type": "RNAV",
		"updated": "01/25/2016",
	},
	{
		"name": "KLOND",
		"latitude": "40-13-19.99 N",
		"longitude": "74-42-51.13 W",
		"state": "NEW JERSEY",
		"artcc": "ZDC",
		"type": "RNAV",
		"updated": "04/19/2012",
	},
	{
		"name": "KLUMM",
		"latitude": "36-56-15.81 N",
		"longitude": "76-15-39.24 W",
		"state": "VIRGINIA",
		"artcc": "ZDC",
		"type": "MR",
		"updated": "NGU*TACAN*110.00/0.80",
	},
	{
		"name": "KLUTE",
		"latitude": "36-23-0.7 N",
		"longitude": "79-45-16.95 W",
		"state": "NORTH CAROLINA",
		"artcc": "ZDC",
		"type": "RNAV",
		"updated": "09/14/2009",
	},
	{
		"name": "KNOLL",
		"latitude": "37-15-25.81 N",
		"longitude": "79-55-29.46 W",
		"state": "VIRGINIA",
		"artcc": "ZDC",
		"type": "RNAV",
		"updated": "12/04/2013",
	},
	{
		"name": "KNOTS",
		"latitude": "36-31-34.74 N",
		"longitude": "75-30-42.95 W",
		"state": "OFFSHORE ATLANTIC",
		"artcc": "ZDC",
		"type": "MR",
		"updated": "NTU*TACAN*135.00/31.00",
	},
	{
		"name": "KNOTY",
		"latitude": "38-58-26.52 N",
		"longitude": "76-51-50.72 W",
		"state": "MARYLAND",
		"artcc": "ZDC",
		"type": "RP",
		"updated": "ADW*VORTAC*010.58/10.00",
	},
	{
		"name": "KNUCK",
		"latitude": "39-1-55.65 N",
		"longitude": "77-47-33.78 W",
		"state": "VIRGINIA",
		"artcc": "ZDC",
		"type": "RP",
		"updated": "MRB*VORTAC*180.00",
	},
	{
		"name": "KOBAH",
		"latitude": "38-52-42.86 N",
		"longitude": "79-52-9.76 W",
		"state": "WEST VIRGINIA",
		"artcc": "ZDC",
		"type": "RNAV",
		"updated": "11/03/2009",
	},
	{
		"name": "KOBBY",
		"latitude": "34-29-50.65 N",
		"longitude": "77-42-30.73 W",
		"state": "NORTH CAROLINA",
		"artcc": "ZDC",
		"type": "RP",
		"updated": "FAY*VOR/DME*120.55",
	},
	{
		"name": "KOBEC",
		"latitude": "38-29-7.96 N",
		"longitude": "77-33-6.06 W",
		"state": "VIRGINIA",
		"artcc": "ZDC",
		"type": "RNAV",
		"updated": "08/02/2004",
	},
	{
		"name": "KOBKE",
		"latitude": "37-25-17.89 N",
		"longitude": "79-9-11.75 W",
		"state": "VIRGINIA",
		"artcc": "ZDC",
		"type": "RNAV",
		"updated": "07/20/2011",
	},
	{
		"name": "KOECK",
		"latitude": "37-13-33.2 N",
		"longitude": "79-15-59.61 W",
		"state": "VIRGINIA",
		"artcc": "ZDC",
		"type": "RNAV",
		"updated": "08/30/2007",
	},
	{
		"name": "KOLVE",
		"latitude": "38-13-52.61 N",
		"longitude": "76-18-47.87 W",
		"state": "MARYLAND",
		"artcc": "ZDC",
		"type": "MW",
		"updated": "09/29/2017",
	},
	{
		"name": "KOPCE",
		"latitude": "39-36-27.43 N",
		"longitude": "74-30-52.58 W",
		"state": "NEW JERSEY",
		"artcc": "ZDC",
		"type": "RNAV",
		"updated": "12/20/2012",
	},
	{
		"name": "KORDE",
		"latitude": "39-35-43.59 N",
		"longitude": "74-34-48.37 W",
		"state": "NEW JERSEY",
		"artcc": "ZDC",
		"type": "RNAV",
		"updated": "03/15/2001",
	},
	{
		"name": "KORNY",
		"latitude": "39-13-44.08 N",
		"longitude": "77-50-2.26 W",
		"state": "WEST VIRGINIA",
		"artcc": "ZDC",
		"type": "RNAV",
		"updated": "04/23/2012",
	},
	{
		"name": "KOSSE",
		"latitude": "38-20-28.93 N",
		"longitude": "76-30-20.84 W",
		"state": "MARYLAND",
		"artcc": "ZDC",
		"type": "MW",
		"updated": "09/29/2017",
	},
	{
		"name": "KOVBE",
		"latitude": "36-58-20.79 N",
		"longitude": "78-10-53.8 W",
		"state": "VIRGINIA",
		"artcc": "ZDC",
		"type": "RNAV",
		"updated": "11/17/2010",
	},
	{
		"name": "KOVEC",
		"latitude": "39-27-32.27 N",
		"longitude": "74-51-14.31 W",
		"state": "NEW JERSEY",
		"artcc": "ZDC",
		"type": "RNAV",
		"updated": "08/13/2008",
	},
	{
		"name": "KOVPE",
		"latitude": "36-14-26.95 N",
		"longitude": "78-42-51.74 W",
		"state": "NORTH CAROLINA",
		"artcc": "ZDC",
		"type": "RNAV",
		"updated": "01/29/2015",
	},
	{
		"name": "KOZUL",
		"latitude": "38-38-31.92 N",
		"longitude": "79-52-58.66 W",
		"state": "WEST VIRGINIA",
		"artcc": "ZDC",
		"type": "RNAV",
		"updated": "11/03/2009",
	},
	{
		"name": "KRANT",
		"latitude": "38-55-6.8 N",
		"longitude": "76-57-56.31 W",
		"state": "MARYLAND",
		"artcc": "ZDC",
		"type": "RP",
		"updated": "BAL*VORTAC*234.33",
	},
	{
		"name": "KRANY",
		"latitude": "36-55-52.06 N",
		"longitude": "76-29-5.54 W",
		"state": "VIRGINIA",
		"artcc": "ZDC",
		"type": "MR",
		"updated": "NGU*TACAN*277.00/10.00",
	},
	{
		"name": "KRENE",
		"latitude": "39-20-58.9 N",
		"longitude": "76-48-51.28 W",
		"state": "MARYLAND",
		"artcc": "ZDC",
		"type": "RP",
		"updated": "BAL*VORTAC*337.39/12.86",
	},
	{
		"name": "KROVE",
		"latitude": "35-1-42.77 N",
		"longitude": "77-15-22.44 W",
		"state": "NORTH CAROLINA",
		"artcc": "ZDC",
		"type": "RP",
		"updated": "EWN*VOR/DME*263.66",
	},
	{
		"name": "KSETT",
		"latitude": "37-45-55.35 N",
		"longitude": "77-23-34.29 W",
		"state": "VIRGINIA",
		"artcc": "ZDC",
		"type": "RNAV",
		"updated": "01/09/2015",
	},
	{
		"name": "KUCEC",
		"latitude": "37-18-8.8 N",
		"longitude": "79-12-57.87 W",
		"state": "VIRGINIA",
		"artcc": "ZDC",
		"type": "RNAV",
		"updated": "08/30/2007",
	},
	{
		"name": "KUDEC",
		"latitude": "36-20-25.24 N",
		"longitude": "78-14-58.9 W",
		"state": "NORTH CAROLINA",
		"artcc": "ZDC",
		"type": "RNAV",
		"updated": "08/01/2011",
	},
	{
		"name": "KUFIS",
		"latitude": "38-19-8.06 N",
		"longitude": "76-39-25.12 W",
		"state": "MARYLAND",
		"artcc": "ZDC",
		"type": "RNAV",
		"updated": "05/05/2016",
	},
	{
		"name": "KUJUM",
		"latitude": "37-29-23.45 N",
		"longitude": "79-5-31.36 W",
		"state": "VIRGINIA",
		"artcc": "ZDC",
		"type": "RNAV",
		"updated": "08/30/2007",
	},
	{
		"name": "KUKSE",
		"latitude": "39-8-50.86 N",
		"longitude": "77-34-28.65 W",
		"state": "VIRGINIA",
		"artcc": "ZDC",
		"type": "RNAV",
		"updated": "07/24/2014",
	},
	{
		"name": "KULEY",
		"latitude": "37-30-54.45 N",
		"longitude": "76-52-39.57 W",
		"state": "VIRGINIA",
		"artcc": "ZDC",
		"type": "RNAV",
		"updated": "03/31/2010",
	},
	{
		"name": "KULPE",
		"latitude": "40-8-45.08 N",
		"longitude": "74-49-27.61 W",
		"state": "PENNSYLVANIA",
		"artcc": "ZDC",
		"type": "RNAV",
		"updated": "08/16/2012",
	},
	{
		"name": "KURPE",
		"latitude": "38-38-54.33 N",
		"longitude": "78-28-10.8 W",
		"state": "VIRGINIA",
		"artcc": "ZDC",
		"type": "RNAV",
		"updated": "07/20/2011",
	},
	{
		"name": "KUSLE",
		"latitude": "39-41-1.09 N",
		"longitude": "74-57-9.81 W",
		"state": "NEW JERSEY",
		"artcc": "ZDC",
		"type": "RNAV",
		"updated": "05/05/2011",
	},
	{
		"name": "KUTSE",
		"latitude": "39-35-47.36 N",
		"longitude": "78-8-5.38 W",
		"state": "WEST VIRGINIA",
		"artcc": "ZDC",
		"type": "RNAV",
		"updated": "09/12/2013",
	},
	{
		"name": "KUVTE",
		"latitude": "40-5-26.63 N",
		"longitude": "74-37-15.37 W",
		"state": "NEW JERSEY",
		"artcc": "ZDC",
		"type": "MR",
		"updated": "GXU*VORTAC*359.00/5.00",
	},
	{
		"name": "KUYEN",
		"latitude": "34-54-42.48 N",
		"longitude": "77-9-32.36 W",
		"state": "NORTH CAROLINA",
		"artcc": "ZDC",
		"type": "RNAV",
		"updated": "10/12/2006",
	},
	{
		"name": "KW18Y",
		"latitude": "33-0-0 N",
		"longitude": "76-0-0 W",
		"state": "OFFSHORE ATLANTIC",
		"artcc": "ZDC",
		"type": "NRS",
		"updated": "03/05/2005",
	},
	{
		"name": "KW21Y",
		"latitude": "33-30-0 N",
		"longitude": "76-0-0 W",
		"state": "OFFSHORE ATLANTIC",
		"artcc": "ZDC",
		"type": "NRS",
		"updated": "03/05/2005",
	},
	{
		"name": "KW24W",
		"latitude": "34-0-0 N",
		"longitude": "78-0-0 W",
		"state": "NORTH CAROLINA",
		"artcc": "ZDC",
		"type": "NRS",
		"updated": "03/05/2005",
	},
	{
		"name": "KW24Y",
		"latitude": "34-0-0 N",
		"longitude": "76-0-0 W",
		"state": "OFFSHORE ATLANTIC",
		"artcc": "ZDC",
		"type": "NRS",
		"updated": "03/05/2005",
	},
	{
		"name": "KW27A",
		"latitude": "34-30-0 N",
		"longitude": "74-0-0 W",
		"state": "OFFSHORE ATLANTIC",
		"artcc": "ZDC",
		"type": "NRS",
		"updated": "03/05/2005",
	},
	{
		"name": "KW27W",
		"latitude": "34-30-0 N",
		"longitude": "78-0-0 W",
		"state": "NORTH CAROLINA",
		"artcc": "ZDC",
		"type": "NRS",
		"updated": "03/05/2005",
	},
	{
		"name": "KW27Y",
		"latitude": "34-30-0 N",
		"longitude": "76-0-0 W",
		"state": "OFFSHORE ATLANTIC",
		"artcc": "ZDC",
		"type": "NRS",
		"updated": "03/05/2005",
	},
	{
		"name": "KW30A",
		"latitude": "35-0-0 N",
		"longitude": "74-0-0 W",
		"state": "OFFSHORE ATLANTIC",
		"artcc": "ZDC",
		"type": "NRS",
		"updated": "03/05/2005",
	},
	{
		"name": "KW30U",
		"latitude": "35-0-0 N",
		"longitude": "80-0-0 W",
		"state": "NORTH CAROLINA",
		"artcc": "ZDC",
		"type": "NRS",
		"updated": "03/05/2005",
	},
	{
		"name": "KW30W",
		"latitude": "35-0-0 N",
		"longitude": "78-0-0 W",
		"state": "NORTH CAROLINA",
		"artcc": "ZDC",
		"type": "NRS",
		"updated": "03/05/2005",
	},
	{
		"name": "KW30Y",
		"latitude": "35-0-0 N",
		"longitude": "76-0-0 W",
		"state": "NORTH CAROLINA",
		"artcc": "ZDC",
		"type": "NRS",
		"updated": "03/05/2005",
	},
	{
		"name": "KW33A",
		"latitude": "35-30-0 N",
		"longitude": "74-0-0 W",
		"state": "OFFSHORE ATLANTIC",
		"artcc": "ZDC",
		"type": "NRS",
		"updated": "03/05/2005",
	},
	{
		"name": "KW33W",
		"latitude": "35-30-0 N",
		"longitude": "78-0-0 W",
		"state": "NORTH CAROLINA",
		"artcc": "ZDC",
		"type": "NRS",
		"updated": "03/05/2005",
	},
	{
		"name": "KW33Y",
		"latitude": "35-30-0 N",
		"longitude": "76-0-0 W",
		"state": "NORTH CAROLINA",
		"artcc": "ZDC",
		"type": "NRS",
		"updated": "03/05/2005",
	},
	{
		"name": "KW36A",
		"latitude": "36-0-0 N",
		"longitude": "74-0-0 W",
		"state": "OFFSHORE ATLANTIC",
		"artcc": "ZDC",
		"type": "NRS",
		"updated": "03/05/2005",
	},
	{
		"name": "KW36W",
		"latitude": "36-0-0 N",
		"longitude": "78-0-0 W",
		"state": "NORTH CAROLINA",
		"artcc": "ZDC",
		"type": "NRS",
		"updated": "03/05/2005",
	},
	{
		"name": "KW36Y",
		"latitude": "36-0-0 N",
		"longitude": "76-0-0 W",
		"state": "NORTH CAROLINA",
		"artcc": "ZDC",
		"type": "NRS",
		"updated": "03/05/2005",
	},
	{
		"name": "KW39A",
		"latitude": "36-30-0 N",
		"longitude": "74-0-0 W",
		"state": "OFFSHORE ATLANTIC",
		"artcc": "ZDC",
		"type": "NRS",
		"updated": "03/05/2005",
	},
	{
		"name": "KW39U",
		"latitude": "36-30-0 N",
		"longitude": "80-0-0 W",
		"state": "NORTH CAROLINA",
		"artcc": "ZDC",
		"type": "NRS",
		"updated": "03/05/2005",
	},
	{
		"name": "KW39W",
		"latitude": "36-30-0 N",
		"longitude": "78-0-0 W",
		"state": "NORTH CAROLINA",
		"artcc": "ZDC",
		"type": "NRS",
		"updated": "03/05/2005",
	},
	{
		"name": "KW39Y",
		"latitude": "36-30-0 N",
		"longitude": "76-0-0 W",
		"state": "NORTH CAROLINA",
		"artcc": "ZDC",
		"type": "NRS",
		"updated": "03/05/2005",
	},
	{
		"name": "KW42A",
		"latitude": "37-0-0 N",
		"longitude": "74-0-0 W",
		"state": "OFFSHORE ATLANTIC",
		"artcc": "ZDC",
		"type": "NRS",
		"updated": "03/05/2005",
	},
	{
		"name": "KW42U",
		"latitude": "37-0-0 N",
		"longitude": "80-0-0 W",
		"state": "VIRGINIA",
		"artcc": "ZDC",
		"type": "NRS",
		"updated": "03/05/2005",
	},
	{
		"name": "KW42W",
		"latitude": "37-0-0 N",
		"longitude": "78-0-0 W",
		"state": "VIRGINIA",
		"artcc": "ZDC",
		"type": "NRS",
		"updated": "03/05/2005",
	},
	{
		"name": "KW42Y",
		"latitude": "37-0-0 N",
		"longitude": "76-0-0 W",
		"state": "VIRGINIA",
		"artcc": "ZDC",
		"type": "NRS",
		"updated": "03/05/2005",
	},
	{
		"name": "KW45A",
		"latitude": "37-30-0 N",
		"longitude": "74-0-0 W",
		"state": "OFFSHORE ATLANTIC",
		"artcc": "ZDC",
		"type": "NRS",
		"updated": "03/05/2005",
	},
	{
		"name": "KW45U",
		"latitude": "37-30-0 N",
		"longitude": "80-0-0 W",
		"state": "VIRGINIA",
		"artcc": "ZDC",
		"type": "NRS",
		"updated": "03/05/2005",
	},
	{
		"name": "KW45W",
		"latitude": "37-30-0 N",
		"longitude": "78-0-0 W",
		"state": "VIRGINIA",
		"artcc": "ZDC",
		"type": "NRS",
		"updated": "03/05/2005",
	},
	{
		"name": "KW45Y",
		"latitude": "37-30-0 N",
		"longitude": "76-0-0 W",
		"state": "VIRGINIA",
		"artcc": "ZDC",
		"type": "NRS",
		"updated": "03/05/2005",
	},
	{
		"name": "KW48U",
		"latitude": "38-0-0 N",
		"longitude": "80-0-0 W",
		"state": "WEST VIRGINIA",
		"artcc": "ZDC",
		"type": "NRS",
		"updated": "03/05/2005",
	},
	{
		"name": "KW48W",
		"latitude": "38-0-0 N",
		"longitude": "78-0-0 W",
		"state": "VIRGINIA",
		"artcc": "ZDC",
		"type": "NRS",
		"updated": "03/05/2005",
	},
	{
		"name": "KW48Y",
		"latitude": "38-0-0 N",
		"longitude": "76-0-0 W",
		"state": "MARYLAND",
		"artcc": "ZDC",
		"type": "NRS",
		"updated": "03/05/2005",
	},
	{
		"name": "KW51U",
		"latitude": "38-30-0 N",
		"longitude": "80-0-0 W",
		"state": "WEST VIRGINIA",
		"artcc": "ZDC",
		"type": "NRS",
		"updated": "03/05/2005",
	},
	{
		"name": "KW51W",
		"latitude": "38-30-0 N",
		"longitude": "78-0-0 W",
		"state": "VIRGINIA",
		"artcc": "ZDC",
		"type": "NRS",
		"updated": "03/05/2005",
	},
	{
		"name": "KW51Y",
		"latitude": "38-30-0 N",
		"longitude": "76-0-0 W",
		"state": "MARYLAND",
		"artcc": "ZDC",
		"type": "NRS",
		"updated": "03/05/2005",
	},
	{
		"name": "KW54A",
		"latitude": "39-0-0 N",
		"longitude": "74-0-0 W",
		"state": "OFFSHORE ATLANTIC",
		"artcc": "ZDC",
		"type": "NRS",
		"updated": "03/05/2005",
	},
	{
		"name": "KW54U",
		"latitude": "39-0-0 N",
		"longitude": "80-0-0 W",
		"state": "WEST VIRGINIA",
		"artcc": "ZDC",
		"type": "NRS",
		"updated": "03/05/2005",
	},
	{
		"name": "KW54W",
		"latitude": "39-0-0 N",
		"longitude": "78-0-0 W",
		"state": "VIRGINIA",
		"artcc": "ZDC",
		"type": "NRS",
		"updated": "03/05/2005",
	},
	{
		"name": "KW54Y",
		"latitude": "39-0-0 N",
		"longitude": "76-0-0 W",
		"state": "MARYLAND",
		"artcc": "ZDC",
		"type": "NRS",
		"updated": "03/05/2005",
	},
	{
		"name": "KW57A",
		"latitude": "39-30-0 N",
		"longitude": "74-0-0 W",
		"state": "NEW JERSEY",
		"artcc": "ZDC",
		"type": "NRS",
		"updated": "03/05/2005",
	},
	{
		"name": "KW57W",
		"latitude": "39-30-0 N",
		"longitude": "78-0-0 W",
		"state": "WEST VIRGINIA",
		"artcc": "ZDC",
		"type": "NRS",
		"updated": "03/05/2005",
	},
	{
		"name": "KW57Y",
		"latitude": "39-30-0 N",
		"longitude": "76-0-0 W",
		"state": "MARYLAND",
		"artcc": "ZDC",
		"type": "NRS",
		"updated": "03/05/2005",
	},
	{
		"name": "KW60A",
		"latitude": "40-0-0 N",
		"longitude": "74-0-0 W",
		"state": "NEW JERSEY",
		"artcc": "ZDC",
		"type": "NRS",
		"updated": "03/05/2005",
	},
	{
		"name": "KYTHE",
		"latitude": "39-42-25.84 N",
		"longitude": "78-16-37.14 W",
		"state": "MARYLAND",
		"artcc": "ZDC",
		"type": "RNAV",
		"updated": "02/23/2017",
	},
