	{
		"name": "LABPI",
		"latitude": "39-7-6.76 N",
		"longitude": "76-31-6.85 W",
		"state": "MARYLAND",
		"artcc": "ZDC",
		"type": "RNAV",
		"updated": "11/07/2014",
	},
	{
		"name": "LABUR",
		"latitude": "37-24-58.23 N",
		"longitude": "77-23-16.03 W",
		"state": "VIRGINIA",
		"artcc": "ZDC",
		"type": "RP",
		"updated": "HPW*VORTAC*298.00",
	},
	{
		"name": "LABVE",
		"latitude": "34-52-56.27 N",
		"longitude": "76-54-16.94 W",
		"state": "NORTH CAROLINA",
		"artcc": "ZDC",
		"type": "MR",
		"updated": "NKT*TACAN*240.00/1.90",
	},
	{
		"name": "LADBE",
		"latitude": "39-53-58.33 N",
		"longitude": "74-19-43.73 W",
		"state": "NEW JERSEY",
		"artcc": "ZNY",
		"type": "MR",
		"updated": "GXU*VORTAC*130.00/14.00",
	},
	{
		"name": "LADKE",
		"latitude": "34-44-11.52 N",
		"longitude": "79-30-56.47 W",
		"state": "NORTH CAROLINA",
		"artcc": "ZDC",
		"type": "RNAV",
		"updated": "06/22/2010",
	},
	{
		"name": "LAFLN",
		"latitude": "38-47-27.4 N",
		"longitude": "75-30-47.72 W",
		"state": "DELAWARE",
		"artcc": "ZDC",
		"type": "RP",
		"updated": "ATR*VOR/DME*274.53/14.21",
	},
	{
		"name": "LALSE",
		"latitude": "36-36-7.75 N",
		"longitude": "76-48-22.19 W",
		"state": "VIRGINIA",
		"artcc": "ZDC",
		"type": "RNAV",
		"updated": "07/18/2011",
	},
	{
		"name": "LAMGE",
		"latitude": "35-10-3.2 N",
		"longitude": "75-52-5.08 W",
		"state": "NORTH CAROLINA",
		"artcc": "ZDC",
		"type": "RNAV",
		"updated": "02/13/2002",
	},
	{
		"name": "LANDI",
		"latitude": "39-51-34.08 N",
		"longitude": "75-18-6.32 W",
		"state": "PENNSYLVANIA",
		"artcc": "ZDC",
		"type": "RP",
		"updated": "OOD*VORTAC*010.25",
	},
	{
		"name": "LANDY",
		"latitude": "38-21-52.34 N",
		"longitude": "75-11-43.95 W",
		"state": "MARYLAND",
		"artcc": "ZDC",
		"type": "RNAV",
		"updated": "02/09/2018",
	},
	{
		"name": "LANHO",
		"latitude": "35-31-13.87 N",
		"longitude": "78-49-11.96 W",
		"state": "NORTH CAROLINA",
		"artcc": "ZDC",
		"type": "RP",
		"updated": "LIB*VORTAC*117.00",
	},
	{
		"name": "LANTA",
		"latitude": "36-22-34.22 N",
		"longitude": "79-24-32.52 W",
		"state": "NORTH CAROLINA",
		"artcc": "ZDC",
		"type": "RP",
		"updated": "RDU*VORTAC*323.96",
	},
	{
		"name": "LARBE",
		"latitude": "38-53-56.63 N",
		"longitude": "75-28-49.08 W",
		"state": "DELAWARE",
		"artcc": "ZDC",
		"type": "MW",
		"updated": "02/13/2008",
	},
	{
		"name": "LARME",
		"latitude": "35-45-43.77 N",
		"longitude": "76-46-37.4 W",
		"state": "NORTH CAROLINA",
		"artcc": "ZDC",
		"type": "RNAV",
		"updated": "06/20/2011",
	},
	{
		"name": "LARNC",
		"latitude": "37-22-16.89 N",
		"longitude": "78-59-48.88 W",
		"state": "VIRGINIA",
		"artcc": "ZDC",
		"type": "RNAV",
		"updated": "12/04/2006",
	},
	{
		"name": "LASIC",
		"latitude": "36-47-1.44 N",
		"longitude": "75-56-46.74 W",
		"state": "VIRGINIA",
		"artcc": "ZDC",
		"type": "MR",
		"updated": "NTU*TACAN*129.00/5.00",
	},
	{
		"name": "LASPE",
		"latitude": "35-46-8.74 N",
		"longitude": "78-5-49.13 W",
		"state": "NORTH CAROLINA",
		"artcc": "ZDC",
		"type": "RNAV",
		"updated": "02/12/2008",
	},
	{
		"name": "LATAS",
		"latitude": "38-35-56.83 N",
		"longitude": "76-57-57.31 W",
		"state": "MARYLAND",
		"artcc": "ZDC",
		"type": "RP",
		"updated": "OTT*VORTAC*248.46/12.21",
	},
	{
		"name": "LATKY",
		"latitude": "36-55-10 N",
		"longitude": "75-14-0 W",
		"state": "OFFSHORE ATLANTIC",
		"artcc": "ZDC",
		"type": "WP",
		"updated": "03/26/2002",
	},
	{
		"name": "LAUGH",
		"latitude": "39-9-44.26 N",
		"longitude": "77-28-17.95 W",
		"state": "MARYLAND",
		"artcc": "ZDC",
		"type": "RP",
		"updated": "ISU*LD*010.65/11.31",
	},
	{
		"name": "LAVTE",
		"latitude": "34-37-41.1 N",
		"longitude": "76-31-23.43 W",
		"state": "NORTH CAROLINA",
		"artcc": "ZDC",
		"type": "RNAV",
		"updated": "03/27/2012",
	},
	{
		"name": "LAWOP",
		"latitude": "37-45-37.34 N",
		"longitude": "80-40-0.63 W",
		"state": "WEST VIRGINIA",
		"artcc": "ZDC",
		"type": "RNAV",
		"updated": "07/21/2009",
	},
	{
		"name": "LAYIB",
		"latitude": "39-13-23.16 N",
		"longitude": "74-53-9.18 W",
		"state": "NEW JERSEY",
		"artcc": "ZDC",
		"type": "RNAV",
		"updated": "04/12/2006",
	},
	{
		"name": "LAYZE",
		"latitude": "34-41-44.62 N",
		"longitude": "78-5-37.21 W",
		"state": "NORTH CAROLINA",
		"artcc": "ZDC",
		"type": "RP",
		"updated": "FAY*VOR/DME*118.00",
	},
	{
		"name": "LBOLT",
		"latitude": "38-44-13.13 N",
		"longitude": "77-15-1.42 W",
		"state": "VIRGINIA",
		"artcc": "ZDC",
		"type": "RNAV",
		"updated": "05/04/2015",
	},
	{
		"name": "LEAKS",
		"latitude": "36-24-49.23 N",
		"longitude": "79-45-14.11 W",
		"state": "NORTH CAROLINA",
		"artcc": "ZDC",
		"type": "RP",
		"updated": "GSO*VORTAC*029.03/24.55",
	},
	{
		"name": "LEASA",
		"latitude": "36-5-21.08 N",
		"longitude": "78-22-52.22 W",
		"state": "NORTH CAROLINA",
		"artcc": "ZDC",
		"type": "RNAV",
		"updated": "11/19/2012",
	},
	{
		"name": "LEAVY",
		"latitude": "38-48-19.33 N",
		"longitude": "77-1-50.09 W",
		"state": "MARYLAND",
		"artcc": "ZDC",
		"type": "RNAV",
		"updated": "06/26/2015",
	},
	{
		"name": "LEBBI",
		"latitude": "40-6-41.84 N",
		"longitude": "75-2-40.84 W",
		"state": "PENNSYLVANIA",
		"artcc": "ZDC",
		"type": "RNAV",
		"updated": "01/26/2012",
	},
	{
		"name": "LEEAH",
		"latitude": "39-15-39.27 N",
		"longitude": "74-57-11.01 W",
		"state": "NEW JERSEY",
		"artcc": "ZDC",
		"type": "RP",
		"updated": "ATR*VOR/DME*032.98/29.61",
	},
	{
		"name": "LEESA",
		"latitude": "37-29-13.8 N",
		"longitude": "76-18-39.75 W",
		"state": "VIRGINIA",
		"artcc": "ZDC",
		"type": "RP",
		"updated": "SBY*VORTAC*228.72/63.93",
	},
	{
		"name": "LEGME",
		"latitude": "37-18-42.71 N",
		"longitude": "78-24-29.68 W",
		"state": "VIRGINIA",
		"artcc": "ZDC",
		"type": "RNAV",
		"updated": "07/20/2011",
	},
	{
		"name": "LEIDR",
		"latitude": "39-42-35.91 N",
		"longitude": "75-29-14.91 W",
		"state": "NEW JERSEY",
		"artcc": "ZDC",
		"type": "RP",
		"updated": "DQO*VORTAC*080.95/5.86",
	},
	{
		"name": "LEKVE",
		"latitude": "38-21-7.3 N",
		"longitude": "76-45-52.51 W",
		"state": "MARYLAND",
		"artcc": "ZDC",
		"type": "RNAV",
		"updated": "07/10/2017",
	},
	{
		"name": "LELLI",
		"latitude": "36-59-17.75 N",
		"longitude": "78-22-59.62 W",
		"state": "VIRGINIA",
		"artcc": "ZDC",
		"type": "RP",
		"updated": "SBV*VORTAC*063.13/35.73",
	},
	{
		"name": "LELYE",
		"latitude": "37-12-11.37 N",
		"longitude": "79-16-53.42 W",
		"state": "VIRGINIA",
		"artcc": "ZDC",
		"type": "RP",
		"updated": "LYH*VORTAC*/3.76",
	},
	{
		"name": "LEMMO",
		"latitude": "35-17-20.15 N",
		"longitude": "79-27-7.2 W",
		"state": "NORTH CAROLINA",
		"artcc": "ZDC",
		"type": "RP",
		"updated": "SDZ*VORTAC*060.00/8.00",
	},
	{
		"name": "LEMMS",
		"latitude": "36-17-2.01 N",
		"longitude": "76-8-44.9 W",
		"state": "NORTH CAROLINA",
		"artcc": "ZDC",
		"type": "RP",
		"updated": "ECG*VOR/DME*049.53/2.14",
	},
	{
		"name": "LENDL",
		"latitude": "34-37-36.38 N",
		"longitude": "77-26-12.09 W",
		"state": "NORTH CAROLINA",
		"artcc": "ZDC",
		"type": "MW",
		"updated": "12/16/2014",
	},
	{
		"name": "LEPEC",
		"latitude": "35-54-22.43 N",
		"longitude": "78-44-45.39 W",
		"state": "NORTH CAROLINA",
		"artcc": "ZDC",
		"type": "RP",
		"updated": "LEI*LD*054.15/3.68",
	},
	{
		"name": "LERSE",
		"latitude": "39-1-6.58 N",
		"longitude": "75-28-18.18 W",
		"state": "DELAWARE",
		"artcc": "ZDC",
		"type": "MR",
		"updated": "DOV*TACAN*193.69/6.83",
	},
	{
		"name": "LESSO",
		"latitude": "37-27-18.75 N",
		"longitude": "77-38-24.3 W",
		"state": "VIRGINIA",
		"artcc": "ZDC",
		"type": "RP",
		"updated": "FAK*VORTAC*122.00/10.00",
	},
	{
		"name": "LETZZ",
		"latitude": "38-54-42.36 N",
		"longitude": "77-27-2.4 W",
		"state": "VIRGINIA",
		"artcc": "ZDC",
		"type": "RNAV",
		"updated": "06/04/2012",
	},
	{
		"name": "LEVNN",
		"latitude": "36-51-16.98 N",
		"longitude": "75-59-40.49 W",
		"state": "VIRGINIA",
		"artcc": "ZDC",
		"type": "MW",
		"updated": "11/06/2014",
	},
	{
		"name": "LEWES",
		"latitude": "38-19-52.65 N",
		"longitude": "75-21-19.37 W",
		"state": "MARYLAND",
		"artcc": "ZDC",
		"type": "RP",
		"updated": "ATR*VOR/DME*202.34",
	},
	{
		"name": "LEXJA",
		"latitude": "36-46-13.35 N",
		"longitude": "76-25-14.86 W",
		"state": "VIRGINIA",
		"artcc": "ZDC",
		"type": "RNAV",
		"updated": "05/03/2018",
	},
	{
		"name": "LEZZY",
		"latitude": "35-52-4.2 N",
		"longitude": "78-38-52.5 W",
		"state": "NORTH CAROLINA",
		"artcc": "ZDC",
		"type": "RNAV",
		"updated": "11/19/2012",
	},
	{
		"name": "LIBLE",
		"latitude": "36-15-9.79 N",
		"longitude": "75-56-16.87 W",
		"state": "NORTH CAROLINA",
		"artcc": "ZDC",
		"type": "RNAV",
		"updated": "02/13/2003",
	},
	{
		"name": "LIBMY",
		"latitude": "38-9-36.22 N",
		"longitude": "78-48-29 W",
		"state": "VIRGINIA",
		"artcc": "ZDC",
		"type": "RNAV",
		"updated": "03/11/2011",
	},
	{
		"name": "LIBRT",
		"latitude": "37-33-36.6 N",
		"longitude": "78-48-26.77 W",
		"state": "VIRGINIA",
		"artcc": "ZDC",
		"type": "RNAV",
		"updated": "09/10/2012",
	},
	{
		"name": "LICIR",
		"latitude": "35-1-31.87 N",
		"longitude": "77-57-32.07 W",
		"state": "NORTH CAROLINA",
		"artcc": "ZDC",
		"type": "RNAV",
		"updated": "05/23/2011",
	},
	{
		"name": "LIKLY",
		"latitude": "38-17-23.96 N",
		"longitude": "77-35-52.75 W",
		"state": "VIRGINIA",
		"artcc": "ZDC",
		"type": "RP",
		"updated": "GVE*VORTAC*063.58/31.05",
	},
	{
		"name": "LILGE",
		"latitude": "35-53-27.2 N",
		"longitude": "77-50-33.4 W",
		"state": "NORTH CAROLINA",
		"artcc": "ZDC",
		"type": "RP",
		"updated": "TYI*VORTAC*237.79/8.50",
	},
	{
		"name": "LILLS",
		"latitude": "34-56-7.59 N",
		"longitude": "79-55-48.73 W",
		"state": "NORTH CAROLINA",
		"artcc": "ZDC",
		"type": "RP",
		"updated": "FAY*VOR/DME*271.00/52.12",
	},
	{
		"name": "LIMBH",
		"latitude": "38-58-29.93 N",
		"longitude": "76-51-50.72 W",
		"state": "MARYLAND",
		"artcc": "ZDC",
		"type": "MR",
		"updated": "AML*VOR/DME*092.90",
	},
	{
		"name": "LIMKE",
		"latitude": "35-35-24.72 N",
		"longitude": "79-3-52.96 W",
		"state": "NORTH CAROLINA",
		"artcc": "ZDC",
		"type": "RNAV",
		"updated": "04/25/2017",
	},
	{
		"name": "LINCN",
		"latitude": "38-55-19.11 N",
		"longitude": "77-15-39.79 W",
		"state": "VIRGINIA",
		"artcc": "ZDC",
		"type": "MW",
		"updated": "05/11/2015",
	},
	{
		"name": "LINSE",
		"latitude": "39-22-8.58 N",
		"longitude": "77-18-4.8 W",
		"state": "MARYLAND",
		"artcc": "ZDC",
		"type": "RNAV",
		"updated": "01/15/2015",
	},
	{
		"name": "LINTT",
		"latitude": "38-33-58.59 N",
		"longitude": "76-0-19.54 W",
		"state": "MARYLAND",
		"artcc": "ZDC",
		"type": "MR",
		"updated": "PXT*VORTAC*058.00/25.00",
	},
	{
		"name": "LIPIY",
		"latitude": "38-39-49.49 N",
		"longitude": "77-47-49.5 W",
		"state": "VIRGINIA",
		"artcc": "ZDC",
		"type": "RP",
		"updated": "HWY*LE*328.82/6.75",
	},
	{
		"name": "LIRKE",
		"latitude": "38-0-10 N",
		"longitude": "78-2-9.72 W",
		"state": "VIRGINIA",
		"artcc": "ZDC",
		"type": "RNAV",
		"updated": "09/23/2015",
	},
	{
		"name": "LISPE",
		"latitude": "37-29-37.06 N",
		"longitude": "77-3-15.04 W",
		"state": "VIRGINIA",
		"artcc": "ZDC",
		"type": "RP",
		"updated": "HPW*VORTAC*022.63/10.31",
	},
	{
		"name": "LITBY",
		"latitude": "35-4-15.39 N",
		"longitude": "77-55-5.57 W",
		"state": "NORTH CAROLINA",
		"artcc": "ZDC",
		"type": "RNAV",
		"updated": "05/23/2011",
	},
	{
		"name": "LITEY",
		"latitude": "39-21-31.86 N",
		"longitude": "77-25-47.63 W",
		"state": "MARYLAND",
		"artcc": "ZDC",
		"type": "RNAV",
		"updated": "07/25/2014",
	},
	{
		"name": "LITME",
		"latitude": "39-5-25.7 N",
		"longitude": "77-14-54.66 W",
		"state": "MARYLAND",
		"artcc": "ZDC",
		"type": "RNAV",
		"updated": "12/11/2015",
	},
	{
		"name": "LIVIA",
		"latitude": "35-17-18.47 N",
		"longitude": "79-7-27.99 W",
		"state": "NORTH CAROLINA",
		"artcc": "ZDC",
		"type": "MR",
		"updated": "RDU*VORTAC*210.00/38.80",
	},
	{
		"name": "LIVNE",
		"latitude": "40-4-19.63 N",
		"longitude": "74-17-35.5 W",
		"state": "NEW JERSEY",
		"artcc": "ZNY",
		"type": "MR",
		"updated": "NEL*NDB*061.00",
	},
	{
		"name": "LIYCO",
		"latitude": "38-59-33.18 N",
		"longitude": "76-33-26.88 W",
		"state": "MARYLAND",
		"artcc": "ZDC",
		"type": "RNAV",
		"updated": "11/29/2012",
	},
	{
		"name": "LJAAY",
		"latitude": "37-23-40.07 N",
		"longitude": "77-21-39.53 W",
		"state": "VIRGINIA",
		"artcc": "ZDC",
		"type": "RNAV",
		"updated": "06/19/2014",
	},
	{
		"name": "LKOUT",
		"latitude": "34-33-36.13 N",
		"longitude": "76-35-7.52 W",
		"state": "NORTH CAROLINA",
		"artcc": "ZDC",
		"type": "MR",
		"updated": "NKT*TACAN*154.00/25.00",
	},
	{
		"name": "LLBEE",
		"latitude": "38-35-7.25 N",
		"longitude": "78-25-35.44 W",
		"state": "VIRGINIA",
		"artcc": "ZDC",
		"type": "RNAV",
		"updated": "08/13/2015",
	},
	{
		"name": "LOJOL",
		"latitude": "37-26-22.24 N",
		"longitude": "77-15-42.75 W",
		"state": "VIRGINIA",
		"artcc": "ZDC",
		"type": "WP",
		"updated": "11/02/1998",
	},
	{
		"name": "LOOEY",
		"latitude": "36-35-4.56 N",
		"longitude": "79-1-9.41 W",
		"state": "VIRGINIA",
		"artcc": "ZDC",
		"type": "RNAV",
		"updated": "01/16/2014",
	},
	{
		"name": "LOOKS",
		"latitude": "39-52-32.71 N",
		"longitude": "75-11-49.66 W",
		"state": "NEW JERSEY",
		"artcc": "ZDC",
		"type": "RNAV",
		"updated": "06/01/2000",
	},
	{
		"name": "LOONI",
		"latitude": "38-54-47.2 N",
		"longitude": "77-43-29.57 W",
		"state": "VIRGINIA",
		"artcc": "ZDC",
		"type": "RP",
		"updated": "GDX*NDB*128.00",
	},
	{
		"name": "LORAA",
		"latitude": "37-23-49.82 N",
		"longitude": "77-58-42.98 W",
		"state": "VIRGINIA",
		"artcc": "ZDC",
		"type": "RNAV",
		"updated": "04/02/2015",
	},
	{
		"name": "LORRY",
		"latitude": "34-58-30.59 N",
		"longitude": "79-6-38.93 W",
		"state": "NORTH CAROLINA",
		"artcc": "ZDC",
		"type": "RP",
		"updated": "FAY*VOR/DME*271.00/11.64",
	},
	{
		"name": "LORSY",
		"latitude": "36-10-3.18 N",
		"longitude": "79-10-11.54 W",
		"state": "NORTH CAROLINA",
		"artcc": "ZDC",
		"type": "RNAV",
		"updated": "03/27/2009",
	},
	{
		"name": "LORTY",
		"latitude": "37-46-34.42 N",
		"longitude": "80-28-21.69 W",
		"state": "WEST VIRGINIA",
		"artcc": "ZDC",
		"type": "RNAV",
		"updated": "07/22/2009",
	},
	{
		"name": "LOSEC",
		"latitude": "37-17-42.22 N",
		"longitude": "79-2-3.24 W",
		"state": "VIRGINIA",
		"artcc": "ZDC",
		"type": "RP",
		"updated": "LYH*VORTAC*080.87/9.98",
	},
	{
		"name": "LOUEY",
		"latitude": "40-0-45.88 N",
		"longitude": "74-44-55.38 W",
		"state": "NEW JERSEY",
		"artcc": "ZDC",
		"type": "RP",
		"updated": "CYN*VORTAC*318.77",
	},
	{
		"name": "LOUIE",
		"latitude": "38-36-44.33 N",
		"longitude": "76-18-4.37 W",
		"state": "MARYLAND",
		"artcc": "ZDC",
		"type": "RP",
		"updated": "PXT*VORTAC*023.46/20.00",
	},
	{
		"name": "LOULU",
		"latitude": "38-53-43.23 N",
		"longitude": "77-42-39.79 W",
		"state": "VIRGINIA",
		"artcc": "ZDC",
		"type": "RNAV",
		"updated": "12/28/2012",
	},
	{
		"name": "LOWEN",
		"latitude": "35-59-24.43 N",
		"longitude": "78-39-31.51 W",
		"state": "NORTH CAROLINA",
		"artcc": "ZDC",
		"type": "RP",
		"updated": "DAN*VOR*142.32",
	},
	{
		"name": "LOYDS",
		"latitude": "38-42-47.31 N",
		"longitude": "77-24-42.55 W",
		"state": "VIRGINIA",
		"artcc": "ZDC",
		"type": "WP",
		"updated": "AML*VOR/DME*177.01/13.52",
	},
	{
		"name": "LRGNT",
		"latitude": "38-32-58.98 N",
		"longitude": "77-40-11.67 W",
		"state": "VIRGINIA",
		"artcc": "ZDC",
		"type": "RNAV",
		"updated": "02/13/2012",
	},
	{
		"name": "LUCAR",
		"latitude": "37-25-58 N",
		"longitude": "77-13-47.87 W",
		"state": "VIRGINIA",
		"artcc": "ZDC",
		"type": "RP",
		"updated": "RIC*VORTAC*143.00/6.00",
	},
	{
		"name": "LUCKE",
		"latitude": "39-13-28.76 N",
		"longitude": "77-35-52.09 W",
		"state": "VIRGINIA",
		"artcc": "ZDC",
		"type": "RP",
		"updated": "HGR*VOR*164.01",
	},
	{
		"name": "LUCLI",
		"latitude": "37-31-22.41 N",
		"longitude": "79-18-51.24 W",
		"state": "VIRGINIA",
		"artcc": "ZDC",
		"type": "RP",
		"updated": "LYH*VORTAC*352.00/16.50",
	},
	{
		"name": "LUCYL",
		"latitude": "38-5-23.9 N",
		"longitude": "76-40-39.08 W",
		"state": "VIRGINIA",
		"artcc": "ZDC",
		"type": "RNAV",
		"updated": "12/23/2013",
	},
	{
		"name": "LUDEY",
		"latitude": "35-32-27.14 N",
		"longitude": "77-41-21.72 W",
		"state": "NORTH CAROLINA",
		"artcc": "ZDC",
		"type": "RNAV",
		"updated": "07/11/2011",
	},
	{
		"name": "LUFSY",
		"latitude": "36-58-7.38 N",
		"longitude": "76-7-41.56 W",
		"state": "VIRGINIA",
		"artcc": "ZDC",
		"type": "RP",
		"updated": "JZQ*LD*046.80/4.64",
	},
	{
		"name": "LUKCI",
		"latitude": "37-44-17.23 N",
		"longitude": "77-27-29.35 W",
		"state": "VIRGINIA",
		"artcc": "ZDC",
		"type": "RP",
		"updated": "OFP*LE*N CRS/2.60",
	},
	{
		"name": "LUMBI",
		"latitude": "35-56-27.05 N",
		"longitude": "76-5-38.27 W",
		"state": "NORTH CAROLINA",
		"artcc": "ZDC",
		"type": "MR",
		"updated": "NTU*TACAN*193.00/53.00",
	},
	{
		"name": "LURAY",
		"latitude": "38-35-54.94 N",
		"longitude": "78-34-0.23 W",
		"state": "VIRGINIA",
		"artcc": "ZDC",
		"type": "RP",
		"updated": "MOL*VOR/DME*036.22/49.01",
	},
	{
		"name": "LURKY",
		"latitude": "34-7-39.78 N",
		"longitude": "78-5-29.5 W",
		"state": "NORTH CAROLINA",
		"artcc": "ZDC",
		"type": "RP",
		"updated": "GNM*LD*238.35/13.68",
	},
	{
		"name": "LURRL",
		"latitude": "39-4-30.98 N",
		"longitude": "76-49-39.01 W",
		"state": "MARYLAND",
		"artcc": "ZDC",
		"type": "RNAV",
		"updated": "01/31/2008",
	},
	{
		"name": "LUSIE",
		"latitude": "38-40-43.79 N",
		"longitude": "77-27-48.77 W",
		"state": "VIRGINIA",
		"artcc": "ZDC",
		"type": "RP",
		"updated": "CSN*VORTAC*089.06",
	},
	{
		"name": "LUYIS",
		"latitude": "38-1-21.82 N",
		"longitude": "77-50-54.6 W",
		"state": "VIRGINIA",
		"artcc": "ZDC",
		"type": "RP",
		"updated": "GVE*VORTAC*/14.45",
	},
	{
		"name": "LUYNI",
		"latitude": "34-57-2.08 N",
		"longitude": "77-7-51.93 W",
		"state": "NORTH CAROLINA",
		"artcc": "ZDC",
		"type": "RNAV",
		"updated": "10/12/2006",
	},
	{
		"name": "LWOOD",
		"latitude": "36-10-50.35 N",
		"longitude": "79-22-53.6 W",
		"state": "NORTH CAROLINA",
		"artcc": "ZDC",
		"type": "RNAV",
		"updated": "11/07/2012",
	},
