[
	{
		"name": "MAAAY",
		"latitude": "38-53-25.79 N",
		"longitude": "78-3-42.91 W",
		"state": "VIRGINIA",
		"artcc": "ZDC",
		"type": "RNAV",
		"updated": "06/01/2012"
	},
	{
		"name": "MAAGS",
		"latitude": "38-19-36.16 N",
		"longitude": "77-22-12.91 W",
		"state": "VIRGINIA",
		"artcc": "ZDC",
		"type": "MR",
		"updated": "BRV*VORTAC*244.12/1.00"
	},
	{
		"name": "MAAXY",
		"latitude": "38-13-19.9 N",
		"longitude": "76-42-12.57 W",
		"state": "MARYLAND",
		"artcc": "ZDC",
		"type": "RNAV",
		"updated": "12/16/2014"
	},
	{
		"name": "MABEE",
		"latitude": "38-36-23.42 N",
		"longitude": "77-45-41.04 W",
		"state": "VIRGINIA",
		"artcc": "ZDC",
		"type": "RP",
		"updated": "CSN*VORTAC*119.00/5.32"
	},
	{
		"name": "MABEW",
		"latitude": "39-46-30.18 N",
		"longitude": "74-57-4.27 W",
		"state": "NEW JERSEY",
		"artcc": "ZDC",
		"type": "CN",
		"updated": "12/04/2014"
	},
	{
		"name": "MABNN",
		"latitude": "38-40-15.1 N",
		"longitude": "78-29-50.31 W",
		"state": "VIRGINIA",
		"artcc": "ZDC",
		"type": "CN",
		"updated": "08/21/2002"
	},
	{
		"name": "MABPV",
		"latitude": "40-16-32.09 N",
		"longitude": "74-49-23.38 W",
		"state": "NEW JERSEY",
		"artcc": "ZDC",
		"type": "CN",
		"updated": "08/21/2002"
	},
	{
		"name": "MABVN",
		"latitude": "37-56-47.54 N",
		"longitude": "75-28-4.62 W",
		"state": "VIRGINIA",
		"artcc": "ZDC",
		"type": "CN",
		"updated": "09/12/2002"
	},
	{
		"name": "MACBE",
		"latitude": "36-38-35.07 N",
		"longitude": "78-3-7.62 W",
		"state": "VIRGINIA",
		"artcc": "ZDC",
		"type": "RP",
		"updated": "AVC*LE*006.60/3.17"
	},
	{
		"name": "MACDU",
		"latitude": "39-21-27.14 N",
		"longitude": "74-27-33.57 W",
		"state": "NEW JERSEY",
		"artcc": "ZDC",
		"type": "CN",
		"updated": "12/04/2014"
	},
	{
		"name": "MACJO",
		"latitude": "36-56-14.86 N",
		"longitude": "76-15-39.47 W",
		"state": "VIRGINIA",
		"artcc": "ZDC",
		"type": "MR",
		"updated": "NGU*TACAN*111.16/0.80"
	},
	{
		"name": "MACPA",
		"latitude": "40-11-17.63 N",
		"longitude": "74-39-1.17 W",
		"state": "NEW JERSEY",
		"artcc": "ZDC",
		"type": "MR",
		"updated": "GXU*VORTAC*359.00/11.00"
	},
	{
		"name": "MACPO",
		"latitude": "36-42-30.77 N",
		"longitude": "78-51-8.9 W",
		"state": "VIRGINIA",
		"artcc": "ZDC",
		"type": "RP",
		"updated": "SBV*VORTAC*080.55/8.07"
	},
	{
		"name": "MACYG",
		"latitude": "39-22-13.85 N",
		"longitude": "75-4-13.93 W",
		"state": "NEW JERSEY",
		"artcc": "ZDC",
		"type": "RP",
		"updated": "VCN*VOR/DME*215.65/11.11"
	},
	{
		"name": "MADAC",
		"latitude": "35-7-54.58 N",
		"longitude": "77-11-48.64 W",
		"state": "NORTH CAROLINA",
		"artcc": "ZDC",
		"type": "MR",
		"updated": "NKT*TACAN*320.00/21.00"
	},
	{
		"name": "MADAM",
		"latitude": "36-48-42.49 N",
		"longitude": "79-7-59.06 W",
		"state": "VIRGINIA",
		"artcc": "ZDC",
		"type": "WP",
		"updated": "SBV*VORTAC*330.00/10.00"
	},
	{
		"name": "MADCO",
		"latitude": "38-18-37.49 N",
		"longitude": "75-7-24.04 W",
		"state": "MARYLAND",
		"artcc": "ZDC",
		"type": "CN",
		"updated": "12/04/2014"
	},
	{
		"name": "MADCS",
		"latitude": "39-8-36.76 N",
		"longitude": "78-8-39.81 W",
		"state": "VIRGINIA",
		"artcc": "ZDC",
		"type": "RP",
		"updated": "MRB*VORTAC*230.65/20.02"
	},
	{
		"name": "MADGN",
		"latitude": "39-31-26.9 N",
		"longitude": "75-2-33.71 W",
		"state": "NEW JERSEY",
		"artcc": "ZDC",
		"type": "CN",
		"updated": "07/17/2002"
	},
	{
		"name": "MADGP",
		"latitude": "38-31-52.27 N",
		"longitude": "77-51-38.27 W",
		"state": "VIRGINIA",
		"artcc": "ZDC",
		"type": "CN",
		"updated": "08/21/2002"
	},
	{
		"name": "MADLS",
		"latitude": "38-14-39.16 N",
		"longitude": "78-2-47.67 W",
		"state": "VIRGINIA",
		"artcc": "ZDC",
		"type": "RP",
		"updated": "GVE*VORTAC*026.00/14.71"
	},
	{
		"name": "MADNN",
		"latitude": "37-30-21.15 N",
		"longitude": "77-18-38.83 W",
		"state": "VIRGINIA",
		"artcc": "ZDC",
		"type": "CN",
		"updated": "08/21/2002"
	},
	{
		"name": "MAFYI",
		"latitude": "40-11-31.25 N",
		"longitude": "74-53-55.71 W",
		"state": "PENNSYLVANIA",
		"artcc": "ZDC",
		"type": "CN",
		"updated": "12/04/2014"
	},
	{
		"name": "MAFYO",
		"latitude": "38-31-53 N",
		"longitude": "77-51-33.99 W",
		"state": "VIRGINIA",
		"artcc": "ZDC",
		"type": "CN",
		"updated": "12/04/2014"
	},
	{
		"name": "MAFZE",
		"latitude": "37-14-28.77 N",
		"longitude": "76-42-57.82 W",
		"state": "VIRGINIA",
		"artcc": "ZDC",
		"type": "RP",
		"updated": "HCM*VORTAC*188.04/12.43"
	},
	{
		"name": "MAGGO",
		"latitude": "37-58-58.48 N",
		"longitude": "75-44-1.39 W",
		"state": "MARYLAND",
		"artcc": "ZDC",
		"type": "RP",
		"updated": "SBY*VORTAC*218.01/24.13"
	},
	{
		"name": "MAGXO",
		"latitude": "35-51-58.08 N",
		"longitude": "77-53-2.07 W",
		"state": "NORTH CAROLINA",
		"artcc": "ZDC",
		"type": "CN",
		"updated": "11/28/2000"
	},
	{
		"name": "MAHJU",
		"latitude": "35-13-35.34 N",
		"longitude": "78-1-57.73 W",
		"state": "NORTH CAROLINA",
		"artcc": "ZDC",
		"type": "RP",
		"updated": "ISO*VORTAC*254.76/24.85"
	},
	{
		"name": "MAHOR",
		"latitude": "36-17-56.49 N",
		"longitude": "77-10-9.62 W",
		"state": "NORTH CAROLINA",
		"artcc": "ZDC",
		"type": "RP",
		"updated": "CVI*VORTAC*262.00/15.10"
	},
	{
		"name": "MAHWO",
		"latitude": "36-15-33.12 N",
		"longitude": "76-9-33.34 W",
		"state": "NORTH CAROLINA",
		"artcc": "ZDC",
		"type": "RP",
		"updated": "ECG*VOR/DME*090.00/0.80"
	},
	{
		"name": "MAHYA",
		"latitude": "35-1-16.88 N",
		"longitude": "79-11-17.75 W",
		"state": "NORTH CAROLINA",
		"artcc": "ZDC",
		"type": "RP",
		"updated": "FAY*VOR/DME*282.00/15.59"
	},
	{
		"name": "MAIME",
		"latitude": "39-17-36.96 N",
		"longitude": "76-46-47.35 W",
		"state": "MARYLAND",
		"artcc": "ZDC",
		"type": "RNAV",
		"updated": "07/13/2017"
	},
	{
		"name": "MAJAF",
		"latitude": "40-12-47.94 N",
		"longitude": "74-35-38.62 W",
		"state": "NEW JERSEY",
		"artcc": "ZDC",
		"type": "CN",
		"updated": "12/04/2014"
	},
	{
		"name": "MAJAH",
		"latitude": "35-27-35.08 N",
		"longitude": "77-57-40.81 W",
		"state": "NORTH CAROLINA",
		"artcc": "ZDC",
		"type": "RP",
		"updated": "ISO*VORTAC*290.18/20.47"
	},
	{
		"name": "MAJDO",
		"latitude": "39-54-13.78 N",
		"longitude": "74-44-52.53 W",
		"state": "NEW JERSEY",
		"artcc": "ZNY",
		"type": "RP",
		"updated": "CYN*VORTAC*299.64/15.51"
	},
	{
		"name": "MAJFE",
		"latitude": "39-27-3 N",
		"longitude": "74-33-37.37 W",
		"state": "NEW JERSEY",
		"artcc": "ZDC",
		"type": "CN",
		"updated": "12/04/2014"
	},
	{
		"name": "MAJOV",
		"latitude": "37-31-4.8 N",
		"longitude": "76-45-56.78 W",
		"state": "VIRGINIA",
		"artcc": "ZDC",
		"type": "CN",
		"updated": "12/04/2014"
	},
	{
		"name": "MAKNR",
		"latitude": "35-50-56.81 N",
		"longitude": "77-54-1.34 W",
		"state": "NORTH CAROLINA",
		"artcc": "ZDC",
		"type": "CN",
		"updated": "09/12/2002"
	},
	{
		"name": "MAKPL",
		"latitude": "35-42-19.68 N",
		"longitude": "79-30-25.22 W",
		"state": "NORTH CAROLINA",
		"artcc": "ZDC",
		"type": "RP",
		"updated": "LIB*VORTAC*143.94/8.19"
	},
	{
		"name": "MALEC",
		"latitude": "37-10-59.47 N",
		"longitude": "76-3-19.72 W",
		"state": "VIRGINIA",
		"artcc": "ZDC",
		"type": "MW",
		"updated": "10/31/1997"
	},
	{
		"name": "MALGR",
		"latitude": "39-59-11.13 N",
		"longitude": "75-34-54.73 W",
		"state": "PENNSYLVANIA",
		"artcc": "ZDC",
		"type": "CN",
		"updated": "08/21/2002"
	},
	{
		"name": "MALNR",
		"latitude": "35-26-50.47 N",
		"longitude": "79-25-34.54 W",
		"state": "NORTH CAROLINA",
		"artcc": "ZDC",
		"type": "RNAV",
		"updated": "11/10/2016"
	},
	{
		"name": "MANAE",
		"latitude": "34-47-36.74 N",
		"longitude": "79-27-5.81 W",
		"state": "NORTH CAROLINA",
		"artcc": "ZDC",
		"type": "RNAV",
		"updated": "12/05/2003"
	},
	{
		"name": "MANCU",
		"latitude": "36-53-45.03 N",
		"longitude": "78-59-11.19 W",
		"state": "VIRGINIA",
		"artcc": "ZDC",
		"type": "RNAV",
		"updated": "07/20/2009"
	},
	{
		"name": "MANDL",
		"latitude": "39-51-9.62 N",
		"longitude": "75-13-58.57 W",
		"state": "PENNSYLVANIA",
		"artcc": "ZDC",
		"type": "RP",
		"updated": "OOD*VORTAC*024.00/13.39"
	},
	{
		"name": "MANDM",
		"latitude": "37-24-4.8 N",
		"longitude": "77-16-11.84 W",
		"state": "VIRGINIA",
		"artcc": "ZDC",
		"type": "RNAV",
		"updated": "06/11/2014"
	},
	{
		"name": "MANGE",
		"latitude": "37-1-27.74 N",
		"longitude": "77-43-43.08 W",
		"state": "VIRGINIA",
		"artcc": "ZDC",
		"type": "RP",
		"updated": "FAK*VORTAC*177.00/30.58"
	},
	{
		"name": "MANNE",
		"latitude": "39-0-14.4 N",
		"longitude": "77-41-13.17 W",
		"state": "VIRGINIA",
		"artcc": "ZDC",
		"type": "RP",
		"updated": "CSN*VORTAC*027.00"
	},
	{
		"name": "MANTI",
		"latitude": "35-49-11.21 N",
		"longitude": "75-43-46.79 W",
		"state": "NORTH CAROLINA",
		"artcc": "ZDC",
		"type": "MR",
		"updated": "NTU*TACAN*176.00/62.00"
	},
	{
		"name": "MANWE",
		"latitude": "35-14-14.66 N",
		"longitude": "78-1-17.6 W",
		"state": "NORTH CAROLINA",
		"artcc": "ZDC",
		"type": "RP",
		"updated": "ISO*VORTAC*255.76/24.11"
	},
	{
		"name": "MAPEL",
		"latitude": "39-30-24.59 N",
		"longitude": "77-35-48.34 W",
		"state": "MARYLAND",
		"artcc": "ZDC",
		"type": "RP",
		"updated": "HGR*VOR*140.54"
	},
	{
		"name": "MAPPI",
		"latitude": "35-58-14.6 N",
		"longitude": "78-40-58.25 W",
		"state": "NORTH CAROLINA",
		"artcc": "ZDC",
		"type": "RNAV",
		"updated": "07/20/2009"
	},
	{
		"name": "MARGI",
		"latitude": "38-59-13.47 N",
		"longitude": "79-50-40.15 W",
		"state": "WEST VIRGINIA",
		"artcc": "ZDC",
		"type": "RP",
		"updated": "EKN*VORTAC*076.86"
	},
	{
		"name": "MARLE",
		"latitude": "36-1-16.67 N",
		"longitude": "76-13-44.88 W",
		"state": "NORTH CAROLINA",
		"artcc": "ZDC",
		"type": "MR",
		"updated": "NTU*TACAN*201.00/49.00"
	},
	{
		"name": "MARSH",
		"latitude": "38-51-35 N",
		"longitude": "77-32-36.46 W",
		"state": "VIRGINIA",
		"artcc": "ZDC",
		"type": "WP",
		"updated": "CSN*VORTAC*055.00/20.00"
	},
	{
		"name": "MARVL",
		"latitude": "34-49-4.19 N",
		"longitude": "77-20-59.08 W",
		"state": "NORTH CAROLINA",
		"artcc": "ZDC",
		"type": "MR",
		"updated": "NCA*TACAN*042.00/8.00"
	},
	{
		"name": "MASEE",
		"latitude": "39-29-19.88 N",
		"longitude": "74-49-27.98 W",
		"state": "NEW JERSEY",
		"artcc": "ZDC",
		"type": "RNAV",
		"updated": "08/02/2010"
	},
	{
		"name": "MASSN",
		"latitude": "38-52-36 N",
		"longitude": "77-2-30 W",
		"state": "DIST. OF COLUMBIA",
		"artcc": "ZDC",
		"type": "RNAV",
		"updated": "05/02/2010"
	},
	{
		"name": "MASSY",
		"latitude": "37-22-9.7 N",
		"longitude": "79-54-5.97 W",
		"state": "VIRGINIA",
		"artcc": "ZDC",
		"type": "RNAV",
		"updated": "10/13/2015"
	},
	{
		"name": "MATOX",
		"latitude": "37-16-40.74 N",
		"longitude": "77-30-46.05 W",
		"state": "VIRGINIA",
		"artcc": "ZDC",
		"type": "RP",
		"updated": "HPW*VORTAC*267.00"
	},
	{
		"name": "MATTC",
		"latitude": "39-14-22.75 N",
		"longitude": "77-34-31.88 W",
		"state": "VIRGINIA",
		"artcc": "ZDC",
		"type": "RNAV",
		"updated": "10/25/2007"
	},
	{
		"name": "MAUCK",
		"latitude": "39-7-47.64 N",
		"longitude": "74-47-48.91 W",
		"state": "NEW JERSEY",
		"artcc": "ZDC",
		"type": "RNAV",
		"updated": "07/08/2009"
	},
	{
		"name": "MAUDY",
		"latitude": "38-59-0.7 N",
		"longitude": "77-10-47.28 W",
		"state": "MARYLAND",
		"artcc": "ZDC",
		"type": "RP",
		"updated": "BAL*VORTAC*256.27"
	},
	{
		"name": "MAULS",
		"latitude": "37-52-49.36 N",
		"longitude": "79-19-49.19 W",
		"state": "VIRGINIA",
		"artcc": "ZDC",
		"type": "RNAV",
		"updated": "05/04/2015"
	},
	{
		"name": "MAXIF",
		"latitude": "35-39-30.17 N",
		"longitude": "77-1-44.24 W",
		"state": "NORTH CAROLINA",
		"artcc": "ZDC",
		"type": "RNAV",
		"updated": "06/20/2011"
	},
	{
		"name": "MAXTN",
		"latitude": "34-43-58.55 N",
		"longitude": "79-26-36.53 W",
		"state": "NORTH CAROLINA",
		"artcc": "ZDC",
		"type": "RP",
		"updated": "MEB*LS*233.80"
	},
	{
		"name": "MAYBN",
		"latitude": "39-29-59.43 N",
		"longitude": "74-40-39.02 W",
		"state": "NEW JERSEY",
		"artcc": "ZDC",
		"type": "RP",
		"updated": "CYN*VORTAC*220.99"
	},
	{
		"name": "MAYKR",
		"latitude": "36-27-56.72 N",
		"longitude": "77-50-34.35 W",
		"state": "NORTH CAROLINA",
		"artcc": "ZDC",
		"type": "RNAV",
		"updated": "12/01/2015"
	},
	{
		"name": "MAYOR",
		"latitude": "40-7-57.52 N",
		"longitude": "74-35-18.83 W",
		"state": "NEW JERSEY",
		"artcc": "ZDC",
		"type": "RP",
		"updated": "CYN*VORTAC*349.10"
	},
	{
		"name": "MAYOS",
		"latitude": "36-19-35.65 N",
		"longitude": "79-59-47.29 W",
		"state": "NORTH CAROLINA",
		"artcc": "ZDC",
		"type": "RP",
		"updated": "LIB*VORTAC*331.93/36.06"
	},
	{
		"name": "MAZKO",
		"latitude": "38-15-43.19 N",
		"longitude": "77-56-25.03 W",
		"state": "VIRGINIA",
		"artcc": "ZDC",
		"type": "RP",
		"updated": "GVE*VORTAC*040.01/17.97"
	},
	{
		"name": "MAZON",
		"latitude": "36-45-23.24 N",
		"longitude": "77-22-2.91 W",
		"state": "VIRGINIA",
		"artcc": "ZDC",
		"type": "RP",
		"updated": "HPW*VORTAC*205.48/36.37"
	},
	{
		"name": "MCNAB",
		"latitude": "38-33-6.13 N",
		"longitude": "76-50-27.69 W",
		"state": "MARYLAND",
		"artcc": "ZDC",
		"type": "RNAV",
		"updated": "03/11/2015"
	},
	{
		"name": "MCQUE",
		"latitude": "39-25-29.3 N",
		"longitude": "77-30-14.07 W",
		"state": "MARYLAND",
		"artcc": "ZDC",
		"type": "RNAV",
		"updated": "06/30/2015"
	},
	{
		"name": "MCRAY",
		"latitude": "39-32-17.69 N",
		"longitude": "77-51-38.07 W",
		"state": "WEST VIRGINIA",
		"artcc": "ZDC",
		"type": "RP",
		"updated": "BAL*VORTAC*302.90/60.00"
	},
	{
		"name": "MEADY",
		"latitude": "39-23-3.15 N",
		"longitude": "74-38-54.4 W",
		"state": "NEW JERSEY",
		"artcc": "ZDC",
		"type": "RP",
		"updated": "VCN*VOR/DME*131.75"
	},
	{
		"name": "MEATY",
		"latitude": "36-22-5.1 N",
		"longitude": "79-52-10.38 W",
		"state": "NORTH CAROLINA",
		"artcc": "ZDC",
		"type": "RP",
		"updated": "GSO*VORTAC*018.00/20.00"
	},
	{
		"name": "MECHS",
		"latitude": "37-40-37.4 N",
		"longitude": "77-23-30.11 W",
		"state": "VIRGINIA",
		"artcc": "ZDC",
		"type": "RP",
		"updated": "RIC*VORTAC*351.00/11.01"
	},
	{
		"name": "MECUS",
		"latitude": "39-41-39.23 N",
		"longitude": "78-1-42.7 W",
		"state": "MARYLAND",
		"artcc": "ZDC",
		"type": "RP",
		"updated": "THS*VORTAC*201.08"
	},
	{
		"name": "MEDPE",
		"latitude": "40-4-7.45 N",
		"longitude": "74-17-3.45 W",
		"state": "NEW JERSEY",
		"artcc": "ZNY",
		"type": "MR",
		"updated": "NEL*TACAN*070.00/3.70"
	},
	{
		"name": "MEEGO",
		"latitude": "38-9-30.81 N",
		"longitude": "77-32-6.56 W",
		"state": "VIRGINIA",
		"artcc": "ZDC",
		"type": "RNAV",
		"updated": "12/16/2014"
	},
	{
		"name": "MEFIH",
		"latitude": "37-1-46.29 N",
		"longitude": "79-12-11.41 W",
		"state": "VIRGINIA",
		"artcc": "ZDC",
		"type": "RNAV",
		"updated": "12/29/2014"
	},
	{
		"name": "MEGGS",
		"latitude": "39-2-7.88 N",
		"longitude": "77-5-55.86 W",
		"state": "MARYLAND",
		"artcc": "ZDC",
		"type": "RNAV",
		"updated": "01/08/2015"
	},
	{
		"name": "MEHGI",
		"latitude": "39-9-50.8 N",
		"longitude": "77-35-41.98 W",
		"state": "VIRGINIA",
		"artcc": "ZDC",
		"type": "WP",
		"updated": "11/02/1998"
	},
	{
		"name": "MEHHO",
		"latitude": "37-12-28.72 N",
		"longitude": "78-56-44.08 W",
		"state": "VIRGINIA",
		"artcc": "ZDC",
		"type": "RNAV",
		"updated": "01/13/2015"
	},
	{
		"name": "MELFA",
		"latitude": "37-34-20.55 N",
		"longitude": "75-48-2.67 W",
		"state": "VIRGINIA",
		"artcc": "ZDC",
		"type": "RP",
		"updated": "MFV*LE*213.98/5.44"
	},
	{
		"name": "MELIA",
		"latitude": "37-16-56.34 N",
		"longitude": "77-46-45.89 W",
		"state": "VIRGINIA",
		"artcc": "ZDC",
		"type": "RP",
		"updated": "FAK*VORTAC*177.00/14.94"
	},
	{
		"name": "MELOE",
		"latitude": "38-59-37.28 N",
		"longitude": "77-19-8.69 W",
		"state": "VIRGINIA",
		"artcc": "ZDC",
		"type": "RNAV",
		"updated": "02/05/2016"
	},
	{
		"name": "MELTN",
		"latitude": "37-12-9.22 N",
		"longitude": "78-34-44.33 W",
		"state": "VIRGINIA",
		"artcc": "ZDC",
		"type": "RNAV",
		"updated": "04/04/2016"
	},
	{
		"name": "MENGE",
		"latitude": "40-0-24.99 N",
		"longitude": "74-57-50.81 W",
		"state": "NEW JERSEY",
		"artcc": "ZDC",
		"type": "RP",
		"updated": "ARD*VOR/DME*200.00/15.00"
	},
	{
		"name": "MEPEW",
		"latitude": "39-20-3.24 N",
		"longitude": "78-13-25.35 W",
		"state": "VIRGINIA",
		"artcc": "ZDC",
		"type": "RP",
		"updated": "MRB*VORTAC*267.13/17.74"
	},
	{
		"name": "MEPRE",
		"latitude": "35-32-45.07 N",
		"longitude": "78-22-22.22 W",
		"state": "NORTH CAROLINA",
		"artcc": "ZDC",
		"type": "RNAV",
		"updated": "12/05/2003"
	},
	{
		"name": "MERFE",
		"latitude": "36-56-3.03 N",
		"longitude": "76-14-2.81 W",
		"state": "VIRGINIA",
		"artcc": "ZDC",
		"type": "RNAV",
		"updated": "12/04/2017"
	},
	{
		"name": "MERIL",
		"latitude": "35-36-47.67 N",
		"longitude": "79-26-1.91 W",
		"state": "NORTH CAROLINA",
		"artcc": "ZDC",
		"type": "RP",
		"updated": "LIB*VORTAC*146.64"
	},
	{
		"name": "MERPE",
		"latitude": "35-26-10.19 N",
		"longitude": "76-51-33.97 W",
		"state": "NORTH CAROLINA",
		"artcc": "ZDC",
		"type": "RNAV",
		"updated": "12/01/2008"
	},
	{
		"name": "MESLE",
		"latitude": "36-56-14.82 N",
		"longitude": "76-12-37.09 W",
		"state": "VIRGINIA",
		"artcc": "ZDC",
		"type": "MW",
		"updated": "11/10/2016"
	},
	{
		"name": "MEVDE",
		"latitude": "36-44-4.12 N",
		"longitude": "78-59-12.29 W",
		"state": "VIRGINIA",
		"artcc": "ZDC",
		"type": "RNAV",
		"updated": "10/06/2015"
	},
	{
		"name": "MEVGE",
		"latitude": "34-57-34.82 N",
		"longitude": "76-46-30.46 W",
		"state": "NORTH CAROLINA",
		"artcc": "ZDC",
		"type": "MR",
		"updated": "NKT*TACAN*064.00/6.00"
	},
	{
		"name": "MEYER",
		"latitude": "36-12-49.33 N",
		"longitude": "78-4-36.13 W",
		"state": "NORTH CAROLINA",
		"artcc": "ZDC",
		"type": "RP",
		"updated": "TYI*VORTAC*313.17"
	},
	{
		"name": "MEYRA",
		"latitude": "36-54-44 N",
		"longitude": "75-22-10 W",
		"state": "OFFSHORE ATLANTIC",
		"artcc": "ZDC",
		"type": "RNAV",
		"updated": "04/10/2018"
	},
	{
		"name": "MEZLO",
		"latitude": "33-39-39 N",
		"longitude": "77-39-23 W",
		"state": "OFFSHORE ATLANTIC",
		"artcc": "ZDC",
		"type": "WP",
		"updated": "03/26/2002"
	},
	{
		"name": "MIDRE",
		"latitude": "36-58-56.59 N",
		"longitude": "76-46-58.85 W",
		"state": "VIRGINIA",
		"artcc": "ZDC",
		"type": "RP",
		"updated": "HPW*VORTAC*148.34"
	},
	{
		"name": "MIDVE",
		"latitude": "36-11-37.07 N",
		"longitude": "77-57-59.25 W",
		"state": "NORTH CAROLINA",
		"artcc": "ZDC",
		"type": "RNAV",
		"updated": "06/27/2012"
	},
	{
		"name": "MIIDY",
		"latitude": "38-52-9.4 N",
		"longitude": "76-17-48.46 W",
		"state": "MARYLAND",
		"artcc": "ZDC",
		"type": "RNAV",
		"updated": "12/29/2014"
	},
	{
		"name": "MIKEJ",
		"latitude": "38-37-57.45 N",
		"longitude": "77-35-0.92 W",
		"state": "VIRGINIA",
		"artcc": "ZDC",
		"type": "RNAV",
		"updated": "10/25/2007"
	},
	{
		"name": "MILBE",
		"latitude": "38-54-22.7 N",
		"longitude": "76-53-3.82 W",
		"state": "MARYLAND",
		"artcc": "ZDC",
		"type": "MR",
		"updated": "ADW*VORTAC*001.86/6.00"
	},
	{
		"name": "MILEE",
		"latitude": "39-24-31.45 N",
		"longitude": "74-47-48.01 W",
		"state": "NEW JERSEY",
		"artcc": "ZDC",
		"type": "RNAV",
		"updated": "07/08/2009"
	},
	{
		"name": "MILHI",
		"latitude": "38-8-42.45 N",
		"longitude": "77-26-25.33 W",
		"state": "VIRGINIA",
		"artcc": "ZDC",
		"type": "RNAV",
		"updated": "09/27/2011"
	},
	{
		"name": "MILRE",
		"latitude": "39-5-55.76 N",
		"longitude": "76-36-16.85 W",
		"state": "MARYLAND",
		"artcc": "ZDC",
		"type": "RNAV",
		"updated": "11/07/2014"
	},
	{
		"name": "MILUE",
		"latitude": "37-4-17.52 N",
		"longitude": "76-58-9.05 W",
		"state": "VIRGINIA",
		"artcc": "ZDC",
		"type": "RNAV",
		"updated": "07/11/2017"
	},
	{
		"name": "MIMAE",
		"latitude": "36-56-14.14 N",
		"longitude": "76-3-53.71 W",
		"state": "VIRGINIA",
		"artcc": "ZDC",
		"type": "MW",
		"updated": "04/10/2014"
	},
	{
		"name": "MINIE",
		"latitude": "38-56-17.56 N",
		"longitude": "77-7-38.64 W",
		"state": "VIRGINIA",
		"artcc": "ZDC",
		"type": "RP",
		"updated": "BAL*VORTAC*248.50"
	},
	{
		"name": "MINTZ",
		"latitude": "37-51-44.39 N",
		"longitude": "76-50-56.11 W",
		"state": "VIRGINIA",
		"artcc": "ZDC",
		"type": "RNAV",
		"updated": "03/30/2017"
	},
	{
		"name": "MIPKE",
		"latitude": "39-8-15 N",
		"longitude": "79-7-13 W",
		"state": "WEST VIRGINIA",
		"artcc": "ZDC",
		"type": "RNAV",
		"updated": "03/30/2017"
	},
	{
		"name": "MITCH",
		"latitude": "38-57-59.4 N",
		"longitude": "76-44-28.79 W",
		"state": "MARYLAND",
		"artcc": "ZDC",
		"type": "RP",
		"updated": "BAL*VORTAC*207.99"
	},
	{
		"name": "MITER",
		"latitude": "38-13-1.18 N",
		"longitude": "78-34-55.97 W",
		"state": "VIRGINIA",
		"artcc": "ZDC",
		"type": "RP",
		"updated": "MOL*VOR/DME*057.50/31.27"
	},
	{
		"name": "MITEY",
		"latitude": "38-37-19.36 N",
		"longitude": "76-55-47.27 W",
		"state": "MARYLAND",
		"artcc": "ZDC",
		"type": "RNAV",
		"updated": "09/30/2015"
	},
	{
		"name": "MIVOE",
		"latitude": "35-50-45.13 N",
		"longitude": "78-1-35.61 W",
		"state": "NORTH CAROLINA",
		"artcc": "ZDC",
		"type": "RNAV",
		"updated": "02/12/2008"
	},
	{
		"name": "MIXNN",
		"latitude": "39-15-12 N",
		"longitude": "77-20-24 W",
		"state": "MARYLAND",
		"artcc": "ZDC",
		"type": "RNAV",
		"updated": "12/16/2014"
	},
	{
		"name": "MIZEL",
		"latitude": "35-31-44.86 N",
		"longitude": "77-9-11.89 W",
		"state": "NORTH CAROLINA",
		"artcc": "ZDC",
		"type": "RP",
		"updated": "ISO*VORTAC*069.37/22.00"
	},
	{
		"name": "MNKEY",
		"latitude": "39-18-32.82 N",
		"longitude": "76-46-35.51 W",
		"state": "MARYLAND",
		"artcc": "ZDC",
		"type": "RP",
		"updated": "BAL*VORTAC*/9.87"
	},
	{
		"name": "MOATS",
		"latitude": "35-37-17.76 N",
		"longitude": "79-5-34.68 W",
		"state": "NORTH CAROLINA",
		"artcc": "ZDC",
		"type": "RP",
		"updated": "LIB*VORTAC*117.00"
	},
	{
		"name": "MOBFO",
		"latitude": "35-57-0.9 N",
		"longitude": "78-32-43.22 W",
		"state": "NORTH CAROLINA",
		"artcc": "ZDC",
		"type": "RP",
		"updated": "RDU*VORTAC*077.06/12.50"
	},
	{
		"name": "MODEE",
		"latitude": "38-5-55.53 N",
		"longitude": "76-45-53.2 W",
		"state": "VIRGINIA",
		"artcc": "ZDC",
		"type": "MR",
		"updated": "NHK*TACAN*247.00/20.00"
	},
	{
		"name": "MODEL",
		"latitude": "37-44-1.71 N",
		"longitude": "76-41-26.85 W",
		"state": "VIRGINIA",
		"artcc": "ZDC",
		"type": "RP",
		"updated": "RIC*VORTAC*074.00/33.06"
	},
	{
		"name": "MODKE",
		"latitude": "38-58-25.48 N",
		"longitude": "76-10-17.05 W",
		"state": "MARYLAND",
		"artcc": "ZDC",
		"type": "WP",
		"updated": "11/02/2011"
	},
	{
		"name": "MOEJO",
		"latitude": "38-34-32.69 N",
		"longitude": "77-6-51.34 W",
		"state": "MARYLAND",
		"artcc": "ZDC",
		"type": "RNAV",
		"updated": "09/30/2015"
	},
	{
		"name": "MOHEE",
		"latitude": "39-38-42.26 N",
		"longitude": "75-4-56.15 W",
		"state": "NEW JERSEY",
		"artcc": "ZDC",
		"type": "RNAV",
		"updated": "02/01/2007"
	},
	{
		"name": "MOISH",
		"latitude": "39-0-50.9 N",
		"longitude": "76-20-24.94 W",
		"state": "MARYLAND",
		"artcc": "ZDC",
		"type": "WP",
		"updated": "06/13/1991"
	},
	{
		"name": "MOKEY",
		"latitude": "34-45-23.63 N",
		"longitude": "76-35-55.02 W",
		"state": "NORTH CAROLINA",
		"artcc": "ZDC",
		"type": "RNAV",
		"updated": "11/30/2015"
	},
	{
		"name": "MOKSE",
		"latitude": "35-16-13.96 N",
		"longitude": "79-20-48.68 W",
		"state": "NORTH CAROLINA",
		"artcc": "ZDC",
		"type": "RNAV",
		"updated": "02/25/2014"
	},
	{
		"name": "MONAT",
		"latitude": "37-9-20.61 N",
		"longitude": "79-37-47.21 W",
		"state": "VIRGINIA",
		"artcc": "ZDC",
		"type": "RP",
		"updated": "ODR*VOR*129.00"
	},
	{
		"name": "MONER",
		"latitude": "35-22-50.05 N",
		"longitude": "79-16-54.18 W",
		"state": "NORTH CAROLINA",
		"artcc": "ZDC",
		"type": "RP",
		"updated": "SDZ*VORTAC*080.00/18.00"
	},
	{
		"name": "MONNA",
		"latitude": "38-10-13.31 N",
		"longitude": "78-4-50.67 W",
		"state": "VIRGINIA",
		"artcc": "ZDC",
		"type": "RP",
		"updated": "GVE*VORTAC*026.00/10.00"
	},
	{
		"name": "MONNK",
		"latitude": "39-10-3.12 N",
		"longitude": "78-8-24.01 W",
		"state": "VIRGINIA",
		"artcc": "ZDC",
		"type": "RNAV",
		"updated": "06/01/2012"
	},
	{
		"name": "MONTY",
		"latitude": "37-34-42.7 N",
		"longitude": "79-4-7.55 W",
		"state": "VIRGINIA",
		"artcc": "ZDC",
		"type": "RP",
		"updated": "LYH*VORTAC*027.39/21.00"
	},
	{
		"name": "MOOEE",
		"latitude": "36-40-28.38 N",
		"longitude": "78-50-43.6 W",
		"state": "VIRGINIA",
		"artcc": "ZDC",
		"type": "RNAV",
		"updated": "11/21/2016"
	},
	{
		"name": "MOOUR",
		"latitude": "38-42-19.67 N",
		"longitude": "76-19-4.4 W",
		"state": "MARYLAND",
		"artcc": "ZDC",
		"type": "RNAV",
		"updated": "10/22/2001"
	},
	{
		"name": "MOPDE",
		"latitude": "38-47-44.24 N",
		"longitude": "76-51-52.16 W",
		"state": "MARYLAND",
		"artcc": "ZDC",
		"type": "MR",
		"updated": "ADW*VORTAC*183.20/0.70"
	},
	{
		"name": "MORCE",
		"latitude": "38-51-53.63 N",
		"longitude": "77-28-33.5 W",
		"state": "VIRGINIA",
		"artcc": "ZDC",
		"type": "RP",
		"updated": "OIU*LD*S CRS/6.52"
	},
	{
		"name": "MORGY",
		"latitude": "35-4-23.34 N",
		"longitude": "78-49-17.92 W",
		"state": "NORTH CAROLINA",
		"artcc": "ZDC",
		"type": "RP",
		"updated": "GRA*LD*038.19/4.90"
	},
	{
		"name": "MORLO",
		"latitude": "38-38-25.42 N",
		"longitude": "76-52-11.89 W",
		"state": "MARYLAND",
		"artcc": "ZDC",
		"type": "MR",
		"updated": "ADW*VORTAC*188.00/10.00"
	},
	{
		"name": "MORSL",
		"latitude": "39-11-57.44 N",
		"longitude": "74-40-57.46 W",
		"state": "NEW JERSEY",
		"artcc": "ZDC",
		"type": "RP",
		"updated": "VCN*VOR/DME*156.78"
	},
	{
		"name": "MORTY",
		"latitude": "39-13-9.35 N",
		"longitude": "77-8-19.94 W",
		"state": "MARYLAND",
		"artcc": "ZDC",
		"type": "RNAV",
		"updated": "12/12/2016"
	},
	{
		"name": "MORUS",
		"latitude": "35-2-39.21 N",
		"longitude": "79-32-35.42 W",
		"state": "NORTH CAROLINA",
		"artcc": "ZDC",
		"type": "MR",
		"updated": "HFF*NDB*295.00"
	},
	{
		"name": "MOSBY",
		"latitude": "38-43-7.44 N",
		"longitude": "77-26-22.2 W",
		"state": "VIRGINIA",
		"artcc": "ZDC",
		"type": "RP",
		"updated": "CSN*VORTAC*082.80"
	},
	{
		"name": "MOSLE",
		"latitude": "39-13-8.41 N",
		"longitude": "78-14-15.89 W",
		"state": "VIRGINIA",
		"artcc": "ZDC",
		"type": "RNAV",
		"updated": "05/02/2013"
	},
	{
		"name": "MOTBE",
		"latitude": "38-45-6.25 N",
		"longitude": "76-55-1.47 W",
		"state": "MARYLAND",
		"artcc": "ZDC",
		"type": "RNAV",
		"updated": "03/11/2015"
	},
	{
		"name": "MOTIE",
		"latitude": "38-10-12.5 N",
		"longitude": "77-46-23.97 W",
		"state": "VIRGINIA",
		"artcc": "ZDC",
		"type": "RNAV",
		"updated": "12/16/2014"
	},
	{
		"name": "MOTLE",
		"latitude": "35-55-46.45 N",
		"longitude": "77-51-19.49 W",
		"state": "NORTH CAROLINA",
		"artcc": "ZDC",
		"type": "RNAV",
		"updated": "12/05/2003"
	},
	{
		"name": "MOTRE",
		"latitude": "39-0-19.4 N",
		"longitude": "76-54-9.3 W",
		"state": "MARYLAND",
		"artcc": "ZDC",
		"type": "MR",
		"updated": "ADW*VORTAC*001.86/12.00"
	},
	{
		"name": "MOTUE",
		"latitude": "36-15-52.57 N",
		"longitude": "76-16-54.6 W",
		"state": "NORTH CAROLINA",
		"artcc": "ZDC",
		"type": "RP",
		"updated": "EPR*LD*283.39/5.98"
	},
	{
		"name": "MOWAT",
		"latitude": "39-15-57.6 N",
		"longitude": "77-21-36.6 W",
		"state": "MARYLAND",
		"artcc": "ZDC",
		"type": "RNAV",
		"updated": "07/28/2015"
	},
	{
		"name": "MOWOC",
		"latitude": "36-49-10.85 N",
		"longitude": "76-24-35.95 W",
		"state": "VIRGINIA",
		"artcc": "ZDC",
		"type": "RNAV",
		"updated": "05/01/2018"
	},
	{
		"name": "MRINA",
		"latitude": "39-34-23.11 N",
		"longitude": "75-52-0.98 W",
		"state": "MARYLAND",
		"artcc": "ZDC",
		"type": "RP",
		"updated": "ENO*VORTAC*330.54/26.18"
	},
	{
		"name": "MRION",
		"latitude": "38-39-51.94 N",
		"longitude": "77-1-8.26 W",
		"state": "MARYLAND",
		"artcc": "ZDC",
		"type": "RNAV",
		"updated": "10/29/2007"
	},
	{
		"name": "MRTIN",
		"latitude": "39-55-21.64 N",
		"longitude": "74-59-0.11 W",
		"state": "NEW JERSEY",
		"artcc": "ZDC",
		"type": "RP",
		"updated": "ARD*VOR/DME*200.00"
	},
	{
		"name": "MRUNN",
		"latitude": "37-4-49.51 N",
		"longitude": "80-25-48.56 W",
		"state": "VIRGINIA",
		"artcc": "ZDC",
		"type": "RNAV",
		"updated": "03/12/2009"
	},
	{
		"name": "MUBLE",
		"latitude": "38-13-54.94 N",
		"longitude": "76-30-23.11 W",
		"state": "MARYLAND",
		"artcc": "ZDC",
		"type": "MR",
		"updated": "NHK*TACAN*247.00/5.40"
	},
	{
		"name": "MUDAE",
		"latitude": "38-42-31.97 N",
		"longitude": "76-53-24.46 W",
		"state": "MARYLAND",
		"artcc": "ZDC",
		"type": "MR",
		"updated": "ADW*VORTAC*200.77/6.00"
	},
	{
		"name": "MUFLY",
		"latitude": "36-0-3.42 N",
		"longitude": "78-31-8.64 W",
		"state": "NORTH CAROLINA",
		"artcc": "ZDC",
		"type": "RNAV",
		"updated": "07/27/2010"
	},
	{
		"name": "MUGAW",
		"latitude": "37-34-18.66 N",
		"longitude": "77-18-27.74 W",
		"state": "VIRGINIA",
		"artcc": "ZDC",
		"type": "RNAV",
		"updated": "06/11/2014"
	},
	{
		"name": "MUHAP",
		"latitude": "39-4-52.78 N",
		"longitude": "79-44-37.48 W",
		"state": "WEST VIRGINIA",
		"artcc": "ZDC",
		"type": "RNAV",
		"updated": "11/03/2009"
	},
	{
		"name": "MUKRE",
		"latitude": "38-58-59.55 N",
		"longitude": "75-15-45.82 W",
		"state": "DELAWARE",
		"artcc": "ZDC",
		"type": "MW",
		"updated": "04/07/2009"
	},
	{
		"name": "MULKY",
		"latitude": "39-2-29.75 N",
		"longitude": "77-28-24.27 W",
		"state": "VIRGINIA",
		"artcc": "ZDC",
		"type": "RP",
		"updated": "ISU*LD*010.65/4.07"
	},
	{
		"name": "MUMSY",
		"latitude": "39-24-47.7 N",
		"longitude": "78-8-50.07 W",
		"state": "WEST VIRGINIA",
		"artcc": "ZDC",
		"type": "RP",
		"updated": "MRB*VORTAC*283.90/14.00"
	},
	{
		"name": "MUNGY",
		"latitude": "39-50-49.17 N",
		"longitude": "74-52-42.14 W",
		"state": "NEW JERSEY",
		"artcc": "ZDC",
		"type": "RNAV",
		"updated": "02/01/2007"
	},
	{
		"name": "MUPLY",
		"latitude": "36-13-59.86 N",
		"longitude": "79-13-59.84 W",
		"state": "NORTH CAROLINA",
		"artcc": "ZDC",
		"type": "RNAV",
		"updated": "03/27/2009"
	},
	{
		"name": "MUSOJ",
		"latitude": "38-14-11.43 N",
		"longitude": "78-25-49.01 W",
		"state": "VIRGINIA",
		"artcc": "ZDC",
		"type": "RNAV",
		"updated": "05/31/2013"
	},
	{
		"name": "MUTSE",
		"latitude": "35-36-14.68 N",
		"longitude": "78-49-41.47 W",
		"state": "NORTH CAROLINA",
		"artcc": "ZDC",
		"type": "RNAV",
		"updated": "07/20/2009"
	},
	{
		"name": "MUTVE",
		"latitude": "35-18-49.92 N",
		"longitude": "75-37-14.79 W",
		"state": "NORTH CAROLINA",
		"artcc": "ZDC",
		"type": "RNAV",
		"updated": "02/13/2002"
	},
	{
		"name": "MUVIE",
		"latitude": "37-12-18.78 N",
		"longitude": "77-28-54.7 W",
		"state": "VIRGINIA",
		"artcc": "ZDC",
		"type": "RNAV",
		"updated": "02/13/2017"
	},
	{
		"name": "MYOPS",
		"latitude": "39-16-35.9 N",
		"longitude": "76-39-24.6 W",
		"state": "MARYLAND",
		"artcc": "ZDC",
		"type": "WP",
		"updated": "07/17/2007"
	},
	{
		"name": "MYOWN",
		"latitude": "35-7-33.33 N",
		"longitude": "79-29-47.47 W",
		"state": "NORTH CAROLINA",
		"artcc": "ZDC",
		"type": "RP",
		"updated": "SDZ*VORTAC*143.00/7.00"
	},
	{
		"name": "MYTHY",
		"latitude": "39-0-14.12 N",
		"longitude": "76-29-4.91 W",
		"state": "MARYLAND",
		"artcc": "ZDC",
		"type": "RNAV",
		"updated": "11/14/2016"
	}
]
