	{
		"name": "NAADA",
		"latitude": "39-29-53.28 N",
		"longitude": "74-40-20.99 W",
		"state": "NEW JERSEY",
		"artcc": "ZDC",
		"type": "RP",
		"updated": "ACY*VORTAC*309.35/5.14",
	},
	{
		"name": "NABBS",
		"latitude": "37-52-35.8 N",
		"longitude": "77-37-29.39 W",
		"state": "VIRGINIA",
		"artcc": "ZDC",
		"type": "RP",
		"updated": "FAK*VORTAC*030.84/23.00",
	},
	{
		"name": "NACCO",
		"latitude": "38-50-50.98 N",
		"longitude": "76-55-59.71 W",
		"state": "MARYLAND",
		"artcc": "ZDC",
		"type": "RNAV",
		"updated": "01/08/2015",
	},
	{
		"name": "NAGGI",
		"latitude": "36-54-10 N",
		"longitude": "75-47-6 W",
		"state": "OFFSHORE ATLANTIC",
		"artcc": "ZDC",
		"type": "RNAV",
		"updated": "04/10/2018",
	},
	{
		"name": "NAGGS",
		"latitude": "40-8-49.3 N",
		"longitude": "74-51-44.29 W",
		"state": "PENNSYLVANIA",
		"artcc": "ZDC",
		"type": "RP",
		"updated": "CYN*VORTAC*325.00/28.02",
	},
	{
		"name": "NAGME",
		"latitude": "34-35-46.41 N",
		"longitude": "77-26-11.87 W",
		"state": "NORTH CAROLINA",
		"artcc": "ZDC",
		"type": "MR",
		"updated": "NCA*LD*187.96/7.38",
	},
	{
		"name": "NAGTE",
		"latitude": "34-45-50.52 N",
		"longitude": "77-20-3.51 W",
		"state": "NORTH CAROLINA",
		"artcc": "ZDC",
		"type": "RNAV",
		"updated": "10/21/2014",
	},
	{
		"name": "NAKJA",
		"latitude": "34-44-17.53 N",
		"longitude": "77-24-28.17 W",
		"state": "NORTH CAROLINA",
		"artcc": "ZDC",
		"type": "MW",
		"updated": "12/16/2014",
	},
	{
		"name": "NALDE",
		"latitude": "36-30-36.07 N",
		"longitude": "76-27-55.13 W",
		"state": "NORTH CAROLINA",
		"artcc": "ZDC",
		"type": "RP",
		"updated": "ECG*VOR/DME*324.23",
	},
	{
		"name": "NALEE",
		"latitude": "38-36-37.94 N",
		"longitude": "76-54-50.17 W",
		"state": "MARYLAND",
		"artcc": "ZDC",
		"type": "MR",
		"updated": "ADW*VORTAC*200.77/12.00",
	},
	{
		"name": "NALES",
		"latitude": "38-53-35.2 N",
		"longitude": "75-38-11.13 W",
		"state": "DELAWARE",
		"artcc": "ZDC",
		"type": "RP",
		"updated": "BRV*VORTAC*076.00/87.35",
	},
	{
		"name": "NAMLE",
		"latitude": "38-48-38.28 N",
		"longitude": "76-44-18.22 W",
		"state": "MARYLAND",
		"artcc": "ZDC",
		"type": "MR",
		"updated": "ADW*VORTAC*098.00/6.00",
	},
	{
		"name": "NANNY",
		"latitude": "39-20-26.33 N",
		"longitude": "76-45-28.3 W",
		"state": "MARYLAND",
		"artcc": "ZDC",
		"type": "RNAV",
		"updated": "07/13/2017",
	},
	{
		"name": "NAPIE",
		"latitude": "34-47-20.39 N",
		"longitude": "77-25-13.77 W",
		"state": "NORTH CAROLINA",
		"artcc": "ZDC",
		"type": "MR",
		"updated": "NCA*TACAN*019.00/5.00",
	},
	{
		"name": "NAREE",
		"latitude": "40-11-26.45 N",
		"longitude": "74-33-32.71 W",
		"state": "NEW JERSEY",
		"artcc": "ZDC",
		"type": "MR",
		"updated": "GXU*VORTAC*021.00/11.00",
	},
	{
		"name": "NARVE",
		"latitude": "39-18-25.21 N",
		"longitude": "74-47-48.34 W",
		"state": "NEW JERSEY",
		"artcc": "ZDC",
		"type": "RNAV",
		"updated": "07/08/2009",
	},
	{
		"name": "NASAE",
		"latitude": "36-58-39.82 N",
		"longitude": "78-31-25.6 W",
		"state": "VIRGINIA",
		"artcc": "ZDC",
		"type": "RNAV",
		"updated": "11/23/2004",
	},
	{
		"name": "NASHH",
		"latitude": "36-32-10 N",
		"longitude": "76-15-0 W",
		"state": "NORTH CAROLINA",
		"artcc": "ZDC",
		"type": "RNAV",
		"updated": "05/04/2018",
	},
	{
		"name": "NASIE",
		"latitude": "35-56-22.23 N",
		"longitude": "77-8-11 W",
		"state": "NORTH CAROLINA",
		"artcc": "ZDC",
		"type": "RNAV",
		"updated": "04/07/2014",
	},
	{
		"name": "NATAE",
		"latitude": "39-17-56.41 N",
		"longitude": "75-27-5.25 W",
		"state": "DELAWARE",
		"artcc": "ZDC",
		"type": "MW",
		"updated": "12/02/2016",
	},
	{
		"name": "NATTS",
		"latitude": "37-56-47.15 N",
		"longitude": "80-4-52.86 W",
		"state": "WEST VIRGINIA",
		"artcc": "ZDC",
		"type": "RP",
		"updated": "ROA*VOR/DME*003.18/36.14",
	},
	{
		"name": "NAVAE",
		"latitude": "34-44-15.37 N",
		"longitude": "76-26-56.86 W",
		"state": "NORTH CAROLINA",
		"artcc": "ZDC",
		"type": "CN",
		"updated": "02/21/2003",
	},
	{
		"name": "NAVBE",
		"latitude": "37-11-59.65 N",
		"longitude": "79-52-48.18 W",
		"state": "VIRGINIA",
		"artcc": "ZDC",
		"type": "RNAV",
		"updated": "06/14/2011",
	},
	{
		"name": "NAVEY",
		"latitude": "38-58-10.99 N",
		"longitude": "76-35-29.26 W",
		"state": "MARYLAND",
		"artcc": "ZDC",
		"type": "RNAV",
		"updated": "12/29/2014",
	},
	{
		"name": "NAVYY",
		"latitude": "39-51-26.5 N",
		"longitude": "75-8-11.73 W",
		"state": "NEW JERSEY",
		"artcc": "ZDC",
		"type": "WP",
		"updated": "OOD*VORTAC*040.00/15.30",
	},
	{
		"name": "NAYEP",
		"latitude": "34-58-33.35 N",
		"longitude": "76-58-1.72 W",
		"state": "NORTH CAROLINA",
		"artcc": "ZDC",
		"type": "RNAV",
		"updated": "01/25/2016",
	},
	{
		"name": "NAYES",
		"latitude": "39-8-1.02 N",
		"longitude": "77-13-15.81 W",
		"state": "MARYLAND",
		"artcc": "ZDC",
		"type": "RNAV",
		"updated": "02/16/2006",
	},
	{
		"name": "NAYIN",
		"latitude": "35-13-38.47 N",
		"longitude": "78-57-13.29 W",
		"state": "NORTH CAROLINA",
		"artcc": "ZDC",
		"type": "MR",
		"updated": "POB*TACAN*/4.79",
	},
	{
		"name": "NAYLO",
		"latitude": "38-10-49.84 N",
		"longitude": "78-46-27.9 W",
		"state": "VIRGINIA",
		"artcc": "ZDC",
		"type": "RNAV",
		"updated": "08/18/2016",
	},
	{
		"name": "NAYLR",
		"latitude": "34-54-36.54 N",
		"longitude": "78-27-45.6 W",
		"state": "NORTH CAROLINA",
		"artcc": "ZDC",
		"type": "RP",
		"updated": "FAY*VOR/DME*106.40/20.84",
	},
	{
		"name": "NEAVL",
		"latitude": "36-58-43.9 N",
		"longitude": "77-45-29.82 W",
		"state": "VIRGINIA",
		"artcc": "ZDC",
		"type": "RNAV",
		"updated": "10/19/2015",
	},
	{
		"name": "NEBDE",
		"latitude": "39-59-53.6 N",
		"longitude": "74-36-21 W",
		"state": "NEW JERSEY",
		"artcc": "ZNY",
		"type": "MR",
		"updated": "GXU*VORTAC*/0.80",
	},
	{
		"name": "NEBGE",
		"latitude": "36-37-27.23 N",
		"longitude": "76-3-0.16 W",
		"state": "VIRGINIA",
		"artcc": "ZDC",
		"type": "MR",
		"updated": "NTU*TACAN*193.00/12.00",
	},
	{
		"name": "NECIR",
		"latitude": "34-34-32.47 N",
		"longitude": "78-59-55.63 W",
		"state": "NORTH CAROLINA",
		"artcc": "ZDC",
		"type": "RNAV",
		"updated": "07/18/2011",
	},
	{
		"name": "NEDIC",
		"latitude": "38-33-25.83 N",
		"longitude": "76-46-16.88 W",
		"state": "MARYLAND",
		"artcc": "ZDC",
		"type": "MR",
		"updated": "OTT*VORTAC*198.00/9.00",
	},
	{
		"name": "NEDIE",
		"latitude": "35-38-6.2 N",
		"longitude": "79-9-12.59 W",
		"state": "NORTH CAROLINA",
		"artcc": "ZDC",
		"type": "RNAV",
		"updated": "11/19/2012",
	},
	{
		"name": "NEIDA",
		"latitude": "38-25-7.67 N",
		"longitude": "75-26-40.87 W",
		"state": "MARYLAND",
		"artcc": "ZDC",
		"type": "RNAV",
		"updated": "02/23/2012",
	},
	{
		"name": "NELSE",
		"latitude": "38-48-28.05 N",
		"longitude": "76-50-41.79 W",
		"state": "MARYLAND",
		"artcc": "ZDC",
		"type": "MR",
		"updated": "ADW*VORTAC*098.00/1.00",
	},
	{
		"name": "NEMAN",
		"latitude": "37-28-46.16 N",
		"longitude": "77-3-3.1 W",
		"state": "VIRGINIA",
		"artcc": "ZDC",
		"type": "RP",
		"updated": "HPW*VORTAC*025.00/9.55",
	},
	{
		"name": "NENYI",
		"latitude": "39-21-59.8 N",
		"longitude": "74-48-17.24 W",
		"state": "NEW JERSEY",
		"artcc": "ZDC",
		"type": "RNAV",
		"updated": "04/12/2006",
	},
	{
		"name": "NERLE",
		"latitude": "36-10-49.3 N",
		"longitude": "79-49-50.08 W",
		"state": "NORTH CAROLINA",
		"artcc": "ZDC",
		"type": "RNAV",
		"updated": "12/07/2008",
	},
	{
		"name": "NERTE",
		"latitude": "34-43-12.3 N",
		"longitude": "78-50-26.08 W",
		"state": "NORTH CAROLINA",
		"artcc": "ZDC",
		"type": "RP",
		"updated": "FAY*VOR/DME*177.88/15.99",
	},
	{
		"name": "NERYO",
		"latitude": "35-40-13.88 N",
		"longitude": "78-2-29.02 W",
		"state": "NORTH CAROLINA",
		"artcc": "ZDC",
		"type": "RNAV",
		"updated": "09/30/2013",
	},
	{
		"name": "NESOM",
		"latitude": "33-49-36 N",
		"longitude": "77-37-22 W",
		"state": "OFFSHORE ATLANTIC",
		"artcc": "ZDC",
		"type": "WP",
		"updated": "03/26/2002",
	},
	{
		"name": "NETUE",
		"latitude": "36-20-9.91 N",
		"longitude": "75-56-0.35 W",
		"state": "NORTH CAROLINA",
		"artcc": "ZDC",
		"type": "RNAV",
		"updated": "02/13/2003",
	},
	{
		"name": "NEVVR",
		"latitude": "39-4-13.29 N",
		"longitude": "77-59-30.17 W",
		"state": "VIRGINIA",
		"artcc": "ZDC",
		"type": "RP",
		"updated": "AML*VOR/DME*296.50/25.87",
	},
	{
		"name": "NEWIE",
		"latitude": "35-54-3.45 N",
		"longitude": "78-37-40.45 W",
		"state": "NORTH CAROLINA",
		"artcc": "ZDC",
		"type": "RNAV",
		"updated": "11/19/2012",
	},
	{
		"name": "NEWRO",
		"latitude": "36-17-57.27 N",
		"longitude": "76-10-41.96 W",
		"state": "NORTH CAROLINA",
		"artcc": "ZDC",
		"type": "RP",
		"updated": "ECG*VOR/DME*004.00/2.50",
	},
	{
		"name": "NEZZZ",
		"latitude": "37-30-44.27 N",
		"longitude": "76-51-46.3 W",
		"state": "VIRGINIA",
		"artcc": "ZDC",
		"type": "RP",
		"updated": "HCM*VORTAC*304.84",
	},
	{
		"name": "NICKS",
		"latitude": "36-58-25.6 N",
		"longitude": "75-32-29.8 W",
		"state": "VIRGINIA",
		"artcc": "ZDC",
		"type": "MR",
		"updated": "LFI*TACAN*109.43/39.86",
	},
	{
		"name": "NIGTE",
		"latitude": "34-52-17.44 N",
		"longitude": "79-43-25.89 W",
		"state": "NORTH CAROLINA",
		"artcc": "ZDC",
		"type": "RNAV",
		"updated": "04/27/2010",
	},
	{
		"name": "NIKLE",
		"latitude": "38-34-26.94 N",
		"longitude": "77-9-8.92 W",
		"state": "MARYLAND",
		"artcc": "ZDC",
		"type": "RNAV",
		"updated": "05/13/2015",
	},
	{
		"name": "NILKY",
		"latitude": "36-6-6.38 N",
		"longitude": "79-6-23.62 W",
		"state": "NORTH CAROLINA",
		"artcc": "ZDC",
		"type": "RNAV",
		"updated": "03/27/2009",
	},
	{
		"name": "NILLY",
		"latitude": "36-56-16.43 N",
		"longitude": "76-16-39.68 W",
		"state": "VIRGINIA",
		"artcc": "ZDC",
		"type": "WP",
		"updated": "ORF*VORTAC*313.50/4.60",
	},
	{
		"name": "NIMDE",
		"latitude": "35-0-40.99 N",
		"longitude": "79-43-45.01 W",
		"state": "NORTH CAROLINA",
		"artcc": "ZDC",
		"type": "RNAV",
		"updated": "04/27/2010",
	},
	{
		"name": "NIORT",
		"latitude": "39-26-25.92 N",
		"longitude": "77-21-8.47 W",
		"state": "MARYLAND",
		"artcc": "ZDC",
		"type": "RP",
		"updated": "EMI*VORTAC*267.47",
	},
	{
		"name": "NIPDE",
		"latitude": "39-25-52.11 N",
		"longitude": "77-24-23.92 W",
		"state": "MARYLAND",
		"artcc": "ZDC",
		"type": "RNAV",
		"updated": "01/23/2002",
	},
	{
		"name": "NIPEE",
		"latitude": "39-0-22.56 N",
		"longitude": "77-14-26.9 W",
		"state": "MARYLAND",
		"artcc": "ZDC",
		"type": "RNAV",
		"updated": "02/12/2016",
	},
	{
		"name": "NISAE",
		"latitude": "38-22-1.11 N",
		"longitude": "77-58-4.01 W",
		"state": "VIRGINIA",
		"artcc": "ZDC",
		"type": "RP",
		"updated": "GVE*VORTAC*028.41/22.92",
	},
	{
		"name": "NISIE",
		"latitude": "34-54-1.74 N",
		"longitude": "78-40-3.13 W",
		"state": "NORTH CAROLINA",
		"artcc": "ZDC",
		"type": "RNAV",
		"updated": "01/14/2003",
	},
	{
		"name": "NIVDE",
		"latitude": "38-16-15.74 N",
		"longitude": "76-25-48.54 W",
		"state": "MARYLAND",
		"artcc": "ZDC",
		"type": "MR",
		"updated": "NHK*TACAN*247.00/1.10",
	},
	{
		"name": "NIYIP",
		"latitude": "37-9-30.57 N",
		"longitude": "77-32-10.15 W",
		"state": "VIRGINIA",
		"artcc": "ZDC",
		"type": "RNAV",
		"updated": "02/09/2017",
	},
	{
		"name": "NKKIE",
		"latitude": "36-21-51.3 N",
		"longitude": "78-1-27.38 W",
		"state": "NORTH CAROLINA",
		"artcc": "ZDC",
		"type": "RP",
		"updated": "RIC*VORTAC*215.62/76.14",
	},
	{
		"name": "NOBEE",
		"latitude": "37-8-29.44 N",
		"longitude": "79-1-9.24 W",
		"state": "VIRGINIA",
		"artcc": "ZDC",
		"type": "RP",
		"updated": "LYH*VORTAC*127.99/12.42",
	},
	{
		"name": "NOBVE",
		"latitude": "36-0-21.69 N",
		"longitude": "78-47-5.39 W",
		"state": "NORTH CAROLINA",
		"artcc": "ZDC",
		"type": "RNAV",
		"updated": "03/06/2013",
	},
	{
		"name": "NOCYI",
		"latitude": "35-55-55.52 N",
		"longitude": "79-26-17 W",
		"state": "NORTH CAROLINA",
		"artcc": "ZDC",
		"type": "RNAV",
		"updated": "11/10/2014",
	},
	{
		"name": "NOHAM",
		"latitude": "34-57-14.95 N",
		"longitude": "79-27-11.81 W",
		"state": "NORTH CAROLINA",
		"artcc": "ZDC",
		"type": "RP",
		"updated": "SDZ*VORTAC*160.00/17.00",
	},
	{
		"name": "NOKIY",
		"latitude": "36-37-5.37 N",
		"longitude": "78-14-58.06 W",
		"state": "VIRGINIA",
		"artcc": "ZDC",
		"type": "RP",
		"updated": "SBV*VORTAC*100.04",
	},
	{
		"name": "NOLIN",
		"latitude": "39-43-43.28 N",
		"longitude": "77-34-9.71 W",
		"state": "PENNSYLVANIA",
		"artcc": "ZDC",
		"type": "RP",
		"updated": "FDK*VOR*342.65",
	},
	{
		"name": "NOMOE",
		"latitude": "34-52-51.31 N",
		"longitude": "79-59-47.17 W",
		"state": "NORTH CAROLINA",
		"artcc": "ZDC",
		"type": "RP",
		"updated": "CTF*VOR/DME*047.84/19.50",
	},
	{
		"name": "NONNU",
		"latitude": "36-56-14.02 N",
		"longitude": "76-29-6.53 W",
		"state": "VIRGINIA",
		"artcc": "ZDC",
		"type": "MR",
		"updated": "NGU*TACAN*279.10/10.00",
	},
	{
		"name": "NORTN",
		"latitude": "36-2-45.85 N",
		"longitude": "75-52-28.07 W",
		"state": "NORTH CAROLINA",
		"artcc": "ZDC",
		"type": "RP",
		"updated": "RBX*VOR/DME*319.08/11.46",
	},
	{
		"name": "NOSIC",
		"latitude": "35-43-33.51 N",
		"longitude": "78-36-3.29 W",
		"state": "NORTH CAROLINA",
		"artcc": "ZDC",
		"type": "RNAV",
		"updated": "12/13/2002",
	},
	{
		"name": "NOXEE",
		"latitude": "37-10-2.37 N",
		"longitude": "76-55-58.05 W",
		"state": "VIRGINIA",
		"artcc": "ZDC",
		"type": "RNAV",
		"updated": "07/11/2017",
	},
	{
		"name": "NTHEN",
		"latitude": "37-16-47.91 N",
		"longitude": "80-6-23.29 W",
		"state": "VIRGINIA",
		"artcc": "ZDC",
		"type": "RNAV",
		"updated": "09/04/2012",
	},
	{
		"name": "NUDEE",
		"latitude": "34-6-56.88 N",
		"longitude": "77-41-0.8 W",
		"state": "NORTH CAROLINA",
		"artcc": "ZDC",
		"type": "RNAV",
		"updated": "07/08/2013",
	},
	{
		"name": "NUDKE",
		"latitude": "35-46-19.16 N",
		"longitude": "78-1-3.97 W",
		"state": "NORTH CAROLINA",
		"artcc": "ZDC",
		"type": "RNAV",
		"updated": "02/12/2008",
	},
	{
		"name": "NUGBE",
		"latitude": "36-28-4.41 N",
		"longitude": "79-8-23.45 W",
		"state": "NORTH CAROLINA",
		"artcc": "ZDC",
		"type": "RNAV",
		"updated": "01/10/2013",
	},
	{
		"name": "NULLY",
		"latitude": "37-51-19.68 N",
		"longitude": "76-57-44.63 W",
		"state": "VIRGINIA",
		"artcc": "ZDC",
		"type": "RNAV",
		"updated": "04/21/2017",
	},
	{
		"name": "NUMBE",
		"latitude": "39-33-4.08 N",
		"longitude": "77-13-27.2 W",
		"state": "MARYLAND",
		"artcc": "ZDC",
		"type": "RP",
		"updated": "EMI*VORTAC*294.51",
	},
	{
		"name": "NUMEG",
		"latitude": "40-13-54.15 N",
		"longitude": "74-50-41.8 W",
		"state": "PENNSYLVANIA",
		"artcc": "ZDC",
		"type": "RNAV",
		"updated": "04/19/2012",
	},
	{
		"name": "NUMMY",
		"latitude": "38-47-1.9 N",
		"longitude": "77-9-33.99 W",
		"state": "VIRGINIA",
		"artcc": "ZDC",
		"type": "RP",
		"updated": "AML*VOR/DME*130.01/17.00",
	},
	{
		"name": "NUTIY",
		"latitude": "36-56-43.48 N",
		"longitude": "76-33-0.24 W",
		"state": "VIRGINIA",
		"artcc": "ZDC",
		"type": "RNAV",
		"updated": "11/19/2010",
	},
	{
		"name": "NUTPY",
		"latitude": "38-24-40.3 N",
		"longitude": "75-26-37.76 W",
		"state": "MARYLAND",
		"artcc": "ZDC",
		"type": "RNAV",
		"updated": "10/07/2010",
	},
	{
		"name": "NUTTS",
		"latitude": "37-4-34.16 N",
		"longitude": "78-12-13.69 W",
		"state": "VIRGINIA",
		"artcc": "ZDC",
		"type": "RP",
		"updated": "RIC*VORTAC*248.15/49.41",
	},
	{
		"name": "NUTZE",
		"latitude": "35-50-40.43 N",
		"longitude": "77-40-56.72 W",
		"state": "NORTH CAROLINA",
		"artcc": "ZDC",
		"type": "RNAV",
		"updated": "03/31/2016",
	},
	{
		"name": "NUUMN",
		"latitude": "36-9-53.78 N",
		"longitude": "79-23-38.7 W",
		"state": "NORTH CAROLINA",
		"artcc": "ZDC",
		"type": "RNAV",
		"updated": "03/29/2016",
	},
	{
		"name": "NUVME",
		"latitude": "37-15-12.8 N",
		"longitude": "78-29-8.79 W",
		"state": "VIRGINIA",
		"artcc": "ZDC",
		"type": "RNAV",
		"updated": "03/17/2010",
	},
