[
	{
		"name": "PAATS",
		"latitude": "39-23-17.01 N",
		"longitude": "75-33-47.46 W",
		"state": "DELAWARE",
		"artcc": "ZDC",
		"type": "RP",
		"updated": "ENO*VORTAC*355.82"
	},
	{
		"name": "PACIV",
		"latitude": "37-53-44.42 N",
		"longitude": "75-37-40.15 W",
		"state": "VIRGINIA",
		"artcc": "ZDC",
		"type": "RNAV",
		"updated": "08/28/2007"
	},
	{
		"name": "PACKE",
		"latitude": "38-55-54.41 N",
		"longitude": "77-14-30.61 W",
		"state": "VIRGINIA",
		"artcc": "ZDC",
		"type": "RNAV",
		"updated": "01/09/2015"
	},
	{
		"name": "PACKS",
		"latitude": "40-8-5.31 N",
		"longitude": "75-4-9.95 W",
		"state": "PENNSYLVANIA",
		"artcc": "ZDC",
		"type": "RNAV",
		"updated": "02/08/2012"
	},
	{
		"name": "PADDY",
		"latitude": "39-18-25.29 N",
		"longitude": "74-50-31.46 W",
		"state": "NEW JERSEY",
		"artcc": "ZDC",
		"type": "RP",
		"updated": "VCN*VOR/DME*167.15/15.00"
	},
	{
		"name": "PADGE",
		"latitude": "36-39-1.19 N",
		"longitude": "76-33-28.17 W",
		"state": "VIRGINIA",
		"artcc": "ZDC",
		"type": "MR",
		"updated": "NGU*TACAN*228.00/22.00"
	},
	{
		"name": "PADOH",
		"latitude": "38-56-45.47 N",
		"longitude": "78-57-37.86 W",
		"state": "WEST VIRGINIA",
		"artcc": "ZDC",
		"type": "RNAV",
		"updated": "08/07/2013"
	},
	{
		"name": "PAINS",
		"latitude": "36-4-25.17 N",
		"longitude": "78-26-23.33 W",
		"state": "NORTH CAROLINA",
		"artcc": "ZDC",
		"type": "RNAV",
		"updated": "11/19/2012"
	},
	{
		"name": "PAKBE",
		"latitude": "38-39-51.62 N",
		"longitude": "78-41-39.92 W",
		"state": "VIRGINIA",
		"artcc": "ZDC",
		"type": "RNAV",
		"updated": "11/17/2011"
	},
	{
		"name": "PAKSE",
		"latitude": "37-14-51.04 N",
		"longitude": "76-47-25.77 W",
		"state": "VIRGINIA",
		"artcc": "ZDC",
		"type": "MW",
		"updated": "10/15/2008"
	},
	{
		"name": "PALEO",
		"latitude": "39-1-40.78 N",
		"longitude": "76-22-21.81 W",
		"state": "MARYLAND",
		"artcc": "ZDC",
		"type": "RP",
		"updated": "BAL*VORTAC*133.38/15.97"
	},
	{
		"name": "PALET",
		"latitude": "39-53-39.23 N",
		"longitude": "74-20-7.96 W",
		"state": "NEW JERSEY",
		"artcc": "ZNY",
		"type": "RP",
		"updated": "CYN*VORTAC*053.89/6.40"
	},
	{
		"name": "PALME",
		"latitude": "40-1-32 N",
		"longitude": "74-59-54.81 W",
		"state": "PENNSYLVANIA",
		"artcc": "ZDC",
		"type": "WP",
		"updated": "ARD*VOR/DME*207.10/14.30"
	},
	{
		"name": "PALMM",
		"latitude": "39-8-16.1 N",
		"longitude": "75-36-18.73 W",
		"state": "DELAWARE",
		"artcc": "ZDC",
		"type": "RP",
		"updated": "ENO*VORTAC*225.54/7.00"
	},
	{
		"name": "PANLE",
		"latitude": "37-19-17.53 N",
		"longitude": "76-26-35.85 W",
		"state": "VIRGINIA",
		"artcc": "ZDC",
		"type": "RP",
		"updated": "HCM*VORTAC*127.64"
	},
	{
		"name": "PANZE",
		"latitude": "39-40-33.58 N",
		"longitude": "74-10-5.45 W",
		"state": "NEW JERSEY",
		"artcc": "ZNY",
		"type": "RP",
		"updated": "CYN*VORTAC*134.71"
	},
	{
		"name": "PARJR",
		"latitude": "39-44-32.84 N",
		"longitude": "75-21-53.49 W",
		"state": "NEW JERSEY",
		"artcc": "ZDC",
		"type": "RP",
		"updated": "DQO*VORTAC*080.95/11.86"
	},
	{
		"name": "PARTE",
		"latitude": "37-6-39.26 N",
		"longitude": "79-48-22.11 W",
		"state": "VIRGINIA",
		"artcc": "ZDC",
		"type": "RP",
		"updated": "ODR*VOR*155.00"
	},
	{
		"name": "PATCI",
		"latitude": "38-39-43.46 N",
		"longitude": "77-6-35.49 W",
		"state": "MARYLAND",
		"artcc": "ZDC",
		"type": "MW",
		"updated": "04/26/2010"
	},
	{
		"name": "PAUKI",
		"latitude": "38-7-25.98 N",
		"longitude": "78-27-12.71 W",
		"state": "VIRGINIA",
		"artcc": "ZDC",
		"type": "RP",
		"updated": "DCA*VOR/DME*246.00/80.00"
	},
	{
		"name": "PAYEN",
		"latitude": "36-52-12.8 N",
		"longitude": "78-11-41.76 W",
		"state": "VIRGINIA",
		"artcc": "ZDC",
		"type": "RNAV",
		"updated": "02/13/2017"
	},
	{
		"name": "PEAAY",
		"latitude": "36-49-29.84 N",
		"longitude": "76-16-1.29 W",
		"state": "VIRGINIA",
		"artcc": "ZDC",
		"type": "RP",
		"updated": "ORF*LD*226.79/6.26"
	},
	{
		"name": "PEAPS",
		"latitude": "39-2-30.9 N",
		"longitude": "75-4-44.05 W",
		"state": "DELAWARE",
		"artcc": "ZDC",
		"type": "RP",
		"updated": "ATR*VOR/DME*032.98/15.23"
	},
	{
		"name": "PEARC",
		"latitude": "39-7-18.75 N",
		"longitude": "77-34-35.71 W",
		"state": "VIRGINIA",
		"artcc": "ZDC",
		"type": "RP",
		"updated": "JYO*LD*351.29/3.40"
	},
	{
		"name": "PEARS",
		"latitude": "35-47-12.36 N",
		"longitude": "76-57-1.97 W",
		"state": "NORTH CAROLINA",
		"artcc": "ZDC",
		"type": "RP",
		"updated": "ORF*VORTAC*216.00"
	},
	{
		"name": "PEATA",
		"latitude": "37-32-42.93 N",
		"longitude": "77-24-50.93 W",
		"state": "VIRGINIA",
		"artcc": "ZDC",
		"type": "RNAV",
		"updated": "12/23/2013"
	},
	{
		"name": "PEAVY",
		"latitude": "36-21-24.93 N",
		"longitude": "78-36-41.75 W",
		"state": "NORTH CAROLINA",
		"artcc": "ZDC",
		"type": "RNAV",
		"updated": "11/07/2012"
	},
	{
		"name": "PECIT",
		"latitude": "35-43-20.19 N",
		"longitude": "78-58-21.39 W",
		"state": "NORTH CAROLINA",
		"artcc": "ZDC",
		"type": "RP",
		"updated": "RDU*LD*234.14/13.47"
	},
	{
		"name": "PEEBE",
		"latitude": "37-43-5.1 N",
		"longitude": "80-30-16.97 W",
		"state": "WEST VIRGINIA",
		"artcc": "ZDC",
		"type": "RP",
		"updated": "ROA*VOR/DME*321.42/30.56"
	},
	{
		"name": "PEEDS",
		"latitude": "39-8-30.07 N",
		"longitude": "76-14-25.12 W",
		"state": "MARYLAND",
		"artcc": "ZDC",
		"type": "RP",
		"updated": "BAL*VORTAC*105.99"
	},
	{
		"name": "PEEGE",
		"latitude": "38-58-14.36 N",
		"longitude": "77-3-32.39 W",
		"state": "DIST. OF COLUMBIA",
		"artcc": "ZDC",
		"type": "RP",
		"updated": "AML*VOR/DME*091.41/19.20"
	},
	{
		"name": "PEETT",
		"latitude": "36-26-44.93 N",
		"longitude": "78-34-16.17 W",
		"state": "NORTH CAROLINA",
		"artcc": "ZDC",
		"type": "RNAV",
		"updated": "01/16/2014"
	},
	{
		"name": "PEFOC",
		"latitude": "36-47-2.97 N",
		"longitude": "76-33-42.75 W",
		"state": "VIRGINIA",
		"artcc": "ZDC",
		"type": "RNAV",
		"updated": "08/07/2014"
	},
	{
		"name": "PEGBY",
		"latitude": "38-4-43.14 N",
		"longitude": "77-12-3.8 W",
		"state": "VIRGINIA",
		"artcc": "ZDC",
		"type": "RP",
		"updated": "RIC*VORTAC*018.29/35.00"
	},
	{
		"name": "PEKIC",
		"latitude": "37-8-0.16 N",
		"longitude": "77-54-29.27 W",
		"state": "VIRGINIA",
		"artcc": "ZDC",
		"type": "MW",
		"updated": "05/27/2005"
	},
	{
		"name": "PEKME",
		"latitude": "38-54-31.2 N",
		"longitude": "75-38-28.9 W",
		"state": "DELAWARE",
		"artcc": "ZDC",
		"type": "RNAV",
		"updated": "04/16/2003"
	},
	{
		"name": "PEKNN",
		"latitude": "35-12-41.36 N",
		"longitude": "79-52-21.62 W",
		"state": "NORTH CAROLINA",
		"artcc": "ZDC",
		"type": "RP",
		"updated": "CTF*VOR/DME*033.45"
	},
	{
		"name": "PELTO",
		"latitude": "35-54-18.26 N",
		"longitude": "77-29-9.29 W",
		"state": "NORTH CAROLINA",
		"artcc": "ZDC",
		"type": "RP",
		"updated": "HPW*VORTAC*197.94/87.16"
	},
	{
		"name": "PELTS",
		"latitude": "35-59-21.35 N",
		"longitude": "79-26-2.35 W",
		"state": "NORTH CAROLINA",
		"artcc": "ZDC",
		"type": "RNAV",
		"updated": "03/29/2016"
	},
	{
		"name": "PEPAE",
		"latitude": "34-55-34.54 N",
		"longitude": "76-51-10.28 W",
		"state": "NORTH CAROLINA",
		"artcc": "ZDC",
		"type": "RP",
		"updated": "NKT*LD*054.49/2.90"
	},
	{
		"name": "PEPKE",
		"latitude": "34-52-21.46 N",
		"longitude": "76-34-43.13 W",
		"state": "NORTH CAROLINA",
		"artcc": "ZDC",
		"type": "RNAV",
		"updated": "08/16/2010"
	},
	{
		"name": "PEPRR",
		"latitude": "38-44-56.56 N",
		"longitude": "77-27-45.12 W",
		"state": "VIRGINIA",
		"artcc": "ZDC",
		"type": "RP",
		"updated": "AML*VOR/DME*/11.12"
	},
	{
		"name": "PERKN",
		"latitude": "37-39-11.93 N",
		"longitude": "77-49-28.81 W",
		"state": "VIRGINIA",
		"artcc": "ZDC",
		"type": "RNAV",
		"updated": "12/16/2014"
	},
	{
		"name": "PERKS",
		"latitude": "38-39-40.84 N",
		"longitude": "80-10-29.36 W",
		"state": "WEST VIRGINIA",
		"artcc": "ZDC",
		"type": "RP",
		"updated": "HVQ*VOR/DME*078.54/77.41"
	},
	{
		"name": "PERRI",
		"latitude": "38-17-50.49 N",
		"longitude": "80-18-5.11 W",
		"state": "WEST VIRGINIA",
		"artcc": "ZDC",
		"type": "RP",
		"updated": "HVQ*VOR/DME*095.13/69.00"
	},
	{
		"name": "PERSON",
		"latitude": "36-13-59.85 N",
		"longitude": "79-3-57.25 W",
		"state": "NORTH CAROLINA",
		"artcc": "ZDC",
		"type": "RP",
		"updated": "HUR*NDB*000.00"
	},
	{
		"name": "PERTE",
		"latitude": "39-10-27.86 N",
		"longitude": "77-16-37.47 W",
		"state": "MARYLAND",
		"artcc": "ZDC",
		"type": "RNAV",
		"updated": "06/26/2007"
	},
	{
		"name": "PETEF",
		"latitude": "38-58-51.24 N",
		"longitude": "79-2-5 W",
		"state": "WEST VIRGINIA",
		"artcc": "ZDC",
		"type": "RP",
		"updated": "IYQ*DD*E CRS/5.00"
	},
	{
		"name": "PEWFE",
		"latitude": "36-24-44.37 N",
		"longitude": "79-48-22.78 W",
		"state": "NORTH CAROLINA",
		"artcc": "ZDC",
		"type": "RNAV",
		"updated": "09/14/2009"
	},
	{
		"name": "PEZSY",
		"latitude": "38-38-39.27 N",
		"longitude": "77-25-38.35 W",
		"state": "VIRGINIA",
		"artcc": "ZDC",
		"type": "RNAV",
		"updated": "11/26/2012"
	},
	{
		"name": "PFAIR",
		"latitude": "38-25-40.61 N",
		"longitude": "75-16-54.47 W",
		"state": "MARYLAND",
		"artcc": "ZDC",
		"type": "RNAV",
		"updated": "09/27/2004"
	},
	{
		"name": "PHATT",
		"latitude": "39-34-29.51 N",
		"longitude": "77-21-21.9 W",
		"state": "MARYLAND",
		"artcc": "ZDC",
		"type": "RNAV",
		"updated": "06/30/2015"
	},
	{
		"name": "PHERB",
		"latitude": "39-5-14.11 N",
		"longitude": "76-44-35.81 W",
		"state": "MARYLAND",
		"artcc": "ZDC",
		"type": "RNAV",
		"updated": "03/11/2015"
	},
	{
		"name": "PHILB",
		"latitude": "39-16-57.49 N",
		"longitude": "77-31-11.23 W",
		"state": "MARYLAND",
		"artcc": "ZDC",
		"type": "RNAV",
		"updated": "04/13/2006"
	},
	{
		"name": "PHLIP",
		"latitude": "37-14-2.67 N",
		"longitude": "80-12-47.17 W",
		"state": "VIRGINIA",
		"artcc": "ZDC",
		"type": "RNAV",
		"updated": "09/04/2012"
	},
	{
		"name": "PHNTM",
		"latitude": "35-14-22.89 N",
		"longitude": "78-21-41.32 W",
		"state": "NORTH CAROLINA",
		"artcc": "ZDC",
		"type": "MR",
		"updated": "GSB*TACAN*261.49/20.00"
	},
	{
		"name": "PHOOW",
		"latitude": "38-28-18.9 N",
		"longitude": "79-37-39.75 W",
		"state": "VIRGINIA",
		"artcc": "ZDC",
		"type": "RNAV",
		"updated": "05/02/2013"
	},
	{
		"name": "PICKE",
		"latitude": "40-0-13.32 N",
		"longitude": "74-11-36.04 W",
		"state": "NEW JERSEY",
		"artcc": "ZNY",
		"type": "RP",
		"updated": "CYN*VORTAC*054.48/15.68"
	},
	{
		"name": "PIDEE",
		"latitude": "35-39-46.18 N",
		"longitude": "77-7-58.23 W",
		"state": "NORTH CAROLINA",
		"artcc": "ZDC",
		"type": "RP",
		"updated": "ISO*VORTAC*054.88/27.20"
	},
	{
		"name": "PIDKE",
		"latitude": "34-30-42.94 N",
		"longitude": "77-29-41.07 W",
		"state": "NORTH CAROLINA",
		"artcc": "ZDC",
		"type": "MR",
		"updated": "NCA*TACAN*201.00/12.00"
	},
	{
		"name": "PIDVE",
		"latitude": "39-38-48.22 N",
		"longitude": "74-38-1.47 W",
		"state": "NEW JERSEY",
		"artcc": "ZDC",
		"type": "RNAV",
		"updated": "12/20/2012"
	},
	{
		"name": "PIGBE",
		"latitude": "39-19-51.26 N",
		"longitude": "76-36-3.38 W",
		"state": "MARYLAND",
		"artcc": "ZDC",
		"type": "RNAV",
		"updated": "05/20/2009"
	},
	{
		"name": "PIGGS",
		"latitude": "36-56-1.81 N",
		"longitude": "79-42-40.61 W",
		"state": "VIRGINIA",
		"artcc": "ZDC",
		"type": "RP",
		"updated": "ROA*VOR/DME*148.82/29.99"
	},
	{
		"name": "PILOE",
		"latitude": "37-9-32.7 N",
		"longitude": "77-13-58.44 W",
		"state": "VIRGINIA",
		"artcc": "ZDC",
		"type": "RNAV",
		"updated": "11/19/2012"
	},
	{
		"name": "PINEY",
		"latitude": "39-4-33.8 N",
		"longitude": "77-5-46.24 W",
		"state": "MARYLAND",
		"artcc": "ZDC",
		"type": "RNAV",
		"updated": "10/10/2017"
	},
	{
		"name": "PJAAE",
		"latitude": "38-31-51.36 N",
		"longitude": "78-39-20.34 W",
		"state": "VIRGINIA",
		"artcc": "ZDC",
		"type": "RNAV",
		"updated": "05/16/2013"
	},
	{
		"name": "PLDGE",
		"latitude": "39-9-51.33 N",
		"longitude": "78-21-58.72 W",
		"state": "VIRGINIA",
		"artcc": "ZDC",
		"type": "RNAV",
		"updated": "06/04/2012"
	},
	{
		"name": "PLEXI",
		"latitude": "36-27-42.8 N",
		"longitude": "80-0-22.33 W",
		"state": "NORTH CAROLINA",
		"artcc": "ZDC",
		"type": "RP",
		"updated": "DAN*VOR*265.00"
	},
	{
		"name": "PLNZR",
		"latitude": "38-0-25.34 N",
		"longitude": "76-18-18.52 W",
		"state": "MARYLAND",
		"artcc": "ZDC",
		"type": "RP",
		"updated": "PXT*VORTAC*175.00/17.42"
	},
	{
		"name": "PLUMO",
		"latitude": "37-8-43.32 N",
		"longitude": "76-7-14.75 W",
		"state": "VIRGINIA",
		"artcc": "ZDC",
		"type": "MR",
		"updated": "LFI*TACAN*082.55/12.00"
	},
	{
		"name": "POBDE",
		"latitude": "38-38-8.12 N",
		"longitude": "78-56-57.93 W",
		"state": "VIRGINIA",
		"artcc": "ZDC",
		"type": "RNAV",
		"updated": "07/13/2016"
	},
	{
		"name": "POBIC",
		"latitude": "35-54-54.87 N",
		"longitude": "78-44-5.28 W",
		"state": "NORTH CAROLINA",
		"artcc": "ZDC",
		"type": "RNAV",
		"updated": "03/27/2012"
	},
	{
		"name": "POCAB",
		"latitude": "36-47-19.11 N",
		"longitude": "77-34-12.36 W",
		"state": "VIRGINIA",
		"artcc": "ZDC",
		"type": "RNAV",
		"updated": "02/21/2014"
	},
	{
		"name": "POGKI",
		"latitude": "39-5-9.94 N",
		"longitude": "76-46-31.31 W",
		"state": "MARYLAND",
		"artcc": "ZDC",
		"type": "RNAV",
		"updated": "09/07/2005"
	},
	{
		"name": "POHIC",
		"latitude": "38-58-10.41 N",
		"longitude": "79-55-39.75 W",
		"state": "WEST VIRGINIA",
		"artcc": "ZDC",
		"type": "RNAV",
		"updated": "11/03/2009"
	},
	{
		"name": "POHIK",
		"latitude": "38-37-29.45 N",
		"longitude": "76-46-40.61 W",
		"state": "MARYLAND",
		"artcc": "ZDC",
		"type": "RNAV",
		"updated": "12/16/2014"
	},
	{
		"name": "POKEY",
		"latitude": "39-46-30.77 N",
		"longitude": "75-15-28.97 W",
		"state": "NEW JERSEY",
		"artcc": "ZDC",
		"type": "RP",
		"updated": "OOD*VORTAC*024.00/8.60"
	},
	{
		"name": "POKIY",
		"latitude": "38-23-28.72 N",
		"longitude": "77-27-4.32 W",
		"state": "VIRGINIA",
		"artcc": "ZDC",
		"type": "RP",
		"updated": "BRV*VORTAC*314.42/5.70"
	},
	{
		"name": "POLKK",
		"latitude": "38-48-52.28 N",
		"longitude": "77-22-35.2 W",
		"state": "VIRGINIA",
		"artcc": "ZDC",
		"type": "MW",
		"updated": "05/11/2015"
	},
	{
		"name": "POLLA",
		"latitude": "38-56-8.6 N",
		"longitude": "76-34-49.86 W",
		"state": "MARYLAND",
		"artcc": "ZDC",
		"type": "RP",
		"updated": "ADW*VORTAC*070.00/15.45"
	},
	{
		"name": "PONDE",
		"latitude": "40-0-13.8 N",
		"longitude": "74-43-37.98 W",
		"state": "NEW JERSEY",
		"artcc": "ZDC",
		"type": "RP",
		"updated": "CYN*VORTAC*319.42"
	},
	{
		"name": "PONSY",
		"latitude": "35-58-8.86 N",
		"longitude": "79-36-1.21 W",
		"state": "NORTH CAROLINA",
		"artcc": "ZDC",
		"type": "RNAV",
		"updated": "12/23/2013"
	},
	{
		"name": "POOCH",
		"latitude": "38-27-18.56 N",
		"longitude": "77-40-31.56 W",
		"state": "VIRGINIA",
		"artcc": "ZDC",
		"type": "RNAV",
		"updated": "04/04/2016"
	},
	{
		"name": "POOLE",
		"latitude": "39-6-57.98 N",
		"longitude": "77-25-47.65 W",
		"state": "MARYLAND",
		"artcc": "ZDC",
		"type": "RP",
		"updated": "MRB*VORTAC*137.00"
	},
	{
		"name": "POORK",
		"latitude": "36-34-11.34 N",
		"longitude": "77-35-21.39 W",
		"state": "VIRGINIA",
		"artcc": "ZDC",
		"type": "RNAV",
		"updated": "02/03/2009"
	},
	{
		"name": "POSTY",
		"latitude": "34-42-55.18 N",
		"longitude": "77-26-17.96 W",
		"state": "NORTH CAROLINA",
		"artcc": "ZDC",
		"type": "MR",
		"updated": "NCA*TACAN*019.00/0.50"
	},
	{
		"name": "POVAE",
		"latitude": "39-49-15.89 N",
		"longitude": "75-10-58.24 W",
		"state": "NEW JERSEY",
		"artcc": "ZDC",
		"type": "RNAV",
		"updated": "05/21/2003"
	},
	{
		"name": "POWLL",
		"latitude": "38-24-29.77 N",
		"longitude": "77-19-56.82 W",
		"state": "VIRGINIA",
		"artcc": "ZDC",
		"type": "MW",
		"updated": "08/02/2016"
	},
	{
		"name": "POWTN",
		"latitude": "37-30-29.85 N",
		"longitude": "77-56-56.76 W",
		"state": "VIRGINIA",
		"artcc": "ZDC",
		"type": "RNAV",
		"updated": "11/10/2014"
	},
	{
		"name": "PREAK",
		"latitude": "37-59-49.73 N",
		"longitude": "78-5-18.43 W",
		"state": "VIRGINIA",
		"artcc": "ZDC",
		"type": "RNAV",
		"updated": "09/23/2015"
	},
	{
		"name": "PREZZ",
		"latitude": "38-35-25.52 N",
		"longitude": "76-52-11.82 W",
		"state": "MARYLAND",
		"artcc": "ZDC",
		"type": "MR",
		"updated": "ADW*VORTAC*190.77/13.00"
	},
	{
		"name": "PRICE",
		"latitude": "39-5-26.3 N",
		"longitude": "75-51-1.17 W",
		"state": "MARYLAND",
		"artcc": "ZDC",
		"type": "RP",
		"updated": "BAL*VORTAC*108.00/38.17"
	},
	{
		"name": "PRILL",
		"latitude": "38-19-29.83 N",
		"longitude": "76-27-45.45 W",
		"state": "MARYLAND",
		"artcc": "ZDC",
		"type": "MR",
		"updated": "NHK*TACAN*327.00/3.60"
	},
	{
		"name": "PRISM",
		"latitude": "39-5-6.92 N",
		"longitude": "77-40-29.05 W",
		"state": "VIRGINIA",
		"artcc": "ZDC",
		"type": "RNAV",
		"updated": "08/24/2015"
	},
	{
		"name": "PROFS",
		"latitude": "38-22-59.93 N",
		"longitude": "75-53-7.82 W",
		"state": "MARYLAND",
		"artcc": "ZDC",
		"type": "RNAV",
		"updated": "06/09/2016"
	},
	{
		"name": "PROSE",
		"latitude": "37-27-59.89 N",
		"longitude": "79-43-37.45 W",
		"state": "VIRGINIA",
		"artcc": "ZDC",
		"type": "RP",
		"updated": "ROA*VOR/DME*069.68/18.00"
	},
	{
		"name": "PRSTN",
		"latitude": "36-1-40.36 N",
		"longitude": "78-36-42.97 W",
		"state": "NORTH CAROLINA",
		"artcc": "ZDC",
		"type": "RP",
		"updated": "DMP*LD*054.16/13.21"
	},
	{
		"name": "PRSTY",
		"latitude": "39-24-46.37 N",
		"longitude": "74-27-59.59 W",
		"state": "NEW JERSEY",
		"artcc": "ZDC",
		"type": "RP",
		"updated": "ACY*LD*128.01/6.71"
	},
	{
		"name": "PSALM",
		"latitude": "36-40-10.68 N",
		"longitude": "76-29-22.33 W",
		"state": "VIRGINIA",
		"artcc": "ZDC",
		"type": "RP",
		"updated": "ORF*VORTAC*233.39/19.28"
	},
	{
		"name": "PSOUT",
		"latitude": "39-50-6.14 N",
		"longitude": "74-55-57.16 W",
		"state": "NEW JERSEY",
		"artcc": "ZDC",
		"type": "RNAV",
		"updated": "04/06/2012"
	},
	{
		"name": "PTOMC",
		"latitude": "39-4-18.02 N",
		"longitude": "77-41-0.37 W",
		"state": "VIRGINIA",
		"artcc": "ZDC",
		"type": "RNAV",
		"updated": "04/07/2014"
	},
	{
		"name": "PUBBS",
		"latitude": "37-19-48.74 N",
		"longitude": "77-26-52.27 W",
		"state": "VIRGINIA",
		"artcc": "ZDC",
		"type": "RP",
		"updated": "HPW*VORTAC*276.39"
	},
	{
		"name": "PUFFE",
		"latitude": "38-54-34.23 N",
		"longitude": "76-52-15.4 W",
		"state": "MARYLAND",
		"artcc": "ZDC",
		"type": "MR",
		"updated": "ADW*VORTAC*/6.14"
	},
	{
		"name": "PUGLE",
		"latitude": "38-53-36.62 N",
		"longitude": "77-49-8.46 W",
		"state": "VIRGINIA",
		"artcc": "ZDC",
		"type": "RNAV",
		"updated": "05/04/2015"
	},
	{
		"name": "PUJKE",
		"latitude": "38-18-56.1 N",
		"longitude": "75-27-53.38 W",
		"state": "MARYLAND",
		"artcc": "ZDC",
		"type": "RNAV",
		"updated": "01/03/2011"
	},
	{
		"name": "PULDY",
		"latitude": "37-7-51.75 N",
		"longitude": "77-38-39.82 W",
		"state": "VIRGINIA",
		"artcc": "ZDC",
		"type": "RNAV",
		"updated": "10/19/2015"
	},
	{
		"name": "PUNGO",
		"latitude": "35-36-37.99 N",
		"longitude": "76-27-3.31 W",
		"state": "NORTH CAROLINA",
		"artcc": "ZDC",
		"type": "RP",
		"updated": "EWN*VOR/DME*050.00"
	},
	{
		"name": "PURME",
		"latitude": "35-47-33.52 N",
		"longitude": "78-53-9.9 W",
		"state": "NORTH CAROLINA",
		"artcc": "ZDC",
		"type": "RP",
		"updated": "RDU*LD*234.14/7.50"
	},
	{
		"name": "PUTIE",
		"latitude": "36-44-35.43 N",
		"longitude": "75-51-20.43 W",
		"state": "VIRGINIA",
		"artcc": "ZDC",
		"type": "MR",
		"updated": "NTU*TACAN*129.00/10.00"
	},
	{
		"name": "PUTTR",
		"latitude": "35-9-1.79 N",
		"longitude": "78-42-11.06 W",
		"state": "NORTH CAROLINA",
		"artcc": "ZDC",
		"type": "MR",
		"updated": "GSB*TACAN*258.00/40.00"
	},
	{
		"name": "PUTTS",
		"latitude": "39-49-54.08 N",
		"longitude": "74-54-1.57 W",
		"state": "NEW JERSEY",
		"artcc": "ZDC",
		"type": "RNAV",
		"updated": "05/31/2000"
	},
	{
		"name": "PUTTY",
		"latitude": "34-9-40 N",
		"longitude": "77-32-37 W",
		"state": "OFFSHORE ATLANTIC",
		"artcc": "ZDC",
		"type": "WP",
		"updated": "03/26/2002"
	},
	{
		"name": "PUXEE",
		"latitude": "36-2-35.97 N",
		"longitude": "79-39-7.95 W",
		"state": "NORTH CAROLINA",
		"artcc": "ZDC",
		"type": "RNAV",
		"updated": "10/30/2013"
	},
	{
		"name": "PUYIK",
		"latitude": "39-21-58.18 N",
		"longitude": "76-27-56.3 W",
		"state": "MARYLAND",
		"artcc": "ZDC",
		"type": "RNAV",
		"updated": "11/22/2010"
	},
	{
		"name": "PYTON",
		"latitude": "39-42-38.01 N",
		"longitude": "78-18-10.19 W",
		"state": "MARYLAND",
		"artcc": "ZDC",
		"type": "RNAV",
		"updated": "02/23/2017"
	}
]
