	{
		"name": "RAANE",
		"latitude": "35-9-21.97 N",
		"longitude": "79-41-33.9 W",
		"state": "NORTH CAROLINA",
		"artcc": "ZDC",
		"type": "RNAV",
		"updated": "01/16/2014",
	},
	{
		"name": "RAAYY",
		"latitude": "39-12-25.88 N",
		"longitude": "76-23-37.09 W",
		"state": "MARYLAND",
		"artcc": "ZDC",
		"type": "RNAV",
		"updated": "02/01/2016",
	},
	{
		"name": "RABIE",
		"latitude": "36-44-24.81 N",
		"longitude": "76-6-17.31 W",
		"state": "VIRGINIA",
		"artcc": "ZDC",
		"type": "MR",
		"updated": "NTU*TACAN*223.00/6.00",
	},
	{
		"name": "RABVE",
		"latitude": "38-55-56.52 N",
		"longitude": "75-22-55.36 W",
		"state": "DELAWARE",
		"artcc": "ZDC",
		"type": "RP",
		"updated": "ENO*VORTAC*169.73/19.00",
	},
	{
		"name": "RACOL",
		"latitude": "37-11-50.4 N",
		"longitude": "76-42-39.91 W",
		"state": "VIRGINIA",
		"artcc": "ZDC",
		"type": "MW",
		"updated": "10/15/2008",
	},
	{
		"name": "RACOT",
		"latitude": "37-13-24.04 N",
		"longitude": "76-28-16.61 W",
		"state": "VIRGINIA",
		"artcc": "ZDC",
		"type": "RP",
		"updated": "FJQ*LE*N CRS/6.25",
	},
	{
		"name": "RADDS",
		"latitude": "38-38-54.8 N",
		"longitude": "75-5-18.48 W",
		"state": "DELAWARE",
		"artcc": "ZDC",
		"type": "RP",
		"updated": "SIE*VORTAC*215.84/30.00",
	},
	{
		"name": "RADEE",
		"latitude": "39-59-5.8 N",
		"longitude": "75-19-13.27 W",
		"state": "PENNSYLVANIA",
		"artcc": "ZDC",
		"type": "WP",
		"updated": "OOD*VORTAC*008.00/20.90",
	},
	{
		"name": "RADGE",
		"latitude": "38-56-32.38 N",
		"longitude": "77-29-28.29 W",
		"state": "VIRGINIA",
		"artcc": "ZDC",
		"type": "RP",
		"updated": "AML*VOR/DME*300.01/1.24",
	},
	{
		"name": "RADIA",
		"latitude": "37-36-16.35 N",
		"longitude": "79-20-16.85 W",
		"state": "VIRGINIA",
		"artcc": "ZDC",
		"type": "RP",
		"updated": "ROA*VOR/DME*069.68/38.32",
	},
	{
		"name": "RADIE",
		"latitude": "35-37-6.77 N",
		"longitude": "77-25-58.55 W",
		"state": "NORTH CAROLINA",
		"artcc": "ZDC",
		"type": "RNAV",
		"updated": "02/03/2009",
	},
	{
		"name": "RAEFO",
		"latitude": "34-57-45.56 N",
		"longitude": "79-22-52.73 W",
		"state": "NORTH CAROLINA",
		"artcc": "ZDC",
		"type": "RP",
		"updated": "FAY*VOR/DME*271.00/25.00",
	},
	{
		"name": "RAGCO",
		"latitude": "37-18-0.99 N",
		"longitude": "77-11-42.4 W",
		"state": "VIRGINIA",
		"artcc": "ZDC",
		"type": "RP",
		"updated": "HPW*VORTAC*251.69/4.16",
	},
	{
		"name": "RAGOC",
		"latitude": "38-17-43.64 N",
		"longitude": "76-23-39.87 W",
		"state": "MARYLAND",
		"artcc": "ZDC",
		"type": "MW",
		"updated": "08/28/2015",
	},
	{
		"name": "RAIMY",
		"latitude": "38-12-36 N",
		"longitude": "76-59-41 W",
		"state": "VIRGINIA",
		"artcc": "ZDC",
		"type": "RNAV",
		"updated": "10/22/2001",
	},
	{
		"name": "RAISN",
		"latitude": "39-2-24.55 N",
		"longitude": "76-39-18.37 W",
		"state": "MARYLAND",
		"artcc": "ZDC",
		"type": "RNAV",
		"updated": "12/10/2015",
	},
	{
		"name": "RALOC",
		"latitude": "37-7-36.69 N",
		"longitude": "77-34-22.26 W",
		"state": "VIRGINIA",
		"artcc": "ZDC",
		"type": "RP",
		"updated": "PTB*NDB*150.49",
	},
	{
		"name": "RAMAY",
		"latitude": "38-57-38.57 N",
		"longitude": "78-12-59.01 W",
		"state": "VIRGINIA",
		"artcc": "ZDC",
		"type": "RNAV",
		"updated": "05/04/2015",
	},
	{
		"name": "RAMEE",
		"latitude": "40-4-19.38 N",
		"longitude": "74-17-33.06 W",
		"state": "NEW JERSEY",
		"artcc": "ZNY",
		"type": "MW",
		"updated": "06/04/2014",
	},
	{
		"name": "RAMKE",
		"latitude": "37-14-59.26 N",
		"longitude": "80-9-55.67 W",
		"state": "VIRGINIA",
		"artcc": "ZDC",
		"type": "RP",
		"updated": "SZK*DD*252.25/9.96",
	},
	{
		"name": "RANJR",
		"latitude": "38-28-2.97 N",
		"longitude": "79-2-20.08 W",
		"state": "VIRGINIA",
		"artcc": "ZDC",
		"type": "RNAV",
		"updated": "06/04/2012",
	},
	{
		"name": "RANRE",
		"latitude": "39-26-25.61 N",
		"longitude": "75-43-48.22 W",
		"state": "DELAWARE",
		"artcc": "ZDC",
		"type": "RP",
		"updated": "ENO*VORTAC*330.54/16.00",
	},
	{
		"name": "RANSM",
		"latitude": "39-39-25.02 N",
		"longitude": "75-28-37.7 W",
		"state": "NEW JERSEY",
		"artcc": "ZDC",
		"type": "RNAV",
		"updated": "04/06/2012",
	},
	{
		"name": "RAPEN",
		"latitude": "34-19-18.1 N",
		"longitude": "78-21-47.41 W",
		"state": "NORTH CAROLINA",
		"artcc": "ZDC",
		"type": "RP",
		"updated": "ILM*VORTAC*272.91/24.35",
	},
	{
		"name": "RAPME",
		"latitude": "34-46-34.79 N",
		"longitude": "77-23-1.43 W",
		"state": "NORTH CAROLINA",
		"artcc": "ZDC",
		"type": "MR",
		"updated": "NCA*TACAN*042.00/5.00",
	},
	{
		"name": "RAPTR",
		"latitude": "37-10-5 N",
		"longitude": "75-30-0 W",
		"state": "VIRGINIA",
		"artcc": "ZDC",
		"type": "RP",
		"updated": "LFI*TACAN*092.90/41.53",
	},
	{
		"name": "RAPVY",
		"latitude": "34-40-10.77 N",
		"longitude": "78-22-22.24 W",
		"state": "NORTH CAROLINA",
		"artcc": "ZDC",
		"type": "RP",
		"updated": "FAY*VOR/DME*131.19/31.20",
	},
	{
		"name": "RARVE",
		"latitude": "38-54-56.27 N",
		"longitude": "78-15-9.38 W",
		"state": "VIRGINIA",
		"artcc": "ZDC",
		"type": "RP",
		"updated": "LDN*VORTAC*335.00/4.28",
	},
	{
		"name": "RARVY",
		"latitude": "36-26-2.42 N",
		"longitude": "79-50-51.34 W",
		"state": "NORTH CAROLINA",
		"artcc": "ZDC",
		"type": "RP",
		"updated": "GSO*VORTAC*018.00/24.09",
	},
	{
		"name": "RASKL",
		"latitude": "35-34-22.86 N",
		"longitude": "79-16-26.75 W",
		"state": "NORTH CAROLINA",
		"artcc": "ZDC",
		"type": "RNAV",
		"updated": "07/27/2010",
	},
	{
		"name": "RASKY",
		"latitude": "36-56-18.48 N",
		"longitude": "76-18-52.74 W",
		"state": "VIRGINIA",
		"artcc": "ZDC",
		"type": "MR",
		"updated": "NGU*TACAN*277.00/1.80",
	},
	{
		"name": "RAVNN",
		"latitude": "38-48-15.99 N",
		"longitude": "76-31-4.91 W",
		"state": "MARYLAND",
		"artcc": "ZDC",
		"type": "RP",
		"updated": "BAL*VORTAC*174.00/22.98",
	},
	{
		"name": "RAYEE",
		"latitude": "39-4-10.88 N",
		"longitude": "77-21-30.14 W",
		"state": "MARYLAND",
		"artcc": "ZDC",
		"type": "RP",
		"updated": "MRB*VORTAC*136.50/29.67",
	},
	{
		"name": "RAZER",
		"latitude": "39-21-22.35 N",
		"longitude": "76-0-34.71 W",
		"state": "MARYLAND",
		"artcc": "ZDC",
		"type": "RNAV",
		"updated": "10/30/2012",
	},
	{
		"name": "RAZZA",
		"latitude": "39-14-16.08 N",
		"longitude": "77-17-44.94 W",
		"state": "MARYLAND",
		"artcc": "ZDC",
		"type": "RNAV",
		"updated": "12/11/2015",
	},
	{
		"name": "RAZZZ",
		"latitude": "39-8-49.1 N",
		"longitude": "78-11-47.55 W",
		"state": "VIRGINIA",
		"artcc": "ZDC",
		"type": "RP",
		"updated": "ESL*VOR/DME*103.00/37.29",
	},
	{
		"name": "RCHLE",
		"latitude": "38-53-47.55 N",
		"longitude": "77-27-37.43 W",
		"state": "VIRGINIA",
		"artcc": "ZDC",
		"type": "RP",
		"updated": "AML*VOR/DME*/2.30",
	},
	{
		"name": "REACH",
		"latitude": "38-48-58.46 N",
		"longitude": "80-23-48.6 W",
		"state": "WEST VIRGINIA",
		"artcc": "ZDC",
		"type": "RP",
		"updated": "EKN*VORTAC*254.21/15.14",
	},
	{
		"name": "REACT",
		"latitude": "39-33-47.9 N",
		"longitude": "74-10-16.98 W",
		"state": "NEW JERSEY",
		"artcc": "ZDC",
		"type": "RNAV",
		"updated": "07/16/2015",
	},
	{
		"name": "READE",
		"latitude": "37-16-55.53 N",
		"longitude": "78-19-43.84 W",
		"state": "VIRGINIA",
		"artcc": "ZDC",
		"type": "RP",
		"updated": "MOL*VOR/DME*139.73",
	},
	{
		"name": "REBLL",
		"latitude": "38-50-42.79 N",
		"longitude": "77-53-8.73 W",
		"state": "VIRGINIA",
		"artcc": "ZDC",
		"type": "RNAV",
		"updated": "05/04/2015",
	},
	{
		"name": "RECUF",
		"latitude": "38-49-54.36 N",
		"longitude": "78-21-18.52 W",
		"state": "VIRGINIA",
		"artcc": "ZDC",
		"type": "RNAV",
		"updated": "02/06/2012",
	},
	{
		"name": "REDNG",
		"latitude": "37-42-46.66 N",
		"longitude": "78-13-49.96 W",
		"state": "VIRGINIA",
		"artcc": "ZDC",
		"type": "RNAV",
		"updated": "11/10/2014",
	},
	{
		"name": "REDTO",
		"latitude": "39-32-55.11 N",
		"longitude": "76-6-36.29 W",
		"state": "MARYLAND",
		"artcc": "ZDC",
		"type": "MW",
		"updated": "02/05/2018",
	},
	{
		"name": "REEES",
		"latitude": "39-47-51.75 N",
		"longitude": "77-45-56.31 W",
		"state": "PENNSYLVANIA",
		"artcc": "ZDC",
		"type": "RNAV",
		"updated": "08/19/2013",
	},
	{
		"name": "REGEE",
		"latitude": "36-56-8.28 N",
		"longitude": "76-22-51.89 W",
		"state": "VIRGINIA",
		"artcc": "ZDC",
		"type": "MR",
		"updated": "NGU*TACAN*277.00/5.00",
	},
	{
		"name": "REGIS",
		"latitude": "37-36-48.92 N",
		"longitude": "77-24-3.73 W",
		"state": "VIRGINIA",
		"artcc": "ZDC",
		"type": "RP",
		"updated": "FAK*VORTAC*081.82",
	},
	{
		"name": "REIDE",
		"latitude": "36-18-53.47 N",
		"longitude": "79-34-6.06 W",
		"state": "NORTH CAROLINA",
		"artcc": "ZDC",
		"type": "RP",
		"updated": "GSO*VORTAC*053.74/25.55",
	},
	{
		"name": "RELEE",
		"latitude": "37-48-56.18 N",
		"longitude": "79-23-59.13 W",
		"state": "VIRGINIA",
		"artcc": "ZDC",
		"type": "RP",
		"updated": "MOL*VOR/DME*255.00",
	},
	{
		"name": "RELPY",
		"latitude": "35-12-45.7 N",
		"longitude": "79-47-28.76 W",
		"state": "NORTH CAROLINA",
		"artcc": "ZDC",
		"type": "RP",
		"updated": "CTF*VOR/DME*038.18",
	},
	{
		"name": "RENDE",
		"latitude": "34-41-52.1 N",
		"longitude": "77-27-25.41 W",
		"state": "NORTH CAROLINA",
		"artcc": "ZDC",
		"type": "MR",
		"updated": "NCA*TACAN*244.00/1.00",
	},
	{
		"name": "RERSE",
		"latitude": "37-43-30.83 N",
		"longitude": "75-43-9.1 W",
		"state": "VIRGINIA",
		"artcc": "ZDC",
		"type": "RNAV",
		"updated": "08/28/2007",
	},
	{
		"name": "RESTE",
		"latitude": "36-27-49.1 N",
		"longitude": "77-29-2.83 W",
		"state": "NORTH CAROLINA",
		"artcc": "ZDC",
		"type": "RNAV",
		"updated": "05/12/2017",
	},
	{
		"name": "RESVR",
		"latitude": "38-54-22.5 N",
		"longitude": "77-5-31.5 W",
		"state": "VIRGINIA",
		"artcc": "ZDC",
		"type": "RNAV",
		"updated": "05/02/2010",
	},
	{
		"name": "REVOE",
		"latitude": "38-54-57.42 N",
		"longitude": "76-42-44.29 W",
		"state": "MARYLAND",
		"artcc": "ZDC",
		"type": "RNAV",
		"updated": "10/22/2015",
	},
	{
		"name": "REXEE",
		"latitude": "38-41-26.7 N",
		"longitude": "77-1-20.49 W",
		"state": "VIRGINIA",
		"artcc": "ZDC",
		"type": "RP",
		"updated": "BRV*VORTAC*045.12",
	},
	{
		"name": "REXEY",
		"latitude": "35-7-56.41 N",
		"longitude": "78-55-43.53 W",
		"state": "NORTH CAROLINA",
		"artcc": "ZDC",
		"type": "WP",
		"updated": "11/05/1998",
	},
	{
		"name": "REXOE",
		"latitude": "39-21-33.17 N",
		"longitude": "77-28-7.54 W",
		"state": "MARYLAND",
		"artcc": "ZDC",
		"type": "RNAV",
		"updated": "07/25/2014",
	},
	{
		"name": "REXUE",
		"latitude": "36-10-9.66 N",
		"longitude": "75-56-33.36 W",
		"state": "NORTH CAROLINA",
		"artcc": "ZDC",
		"type": "RNAV",
		"updated": "02/13/2003",
	},
	{
		"name": "RFLAT",
		"latitude": "38-12-1.04 N",
		"longitude": "78-48-0.19 W",
		"state": "VIRGINIA",
		"artcc": "ZDC",
		"type": "RNAV",
		"updated": "01/22/2010",
	},
	{
		"name": "RHODE",
		"latitude": "38-15-18.24 N",
		"longitude": "79-22-44.53 W",
		"state": "VIRGINIA",
		"artcc": "ZDC",
		"type": "RP",
		"updated": "CSN*VORTAC*258.50/75.00",
	},
	{
		"name": "RIANT",
		"latitude": "37-57-29.19 N",
		"longitude": "79-51-20.75 W",
		"state": "VIRGINIA",
		"artcc": "ZDC",
		"type": "RNAV",
		"updated": "04/11/2018",
	},
	{
		"name": "RICCS",
		"latitude": "38-55-14.65 N",
		"longitude": "80-5-1.68 W",
		"state": "WEST VIRGINIA",
		"artcc": "ZDC",
		"type": "RNAV",
		"updated": "10/08/2014",
	},
	{
		"name": "RICKE",
		"latitude": "39-28-26.65 N",
		"longitude": "77-18-33.87 W",
		"state": "MARYLAND",
		"artcc": "ZDC",
		"type": "RP",
		"updated": "EMI*VORTAC*273.44",
	},
	{
		"name": "RIDDS",
		"latitude": "36-16-24.43 N",
		"longitude": "76-16-36.45 W",
		"state": "NORTH CAROLINA",
		"artcc": "ZDC",
		"type": "RP",
		"updated": "ECG*VOR/DME*288.00/5.00",
	},
	{
		"name": "RIDER",
		"latitude": "39-9-31.56 N",
		"longitude": "80-21-47.61 W",
		"state": "WEST VIRGINIA",
		"artcc": "ZDC",
		"type": "RP",
		"updated": "EKN*VORTAC*326.97",
	},
	{
		"name": "RIDGY",
		"latitude": "38-56-34.71 N",
		"longitude": "75-47-23.33 W",
		"state": "MARYLAND",
		"artcc": "ZDC",
		"type": "RP",
		"updated": "ENO*VORTAC*225.56/21.52",
	},
	{
		"name": "RIGNZ",
		"latitude": "39-9-32.27 N",
		"longitude": "77-18-23.9 W",
		"state": "MARYLAND",
		"artcc": "ZDC",
		"type": "RNAV",
		"updated": "03/11/2015",
	},
	{
		"name": "RIGWA",
		"latitude": "37-56-44.71 N",
		"longitude": "80-19-16.54 W",
		"state": "WEST VIRGINIA",
		"artcc": "ZDC",
		"type": "RNAV",
		"updated": "07/22/2009",
	},
	{
		"name": "RIGYO",
		"latitude": "39-58-0.79 N",
		"longitude": "74-50-53.43 W",
		"state": "NEW JERSEY",
		"artcc": "ZDC",
		"type": "CN",
		"updated": "06/27/2011",
	},
	{
		"name": "RIISE",
		"latitude": "39-0-33.66 N",
		"longitude": "76-39-41.13 W",
		"state": "MARYLAND",
		"artcc": "ZDC",
		"type": "RNAV",
		"updated": "03/11/2015",
	},
	{
		"name": "RIKME",
		"latitude": "38-38-30.71 N",
		"longitude": "76-11-19.5 W",
		"state": "MARYLAND",
		"artcc": "ZDC",
		"type": "RP",
		"updated": "FGH*LD*220.50/11.82",
	},
	{
		"name": "RILLO",
		"latitude": "37-1-4.12 N",
		"longitude": "76-9-55.8 W",
		"state": "VIRGINIA",
		"artcc": "ZDC",
		"type": "RNAV",
		"updated": "12/04/2017",
	},
	{
		"name": "RIMUE",
		"latitude": "37-51-20.49 N",
		"longitude": "75-31-39.38 W",
		"state": "VIRGINIA",
		"artcc": "ZDC",
		"type": "RNAV",
		"updated": "08/15/2013",
	},
	{
		"name": "RINOE",
		"latitude": "38-59-6.8 N",
		"longitude": "77-10-36.6 W",
		"state": "MARYLAND",
		"artcc": "ZDC",
		"type": "RNAV",
		"updated": "06/24/2010",
	},
	{
		"name": "RIPKN",
		"latitude": "38-55-54.22 N",
		"longitude": "76-34-3.31 W",
		"state": "MARYLAND",
		"artcc": "ZDC",
		"type": "RP",
		"updated": "BAL*VORTAC*174.00/15.00",
	},
	{
		"name": "RIPPS",
		"latitude": "37-12-53.07 N",
		"longitude": "76-19-22.96 W",
		"state": "VIRGINIA",
		"artcc": "ZDC",
		"type": "RP",
		"updated": "HCM*VORTAC*133.91/23.28",
	},
	{
		"name": "RISSO",
		"latitude": "35-48-26.58 N",
		"longitude": "78-42-0.22 W",
		"state": "NORTH CAROLINA",
		"artcc": "ZDC",
		"type": "RNAV",
		"updated": "12/13/2002",
	},
	{
		"name": "RISVE",
		"latitude": "38-14-37.4 N",
		"longitude": "77-17-10.94 W",
		"state": "VIRGINIA",
		"artcc": "ZDC",
		"type": "RNAV",
		"updated": "01/24/2005",
	},
	{
		"name": "RIVEE",
		"latitude": "37-36-27.22 N",
		"longitude": "77-6-22.56 W",
		"state": "VIRGINIA",
		"artcc": "ZDC",
		"type": "RNAV",
		"updated": "01/18/2011",
	},
	{
		"name": "RIVKE",
		"latitude": "38-14-29.37 N",
		"longitude": "78-50-22.68 W",
		"state": "VIRGINIA",
		"artcc": "ZDC",
		"type": "RNAV",
		"updated": "01/23/2010",
	},
	{
		"name": "RIVRE",
		"latitude": "37-10-27.51 N",
		"longitude": "80-21-34.56 W",
		"state": "VIRGINIA",
		"artcc": "ZDC",
		"type": "RNAV",
		"updated": "11/01/2001",
	},
	{
		"name": "RIXOE",
		"latitude": "34-54-55.67 N",
		"longitude": "76-41-18.74 W",
		"state": "NORTH CAROLINA",
		"artcc": "ZDC",
		"type": "RNAV",
		"updated": "03/23/2013",
	},
	{
		"name": "RLLLL",
		"latitude": "38-50-55.11 N",
		"longitude": "77-18-20.23 W",
		"state": "VIRGINIA",
		"artcc": "ZDC",
		"type": "RNAV",
		"updated": "05/01/2015",
	},
	{
		"name": "RMACK",
		"latitude": "35-57-1.61 N",
		"longitude": "76-36-57.91 W",
		"state": "NORTH CAROLINA",
		"artcc": "ZDC",
		"type": "RP",
		"updated": "TYI*VORTAC*096.39/53.00",
	},
	{
		"name": "RNLDI",
		"latitude": "38-46-54.65 N",
		"longitude": "77-54-39.33 W",
		"state": "VIRGINIA",
		"artcc": "ZDC",
		"type": "RNAV",
		"updated": "12/28/2012",
	},
	{
		"name": "ROAPS",
		"latitude": "39-7-48.1 N",
		"longitude": "76-29-43.72 W",
		"state": "MARYLAND",
		"artcc": "ZDC",
		"type": "RNAV",
		"updated": "09/23/2014",
	},
	{
		"name": "ROBOY",
		"latitude": "37-10-39.72 N",
		"longitude": "76-29-3.35 W",
		"state": "VIRGINIA",
		"artcc": "ZDC",
		"type": "RP",
		"updated": "11/19/2010",
	},
	{
		"name": "ROBRT",
		"latitude": "39-36-57.77 N",
		"longitude": "77-22-4.55 W",
		"state": "MARYLAND",
		"artcc": "ZDC",
		"type": "RP",
		"updated": "EMI*VORTAC*300.00",
	},
	{
		"name": "ROCKA",
		"latitude": "38-2-33.59 N",
		"longitude": "80-23-21.18 W",
		"state": "WEST VIRGINIA",
		"artcc": "ZDC",
		"type": "RP",
		"updated": "BKW*VOR/DME*071.50/38.25",
	},
	{
		"name": "RODDI",
		"latitude": "39-27-11.47 N",
		"longitude": "74-17-23.98 W",
		"state": "NEW JERSEY",
		"artcc": "ZDC",
		"type": "RNAV",
		"updated": "08/13/2008",
	},
	{
		"name": "ROGCO",
		"latitude": "35-46-37.52 N",
		"longitude": "77-52-28.3 W",
		"state": "NORTH CAROLINA",
		"artcc": "ZDC",
		"type": "RNAV",
		"updated": "02/12/2008",
	},
	{
		"name": "ROKIE",
		"latitude": "35-19-15.43 N",
		"longitude": "78-1-47.64 W",
		"state": "NORTH CAROLINA",
		"artcc": "ZDC",
		"type": "RP",
		"updated": "GSB*TACAN*261.49/3.00",
	},
	{
		"name": "ROKTT",
		"latitude": "39-27-7.15 N",
		"longitude": "77-13-32.84 W",
		"state": "MARYLAND",
		"artcc": "ZDC",
		"type": "RNAV",
		"updated": "09/23/2014",
	},
	{
		"name": "ROMAN",
		"latitude": "37-48-12.67 N",
		"longitude": "78-46-3.24 W",
		"state": "VIRGINIA",
		"artcc": "ZDC",
		"type": "RP",
		"updated": "MOL*VOR/DME*114.72/17.14",
	},
	{
		"name": "ROMMA",
		"latitude": "34-40-29.19 N",
		"longitude": "75-30-21.62 W",
		"state": "NORTH CAROLINA",
		"artcc": "ZDC",
		"type": "RP",
		"updated": "NKT*TACAN*110.00/69.00",
	},
	{
		"name": "RONKE",
		"latitude": "36-40-21.98 N",
		"longitude": "76-42-42.65 W",
		"state": "VIRGINIA",
		"artcc": "ZDC",
		"type": "RNAV",
		"updated": "08/07/2014",
	},
	{
		"name": "RONZZ",
		"latitude": "38-33-16.08 N",
		"longitude": "80-7-56.63 W",
		"state": "WEST VIRGINIA",
		"artcc": "ZDC",
		"type": "RNAV",
		"updated": "07/01/2013",
	},
	{
		"name": "ROOKY",
		"latitude": "37-44-24.26 N",
		"longitude": "77-42-17.5 W",
		"state": "VIRGINIA",
		"artcc": "ZDC",
		"type": "RP",
		"updated": "FAK*VORTAC*030.84",
	},
	{
		"name": "ROSOY",
		"latitude": "35-51-59.15 N",
		"longitude": "78-41-46.03 W",
		"state": "NORTH CAROLINA",
		"artcc": "ZDC",
		"type": "RNAV",
		"updated": "08/01/2011",
	},
	{
		"name": "ROSSI",
		"latitude": "39-19-58.66 N",
		"longitude": "78-14-11.26 W",
		"state": "VIRGINIA",
		"artcc": "ZDC",
		"type": "RP",
		"updated": "MRB*VORTAC*/18.33",
	},
	{
		"name": "ROWEL",
		"latitude": "34-41-41.68 N",
		"longitude": "79-10-45.73 W",
		"state": "NORTH CAROLINA",
		"artcc": "ZDC",
		"type": "RP",
		"updated": "FAY*VOR/DME*224.89/23.00",
	},
	{
		"name": "ROWNN",
		"latitude": "36-14-22.92 N",
		"longitude": "77-39-9.79 W",
		"state": "NORTH CAROLINA",
		"artcc": "ZDC",
		"type": "RP",
		"updated": "TYI*VORTAC*013.93/15.95",
	},
	{
		"name": "ROWZO",
		"latitude": "35-47-24.24 N",
		"longitude": "75-49-10.8 W",
		"state": "NORTH CAROLINA",
		"artcc": "ZDC",
		"type": "RNAV",
		"updated": "10/21/2011",
	},
	{
		"name": "ROZBO",
		"latitude": "34-57-23.78 N",
		"longitude": "78-37-37.22 W",
		"state": "NORTH CAROLINA",
		"artcc": "ZDC",
		"type": "RP",
		"updated": "FAY*VOR/DME*102.00/12.35",
	},
	{
		"name": "RREGN",
		"latitude": "38-43-21.54 N",
		"longitude": "76-52-13.29 W",
		"state": "MARYLAND",
		"artcc": "ZDC",
		"type": "RNAV",
		"updated": "11/29/2004",
	},
	{
		"name": "RROLL",
		"latitude": "39-27-50.44 N",
		"longitude": "75-18-35.08 W",
		"state": "NEW JERSEY",
		"artcc": "ZDC",
		"type": "RNAV",
		"updated": "10/25/2012",
	},
	{
		"name": "RRSIN",
		"latitude": "36-57-7.34 N",
		"longitude": "79-3-32.54 W",
		"state": "VIRGINIA",
		"artcc": "ZDC",
		"type": "RNAV",
		"updated": "04/04/2016",
	},
	{
		"name": "RUANE",
		"latitude": "39-26-46 N",
		"longitude": "77-22-26.34 W",
		"state": "MARYLAND",
		"artcc": "ZDC",
		"type": "RP",
		"updated": "MRB*VORTAC*087.51/22.35",
	},
	{
		"name": "RUBRE",
		"latitude": "36-43-36.96 N",
		"longitude": "75-49-10.01 W",
		"state": "VIRGINIA",
		"artcc": "ZDC",
		"type": "MR",
		"updated": "NTU*TACAN*129.00/10.00",
	},
	{
		"name": "RUDJU",
		"latitude": "40-12-22.05 N",
		"longitude": "74-29-49.36 W",
		"state": "NEW JERSEY",
		"artcc": "ZDC",
		"type": "RNAV",
		"updated": "04/19/2012",
	},
	{
		"name": "RUDKE",
		"latitude": "36-12-41.26 N",
		"longitude": "75-50-4.15 W",
		"state": "NORTH CAROLINA",
		"artcc": "ZDC",
		"type": "MR",
		"updated": "NTU*TACAN*175.00/38.00",
	},
	{
		"name": "RUFYO",
		"latitude": "37-41-35.12 N",
		"longitude": "80-32-47.89 W",
		"state": "WEST VIRGINIA",
		"artcc": "ZDC",
		"type": "RNAV",
		"updated": "07/22/2009",
	},
	{
		"name": "RUKRR",
		"latitude": "36-33-0.47 N",
		"longitude": "77-29-22.43 W",
		"state": "VIRGINIA",
		"artcc": "ZDC",
		"type": "RNAV",
		"updated": "12/01/2015",
	},
	{
		"name": "RUPDE",
		"latitude": "39-28-39.42 N",
		"longitude": "75-8-30.42 W",
		"state": "NEW JERSEY",
		"artcc": "ZDC",
		"type": "RNAV",
		"updated": "04/12/2006",
	},
	{
		"name": "RUREE",
		"latitude": "35-38-16.25 N",
		"longitude": "77-47-3.26 W",
		"state": "NORTH CAROLINA",
		"artcc": "ZDC",
		"type": "RP",
		"updated": "ISO*VORTAC*330.38",
	},
	{
		"name": "RUSEY",
		"latitude": "39-16-6.69 N",
		"longitude": "76-11-19.02 W",
		"state": "MARYLAND",
		"artcc": "ZDC",
		"type": "RNAV",
		"updated": "06/08/2011",
	},
	{
		"name": "RUSHS",
		"latitude": "36-45-32.54 N",
		"longitude": "77-32-40.79 W",
		"state": "VIRGINIA",
		"artcc": "ZDC",
		"type": "RNAV",
		"updated": "02/10/2012",
	},
	{
		"name": "RUSIE",
		"latitude": "36-48-30.49 N",
		"longitude": "76-24-18.2 W",
		"state": "VIRGINIA",
		"artcc": "ZDC",
		"type": "MR",
		"updated": "NGU*TACAN*228.00/10.00",
	},
	{
		"name": "RUSSL",
		"latitude": "37-29-49.15 N",
		"longitude": "77-22-8.65 W",
		"state": "VIRGINIA",
		"artcc": "ZDC",
		"type": "RP",
		"updated": "FAK*VORTAC*100.79/22.00",
	},
	{
		"name": "RUTBY",
		"latitude": "35-14-5.96 N",
		"longitude": "77-54-48.1 W",
		"state": "NORTH CAROLINA",
		"artcc": "ZDC",
		"type": "RNAV",
		"updated": "05/23/2011",
	},
	{
		"name": "RUTHE",
		"latitude": "39-16-28.29 N",
		"longitude": "76-27-38.78 W",
		"state": "MARYLAND",
		"artcc": "ZDC",
		"type": "RNAV",
		"updated": "09/23/2014",
	},
	{
		"name": "RUTLD",
		"latitude": "37-23-8.25 N",
		"longitude": "77-19-41.93 W",
		"state": "VIRGINIA",
		"artcc": "ZDC",
		"type": "RNAV",
		"updated": "06/19/2014",
	},
	{
		"name": "RUUTH",
		"latitude": "39-51-1.24 N",
		"longitude": "74-59-59.17 W",
		"state": "NEW JERSEY",
		"artcc": "ZDC",
		"type": "RP",
		"updated": "ARD*VOR/DME*200.00/24.53",
	},
	{
		"name": "RUUTT",
		"latitude": "38-8-29.88 N",
		"longitude": "78-59-12.24 W",
		"state": "VIRGINIA",
		"artcc": "ZDC",
		"type": "RNAV",
		"updated": "01/30/2001",
	},
	{
		"name": "RUVNE",
		"latitude": "37-3-43.23 N",
		"longitude": "76-8-6.96 W",
		"state": "VIRGINIA",
		"artcc": "ZDC",
		"type": "MR",
		"updated": "NGU*TACAN*053.00/10.00",
	},
	{
		"name": "RUZLY",
		"latitude": "34-56-6.54 N",
		"longitude": "80-1-39.77 W",
		"state": "NORTH CAROLINA",
		"artcc": "ZDC",
		"type": "RP",
		"updated": "CTF*VOR/DME*038.55",
	},
	{
		"name": "RYPIN",
		"latitude": "38-55-19.8 N",
		"longitude": "77-56-6.82 W",
		"state": "VIRGINIA",
		"artcc": "ZDC",
		"type": "RNAV",
		"updated": "06/01/2012",
	},
