	{
		"name": "UBOLE",
		"latitude": "38-43-20.58 N",
		"longitude": "76-38-4.72 W",
		"state": "MARYLAND",
		"artcc": "ZDC",
		"type": "MR",
		"updated": "ADW*VORTAC*125.00/12.00",
	},
	{
		"name": "UBWAY",
		"latitude": "36-35-14 N",
		"longitude": "79-55-3.89 W",
		"state": "VIRGINIA",
		"artcc": "ZDC",
		"type": "RNAV",
		"updated": "08/17/2010",
	},
	{
		"name": "UCELU",
		"latitude": "36-17-35.54 N",
		"longitude": "78-38-2.94 W",
		"state": "NORTH CAROLINA",
		"artcc": "ZDC",
		"type": "RNAV",
		"updated": "01/29/2015",
	},
	{
		"name": "UCGEL",
		"latitude": "37-28-45.86 N",
		"longitude": "75-51-0.55 W",
		"state": "VIRGINIA",
		"artcc": "ZDC",
		"type": "RP",
		"updated": "CCV*VORTAC*051.69/10.59",
	},
	{
		"name": "UCINE",
		"latitude": "37-35-3.77 N",
		"longitude": "76-35-47.94 W",
		"state": "VIRGINIA",
		"artcc": "ZDC",
		"type": "MR",
		"updated": "OTT*VORTAC*184.00/67.58",
	},
	{
		"name": "UCORE",
		"latitude": "36-28-14.08 N",
		"longitude": "78-51-24.85 W",
		"state": "NORTH CAROLINA",
		"artcc": "ZDC",
		"type": "RNAV",
		"updated": "12/02/2008",
	},
	{
		"name": "UCPIP",
		"latitude": "39-46-49.18 N",
		"longitude": "75-1-32.74 W",
		"state": "NEW JERSEY",
		"artcc": "ZDC",
		"type": "RNAV",
		"updated": "06/29/2011",
	},
	{
		"name": "UCREK",
		"latitude": "38-1-33.17 N",
		"longitude": "79-2-56.23 W",
		"state": "VIRGINIA",
		"artcc": "ZDC",
		"type": "RNAV",
		"updated": "08/19/2013",
	},
	{
		"name": "UDADE",
		"latitude": "37-36-9.25 N",
		"longitude": "77-21-57.9 W",
		"state": "VIRGINIA",
		"artcc": "ZDC",
		"type": "RNAV",
		"updated": "06/11/2014",
	},
	{
		"name": "UDAKY",
		"latitude": "38-26-53.93 N",
		"longitude": "78-52-41.02 W",
		"state": "VIRGINIA",
		"artcc": "ZDC",
		"type": "RNAV",
		"updated": "03/23/2001",
	},
	{
		"name": "UDEYO",
		"latitude": "39-25-7.95 N",
		"longitude": "77-55-21.65 W",
		"state": "WEST VIRGINIA",
		"artcc": "ZDC",
		"type": "RNAV",
		"updated": "08/13/2008",
	},
	{
		"name": "UDINY",
		"latitude": "38-1-3.21 N",
		"longitude": "78-30-15.02 W",
		"state": "VIRGINIA",
		"artcc": "ZDC",
		"type": "RNAV",
		"updated": "06/24/2011",
	},
	{
		"name": "UDIYU",
		"latitude": "39-0-48.21 N",
		"longitude": "77-34-28.45 W",
		"state": "VIRGINIA",
		"artcc": "ZDC",
		"type": "RP",
		"updated": "CSN*VORTAC*037.35/26.15",
	},
	{
		"name": "UDNEW",
		"latitude": "38-27-54.06 N",
		"longitude": "78-1-6.65 W",
		"state": "VIRGINIA",
		"artcc": "ZDC",
		"type": "RNAV",
		"updated": "08/10/2004",
	},
	{
		"name": "UDUCY",
		"latitude": "38-35-31.14 N",
		"longitude": "77-0-57.25 W",
		"state": "MARYLAND",
		"artcc": "ZDC",
		"type": "MW",
		"updated": "04/26/2010",
	},
	{
		"name": "UDUDE",
		"latitude": "38-40-55.04 N",
		"longitude": "77-10-49.81 W",
		"state": "VIRGINIA",
		"artcc": "ZDC",
		"type": "RP",
		"updated": "BRV*VORTAC*030.34",
	},
	{
		"name": "UDUNE",
		"latitude": "36-2-15.15 N",
		"longitude": "76-21-4.56 W",
		"state": "NORTH CAROLINA",
		"artcc": "ZDC",
		"type": "RNAV",
		"updated": "11/05/2009",
	},
	{
		"name": "UFACA",
		"latitude": "38-6-29.75 N",
		"longitude": "78-59-12.24 W",
		"state": "VIRGINIA",
		"artcc": "ZDC",
		"type": "RNAV",
		"updated": "01/30/2001",
	},
	{
		"name": "UFAKY",
		"latitude": "41-36-15 N",
		"longitude": "79-44-27.69 W",
		"state": "PENNSYLVANIA",
		"artcc": "ZDC",
		"type": "RNAV",
		"updated": "08/24/2001",
	},
	{
		"name": "UFATU",
		"latitude": "39-16-4.31 N",
		"longitude": "75-10-2.49 W",
		"state": "NEW JERSEY",
		"artcc": "ZDC",
		"type": "RNAV",
		"updated": "05/10/2007",
	},
	{
		"name": "UFEMI",
		"latitude": "36-28-56.11 N",
		"longitude": "77-10-37.36 W",
		"state": "NORTH CAROLINA",
		"artcc": "ZDC",
		"type": "RNAV",
		"updated": "03/04/2015",
	},
	{
		"name": "UFERI",
		"latitude": "37-51-23.01 N",
		"longitude": "75-25-15.62 W",
		"state": "VIRGINIA",
		"artcc": "ZDC",
		"type": "RNAV",
		"updated": "08/16/2013",
	},
	{
		"name": "UFEYA",
		"latitude": "38-25-43.91 N",
		"longitude": "78-48-31.07 W",
		"state": "VIRGINIA",
		"artcc": "ZDC",
		"type": "RNAV",
		"updated": "11/17/2011",
	},
	{
		"name": "UFFIN",
		"latitude": "36-30-46.72 N",
		"longitude": "79-28-30.44 W",
		"state": "NORTH CAROLINA",
		"artcc": "ZDC",
		"type": "RP",
		"updated": "SBV*VORTAC*251.56/24.28",
	},
	{
		"name": "UFISA",
		"latitude": "34-36-46.77 N",
		"longitude": "77-52-4.13 W",
		"state": "NORTH CAROLINA",
		"artcc": "ZDC",
		"type": "RP",
		"updated": "OAJ*LD*232.39/18.93",
	},
	{
		"name": "UHAWO",
		"latitude": "36-5-8.4 N",
		"longitude": "75-41-0.96 W",
		"state": "NORTH CAROLINA",
		"artcc": "ZDC",
		"type": "RNAV",
		"updated": "04/28/2017",
	},
	{
		"name": "UHBEK",
		"latitude": "34-57-28.8 N",
		"longitude": "78-23-27.67 W",
		"state": "NORTH CAROLINA",
		"artcc": "ZDC",
		"type": "CN",
		"updated": "03/11/2011",
	},
	{
		"name": "UHHOZ",
		"latitude": "38-45-15.42 N",
		"longitude": "79-43-32.86 W",
		"state": "WEST VIRGINIA",
		"artcc": "ZDC",
		"type": "RNAV",
		"updated": "11/03/2009",
	},
	{
		"name": "UHIRO",
		"latitude": "35-11-0.3 N",
		"longitude": "77-45-57.75 W",
		"state": "NORTH CAROLINA",
		"artcc": "ZDC",
		"type": "RNAV",
		"updated": "04/16/2014",
	},
	{
		"name": "UHOZO",
		"latitude": "39-0-23.46 N",
		"longitude": "75-1-46.58 W",
		"state": "NEW JERSEY",
		"artcc": "ZDC",
		"type": "RNAV",
		"updated": "08/16/2017",
	},
	{
		"name": "UHULU",
		"latitude": "39-0-20.32 N",
		"longitude": "75-9-28.39 W",
		"state": "NEW JERSEY",
		"artcc": "ZDC",
		"type": "RNAV",
		"updated": "08/16/2017",
	},
	{
		"name": "UJEFO",
		"latitude": "41-30-30.65 N",
		"longitude": "71-34-27.5 W",
		"state": "RHODE ISLAND",
		"artcc": "ZDC",
		"type": "RP",
		"updated": "PUT*VOR/DME*169.58",
	},
	{
		"name": "UJORO",
		"latitude": "35-10-22.54 N",
		"longitude": "78-44-52.83 W",
		"state": "NORTH CAROLINA",
		"artcc": "ZDC",
		"type": "RNAV",
		"updated": "09/27/2013",
	},
	{
		"name": "UKAME",
		"latitude": "35-45-9.89 N",
		"longitude": "78-51-50.07 W",
		"state": "NORTH CAROLINA",
		"artcc": "ZDC",
		"type": "RNAV",
		"updated": "03/06/2013",
	},
	{
		"name": "UKAMY",
		"latitude": "36-6-24.96 N",
		"longitude": "76-32-19.11 W",
		"state": "NORTH CAROLINA",
		"artcc": "ZDC",
		"type": "RP",
		"updated": "ECG*VOR/DME*250.00/19.81",
	},
	{
		"name": "UKIEY",
		"latitude": "39-23-26.51 N",
		"longitude": "75-40-44.03 W",
		"state": "DELAWARE",
		"artcc": "ZDC",
		"type": "RP",
		"updated": "ENO*VORTAC*330.54/12.18",
	},
	{
		"name": "ULAKE",
		"latitude": "36-29-40.34 N",
		"longitude": "79-42-16.93 W",
		"state": "NORTH CAROLINA",
		"artcc": "ZDC",
		"type": "RP",
		"updated": "DAN*VOR*262.06",
	},
	{
		"name": "ULVAQ",
		"latitude": "34-51-31.98 N",
		"longitude": "76-49-40.34 W",
		"state": "NORTH CAROLINA",
		"artcc": "ZDC",
		"type": "RNAV",
		"updated": "03/27/2012",
	},
	{
		"name": "UMABY",
		"latitude": "34-29-12.13 N",
		"longitude": "79-12-35.28 W",
		"state": "NORTH CAROLINA",
		"artcc": "ZDC",
		"type": "RNAV",
		"updated": "07/19/2011",
	},
	{
		"name": "UNBLE",
		"latitude": "38-45-24.16 N",
		"longitude": "75-18-17.25 W",
		"state": "DELAWARE",
		"artcc": "ZDC",
		"type": "RNAV",
		"updated": "08/08/2014",
	},
	{
		"name": "UNCUT",
		"latitude": "35-57-43.74 N",
		"longitude": "78-31-52.56 W",
		"state": "NORTH CAROLINA",
		"artcc": "ZDC",
		"type": "RNAV",
		"updated": "10/30/2013",
	},
	{
		"name": "UNNAC",
		"latitude": "37-45-21.81 N",
		"longitude": "76-33-4.15 W",
		"state": "VIRGINIA",
		"artcc": "ZDC",
		"type": "MR",
		"updated": "CCV*VORTAC*323.00/36.01",
	},
	{
		"name": "UPBID",
		"latitude": "35-9-5.58 N",
		"longitude": "77-50-45.08 W",
		"state": "NORTH CAROLINA",
		"artcc": "ZDC",
		"type": "RNAV",
		"updated": "05/23/2011",
	},
	{
		"name": "UQOMY",
		"latitude": "34-37-48.82 N",
		"longitude": "79-5-35.13 W",
		"state": "NORTH CAROLINA",
		"artcc": "ZDC",
		"type": "RNAV",
		"updated": "07/19/2011",
	},
	{
		"name": "UQYOP",
		"latitude": "34-39-38.57 N",
		"longitude": "79-31-59.47 W",
		"state": "SOUTH CAROLINA",
		"artcc": "ZDC",
		"type": "CN",
		"updated": "06/07/2011",
	},
	{
		"name": "URESY",
		"latitude": "39-11-33.99 N",
		"longitude": "75-42-41.35 W",
		"state": "DELAWARE",
		"artcc": "ZDC",
		"type": "RNAV",
		"updated": "08/25/2017",
	},
	{
		"name": "URRIE",
		"latitude": "34-29-49.31 N",
		"longitude": "78-6-4.99 W",
		"state": "NORTH CAROLINA",
		"artcc": "ZDC",
		"type": "RP",
		"updated": "ISO*VORTAC*212.26",
	},
	{
		"name": "USAAY",
		"latitude": "38-34-19.71 N",
		"longitude": "78-23-46.83 W",
		"state": "VIRGINIA",
		"artcc": "ZDC",
		"type": "RNAV",
		"updated": "06/04/2012",
	},
	{
		"name": "USHEE",
		"latitude": "36-52-44.57 N",
		"longitude": "77-56-0.36 W",
		"state": "VIRGINIA",
		"artcc": "ZDC",
		"type": "RNAV",
		"updated": "02/13/2017",
	},
	{
		"name": "USSEL",
		"latitude": "37-11-11.06 N",
		"longitude": "79-6-18.99 W",
		"state": "VIRGINIA",
		"artcc": "ZDC",
		"type": "RP",
		"updated": "LYH*VORTAC*127.99/7.49",
	},
	{
		"name": "USTIN",
		"latitude": "39-28-22.4 N",
		"longitude": "75-48-23.47 W",
		"state": "MARYLAND",
		"artcc": "ZDC",
		"type": "RP",
		"updated": "ENO*VORTAC*326.01",
	},
	{
		"name": "USUYA",
		"latitude": "38-12-20.87 N",
		"longitude": "76-10-31.31 W",
		"state": "MARYLAND",
		"artcc": "ZDC",
		"type": "MR",
		"updated": "NHK*TACAN*122.00/12.00",
	},
	{
		"name": "UTECU",
		"latitude": "40-13-6.81 N",
		"longitude": "74-39-51.42 W",
		"state": "NEW JERSEY",
		"artcc": "ZDC",
		"type": "RNAV",
		"updated": "04/20/2012",
	},
	{
		"name": "UWOGI",
		"latitude": "35-34-53.65 N",
		"longitude": "78-39-32.16 W",
		"state": "NORTH CAROLINA",
		"artcc": "ZDC",
		"type": "RNAV",
		"updated": "09/06/2007",
	},
	{
		"name": "UXEWE",
		"latitude": "36-20-29.17 N",
		"longitude": "79-8-51.3 W",
		"state": "NORTH CAROLINA",
		"artcc": "ZDC",
		"type": "RP",
		"updated": "SBV*VORTAC*202.89/21.00",
	},
	{
		"name": "UXUXY",
		"latitude": "36-0-20.35 N",
		"longitude": "75-40-31.77 W",
		"state": "NORTH CAROLINA",
		"artcc": "ZDC",
		"type": "RNAV",
		"updated": "05/01/2017",
	},
	{
		"name": "UYATE",
		"latitude": "37-53-20.39 N",
		"longitude": "79-54-23.48 W",
		"state": "VIRGINIA",
		"artcc": "ZDC",
		"type": "RNAV",
		"updated": "04/11/2018",
	},
	{
		"name": "UYEGI",
		"latitude": "34-36-5.06 N",
		"longitude": "77-28-11.36 W",
		"state": "NORTH CAROLINA",
		"artcc": "ZDC",
		"type": "MR",
		"updated": "NCA*TACAN*201.00/6.50",
	},
	{
		"name": "UZJOX",
		"latitude": "35-43-20.45 N",
		"longitude": "76-47-32.41 W",
		"state": "NORTH CAROLINA",
		"artcc": "ZDC",
		"type": "RNAV",
		"updated": "06/20/2011",
	},
