	{
		"name": "XECPI",
		"latitude": "37-56-35.44 N",
		"longitude": "75-32-15.89 W",
		"state": "VIRGINIA",
		"artcc": "ZDC",
		"type": "RNAV",
		"updated": "08/16/2013",
	},
	{
		"name": "XECRE",
		"latitude": "39-22-1.35 N",
		"longitude": "75-8-25.54 W",
		"state": "NEW JERSEY",
		"artcc": "ZDC",
		"type": "RP",
		"updated": "VCN*VOR/DME*228.27",
	},
	{
		"name": "XEFCU",
		"latitude": "38-55-47.92 N",
		"longitude": "76-46-11.6 W",
		"state": "MARYLAND",
		"artcc": "ZDC",
		"type": "RNAV",
		"updated": "09/12/2012",
	},
	{
		"name": "XEQAP",
		"latitude": "38-56-55.33 N",
		"longitude": "76-46-26.39 W",
		"state": "MARYLAND",
		"artcc": "ZDC",
		"type": "RNAV",
		"updated": "09/12/2012",
	},
	{
		"name": "XETIY",
		"latitude": "36-32-59.33 N",
		"longitude": "77-21-56.2 W",
		"state": "VIRGINIA",
		"artcc": "ZDC",
		"type": "RNAV",
		"updated": "09/23/2009",
	},
	{
		"name": "XIPYY",
		"latitude": "37-31-4.1 N",
		"longitude": "76-48-20.83 W",
		"state": "VIRGINIA",
		"artcc": "ZDC",
		"type": "RP",
		"updated": "FYJ*LE*274.13/2.42",
	},
	{
		"name": "XITPY",
		"latitude": "38-58-2.8 N",
		"longitude": "76-16-46.15 W",
		"state": "MARYLAND",
		"artcc": "ZDC",
		"type": "RNAV",
		"updated": "11/14/2016",
	},
	{
		"name": "XIVOY",
		"latitude": "39-52-13.97 N",
		"longitude": "75-13-35 W",
		"state": "PENNSYLVANIA",
		"artcc": "ZDC",
		"type": "RP",
		"updated": "GLC*LD*087.49/0.19",
	},
	{
		"name": "XIYCA",
		"latitude": "34-31-2.94 N",
		"longitude": "79-10-21.18 W",
		"state": "NORTH CAROLINA",
		"artcc": "ZDC",
		"type": "CN",
		"updated": "07/19/2011",
	},
	{
		"name": "XOJZY",
		"latitude": "36-23-12.41 N",
		"longitude": "78-29-25.33 W",
		"state": "NORTH CAROLINA",
		"artcc": "ZDC",
		"type": "RNAV",
		"updated": "02/27/2015",
	},
	{
		"name": "XONIQ",
		"latitude": "38-59-6.27 N",
		"longitude": "76-22-42.17 W",
		"state": "MARYLAND",
		"artcc": "ZDC",
		"type": "RNAV",
		"updated": "11/14/2016",
	},
	{
		"name": "XONUJ",
		"latitude": "39-26-55.5 N",
		"longitude": "74-35-0.58 W",
		"state": "NEW JERSEY",
		"artcc": "ZDC",
		"type": "RP",
		"updated": "ACY*VORTAC*228.00/0.54",
	},
	{
		"name": "XOPYU",
		"latitude": "37-18-11.98 N",
		"longitude": "79-57-39.67 W",
		"state": "VIRGINIA",
		"artcc": "ZDC",
		"type": "CN",
		"updated": "06/14/2011",
	},
	{
		"name": "XOQUR",
		"latitude": "39-54-6.45 N",
		"longitude": "74-19-54.97 W",
		"state": "NEW JERSEY",
		"artcc": "ZNY",
		"type": "RP",
		"updated": "GXU*VORTAC*129.79",
	},
