[
	{
		"name": "ZACKK",
		"latitude": "38-45-47.85 N",
		"longitude": "77-22-12.41 W",
		"state": "VIRGINIA",
		"artcc": "ZDC",
		"type": "RNAV",
		"updated": "01/18/2007"
	},
	{
		"name": "ZADEP",
		"latitude": "38-36-12.68 N",
		"longitude": "76-5-24.94 W",
		"state": "MARYLAND",
		"artcc": "ZDC",
		"type": "RNAV",
		"updated": "09/18/2017"
	},
	{
		"name": "ZADMN",
		"latitude": "38-19-36.66 N",
		"longitude": "77-22-15.65 W",
		"state": "VIRGINIA",
		"artcc": "ZDC",
		"type": "RNAV",
		"updated": "01/11/2011"
	},
	{
		"name": "ZADPA",
		"latitude": "35-57-55.48 N",
		"longitude": "76-29-21.18 W",
		"state": "NORTH CAROLINA",
		"artcc": "ZDC",
		"type": "RNAV",
		"updated": "11/05/2009"
	},
	{
		"name": "ZAGGY",
		"latitude": "35-47-58.38 N",
		"longitude": "77-16-1.21 W",
		"state": "NORTH CAROLINA",
		"artcc": "ZDC",
		"type": "RP",
		"updated": "ECG*VOR/DME*250.00"
	},
	{
		"name": "ZAGIB",
		"latitude": "39-12-28.36 N",
		"longitude": "77-22-31.63 W",
		"state": "MARYLAND",
		"artcc": "ZDC",
		"type": "CN",
		"updated": "06/26/2007"
	},
	{
		"name": "ZAGID",
		"latitude": "38-18-1.69 N",
		"longitude": "75-32-54.66 W",
		"state": "MARYLAND",
		"artcc": "ZDC",
		"type": "RNAV",
		"updated": "10/11/2010"
	},
	{
		"name": "ZAGIV",
		"latitude": "36-16-47.05 N",
		"longitude": "75-57-2.04 W",
		"state": "NORTH CAROLINA",
		"artcc": "ZDC",
		"type": "RP",
		"updated": "ECG*VOR/DME*090.00/11.00"
	},
	{
		"name": "ZAGOB",
		"latitude": "35-43-31.49 N",
		"longitude": "77-56-34.1 W",
		"state": "NORTH CAROLINA",
		"artcc": "ZDC",
		"type": "RP",
		"updated": "02/13/2003"
	},
	{
		"name": "ZAGUP",
		"latitude": "36-35-59.6 N",
		"longitude": "79-56-49.14 W",
		"state": "VIRGINIA",
		"artcc": "ZDC",
		"type": "RNAV",
		"updated": "08/17/2010"
	},
	{
		"name": "ZAHAB",
		"latitude": "37-28-3.75 N",
		"longitude": "80-33-24.01 W",
		"state": "VIRGINIA",
		"artcc": "ZDC",
		"type": "RP",
		"updated": "LWB*VOR/DME*206.34/25.00"
	},
	{
		"name": "ZAKED",
		"latitude": "36-35-32.83 N",
		"longitude": "77-45-8.73 W",
		"state": "VIRGINIA",
		"artcc": "ZDC",
		"type": "RNAV",
		"updated": "07/20/2011"
	},
	{
		"name": "ZAKEN",
		"latitude": "36-51-43.67 N",
		"longitude": "76-28-7.37 W",
		"state": "VIRGINIA",
		"artcc": "ZDC",
		"type": "RNAV",
		"updated": "07/18/2011"
	},
	{
		"name": "ZAKLY",
		"latitude": "38-56-17.92 N",
		"longitude": "76-7-1.44 W",
		"state": "MARYLAND",
		"artcc": "ZDC",
		"type": "RNAV",
		"updated": "07/27/2000"
	},
	{
		"name": "ZAKUN",
		"latitude": "36-3-48.75 N",
		"longitude": "76-34-11.42 W",
		"state": "NORTH CAROLINA",
		"artcc": "ZDC",
		"type": "RNAV",
		"updated": "03/10/2011"
	},
	{
		"name": "ZALAG",
		"latitude": "37-51-19.54 N",
		"longitude": "79-50-1.5 W",
		"state": "VIRGINIA",
		"artcc": "ZDC",
		"type": "RNAV",
		"updated": "04/11/2018"
	},
	{
		"name": "ZALNU",
		"latitude": "37-7-37.93 N",
		"longitude": "79-32-54.84 W",
		"state": "VIRGINIA",
		"artcc": "ZDC",
		"type": "RNAV",
		"updated": "03/02/2018"
	},
	{
		"name": "ZAMPI",
		"latitude": "35-29-37.41 N",
		"longitude": "77-0-14.93 W",
		"state": "NORTH CAROLINA",
		"artcc": "ZDC",
		"type": "RNAV",
		"updated": "12/01/2008"
	},
	{
		"name": "ZAMUV",
		"latitude": "35-5-18.24 N",
		"longitude": "77-31-50.25 W",
		"state": "NORTH CAROLINA",
		"artcc": "ZDC",
		"type": "RNAV",
		"updated": "04/07/2012"
	},
	{
		"name": "ZANKI",
		"latitude": "37-2-24.17 N",
		"longitude": "76-28-14.49 W",
		"state": "VIRGINIA",
		"artcc": "ZDC",
		"type": "MR",
		"updated": "LFI*TACAN*253.00/6.00"
	},
	{
		"name": "ZAPOM",
		"latitude": "39-5-34.16 N",
		"longitude": "74-47-36.41 W",
		"state": "NEW JERSEY",
		"artcc": "ZDC",
		"type": "RP",
		"updated": "ENO*VORTAC*112.64"
	},
	{
		"name": "ZAPVU",
		"latitude": "37-11-58.52 N",
		"longitude": "80-4-9.36 W",
		"state": "VIRGINIA",
		"artcc": "ZDC",
		"type": "RNAV",
		"updated": "02/14/2018"
	},
	{
		"name": "ZAROB",
		"latitude": "38-49-59.55 N",
		"longitude": "79-53-47.11 W",
		"state": "WEST VIRGINIA",
		"artcc": "ZDC",
		"type": "RNAV",
		"updated": "11/03/2009"
	},
	{
		"name": "ZAROL",
		"latitude": "38-16-24.72 N",
		"longitude": "76-23-13.48 W",
		"state": "MARYLAND",
		"artcc": "ZDC",
		"type": "MR",
		"updated": "NHK*TACAN*122.00/1.20"
	},
	{
		"name": "ZARVI",
		"latitude": "38-30-6.7 N",
		"longitude": "75-30-53.42 W",
		"state": "DELAWARE",
		"artcc": "ZDC",
		"type": "RNAV",
		"updated": "08/08/2014"
	},
	{
		"name": "ZASAG",
		"latitude": "38-17-49.76 N",
		"longitude": "76-10-42.9 W",
		"state": "MARYLAND",
		"artcc": "ZDC",
		"type": "CN",
		"updated": "08/19/2010"
	},
	{
		"name": "ZASBA",
		"latitude": "38-21-58.9 N",
		"longitude": "75-29-10.54 W",
		"state": "MARYLAND",
		"artcc": "ZDC",
		"type": "RNAV",
		"updated": "10/11/2010"
	},
	{
		"name": "ZASNO",
		"latitude": "37-6-47.92 N",
		"longitude": "80-10-44.59 W",
		"state": "VIRGINIA",
		"artcc": "ZDC",
		"type": "RNAV",
		"updated": "03/30/2009"
	},
	{
		"name": "ZASOM",
		"latitude": "37-30-9.82 N",
		"longitude": "77-7-31.84 W",
		"state": "VIRGINIA",
		"artcc": "ZDC",
		"type": "RP",
		"updated": "HPW*VORTAC*003.49/10.43"
	},
	{
		"name": "ZASPO",
		"latitude": "37-5-28.19 N",
		"longitude": "76-20-7.46 W",
		"state": "VIRGINIA",
		"artcc": "ZDC",
		"type": "MR",
		"updated": "LFI*TACAN*/1.20"
	},
	{
		"name": "ZATOR",
		"latitude": "37-6-58.67 N",
		"longitude": "77-54-57.93 W",
		"state": "VIRGINIA",
		"artcc": "ZDC",
		"type": "RNAV",
		"updated": "02/20/2014"
	},
	{
		"name": "ZATSO",
		"latitude": "34-42-12.51 N",
		"longitude": "77-0-57.35 W",
		"state": "NORTH CAROLINA",
		"artcc": "ZDC",
		"type": "MR",
		"updated": "NJM*TACAN*042.00/1.00"
	},
	{
		"name": "ZATVA",
		"latitude": "35-17-25.63 N",
		"longitude": "77-39-8.78 W",
		"state": "NORTH CAROLINA",
		"artcc": "ZDC",
		"type": "RNAV",
		"updated": "04/16/2014"
	},
	{
		"name": "ZAVRO",
		"latitude": "38-9-34.66 N",
		"longitude": "78-17-29.81 W",
		"state": "VIRGINIA",
		"artcc": "ZDC",
		"type": "RNAV",
		"updated": "04/18/2014"
	},
	{
		"name": "ZAVUP",
		"latitude": "35-18-44.52 N",
		"longitude": "78-4-7.61 W",
		"state": "NORTH CAROLINA",
		"artcc": "ZDC",
		"type": "MR",
		"updated": "GSB*TACAN*/4.98"
	},
	{
		"name": "ZAXEB",
		"latitude": "38-52-31.09 N",
		"longitude": "77-2-24.54 W",
		"state": "DIST. OF COLUMBIA",
		"artcc": "ZDC",
		"type": "RP",
		"updated": "VWH*DD*326.50/1.63"
	},
	{
		"name": "ZAXEN",
		"latitude": "39-19-43.31 N",
		"longitude": "77-27-21.4 W",
		"state": "MARYLAND",
		"artcc": "ZDC",
		"type": "RNAV",
		"updated": "04/23/2012"
	},
	{
		"name": "ZAXET",
		"latitude": "37-34-50.36 N",
		"longitude": "77-23-12.49 W",
		"state": "VIRGINIA",
		"artcc": "ZDC",
		"type": "RNAV",
		"updated": "06/11/2014"
	},
	{
		"name": "ZAXIB",
		"latitude": "36-35-25.47 N",
		"longitude": "76-39-49.69 W",
		"state": "VIRGINIA",
		"artcc": "ZDC",
		"type": "RP",
		"updated": "ECG*VOR/DME*317.30"
	},
	{
		"name": "ZEBAR",
		"latitude": "39-2-6.22 N",
		"longitude": "75-23-54.26 W",
		"state": "DELAWARE",
		"artcc": "ZDC",
		"type": "MR",
		"updated": "ENO*VORTAC*164.00/13.00"
	},
	{
		"name": "ZEBUL",
		"latitude": "35-54-44.33 N",
		"longitude": "78-23-0.47 W",
		"state": "NORTH CAROLINA",
		"artcc": "ZDC",
		"type": "RP",
		"updated": "TYI*VORTAC*268.55/33.34"
	},
	{
		"name": "ZEDOM",
		"latitude": "35-20-54.46 N",
		"longitude": "79-48-27.41 W",
		"state": "NORTH CAROLINA",
		"artcc": "ZDC",
		"type": "RNAV",
		"updated": "08/11/2014"
	},
	{
		"name": "ZEDPA",
		"latitude": "38-15-7.07 N",
		"longitude": "78-39-23.76 W",
		"state": "VIRGINIA",
		"artcc": "ZDC",
		"type": "RP",
		"updated": "GVE*VORTAC*307.09/27.79"
	},
	{
		"name": "ZEDPI",
		"latitude": "34-54-15.91 N",
		"longitude": "79-47-26.81 W",
		"state": "NORTH CAROLINA",
		"artcc": "ZDC",
		"type": "RNAV",
		"updated": "09/12/2013"
	},
	{
		"name": "ZEGIR",
		"latitude": "39-16-25.45 N",
		"longitude": "76-40-40.72 W",
		"state": "MARYLAND",
		"artcc": "ZDC",
		"type": "RNAV",
		"updated": "07/13/2017"
	},
	{
		"name": "ZEGVA",
		"latitude": "39-11-49.85 N",
		"longitude": "77-21-7 W",
		"state": "MARYLAND",
		"artcc": "ZDC",
		"type": "CN",
		"updated": "06/26/2007"
	},
	{
		"name": "ZEKER",
		"latitude": "35-28-54.8 N",
		"longitude": "77-24-21.47 W",
		"state": "NORTH CAROLINA",
		"artcc": "ZDC",
		"type": "RP",
		"updated": "ISO*VORTAC*053.32/10.00"
	},
	{
		"name": "ZEKUT",
		"latitude": "34-40-43.42 N",
		"longitude": "78-58-36.45 W",
		"state": "NORTH CAROLINA",
		"artcc": "ZDC",
		"type": "RNAV",
		"updated": "07/19/2011"
	},
	{
		"name": "ZELAP",
		"latitude": "37-45-49.41 N",
		"longitude": "75-22-23.68 W",
		"state": "VIRGINIA",
		"artcc": "ZDC",
		"type": "RNAV",
		"updated": "08/16/2013"
	},
	{
		"name": "ZEMAR",
		"latitude": "39-28-22.35 N",
		"longitude": "75-37-34.68 W",
		"state": "DELAWARE",
		"artcc": "ZDC",
		"type": "RP",
		"updated": "OOD*VORTAC*247.00"
	},
	{
		"name": "ZENDI",
		"latitude": "39-14-37.17 N",
		"longitude": "78-26-50.69 W",
		"state": "WEST VIRGINIA",
		"artcc": "ZDC",
		"type": "RNAV",
		"updated": "05/27/2014"
	},
	{
		"name": "ZENIG",
		"latitude": "39-17-13.85 N",
		"longitude": "76-38-22.68 W",
		"state": "MARYLAND",
		"artcc": "ZDC",
		"type": "RNAV",
		"updated": "12/29/2015"
	},
	{
		"name": "ZENUP",
		"latitude": "38-13-36.89 N",
		"longitude": "78-6-10.04 W",
		"state": "VIRGINIA",
		"artcc": "ZDC",
		"type": "RNAV",
		"updated": "04/18/2014"
	},
	{
		"name": "ZEPLA",
		"latitude": "36-33-37.3 N",
		"longitude": "78-25-14.41 W",
		"state": "VIRGINIA",
		"artcc": "ZDC",
		"type": "RNAV",
		"updated": "01/29/2015"
	},
	{
		"name": "ZEPUP",
		"latitude": "38-38-28.75 N",
		"longitude": "79-0-51.8 W",
		"state": "VIRGINIA",
		"artcc": "ZDC",
		"type": "RNAV",
		"updated": "07/23/2014"
	},
	{
		"name": "ZESBI",
		"latitude": "35-52-33.1 N",
		"longitude": "78-38-16.69 W",
		"state": "NORTH CAROLINA",
		"artcc": "ZDC",
		"type": "RNAV",
		"updated": "03/06/2013"
	},
	{
		"name": "ZESIB",
		"latitude": "40-7-11.64 N",
		"longitude": "74-40-20.07 W",
		"state": "NEW JERSEY",
		"artcc": "ZDC",
		"type": "RNAV",
		"updated": "08/16/2012"
	},
	{
		"name": "ZESIX",
		"latitude": "35-19-51.34 N",
		"longitude": "77-59-20.02 W",
		"state": "NORTH CAROLINA",
		"artcc": "ZDC",
		"type": "MR",
		"updated": "GSB*TACAN*261.49/0.90"
	},
	{
		"name": "ZESMI",
		"latitude": "37-17-9.72 N",
		"longitude": "76-56-37.97 W",
		"state": "VIRGINIA",
		"artcc": "ZDC",
		"type": "RNAV",
		"updated": "11/17/2010"
	},
	{
		"name": "ZETOG",
		"latitude": "36-5-9.12 N",
		"longitude": "79-24-56.76 W",
		"state": "NORTH CAROLINA",
		"artcc": "ZDC",
		"type": "RNAV",
		"updated": "12/23/2013"
	},
	{
		"name": "ZIBNU",
		"latitude": "36-4-26.58 N",
		"longitude": "79-27-17.53 W",
		"state": "NORTH CAROLINA",
		"artcc": "ZDC",
		"type": "RP",
		"updated": "LIB*VORTAC*029.00/17.50"
	},
	{
		"name": "ZIBUT",
		"latitude": "36-56-18.27 N",
		"longitude": "72-39-58.21 W",
		"state": "VIRGINIA",
		"artcc": "ZDC",
		"type": "RP",
		"updated": "05/11/1990"
	},
	{
		"name": "ZIDET",
		"latitude": "40-8-18.09 N",
		"longitude": "74-56-2.48 W",
		"state": "PENNSYLVANIA",
		"artcc": "ZDC",
		"type": "RP",
		"updated": "ARD*VOR/DME*200.00/7.00"
	},
	{
		"name": "ZIDIS",
		"latitude": "35-21-14.5 N",
		"longitude": "77-53-50.6 W",
		"state": "NORTH CAROLINA",
		"artcc": "ZDC",
		"type": "MR",
		"updated": "GSB*TACAN*080.71/3.80"
	},
	{
		"name": "ZIGTU",
		"latitude": "36-41-33.59 N",
		"longitude": "76-57-42.07 W",
		"state": "VIRGINIA",
		"artcc": "ZDC",
		"type": "RNAV",
		"updated": "01/05/2012"
	},
	{
		"name": "ZIGUS",
		"latitude": "38-16-15.9 N",
		"longitude": "76-25-48.67 W",
		"state": "MARYLAND",
		"artcc": "ZDC",
		"type": "MR",
		"updated": "NHK*NDB*245.00"
	},
	{
		"name": "ZIKDA",
		"latitude": "35-9-34.62 N",
		"longitude": "79-29-16.43 W",
		"state": "NORTH CAROLINA",
		"artcc": "ZDC",
		"type": "RP",
		"updated": "SOP*LD*234.23/7.39"
	},
	{
		"name": "ZILEX",
		"latitude": "39-0-8.99 N",
		"longitude": "76-57-40.13 W",
		"state": "MARYLAND",
		"artcc": "ZDC",
		"type": "RNAV",
		"updated": "09/29/2017"
	},
	{
		"name": "ZILOB",
		"latitude": "35-23-40.22 N",
		"longitude": "77-44-15.87 W",
		"state": "NORTH CAROLINA",
		"artcc": "ZDC",
		"type": "MR",
		"updated": "GSB*TACAN*080.71/12.00"
	},
	{
		"name": "ZIMAL",
		"latitude": "34-43-50.22 N",
		"longitude": "79-26-46.9 W",
		"state": "NORTH CAROLINA",
		"artcc": "ZDC",
		"type": "RNAV",
		"updated": "06/07/2011"
	},
	{
		"name": "ZIMDO",
		"latitude": "39-22-1.19 N",
		"longitude": "75-0-25.87 W",
		"state": "NEW JERSEY",
		"artcc": "ZDC",
		"type": "RNAV",
		"updated": "05/31/2011"
	},
	{
		"name": "ZIMON",
		"latitude": "36-47-25.33 N",
		"longitude": "76-12-14.83 W",
		"state": "VIRGINIA",
		"artcc": "ZDC",
		"type": "RNAV",
		"updated": "07/13/2011"
	},
	{
		"name": "ZINAV",
		"latitude": "37-32-6.65 N",
		"longitude": "76-29-58.21 W",
		"state": "VIRGINIA",
		"artcc": "ZDC",
		"type": "RNAV",
		"updated": "06/09/2011"
	},
	{
		"name": "ZINEP",
		"latitude": "35-47-55.4 N",
		"longitude": "75-31-31.9 W",
		"state": "NORTH CAROLINA",
		"artcc": "ZDC",
		"type": "RNAV",
		"updated": "04/28/2017"
	},
	{
		"name": "ZINID",
		"latitude": "37-47-21.8 N",
		"longitude": "79-25-50.54 W",
		"state": "VIRGINIA",
		"artcc": "ZDC",
		"type": "RNAV",
		"updated": "04/05/2018"
	},
	{
		"name": "ZIPAX",
		"latitude": "37-6-35.5 N",
		"longitude": "79-48-35.18 W",
		"state": "VIRGINIA",
		"artcc": "ZDC",
		"type": "RNAV",
		"updated": "11/01/2001"
	},
	{
		"name": "ZIPDA",
		"latitude": "35-38-53.55 N",
		"longitude": "77-5-29.31 W",
		"state": "NORTH CAROLINA",
		"artcc": "ZDC",
		"type": "RNAV",
		"updated": "12/01/2008"
	},
	{
		"name": "ZIPPO",
		"latitude": "34-50-28.86 N",
		"longitude": "79-40-28.26 W",
		"state": "NORTH CAROLINA",
		"artcc": "ZDC",
		"type": "RNAV",
		"updated": "04/27/2010"
	},
	{
		"name": "ZIPVO",
		"latitude": "34-14-38.87 N",
		"longitude": "77-56-3.64 W",
		"state": "NORTH CAROLINA",
		"artcc": "ZDC",
		"type": "RP",
		"updated": "GNM*LD*235.35/3.21"
	},
	{
		"name": "ZIRAT",
		"latitude": "38-4-7.9 N",
		"longitude": "76-28-3.61 W",
		"state": "MARYLAND",
		"artcc": "ZDC",
		"type": "MR",
		"updated": "NHK*TACAN*202.00/13.00"
	},
	{
		"name": "ZIROV",
		"latitude": "35-21-56.11 N",
		"longitude": "77-51-17.56 W",
		"state": "NORTH CAROLINA",
		"artcc": "ZDC",
		"type": "MR",
		"updated": "GSB*TACAN*/6.00"
	},
	{
		"name": "ZISAX",
		"latitude": "38-23-45.35 N",
		"longitude": "78-50-49.83 W",
		"state": "VIRGINIA",
		"artcc": "ZDC",
		"type": "RNAV",
		"updated": "09/22/2015"
	},
	{
		"name": "ZITMO",
		"latitude": "34-58-15.68 N",
		"longitude": "79-0-20.57 W",
		"state": "NORTH CAROLINA",
		"artcc": "ZDC",
		"type": "RNAV",
		"updated": "01/14/2003"
	},
	{
		"name": "ZITTE",
		"latitude": "39-28-53.9 N",
		"longitude": "75-23-4.7 W",
		"state": "NEW JERSEY",
		"artcc": "ZDC",
		"type": "RP",
		"updated": "VCN*VOR/DME*270.30"
	},
	{
		"name": "ZITTO",
		"latitude": "36-51-41.2 N",
		"longitude": "77-54-17.99 W",
		"state": "VIRGINIA",
		"artcc": "ZDC",
		"type": "RP",
		"updated": "RIC*VORTAC*225.31/47.55"
	},
	{
		"name": "ZIVOS",
		"latitude": "35-18-48.16 N",
		"longitude": "79-49-27.89 W",
		"state": "NORTH CAROLINA",
		"artcc": "ZDC",
		"type": "RNAV",
		"updated": "08/11/2014"
	},
	{
		"name": "ZIXER",
		"latitude": "37-49-8.07 N",
		"longitude": "75-40-8.51 W",
		"state": "VIRGINIA",
		"artcc": "ZDC",
		"type": "RNAV",
		"updated": "08/28/2007"
	},
	{
		"name": "ZIXUR",
		"latitude": "34-41-18.55 N",
		"longitude": "79-30-49.05 W",
		"state": "NORTH CAROLINA",
		"artcc": "ZDC",
		"type": "RNAV",
		"updated": "12/05/2003"
	},
	{
		"name": "ZIXUS",
		"latitude": "39-10-13.12 N",
		"longitude": "76-36-44.6 W",
		"state": "MARYLAND",
		"artcc": "ZDC",
		"type": "RP",
		"updated": "BAL*VORTAC*/2.28"
	},
	{
		"name": "ZIZZI",
		"latitude": "38-56-26.46 N",
		"longitude": "74-31-44.27 W",
		"state": "NEW JERSEY",
		"artcc": "ZDC",
		"type": "RP",
		"updated": "ATR*VOR/DME*085.00/32.92"
	},
	{
		"name": "ZOBIS",
		"latitude": "35-27-58 N",
		"longitude": "78-16-6.21 W",
		"state": "NORTH CAROLINA",
		"artcc": "ZDC",
		"type": "RNAV",
		"updated": "12/05/2003"
	},
	{
		"name": "ZOBOK",
		"latitude": "39-22-0.35 N",
		"longitude": "76-41-53.59 W",
		"state": "MARYLAND",
		"artcc": "ZDC",
		"type": "RNAV",
		"updated": "11/30/2016"
	},
	{
		"name": "ZOCZO",
		"latitude": "35-57-48.81 N",
		"longitude": "76-38-23.09 W",
		"state": "NORTH CAROLINA",
		"artcc": "ZDC",
		"type": "RNAV",
		"updated": "07/06/2000"
	},
	{
		"name": "ZODGI",
		"latitude": "34-48-39.12 N",
		"longitude": "79-0-51.27 W",
		"state": "NORTH CAROLINA",
		"artcc": "ZDC",
		"type": "RP",
		"updated": "GRA*LD*218.18/13.46"
	},
	{
		"name": "ZOGMI",
		"latitude": "35-28-7.76 N",
		"longitude": "79-44-59.5 W",
		"state": "NORTH CAROLINA",
		"artcc": "ZDC",
		"type": "RNAV",
		"updated": "08/11/2014"
	},
	{
		"name": "ZOGNI",
		"latitude": "34-26-22.2 N",
		"longitude": "79-16-0.61 W",
		"state": "SOUTH CAROLINA",
		"artcc": "ZDC",
		"type": "RNAV",
		"updated": "07/19/2011"
	},
	{
		"name": "ZOIDS",
		"latitude": "39-41-8 N",
		"longitude": "75-51-46.28 W",
		"state": "MARYLAND",
		"artcc": "ZDC",
		"type": "WP",
		"updated": "06/13/1991"
	},
	{
		"name": "ZOKAR",
		"latitude": "39-53-39.36 N",
		"longitude": "75-8-59.5 W",
		"state": "PENNSYLVANIA",
		"artcc": "ZDC",
		"type": "RNAV",
		"updated": "07/15/2011"
	},
	{
		"name": "ZOKEN",
		"latitude": "36-40-52.6 N",
		"longitude": "76-11-20.99 W",
		"state": "VIRGINIA",
		"artcc": "ZDC",
		"type": "MW",
		"updated": "11/06/2014"
	},
	{
		"name": "ZOKIR",
		"latitude": "36-38-43.64 N",
		"longitude": "78-59-5.68 W",
		"state": "VIRGINIA",
		"artcc": "ZDC",
		"type": "RNAV",
		"updated": "12/05/2003"
	},
	{
		"name": "ZOKIS",
		"latitude": "34-16-49.49 N",
		"longitude": "77-54-2.22 W",
		"state": "NORTH CAROLINA",
		"artcc": "ZDC",
		"type": "RP",
		"updated": "ILM*VORTAC*204.70/4.46"
	},
	{
		"name": "ZOKUD",
		"latitude": "39-10-27.76 N",
		"longitude": "79-21-56.96 W",
		"state": "WEST VIRGINIA",
		"artcc": "ZDC",
		"type": "RNAV",
		"updated": "08/08/2013"
	},
	{
		"name": "ZOLIS",
		"latitude": "34-36-17.72 N",
		"longitude": "78-15-28.29 W",
		"state": "NORTH CAROLINA",
		"artcc": "ZDC",
		"type": "RNAV",
		"updated": "10/07/2014"
	},
	{
		"name": "ZOLMN",
		"latitude": "35-38-42.35 N",
		"longitude": "75-24-27.41 W",
		"state": "NORTH CAROLINA",
		"artcc": "ZDC",
		"type": "RP",
		"updated": "MQI*NDB*148.00"
	},
	{
		"name": "ZOLRO",
		"latitude": "40-12-33.35 N",
		"longitude": "74-32-20.17 W",
		"state": "NEW JERSEY",
		"artcc": "ZDC",
		"type": "RNAV",
		"updated": "04/20/2012"
	},
	{
		"name": "ZOMAV",
		"latitude": "35-14-37.16 N",
		"longitude": "77-42-7.76 W",
		"state": "NORTH CAROLINA",
		"artcc": "ZDC",
		"type": "RNAV",
		"updated": "04/16/2014"
	},
	{
		"name": "ZOMEV",
		"latitude": "39-52-21.35 N",
		"longitude": "74-22-36.44 W",
		"state": "NEW JERSEY",
		"artcc": "ZNY",
		"type": "RP",
		"updated": "GXU*VORTAC*140.91"
	},
	{
		"name": "ZOMPI",
		"latitude": "37-4-28.06 N",
		"longitude": "76-23-9.63 W",
		"state": "VIRGINIA",
		"artcc": "ZDC",
		"type": "MR",
		"updated": "LFI*TACAN*/1.44"
	},
	{
		"name": "ZOMUV",
		"latitude": "36-2-8.56 N",
		"longitude": "77-48-20.67 W",
		"state": "NORTH CAROLINA",
		"artcc": "ZDC",
		"type": "RNAV",
		"updated": "12/05/2003"
	},
	{
		"name": "ZONAB",
		"latitude": "36-47-22.27 N",
		"longitude": "80-14-38.43 W",
		"state": "VIRGINIA",
		"artcc": "ZDC",
		"type": "RNAV",
		"updated": "10/12/2011"
	},
	{
		"name": "ZOOMS",
		"latitude": "37-28-32.22 N",
		"longitude": "80-35-6.7 W",
		"state": "WEST VIRGINIA",
		"artcc": "ZDC",
		"type": "RP",
		"updated": "ROA*VOR/DME*292.00/25.85"
	},
	{
		"name": "ZOPLU",
		"latitude": "37-7-11.34 N",
		"longitude": "79-17-25.66 W",
		"state": "VIRGINIA",
		"artcc": "ZDC",
		"type": "RNAV",
		"updated": "04/05/2012"
	},
	{
		"name": "ZORUP",
		"latitude": "37-4-9.28 N",
		"longitude": "76-44-1.47 W",
		"state": "VIRGINIA",
		"artcc": "ZDC",
		"type": "MR",
		"updated": "LFI*TACAN*277.00/18.00"
	},
	{
		"name": "ZOSAP",
		"latitude": "35-52-44.01 N",
		"longitude": "78-56-30.33 W",
		"state": "NORTH CAROLINA",
		"artcc": "ZDC",
		"type": "RNAV",
		"updated": "03/06/2013"
	},
	{
		"name": "ZOSAX",
		"latitude": "38-18-12.41 N",
		"longitude": "76-22-55.84 W",
		"state": "MARYLAND",
		"artcc": "ZDC",
		"type": "MR",
		"updated": "NHK*TACAN*055.00/1.90"
	},
	{
		"name": "ZOSRU",
		"latitude": "35-1-7.38 N",
		"longitude": "77-4-55.24 W",
		"state": "NORTH CAROLINA",
		"artcc": "ZDC",
		"type": "RNAV",
		"updated": "10/08/2015"
	},
	{
		"name": "ZOTAL",
		"latitude": "35-56-8.59 N",
		"longitude": "79-3-41.67 W",
		"state": "NORTH CAROLINA",
		"artcc": "ZDC",
		"type": "RP",
		"updated": "RDU*VORTAC*294.68/14.08"
	},
	{
		"name": "ZOTID",
		"latitude": "36-46-26.64 N",
		"longitude": "76-22-29.25 W",
		"state": "VIRGINIA",
		"artcc": "ZDC",
		"type": "RNAV",
		"updated": "02/14/2013"
	},
	{
		"name": "ZOTIL",
		"latitude": "35-15-6.77 N",
		"longitude": "78-0-25.73 W",
		"state": "NORTH CAROLINA",
		"artcc": "ZDC",
		"type": "RNAV",
		"updated": "03/07/2013"
	},
	{
		"name": "ZOTOB",
		"latitude": "37-12-6.35 N",
		"longitude": "79-18-53.82 W",
		"state": "VIRGINIA",
		"artcc": "ZDC",
		"type": "RNAV",
		"updated": "04/05/2012"
	},
	{
		"name": "ZOTRA",
		"latitude": "39-22-1.36 N",
		"longitude": "75-7-31.38 W",
		"state": "NEW JERSEY",
		"artcc": "ZDC",
		"type": "RNAV",
		"updated": "05/31/2011"
	},
	{
		"name": "ZOTSA",
		"latitude": "38-22-38.15 N",
		"longitude": "76-27-43.28 W",
		"state": "MARYLAND",
		"artcc": "ZDC",
		"type": "CN",
		"updated": "08/19/2010"
	},
	{
		"name": "ZOTUS",
		"latitude": "34-51-31.63 N",
		"longitude": "77-34-36.97 W",
		"state": "NORTH CAROLINA",
		"artcc": "ZDC",
		"type": "RNAV",
		"updated": "04/07/2012"
	},
	{
		"name": "ZOVAP",
		"latitude": "39-22-9.49 N",
		"longitude": "76-28-32.02 W",
		"state": "MARYLAND",
		"artcc": "ZDC",
		"type": "RP",
		"updated": "BAL*VORTAC*047.00/14.70"
	},
	{
		"name": "ZOVEM",
		"latitude": "35-23-2.09 N",
		"longitude": "77-52-12.79 W",
		"state": "NORTH CAROLINA",
		"artcc": "ZDC",
		"type": "RNAV",
		"updated": "03/07/2013"
	},
	{
		"name": "ZOVGI",
		"latitude": "36-37-9.2 N",
		"longitude": "79-24-43.38 W",
		"state": "VIRGINIA",
		"artcc": "ZDC",
		"type": "RNAV",
		"updated": "01/11/2013"
	},
	{
		"name": "ZOWEE",
		"latitude": "39-16-6.85 N",
		"longitude": "76-44-19.83 W",
		"state": "MARYLAND",
		"artcc": "ZDC",
		"type": "RP",
		"updated": "BAL*VORTAC*/6.87"
	},
	{
		"name": "ZOXOS",
		"latitude": "34-44-58.9 N",
		"longitude": "77-28-29.4 W",
		"state": "NORTH CAROLINA",
		"artcc": "ZDC",
		"type": "RNAV",
		"updated": "12/05/2003"
	},
	{
		"name": "ZOYKO",
		"latitude": "35-55-53.27 N",
		"longitude": "76-35-46.1 W",
		"state": "NORTH CAROLINA",
		"artcc": "ZDC",
		"type": "WP",
		"updated": "07/06/2000"
	},
	{
		"name": "ZUBAX",
		"latitude": "40-8-24.64 N",
		"longitude": "74-59-57.05 W",
		"state": "PENNSYLVANIA",
		"artcc": "ZDC",
		"type": "RP",
		"updated": "GXU*VORTAC*305.03"
	},
	{
		"name": "ZUBIL",
		"latitude": "34-50-17.19 N",
		"longitude": "77-24-30.92 W",
		"state": "NORTH CAROLINA",
		"artcc": "ZDC",
		"type": "MR",
		"updated": "NCA*TACAN*019.00/8.00"
	},
	{
		"name": "ZUBOP",
		"latitude": "40-7-26.93 N",
		"longitude": "75-4-12.79 W",
		"state": "PENNSYLVANIA",
		"artcc": "ZDC",
		"type": "MW",
		"updated": "01/27/2009"
	},
	{
		"name": "ZUDGA",
		"latitude": "34-38-49.16 N",
		"longitude": "77-26-12.07 W",
		"state": "NORTH CAROLINA",
		"artcc": "ZDC",
		"type": "MW",
		"updated": "12/16/2014"
	},
	{
		"name": "ZUDIT",
		"latitude": "34-39-6.86 N",
		"longitude": "77-30-43.68 W",
		"state": "NORTH CAROLINA",
		"artcc": "ZDC",
		"type": "MW",
		"updated": "04/25/2017"
	},
	{
		"name": "ZUDRU",
		"latitude": "34-9-9.33 N",
		"longitude": "77-51-1.65 W",
		"state": "NORTH CAROLINA",
		"artcc": "ZDC",
		"type": "CN",
		"updated": "03/17/2011"
	},
	{
		"name": "ZUDUV",
		"latitude": "39-34-27 N",
		"longitude": "75-52-11.2 W",
		"state": "MARYLAND",
		"artcc": "ZDC",
		"type": "RNAV",
		"updated": "09/26/2016"
	},
	{
		"name": "ZUESS",
		"latitude": "39-29-48.58 N",
		"longitude": "75-30-5.27 W",
		"state": "NEW JERSEY",
		"artcc": "ZDC",
		"type": "RNAV",
		"updated": "04/28/2005"
	},
	{
		"name": "ZUHAX",
		"latitude": "35-53-39.35 N",
		"longitude": "76-43-34.39 W",
		"state": "NORTH CAROLINA",
		"artcc": "ZDC",
		"type": "RNAV",
		"updated": "06/20/2011"
	},
	{
		"name": "ZUKBU",
		"latitude": "39-0-15.36 N",
		"longitude": "76-16-25.23 W",
		"state": "MARYLAND",
		"artcc": "ZDC",
		"type": "RNAV",
		"updated": "08/12/2008"
	},
	{
		"name": "ZUKER",
		"latitude": "39-27-2.8 N",
		"longitude": "74-33-36.21 W",
		"state": "NEW JERSEY",
		"artcc": "ZDC",
		"type": "RP",
		"updated": "ACY*VORTAC*122.00/0.82"
	},
	{
		"name": "ZUKPU",
		"latitude": "37-56-50.37 N",
		"longitude": "75-35-24.43 W",
		"state": "VIRGINIA",
		"artcc": "ZDC",
		"type": "RP",
		"updated": "SBY*VORTAC*201.00/24.13"
	},
	{
		"name": "ZULKA",
		"latitude": "38-45-57.46 N",
		"longitude": "77-25-11.51 W",
		"state": "VIRGINIA",
		"artcc": "ZDC",
		"type": "RNAV",
		"updated": "10/08/2008"
	},
	{
		"name": "ZULNA",
		"latitude": "36-0-37.75 N",
		"longitude": "79-32-6.21 W",
		"state": "NORTH CAROLINA",
		"artcc": "ZDC",
		"type": "RNAV",
		"updated": "12/23/2013"
	},
	{
		"name": "ZULTA",
		"latitude": "39-2-34.07 N",
		"longitude": "74-54-21.49 W",
		"state": "NEW JERSEY",
		"artcc": "ZDC",
		"type": "RNAV",
		"updated": "08/17/2017"
	},
	{
		"name": "ZUMAT",
		"latitude": "37-49-43.49 N",
		"longitude": "78-46-30.69 W",
		"state": "VIRGINIA",
		"artcc": "ZDC",
		"type": "RNAV",
		"updated": "11/10/2014"
	},
	{
		"name": "ZUMBR",
		"latitude": "38-32-38.28 N",
		"longitude": "78-58-18.48 W",
		"state": "VIRGINIA",
		"artcc": "ZDC",
		"type": "RNAV",
		"updated": "02/04/2014"
	},
	{
		"name": "ZUMOP",
		"latitude": "37-27-17.92 N",
		"longitude": "79-15-10.17 W",
		"state": "VIRGINIA",
		"artcc": "ZDC",
		"type": "RNAV",
		"updated": "08/08/2013"
	},
	{
		"name": "ZUNAR",
		"latitude": "38-5-20.94 N",
		"longitude": "77-0-31.6 W",
		"state": "VIRGINIA",
		"artcc": "ZDC",
		"type": "RP",
		"updated": "BRV*VORTAC*141.20/22.00"
	},
	{
		"name": "ZUNIE",
		"latitude": "39-17-45.85 N",
		"longitude": "74-58-45.74 W",
		"state": "NEW JERSEY",
		"artcc": "ZDC",
		"type": "RNAV",
		"updated": "04/13/2006"
	},
	{
		"name": "ZUNIT",
		"latitude": "34-48-55.99 N",
		"longitude": "78-36-13.99 W",
		"state": "NORTH CAROLINA",
		"artcc": "ZDC",
		"type": "RP",
		"updated": "FAY*VOR/DME*131.19/16.82"
	},
	{
		"name": "ZUPAT",
		"latitude": "37-14-27.44 N",
		"longitude": "80-29-20.56 W",
		"state": "VIRGINIA",
		"artcc": "ZDC",
		"type": "RNAV",
		"updated": "07/12/2005"
	},
	{
		"name": "ZUPEL",
		"latitude": "36-56-55.37 N",
		"longitude": "76-41-34.34 W",
		"state": "VIRGINIA",
		"artcc": "ZDC",
		"type": "MR",
		"updated": "LFI*TACAN*253.00/18.00"
	},
	{
		"name": "ZUPER",
		"latitude": "34-59-37.27 N",
		"longitude": "77-6-0.45 W",
		"state": "NORTH CAROLINA",
		"artcc": "ZDC",
		"type": "RNAV",
		"updated": "11/19/2012"
	},
	{
		"name": "ZUPUX",
		"latitude": "39-45-28.12 N",
		"longitude": "77-25-22.42 W",
		"state": "PENNSYLVANIA",
		"artcc": "ZDC",
		"type": "RNAV",
		"updated": "07/18/2013"
	},
	{
		"name": "ZURKU",
		"latitude": "39-43-34.28 N",
		"longitude": "75-5-19.4 W",
		"state": "NEW JERSEY",
		"artcc": "ZDC",
		"type": "RNAV",
		"updated": "08/23/2004"
	},
	{
		"name": "ZUSOK",
		"latitude": "35-38-13.55 N",
		"longitude": "78-58-22.25 W",
		"state": "NORTH CAROLINA",
		"artcc": "ZDC",
		"type": "RNAV",
		"updated": "04/24/2017"
	},
	{
		"name": "ZUSTO",
		"latitude": "34-50-30.42 N",
		"longitude": "79-9-25.95 W",
		"state": "NORTH CAROLINA",
		"artcc": "ZDC",
		"type": "RNAV",
		"updated": "07/19/2011"
	},
	{
		"name": "ZUVNI",
		"latitude": "36-31-35.59 N",
		"longitude": "79-14-42.47 W",
		"state": "NORTH CAROLINA",
		"artcc": "ZDC",
		"type": "RNAV",
		"updated": "01/10/2013"
	},
	{
		"name": "ZUVRO",
		"latitude": "34-38-18.36 N",
		"longitude": "76-49-27.26 W",
		"state": "NORTH CAROLINA",
		"artcc": "ZDC",
		"type": "RP",
		"updated": "NKT*TACAN*180.00/16.00"
	},
	{
		"name": "ZUVSA",
		"latitude": "39-19-57.63 N",
		"longitude": "76-25-20.07 W",
		"state": "MARYLAND",
		"artcc": "ZDC",
		"type": "RP",
		"updated": "BQG*LE*323.79/0.97"
	},
	{
		"name": "ZUXEM",
		"latitude": "40-16-0.99 N",
		"longitude": "74-23-57.97 W",
		"state": "NEW JERSEY",
		"artcc": "ZDC",
		"type": "RNAV",
		"updated": "03/27/2012"
	},
	{
		"name": "ZUXIG",
		"latitude": "37-25-4.95 N",
		"longitude": "75-56-30.27 W",
		"state": "VIRGINIA",
		"artcc": "ZDC",
		"type": "RP",
		"updated": "CCV*VORTAC*042.31/5.00"
	},
	{
		"name": "ZUXUL",
		"latitude": "38-17-57.61 N",
		"longitude": "76-25-56.22 W",
		"state": "MARYLAND",
		"artcc": "ZDC",
		"type": "MR",
		"updated": "NHK*TACAN*327.00/1.50"
	},
	{
		"name": "ZUYHO",
		"latitude": "34-24-4.54 N",
		"longitude": "78-10-33.64 W",
		"state": "NORTH CAROLINA",
		"artcc": "ZDC",
		"type": "RNAV",
		"updated": "07/19/2013"
	}
]
