	{
		"name": "AAMMO",
		"latitude": "42-58-53.38 N",
		"longitude": "83-49-18.3 W",
		"state": "MICHIGAN",
		"artcc": "ZOB",
		"type": "RP",
		"updated": "DXO*VOR/DME*342.52/50.31",
	},
	{
		"name": "ACAPO",
		"latitude": "41-26-33.68 N",
		"longitude": "81-48-20.86 W",
		"state": "OHIO",
		"artcc": "ZOB",
		"type": "RNAV",
		"updated": "09/11/2017",
	},
	{
		"name": "ACARI",
		"latitude": "40-46-9.89 N",
		"longitude": "80-8-21.64 W",
		"state": "PENNSYLVANIA",
		"artcc": "ZOB",
		"type": "RNAV",
		"updated": "02/21/2017",
	},
	{
		"name": "ACAVU",
		"latitude": "41-50-52.4 N",
		"longitude": "79-33-16.35 W",
		"state": "PENNSYLVANIA",
		"artcc": "ZOB",
		"type": "RNAV",
		"updated": "08/06/2010",
	},
	{
		"name": "ACETE",
		"latitude": "40-15-50.08 N",
		"longitude": "80-35-26.1 W",
		"state": "WEST VIRGINIA",
		"artcc": "ZOB",
		"type": "RNAV",
		"updated": "06/29/2017",
	},
	{
		"name": "ACIKI",
		"latitude": "39-41-1.45 N",
		"longitude": "79-55-28.15 W",
		"state": "WEST VIRGINIA",
		"artcc": "ZOB",
		"type": "RNAV",
		"updated": "12/18/2006",
	},
	{
		"name": "ACIRA",
		"latitude": "41-56-34.58 N",
		"longitude": "83-34-25.8 W",
		"state": "MICHIGAN",
		"artcc": "ZOB",
		"type": "RP",
		"updated": "HJT*LD*215.68/19.52",
	},
	{
		"name": "ACUSA",
		"latitude": "40-0-26.44 N",
		"longitude": "77-35-35.87 W",
		"state": "PENNSYLVANIA",
		"artcc": "ZOB",
		"type": "RNAV",
		"updated": "09/03/2003",
	},
	{
		"name": "ADDIC",
		"latitude": "41-55-48.91 N",
		"longitude": "83-54-28.7 W",
		"state": "MICHIGAN",
		"artcc": "ZOB",
		"type": "RNAV",
		"updated": "03/24/2011",
	},
	{
		"name": "ADRAN",
		"latitude": "41-9-37.1 N",
		"longitude": "79-31-36.32 W",
		"state": "PENNSYLVANIA",
		"artcc": "ZOB",
		"type": "RNAV",
		"updated": "02/04/2008",
	},
	{
		"name": "ADRIE",
		"latitude": "42-57-29.8 N",
		"longitude": "83-6-49.84 W",
		"state": "MICHIGAN",
		"artcc": "ZOB",
		"type": "RNAV",
		"updated": "03/27/2018",
	},
	{
		"name": "ADVAW",
		"latitude": "40-10-26.12 N",
		"longitude": "79-54-29.06 W",
		"state": "PENNSYLVANIA",
		"artcc": "ZOB",
		"type": "RNAV",
		"updated": "10/21/2014",
	},
	{
		"name": "AERIC",
		"latitude": "42-13-16.14 N",
		"longitude": "83-5-50.46 W",
		"state": "",
		"artcc": "ZOB",
		"type": "RP",
		"updated": "DXO*VOR/DME*/12.02",
	},
	{
		"name": "AEROS",
		"latitude": "40-29-32.71 N",
		"longitude": "81-43-28.18 W",
		"state": "OHIO",
		"artcc": "ZOB",
		"type": "RP",
		"updated": "BSV*VOR/DME*226.00/20.00",
	},
	{
		"name": "AEVON",
		"latitude": "42-54-47.42 N",
		"longitude": "77-51-50.13 W",
		"state": "NEW YORK",
		"artcc": "ZOB",
		"type": "RNAV",
		"updated": "02/04/2014",
	},
	{
		"name": "AFFTR",
		"latitude": "42-37-28.58 N",
		"longitude": "83-8-10.22 W",
		"state": "MICHIGAN",
		"artcc": "ZOB",
		"type": "RNAV",
		"updated": "04/17/2018",
	},
	{
		"name": "AFJEF",
		"latitude": "42-57-18.44 N",
		"longitude": "84-27-38.08 W",
		"state": "MICHIGAN",
		"artcc": "ZOB",
		"type": "RNAV",
		"updated": "07/09/2009",
	},
	{
		"name": "AFLAK",
		"latitude": "41-14-59.53 N",
		"longitude": "84-16-2.03 W",
		"state": "OHIO",
		"artcc": "ZOB",
		"type": "RNAV",
		"updated": "02/17/2015",
	},
	{
		"name": "AFXAD",
		"latitude": "39-30-29.22 N",
		"longitude": "79-59-56.04 W",
		"state": "WEST VIRGINIA",
		"artcc": "ZOB",
		"type": "RNAV",
		"updated": "04/29/2009",
	},
	{
		"name": "AGCAP",
		"latitude": "40-26-34.48 N",
		"longitude": "80-37-48.34 W",
		"state": "OHIO",
		"artcc": "ZOB",
		"type": "RNAV",
		"updated": "05/21/2003",
	},
	{
		"name": "AGFAR",
		"latitude": "40-10-33.36 N",
		"longitude": "79-37-27.91 W",
		"state": "PENNSYLVANIA",
		"artcc": "ZOB",
		"type": "RNAV",
		"updated": "02/09/2018",
	},
	{
		"name": "AGFUB",
		"latitude": "42-32-23.27 N",
		"longitude": "77-2-42.85 W",
		"state": "NEW YORK",
		"artcc": "ZOB",
		"type": "RNAV",
		"updated": "06/18/2008",
	},
	{
		"name": "AGOBE",
		"latitude": "42-3-41.68 N",
		"longitude": "78-38-40.57 W",
		"state": "NEW YORK",
		"artcc": "ZOB",
		"type": "RNAV",
		"updated": "07/13/2006",
	},
	{
		"name": "AGOVY",
		"latitude": "40-1-5.85 N",
		"longitude": "78-23-56.58 W",
		"state": "PENNSYLVANIA",
		"artcc": "ZOB",
		"type": "RNAV",
		"updated": "05/13/2015",
	},
	{
		"name": "AHLES",
		"latitude": "42-2-53.11 N",
		"longitude": "83-12-26 W",
		"state": "MICHIGAN",
		"artcc": "ZOB",
		"type": "RP",
		"updated": "RYS*NDB*224.32",
	},
	{
		"name": "AHNEM",
		"latitude": "40-23-25.25 N",
		"longitude": "79-25-17.79 W",
		"state": "PENNSYLVANIA",
		"artcc": "ZOB",
		"type": "RNAV",
		"updated": "02/09/2018",
	},
	{
		"name": "AHOVI",
		"latitude": "41-3-48.13 N",
		"longitude": "83-16-25.15 W",
		"state": "OHIO",
		"artcc": "ZOB",
		"type": "RNAV",
		"updated": "05/20/2009",
	},
	{
		"name": "AHPAH",
		"latitude": "43-18-19 N",
		"longitude": "78-7-35.11 W",
		"state": "NEW YORK",
		"artcc": "ZOB",
		"type": "RNAV",
		"updated": "09/22/2014",
	},
	{
		"name": "AHTIY",
		"latitude": "39-54-51.85 N",
		"longitude": "80-23-5.23 W",
		"state": "PENNSYLVANIA",
		"artcc": "ZOB",
		"type": "RP",
		"updated": "AGC*VOR/DME*225.06",
	},
	{
		"name": "AHUNT",
		"latitude": "42-18-52.15 N",
		"longitude": "83-32-58.14 W",
		"state": "MICHIGAN",
		"artcc": "ZOB",
		"type": "RP",
		"updated": "DXO*VOR/DME*312.80",
	},
	{
		"name": "AHUZU",
		"latitude": "40-4-31.44 N",
		"longitude": "78-22-15.01 W",
		"state": "PENNSYLVANIA",
		"artcc": "ZOB",
		"type": "RNAV",
		"updated": "02/09/2018",
	},
	{
		"name": "AIRCO",
		"latitude": "43-12-36.66 N",
		"longitude": "78-28-57 W",
		"state": "NEW YORK",
		"artcc": "ZOB",
		"type": "RP",
		"updated": "BUF*VOR/DME*031.08",
	},
	{
		"name": "AIRRA",
		"latitude": "41-6-16.48 N",
		"longitude": "80-3-48.73 W",
		"state": "PENNSYLVANIA",
		"artcc": "ZOB",
		"type": "RNAV",
		"updated": "09/20/2014",
	},
	{
		"name": "AJAPA",
		"latitude": "40-54-34.42 N",
		"longitude": "80-11-52.41 W",
		"state": "PENNSYLVANIA",
		"artcc": "ZOB",
		"type": "RNAV",
		"updated": "09/02/2016",
	},
	{
		"name": "AJDIF",
		"latitude": "42-57-47.05 N",
		"longitude": "84-0-33.82 W",
		"state": "MICHIGAN",
		"artcc": "ZOB",
		"type": "RNAV",
		"updated": "06/16/2009",
	},
	{
		"name": "AJFEF",
		"latitude": "41-44-26.11 N",
		"longitude": "83-53-5.8 W",
		"state": "OHIO",
		"artcc": "ZOB",
		"type": "RNAV",
		"updated": "04/16/2001",
	},
	{
		"name": "AKEPE",
		"latitude": "41-39-54.01 N",
		"longitude": "83-33-54.07 W",
		"state": "OHIO",
		"artcc": "ZOB",
		"type": "RNAV",
		"updated": "12/27/2005",
	},
	{
		"name": "AKEYE",
		"latitude": "41-18-52.97 N",
		"longitude": "82-59-39.2 W",
		"state": "OHIO",
		"artcc": "ZOB",
		"type": "RNAV",
		"updated": "06/06/2011",
	},
	{
		"name": "AKGEF",
		"latitude": "41-37-53.37 N",
		"longitude": "82-44-19.36 W",
		"state": "OHIO",
		"artcc": "ZOB",
		"type": "RNAV",
		"updated": "07/21/2006",
	},
	{
		"name": "AKMEE",
		"latitude": "42-37-40.18 N",
		"longitude": "83-8-24.74 W",
		"state": "MICHIGAN",
		"artcc": "ZOB",
		"type": "RNAV",
		"updated": "04/18/2018",
	},
	{
		"name": "AKRON",
		"latitude": "41-4-11.02 N",
		"longitude": "81-23-14.83 W",
		"state": "OHIO",
		"artcc": "ZOB",
		"type": "RP",
		"updated": "AK*NDB*",
	},
	{
		"name": "AKSAR",
		"latitude": "40-9-33.4 N",
		"longitude": "80-17-14.81 W",
		"state": "PENNSYLVANIA",
		"artcc": "ZOB",
		"type": "RP",
		"updated": "EWC*VOR/DME*193.00/40.01",
	},
	{
		"name": "AKTOF",
		"latitude": "41-30-48 N",
		"longitude": "82-35-33.85 W",
		"state": "OHIO",
		"artcc": "ZOB",
		"type": "RNAV",
		"updated": "07/28/2014",
	},
	{
		"name": "ALEDE",
		"latitude": "39-22-3.73 N",
		"longitude": "84-22-33.61 W",
		"state": "OHIO",
		"artcc": "ZOB",
		"type": "RNAV",
		"updated": "10/08/2015",
	},
	{
		"name": "ALEEE",
		"latitude": "41-0-28.18 N",
		"longitude": "80-31-54.16 W",
		"state": "OHIO",
		"artcc": "ZOB",
		"type": "RNAV",
		"updated": "08/25/2011",
	},
	{
		"name": "ALGAL",
		"latitude": "40-40-8.34 N",
		"longitude": "79-51-11.77 W",
		"state": "PENNSYLVANIA",
		"artcc": "ZOB",
		"type": "RNAV",
		"updated": "04/09/2014",
	},
	{
		"name": "ALIYO",
		"latitude": "41-27-8.31 N",
		"longitude": "82-36-53.45 W",
		"state": "OHIO",
		"artcc": "ZOB",
		"type": "RNAV",
		"updated": "11/14/2005",
	},
	{
		"name": "ALKER",
		"latitude": "40-58-53.2 N",
		"longitude": "80-11-24.07 W",
		"state": "PENNSYLVANIA",
		"artcc": "ZOB",
		"type": "RP",
		"updated": "EWC*VOR/DME*013.95/9.44",
	},
	{
		"name": "ALLAC",
		"latitude": "40-24-40.35 N",
		"longitude": "78-52-23.54 W",
		"state": "PENNSYLVANIA",
		"artcc": "ZOB",
		"type": "RNAV",
		"updated": "03/28/2009",
	},
	{
		"name": "ALLCO",
		"latitude": "41-44-18.6 N",
		"longitude": "80-4-53.4 W",
		"state": "PENNSYLVANIA",
		"artcc": "ZOB",
		"type": "RP",
		"updated": "JHW*VOR/DME*245.19",
	},
	{
		"name": "ALLLN",
		"latitude": "42-24-21.98 N",
		"longitude": "83-21-27.9 W",
		"state": "MICHIGAN",
		"artcc": "ZOB",
		"type": "RNAV",
		"updated": "12/08/2015",
	},
	{
		"name": "ALMAZ",
		"latitude": "41-25-26.9 N",
		"longitude": "80-22-33.7 W",
		"state": "PENNSYLVANIA",
		"artcc": "ZOB",
		"type": "RNAV",
		"updated": "12/22/2015",
	},
	{
		"name": "ALOMR",
		"latitude": "41-29-17.54 N",
		"longitude": "81-43-35.74 W",
		"state": "OHIO",
		"artcc": "ZOB",
		"type": "RP",
		"updated": "HPI*LD*057.96/8.58",
	},
	{
		"name": "ALPEW",
		"latitude": "40-56-2.96 N",
		"longitude": "83-47-13.85 W",
		"state": "OHIO",
		"artcc": "ZOB",
		"type": "RNAV",
		"updated": "03/30/2009",
	},
	{
		"name": "ALPHE",
		"latitude": "42-26-9.24 N",
		"longitude": "84-30-35.7 W",
		"state": "MICHIGAN",
		"artcc": "ZOB",
		"type": "RP",
		"updated": "VIO*VOR/DME*119.36/48.53",
	},
	{
		"name": "ALTOO",
		"latitude": "40-23-59.86 N",
		"longitude": "78-16-53.32 W",
		"state": "PENNSYLVANIA",
		"artcc": "ZOB",
		"type": "RP",
		"updated": "11/04/2003",
	},
	{
		"name": "ALUCO",
		"latitude": "41-12-53.07 N",
		"longitude": "82-36-36.64 W",
		"state": "OHIO",
		"artcc": "ZOB",
		"type": "RNAV",
		"updated": "02/09/2018",
	},
	{
		"name": "ALWAZ",
		"latitude": "42-12-14.93 N",
		"longitude": "83-1-34.65 W",
		"state": "MICHIGAN",
		"artcc": "ZOB",
		"type": "RP",
		"updated": "EPA*LD*095.73/15.12",
	},
	{
		"name": "AMCOS",
		"latitude": "41-22-40.57 N",
		"longitude": "83-16-1.47 W",
		"state": "OHIO",
		"artcc": "ZOB",
		"type": "RNAV",
		"updated": "02/09/2018",
	},
	{
		"name": "AMHUH",
		"latitude": "42-47-28.36 N",
		"longitude": "76-46-14.84 W",
		"state": "NEW YORK",
		"artcc": "ZOB",
		"type": "RNAV",
		"updated": "12/27/2005",
	},
	{
		"name": "AMNOV",
		"latitude": "39-56-57.6 N",
		"longitude": "80-40-51.87 W",
		"state": "WEST VIRGINIA",
		"artcc": "ZOB",
		"type": "RNAV",
		"updated": "06/27/2017",
	},
	{
		"name": "AMRST",
		"latitude": "41-14-42.18 N",
		"longitude": "82-59-19.8 W",
		"state": "OHIO",
		"artcc": "ZOB",
		"type": "RP",
		"updated": "DJB*VOR/DME*265.00/38.00",
	},
	{
		"name": "AMXUX",
		"latitude": "41-56-5.92 N",
		"longitude": "83-17-11.11 W",
		"state": "MICHIGAN",
		"artcc": "ZOB",
		"type": "RNAV",
		"updated": "03/03/2009",
	},
	{
		"name": "ANEZI",
		"latitude": "41-7-21.28 N",
		"longitude": "83-11-32.7 W",
		"state": "OHIO",
		"artcc": "ZOB",
		"type": "RNAV",
		"updated": "02/09/2018",
	},
	{
		"name": "ANGGL",
		"latitude": "42-17-14.3 N",
		"longitude": "83-19-31.3 W",
		"state": "MICHIGAN",
		"artcc": "ZOB",
		"type": "RP",
		"updated": "BZB*LD*033.19/5.92",
	},
	{
		"name": "ANJEY",
		"latitude": "41-30-21.65 N",
		"longitude": "81-39-39.92 W",
		"state": "OHIO",
		"artcc": "ZOB",
		"type": "RNAV",
		"updated": "04/18/2018",
	},
	{
		"name": "ANNTS",
		"latitude": "41-41-0.83 N",
		"longitude": "83-47-26.16 W",
		"state": "OHIO",
		"artcc": "ZOB",
		"type": "RP",
		"updated": "DXO*VOR/DME*217.00/37.00",
	},
	{
		"name": "ANOVE",
		"latitude": "41-57-1.77 N",
		"longitude": "83-29-14.75 W",
		"state": "MICHIGAN",
		"artcc": "ZOB",
		"type": "RNAV",
		"updated": "03/27/2018",
	},
	{
		"name": "ANSAH",
		"latitude": "42-29-2.14 N",
		"longitude": "82-59-45.82 W",
		"state": "MICHIGAN",
		"artcc": "ZOB",
		"type": "RNAV",
		"updated": "04/17/2018",
	},
	{
		"name": "ANTIO",
		"latitude": "39-32-36.25 N",
		"longitude": "81-3-51.37 W",
		"state": "OHIO",
		"artcc": "ZOB",
		"type": "RP",
		"updated": "AIR*VOR/DME*209.00",
	},
	{
		"name": "ANUYE",
		"latitude": "40-8-41.37 N",
		"longitude": "80-9-50.54 W",
		"state": "PENNSYLVANIA",
		"artcc": "ZOB",
		"type": "RP",
		"updated": "AGC*VOR/DME*224.25",
	},
	{
		"name": "ANXEG",
		"latitude": "40-45-28.3 N",
		"longitude": "78-4-5.83 W",
		"state": "PENNSYLVANIA",
		"artcc": "ZOB",
		"type": "RNAV",
		"updated": "08/14/2013",
	},
	{
		"name": "APIWO",
		"latitude": "43-6-33.29 N",
		"longitude": "78-48-49.05 W",
		"state": "NEW YORK",
		"artcc": "ZOB",
		"type": "RNAV",
		"updated": "07/26/2013",
	},
	{
		"name": "APRAW",
		"latitude": "40-57-46.37 N",
		"longitude": "80-55-40.78 W",
		"state": "OHIO",
		"artcc": "ZOB",
		"type": "RNAV",
		"updated": "04/15/2010",
	},
	{
		"name": "AQQUA",
		"latitude": "41-15-25.98 N",
		"longitude": "82-31-47.98 W",
		"state": "OHIO",
		"artcc": "ZOB",
		"type": "RP",
		"updated": "YQG*VOR/DME*173.19/61.02",
	},
	{
		"name": "ARARY",
		"latitude": "40-8-33.31 N",
		"longitude": "79-53-35.41 W",
		"state": "PENNSYLVANIA",
		"artcc": "ZOB",
		"type": "WP",
		"updated": "07/17/2007",
	},
	{
		"name": "ARCAD",
		"latitude": "41-8-27.52 N",
		"longitude": "83-28-22.79 W",
		"state": "OHIO",
		"artcc": "ZOB",
		"type": "RP",
		"updated": "FBC*VORTAC*051.00/17.00",
	},
	{
		"name": "ARCAT",
		"latitude": "39-22-58.33 N",
		"longitude": "80-10-52.72 W",
		"state": "WEST VIRGINIA",
		"artcc": "ZOB",
		"type": "RP",
		"updated": "CKB*VOR/DME*/8.76",
	},
	{
		"name": "ARDES",
		"latitude": "42-5-29.44 N",
		"longitude": "83-25-41.77 W",
		"state": "MICHIGAN",
		"artcc": "ZOB",
		"type": "RP",
		"updated": "CRL*VOR/DME*/2.92",
	},
	{
		"name": "AREBE",
		"latitude": "43-34-43.45 N",
		"longitude": "82-54-37.41 W",
		"state": "MICHIGAN",
		"artcc": "ZOB",
		"type": "RNAV",
		"updated": "06/25/2007",
	},
	{
		"name": "ARIFI",
		"latitude": "41-13-23.61 N",
		"longitude": "83-32-54.9 W",
		"state": "OHIO",
		"artcc": "ZOB",
		"type": "RNAV",
		"updated": "02/09/2018",
	},
	{
		"name": "ARJEV",
		"latitude": "41-3-10.82 N",
		"longitude": "83-39-7.62 W",
		"state": "OHIO",
		"artcc": "ZOB",
		"type": "RNAV",
		"updated": "02/09/2018",
	},
	{
		"name": "ARNIE",
		"latitude": "40-12-43.19 N",
		"longitude": "79-29-31.82 W",
		"state": "PENNSYLVANIA",
		"artcc": "ZOB",
		"type": "RNAV",
		"updated": "02/28/2017",
	},
	{
		"name": "AROLE",
		"latitude": "41-28-53.87 N",
		"longitude": "83-38-31.71 W",
		"state": "OHIO",
		"artcc": "ZOB",
		"type": "RNAV",
		"updated": "06/24/2013",
	},
	{
		"name": "ARRGH",
		"latitude": "41-53-49.39 N",
		"longitude": "83-35-41.14 W",
		"state": "MICHIGAN",
		"artcc": "ZOB",
		"type": "RNAV",
		"updated": "04/17/2018",
	},
	{
		"name": "ARSHP",
		"latitude": "41-2-7.18 N",
		"longitude": "81-13-48.88 W",
		"state": "OHIO",
		"artcc": "ZOB",
		"type": "RNAV",
		"updated": "07/01/2010",
	},
	{
		"name": "ARTSY",
		"latitude": "41-30-37.44 N",
		"longitude": "80-27-39.87 W",
		"state": "PENNSYLVANIA",
		"artcc": "ZOB",
		"type": "RNAV",
		"updated": "10/06/2015",
	},
	{
		"name": "ARUJO",
		"latitude": "41-51-30.33 N",
		"longitude": "83-26-16.9 W",
		"state": "MICHIGAN",
		"artcc": "ZOB",
		"type": "RNAV",
		"updated": "02/09/2018",
	},
	{
		"name": "ARUKE",
		"latitude": "41-2-26.39 N",
		"longitude": "78-40-5.47 W",
		"state": "PENNSYLVANIA",
		"artcc": "ZOB",
		"type": "RNAV",
		"updated": "12/22/2006",
	},
	{
		"name": "ASAKE",
		"latitude": "42-36-45.6 N",
		"longitude": "82-36-21.81 W",
		"state": "MICHIGAN",
		"artcc": "ZOB",
		"type": "MR",
		"updated": "MTC*TACAN*096.00/10.00",
	},
	{
		"name": "ASANE",
		"latitude": "43-37-3.74 N",
		"longitude": "84-22-0.1 W",
		"state": "MICHIGAN",
		"artcc": "ZOB",
		"type": "RNAV",
		"updated": "04/06/2009",
	},
	{
		"name": "ASHEN",
		"latitude": "41-28-49.77 N",
		"longitude": "84-38-48.3 W",
		"state": "OHIO",
		"artcc": "ZOB",
		"type": "RP",
		"updated": "GSH*VORTAC*092.01/62.32",
	},
	{
		"name": "ASHUR",
		"latitude": "43-10-20.92 N",
		"longitude": "84-21-12 W",
		"state": "MICHIGAN",
		"artcc": "ZOB",
		"type": "RNAV",
		"updated": "03/27/2018",
	},
	{
		"name": "ASICO",
		"latitude": "41-6-58.39 N",
		"longitude": "78-40-31.1 W",
		"state": "PENNSYLVANIA",
		"artcc": "ZOB",
		"type": "RNAV",
		"updated": "07/23/2012",
	},
	{
		"name": "ASIWU",
		"latitude": "40-37-40.65 N",
		"longitude": "80-20-20.06 W",
		"state": "PENNSYLVANIA",
		"artcc": "ZOB",
		"type": "RNAV",
		"updated": "11/22/2017",
	},
	{
		"name": "ASLLI",
		"latitude": "41-59-20.12 N",
		"longitude": "83-32-25.05 W",
		"state": "MICHIGAN",
		"artcc": "ZOB",
		"type": "RP",
		"updated": "HJT*LD*215.68/16.38",
	},
	{
		"name": "ASOBY",
		"latitude": "41-32-49.85 N",
		"longitude": "84-7-28.03 W",
		"state": "OHIO",
		"artcc": "ZOB",
		"type": "RNAV",
		"updated": "02/06/2014",
	},
	{
		"name": "ASUTE",
		"latitude": "39-56-39.01 N",
		"longitude": "78-16-27.79 W",
		"state": "PENNSYLVANIA",
		"artcc": "ZOB",
		"type": "RP",
		"updated": "THS*VORTAC*279.62/14.94",
	},
	{
		"name": "ATAME",
		"latitude": "41-56-47.53 N",
		"longitude": "78-49-5.05 W",
		"state": "PENNSYLVANIA",
		"artcc": "ZOB",
		"type": "RP",
		"updated": "BFD*VOR/DME*324.22/13.10",
	},
	{
		"name": "ATEVY",
		"latitude": "41-55-54.08 N",
		"longitude": "84-6-9.64 W",
		"state": "MICHIGAN",
		"artcc": "ZOB",
		"type": "RNAV",
		"updated": "04/15/2013",
	},
	{
		"name": "ATLAZ",
		"latitude": "43-20-0 N",
		"longitude": "78-50-0 W",
		"state": "NEW YORK",
		"artcc": "ZOB",
		"type": "RNAV",
		"updated": "04/12/2005",
	},
	{
		"name": "ATOYE",
		"latitude": "42-14-29.41 N",
		"longitude": "83-40-13.69 W",
		"state": "MICHIGAN",
		"artcc": "ZOB",
		"type": "RNAV",
		"updated": "10/23/2014",
	},
	{
		"name": "ATTAR",
		"latitude": "42-30-36.4 N",
		"longitude": "77-25-12 W",
		"state": "NEW YORK",
		"artcc": "ZOB",
		"type": "RP",
		"updated": "ELZ*VORTAC*054.46/36.08",
	},
	{
		"name": "ATTEE",
		"latitude": "41-54-46.27 N",
		"longitude": "83-39-44.53 W",
		"state": "MICHIGAN",
		"artcc": "ZOB",
		"type": "RNAV",
		"updated": "04/17/2018",
	},
	{
		"name": "ATVIY",
		"latitude": "41-30-46.67 N",
		"longitude": "84-2-46.31 W",
		"state": "OHIO",
		"artcc": "ZOB",
		"type": "RNAV",
		"updated": "12/27/2005",
	},
	{
		"name": "ATWOO",
		"latitude": "40-29-8.62 N",
		"longitude": "81-12-49.27 W",
		"state": "OHIO",
		"artcc": "ZOB",
		"type": "RP",
		"updated": "CTW*VOR/DME*045.00",
	},
	{
		"name": "AUTTO",
		"latitude": "42-34-34.14 N",
		"longitude": "82-20-1.21 W",
		"state": "",
		"artcc": "ZOB",
		"type": "RNAV",
		"updated": "04/02/2018",
	},
	{
		"name": "AVACA",
		"latitude": "40-0-50.03 N",
		"longitude": "80-56-58.5 W",
		"state": "OHIO",
		"artcc": "ZOB",
		"type": "RNAV",
		"updated": "04/19/2012",
	},
	{
		"name": "AVERE",
		"latitude": "40-19-51.75 N",
		"longitude": "80-3-26.36 W",
		"state": "PENNSYLVANIA",
		"artcc": "ZOB",
		"type": "RP",
		"updated": "IHD*VORTAC*309.86/38.62",
	},
	{
		"name": "AVFAX",
		"latitude": "40-56-57.46 N",
		"longitude": "84-21-41.61 W",
		"state": "OHIO",
		"artcc": "ZOB",
		"type": "RNAV",
		"updated": "11/05/2008",
	},
	{
		"name": "AVIYE",
		"latitude": "41-54-38.84 N",
		"longitude": "84-21-46.38 W",
		"state": "MICHIGAN",
		"artcc": "ZOB",
		"type": "RNAV",
		"updated": "06/10/2013",
	},
	{
		"name": "AVOBE",
		"latitude": "41-14-0.07 N",
		"longitude": "81-33-22.2 W",
		"state": "OHIO",
		"artcc": "ZOB",
		"type": "RNAV",
		"updated": "09/10/2002",
	},
	{
		"name": "AVOFY",
		"latitude": "41-10-52.34 N",
		"longitude": "84-18-1.7 W",
		"state": "OHIO",
		"artcc": "ZOB",
		"type": "RNAV",
		"updated": "02/09/2018",
	},
	{
		"name": "AVRAW",
		"latitude": "40-47-36.26 N",
		"longitude": "79-42-9.31 W",
		"state": "PENNSYLVANIA",
		"artcc": "ZOB",
		"type": "RNAV",
		"updated": "06/29/2001",
	},
	{
		"name": "AWNEV",
		"latitude": "40-56-47.69 N",
		"longitude": "81-41-31.65 W",
		"state": "OHIO",
		"artcc": "ZOB",
		"type": "RNAV",
		"updated": "08/28/2014",
	},
	{
		"name": "AWOSE",
		"latitude": "41-23-52.31 N",
		"longitude": "82-55-15.14 W",
		"state": "OHIO",
		"artcc": "ZOB",
		"type": "RNAV",
		"updated": "12/26/2013",
	},
	{
		"name": "AWOSO",
		"latitude": "41-50-7.22 N",
		"longitude": "83-31-34.55 W",
		"state": "MICHIGAN",
		"artcc": "ZOB",
		"type": "RNAV",
		"updated": "02/20/2014",
	},
	{
		"name": "AWSOF",
		"latitude": "42-13-37.31 N",
		"longitude": "84-40-45.82 W",
		"state": "MICHIGAN",
		"artcc": "ZOB",
		"type": "RNAV",
		"updated": "03/01/2013",
	},
	{
		"name": "AXAWU",
		"latitude": "41-24-0.88 N",
		"longitude": "83-55-40.18 W",
		"state": "OHIO",
		"artcc": "ZOB",
		"type": "RNAV",
		"updated": "04/02/2013",
	},
	{
		"name": "AXUBE",
		"latitude": "41-11-44.4 N",
		"longitude": "82-0-13.6 W",
		"state": "OHIO",
		"artcc": "ZOB",
		"type": "RNAV",
		"updated": "09/10/2002",
	},
	{
		"name": "AXXIS",
		"latitude": "42-49-50.11 N",
		"longitude": "81-59-0.17 W",
		"state": "",
		"artcc": "ZOB",
		"type": "RP",
		"updated": "YXU*VOR/DME*259.60/38.82",
	},
	{
		"name": "AYALI",
		"latitude": "43-39-1.4 N",
		"longitude": "83-12-52.26 W",
		"state": "MICHIGAN",
		"artcc": "ZOB",
		"type": "RNAV",
		"updated": "10/24/2007",
	},
	{
		"name": "AYHEB",
		"latitude": "41-30-21.64 N",
		"longitude": "82-49-41.08 W",
		"state": "OHIO",
		"artcc": "ZOB",
		"type": "RNAV",
		"updated": "07/28/2014",
	},
	{
		"name": "AYIGE",
		"latitude": "41-17-20.35 N",
		"longitude": "79-53-48.31 W",
		"state": "PENNSYLVANIA",
		"artcc": "ZOB",
		"type": "RNAV",
		"updated": "09/28/2007",
	},
	{
		"name": "AYOPU",
		"latitude": "41-15-10.3 N",
		"longitude": "79-24-19.089 W",
		"state": "PENNSYLVANIA",
		"artcc": "ZOB",
		"type": "RNAV",
		"updated": "10/05/2004",
	},
	{
		"name": "AYOSO",
		"latitude": "42-5-59.1 N",
		"longitude": "79-45-21.23 W",
		"state": "NEW YORK",
		"artcc": "ZOB",
		"type": "RNAV",
		"updated": "08/06/2010",
	},
	{
		"name": "AYOTO",
		"latitude": "42-9-6.91 N",
		"longitude": "83-39-22.28 W",
		"state": "MICHIGAN",
		"artcc": "ZOB",
		"type": "RNAV",
		"updated": "10/23/2014",
	},
	{
		"name": "AYUSU",
		"latitude": "41-27-44.28 N",
		"longitude": "79-49-30.79 W",
		"state": "PENNSYLVANIA",
		"artcc": "ZOB",
		"type": "RP",
		"updated": "FKL*VOR*050.85",
	},
	{
		"name": "AYXEL",
		"latitude": "41-11-3.59 N",
		"longitude": "79-56-41.2 W",
		"state": "PENNSYLVANIA",
		"artcc": "ZOB",
		"type": "RNAV",
		"updated": "01/18/2018",
	},
	{
		"name": "AYZEL",
		"latitude": "41-31-10.71 N",
		"longitude": "82-48-7.82 W",
		"state": "OHIO",
		"artcc": "ZOB",
		"type": "RP",
		"updated": "DJB*VOR/DME*/30.47",
	},
	{
		"name": "AZDEZ",
		"latitude": "42-46-44.26 N",
		"longitude": "84-42-18.56 W",
		"state": "MICHIGAN",
		"artcc": "ZOB",
		"type": "RNAV",
		"updated": "07/09/2009",
	},
	{
		"name": "AZEQY",
		"latitude": "41-25-37.25 N",
		"longitude": "83-42-33.33 W",
		"state": "OHIO",
		"artcc": "ZOB",
		"type": "RNAV",
		"updated": "04/16/2001",
	},
	{
		"name": "AZIBY",
		"latitude": "42-39-45.42 N",
		"longitude": "83-29-59.16 W",
		"state": "MICHIGAN",
		"artcc": "ZOB",
		"type": "RNAV",
		"updated": "09/14/2009",
	},
	{
		"name": "AZTRO",
		"latitude": "41-53-43.36 N",
		"longitude": "81-56-35.11 W",
		"state": "OHIO",
		"artcc": "ZOB",
		"type": "RP",
		"updated": "DJB*VOR/DME*021.92",
	},
	{
		"name": "AZWEC",
		"latitude": "41-39-31.9 N",
		"longitude": "77-51-14.49 W",
		"state": "PENNSYLVANIA",
		"artcc": "ZOB",
		"type": "RNAV",
		"updated": "01/09/2018",
	},
