[
	{
		"name": "CAATZ",
		"latitude": "41-48-24.82 N",
		"longitude": "83-26-45.92 W",
		"state": "MICHIGAN",
		"artcc": "ZOB",
		"type": "RNAV",
		"updated": "04/18/2018"
	},
	{
		"name": "CABDA",
		"latitude": "40-31-7.9 N",
		"longitude": "83-16-49.98 W",
		"state": "OHIO",
		"artcc": "ZOB",
		"type": "RNAV",
		"updated": "06/28/2007"
	},
	{
		"name": "CABIS",
		"latitude": "41-7-48.77 N",
		"longitude": "77-20-28.09 W",
		"state": "PENNSYLVANIA",
		"artcc": "ZOB",
		"type": "RNAV",
		"updated": "07/14/2006"
	},
	{
		"name": "CABJO",
		"latitude": "41-59-27.92 N",
		"longitude": "83-55-48.35 W",
		"state": "MICHIGAN",
		"artcc": "ZOB",
		"type": "RNAV",
		"updated": "02/23/2015"
	},
	{
		"name": "CABLE",
		"latitude": "40-50-54.69 N",
		"longitude": "81-26-40.89 W",
		"state": "OHIO",
		"artcc": "ZOB",
		"type": "RNAV",
		"updated": "CAK*LS*189.47"
	},
	{
		"name": "CABME",
		"latitude": "41-43-2.74 N",
		"longitude": "83-35-42.64 W",
		"state": "OHIO",
		"artcc": "ZOB",
		"type": "RNAV",
		"updated": "03/24/2011"
	},
	{
		"name": "CABOR",
		"latitude": "41-42-8.22 N",
		"longitude": "77-51-17.22 W",
		"state": "PENNSYLVANIA",
		"artcc": "ZOB",
		"type": "RNAV",
		"updated": "08/24/2001"
	},
	{
		"name": "CABSA",
		"latitude": "42-1-0.54 N",
		"longitude": "80-17-48.09 W",
		"state": "PENNSYLVANIA",
		"artcc": "ZOB",
		"type": "RP",
		"updated": "ERI*LD*244.48"
	},
	{
		"name": "CABTI",
		"latitude": "42-45-50.81 N",
		"longitude": "82-28-2.97 W",
		"state": "MICHIGAN",
		"artcc": "ZOB",
		"type": "CN",
		"updated": "04/27/2007"
	},
	{
		"name": "CADBI",
		"latitude": "41-38-55.83 N",
		"longitude": "79-44-38.53 W",
		"state": "PENNSYLVANIA",
		"artcc": "ZOB",
		"type": "RNAV",
		"updated": "06/09/2016"
	},
	{
		"name": "CADIB",
		"latitude": "41-6-56.24 N",
		"longitude": "79-51-4.96 W",
		"state": "PENNSYLVANIA",
		"artcc": "ZOB",
		"type": "RNAV",
		"updated": "02/21/2017"
	},
	{
		"name": "CADIR",
		"latitude": "39-48-11.59 N",
		"longitude": "78-21-24.45 W",
		"state": "PENNSYLVANIA",
		"artcc": "ZOB",
		"type": "RNAV",
		"updated": "06/29/2011"
	},
	{
		"name": "CADKE",
		"latitude": "41-58-12.18 N",
		"longitude": "83-56-54.84 W",
		"state": "MICHIGAN",
		"artcc": "ZOB",
		"type": "RNAV",
		"updated": "03/09/2015"
	},
	{
		"name": "CADLC",
		"latitude": "42-12-10.38 N",
		"longitude": "83-31-27.78 W",
		"state": "MICHIGAN",
		"artcc": "ZOB",
		"type": "RNAV",
		"updated": "03/29/2018"
	},
	{
		"name": "CADOB",
		"latitude": "43-34-0.26 N",
		"longitude": "84-29-15.9 W",
		"state": "MICHIGAN",
		"artcc": "ZOB",
		"type": "RNAV",
		"updated": "04/06/2009"
	},
	{
		"name": "CADRE",
		"latitude": "39-42-57.26 N",
		"longitude": "81-24-35.93 W",
		"state": "OHIO",
		"artcc": "ZOB",
		"type": "RP",
		"updated": "ZZV*VOR/DME*127.00"
	},
	{
		"name": "CAFKI",
		"latitude": "41-55-2.3 N",
		"longitude": "77-44-41.29 W",
		"state": "PENNSYLVANIA",
		"artcc": "ZOB",
		"type": "CN",
		"updated": "12/04/2014"
	},
	{
		"name": "CAGED",
		"latitude": "39-54-2.43 N",
		"longitude": "79-45-31.07 W",
		"state": "PENNSYLVANIA",
		"artcc": "ZOB",
		"type": "RNAV",
		"updated": "05/03/2016"
	},
	{
		"name": "CAGEG",
		"latitude": "41-14-15.03 N",
		"longitude": "80-14-36.83 W",
		"state": "PENNSYLVANIA",
		"artcc": "ZOB",
		"type": "RNAV",
		"updated": "10/02/2014"
	},
	{
		"name": "CAGSA",
		"latitude": "41-30-31.32 N",
		"longitude": "82-57-23.27 W",
		"state": "OHIO",
		"artcc": "ZOB",
		"type": "RNAV",
		"updated": "05/20/2009"
	},
	{
		"name": "CAGVU",
		"latitude": "41-33-8.51 N",
		"longitude": "78-24-5.8 W",
		"state": "PENNSYLVANIA",
		"artcc": "ZOB",
		"type": "RNAV",
		"updated": "07/13/2006"
	},
	{
		"name": "CAKAT",
		"latitude": "40-29-22.33 N",
		"longitude": "80-21-48.29 W",
		"state": "PENNSYLVANIA",
		"artcc": "ZOB",
		"type": "RNAV",
		"updated": "07/08/2003"
	},
	{
		"name": "CAKDI",
		"latitude": "43-17-48.69 N",
		"longitude": "84-51-17.58 W",
		"state": "MICHIGAN",
		"artcc": "ZOB",
		"type": "RNAV",
		"updated": "03/11/2014"
	},
	{
		"name": "CAKID",
		"latitude": "40-38-17.23 N",
		"longitude": "78-23-45.31 W",
		"state": "PENNSYLVANIA",
		"artcc": "ZOB",
		"type": "RNAV",
		"updated": "03/07/2005"
	},
	{
		"name": "CAKIS",
		"latitude": "41-3-37.93 N",
		"longitude": "83-39-56.98 W",
		"state": "OHIO",
		"artcc": "ZOB",
		"type": "RNAV",
		"updated": "06/27/2007"
	},
	{
		"name": "CAKYA",
		"latitude": "41-1-58.19 N",
		"longitude": "81-47-33.42 W",
		"state": "OHIO",
		"artcc": "ZOB",
		"type": "RP",
		"updated": "BSV*VOR/DME*321.00/24.00"
	},
	{
		"name": "CALEP",
		"latitude": "43-32-25.05 N",
		"longitude": "83-57-48.13 W",
		"state": "MICHIGAN",
		"artcc": "ZOB",
		"type": "RP",
		"updated": "MBS*VOR/DME*087.00/5.00"
	},
	{
		"name": "CALIV",
		"latitude": "40-38-6.65 N",
		"longitude": "80-23-56.59 W",
		"state": "PENNSYLVANIA",
		"artcc": "ZOB",
		"type": "RNAV",
		"updated": "08/08/2005"
	},
	{
		"name": "CALKA",
		"latitude": "40-25-26.49 N",
		"longitude": "82-35-18.43 W",
		"state": "OHIO",
		"artcc": "ZOB",
		"type": "RNAV",
		"updated": "10/30/2001"
	},
	{
		"name": "CALSU",
		"latitude": "41-8-29.03 N",
		"longitude": "81-39-13.93 W",
		"state": "OHIO",
		"artcc": "ZOB",
		"type": "RNAV",
		"updated": "09/10/2002"
	},
	{
		"name": "CALTA",
		"latitude": "43-43-18.89 N",
		"longitude": "82-57-49.99 W",
		"state": "MICHIGAN",
		"artcc": "ZOB",
		"type": "RNAV",
		"updated": "06/25/2007"
	},
	{
		"name": "CALVS",
		"latitude": "41-41-2.63 N",
		"longitude": "83-34-8.57 W",
		"state": "OHIO",
		"artcc": "ZOB",
		"type": "RP",
		"updated": "DXO*VOR/DME*202.01/33.00"
	},
	{
		"name": "CAMEN",
		"latitude": "41-38-45.07 N",
		"longitude": "77-50-10.77 W",
		"state": "PENNSYLVANIA",
		"artcc": "ZOB",
		"type": "RP",
		"updated": "SLT*VORTAC*045.00/10.00"
	},
	{
		"name": "CAMES",
		"latitude": "41-7-21.51 N",
		"longitude": "80-39-36.77 W",
		"state": "OHIO",
		"artcc": "ZOB",
		"type": "RP",
		"updated": "ACO*VOR/DME*091.76/24.56"
	},
	{
		"name": "CAMEY",
		"latitude": "43-1-3.51 N",
		"longitude": "77-33-12.57 W",
		"state": "NEW YORK",
		"artcc": "ZOB",
		"type": "RNAV",
		"updated": "09/11/2014"
	},
	{
		"name": "CAMIT",
		"latitude": "41-12-23.59 N",
		"longitude": "84-18-1.38 W",
		"state": "OHIO",
		"artcc": "ZOB",
		"type": "RNAV",
		"updated": "02/17/2015"
	},
	{
		"name": "CANAB",
		"latitude": "41-2-45.58 N",
		"longitude": "83-18-29.63 W",
		"state": "OHIO",
		"artcc": "ZOB",
		"type": "RNAV",
		"updated": "05/27/2009"
	},
	{
		"name": "CANBI",
		"latitude": "40-14-28.67 N",
		"longitude": "80-22-23.9 W",
		"state": "PENNSYLVANIA",
		"artcc": "ZOB",
		"type": "RNAV",
		"updated": "05/03/2016"
	},
	{
		"name": "CANCR",
		"latitude": "41-18-20.15 N",
		"longitude": "81-34-39.41 W",
		"state": "OHIO",
		"artcc": "ZOB",
		"type": "RP",
		"updated": "DJB*VOR/DME*101.60/26.60"
	},
	{
		"name": "CANOM",
		"latitude": "43-6-7.38 N",
		"longitude": "78-35-17.97 W",
		"state": "NEW YORK",
		"artcc": "ZOB",
		"type": "RNAV",
		"updated": "06/05/2002"
	},
	{
		"name": "CAPDO",
		"latitude": "41-37-31.91 N",
		"longitude": "78-18-38.63 W",
		"state": "PENNSYLVANIA",
		"artcc": "ZOB",
		"type": "RNAV",
		"updated": "07/13/2006"
	},
	{
		"name": "CAPEL",
		"latitude": "41-7-31.91 N",
		"longitude": "80-32-29.02 W",
		"state": "OHIO",
		"artcc": "ZOB",
		"type": "RP",
		"updated": "CTW*VOR/DME*045.15"
	},
	{
		"name": "CAPGU",
		"latitude": "40-39-57.78 N",
		"longitude": "80-5-8.3 W",
		"state": "PENNSYLVANIA",
		"artcc": "ZOB",
		"type": "RNAV",
		"updated": "02/21/2017"
	},
	{
		"name": "CAPKA",
		"latitude": "41-15-20.25 N",
		"longitude": "79-41-21.46 W",
		"state": "PENNSYLVANIA",
		"artcc": "ZOB",
		"type": "RNAV",
		"updated": "02/16/2018"
	},
	{
		"name": "CAPLU",
		"latitude": "43-12-35.28 N",
		"longitude": "77-36-3.55 W",
		"state": "NEW YORK",
		"artcc": "ZOB",
		"type": "RNAV",
		"updated": "03/26/2014"
	},
	{
		"name": "CAREP",
		"latitude": "42-15-25.83 N",
		"longitude": "83-30-21.43 W",
		"state": "MICHIGAN",
		"artcc": "ZOB",
		"type": "RNAV",
		"updated": "07/04/2011"
	},
	{
		"name": "CARGL",
		"latitude": "42-21-22.54 N",
		"longitude": "82-57-15.4 W",
		"state": "MICHIGAN",
		"artcc": "ZOB",
		"type": "RP",
		"updated": "VQ*NDB*330.00"
	},
	{
		"name": "CARKI",
		"latitude": "41-35-18.74 N",
		"longitude": "78-21-20.17 W",
		"state": "PENNSYLVANIA",
		"artcc": "ZOB",
		"type": "RNAV",
		"updated": "07/17/2006"
	},
	{
		"name": "CARPP",
		"latitude": "40-53-29.8 N",
		"longitude": "82-22-24.02 W",
		"state": "OHIO",
		"artcc": "ZOB",
		"type": "RP",
		"updated": "MFD*VORTAC*085.00/10.00"
	},
	{
		"name": "CARRS",
		"latitude": "42-17-56.83 N",
		"longitude": "83-26-30.5 W",
		"state": "MICHIGAN",
		"artcc": "ZOB",
		"type": "RP",
		"updated": "SVM*VORTAC*137.11"
	},
	{
		"name": "CASAV",
		"latitude": "41-30-14.01 N",
		"longitude": "83-45-7.76 W",
		"state": "OHIO",
		"artcc": "ZOB",
		"type": "RNAV",
		"updated": "04/16/2001"
	},
	{
		"name": "CASIO",
		"latitude": "40-55-13.24 N",
		"longitude": "82-25-50.58 W",
		"state": "OHIO",
		"artcc": "ZOB",
		"type": "RP",
		"updated": "YQG*VOR/DME*173.19/81.71"
	},
	{
		"name": "CASKA",
		"latitude": "42-58-23.6 N",
		"longitude": "84-1-10.9 W",
		"state": "MICHIGAN",
		"artcc": "ZOB",
		"type": "RNAV",
		"updated": "08/08/2008"
	},
	{
		"name": "CASKO",
		"latitude": "42-48-46.5 N",
		"longitude": "82-49-37.31 W",
		"state": "MICHIGAN",
		"artcc": "ZOB",
		"type": "RP",
		"updated": "MTC*TACAN*007.00/12.00"
	},
	{
		"name": "CASKU",
		"latitude": "43-36-39.59 N",
		"longitude": "83-6-48.23 W",
		"state": "MICHIGAN",
		"artcc": "ZOB",
		"type": "RNAV",
		"updated": "10/24/2007"
	},
	{
		"name": "CASSA",
		"latitude": "41-35-2.75 N",
		"longitude": "80-19-2.98 W",
		"state": "PENNSYLVANIA",
		"artcc": "ZOB",
		"type": "RNAV",
		"updated": "06/28/2011"
	},
	{
		"name": "CASTY",
		"latitude": "41-3-52.63 N",
		"longitude": "83-35-23.02 W",
		"state": "OHIO",
		"artcc": "ZOB",
		"type": "RP",
		"updated": "FBC*VORTAC*051.00/10.00"
	},
	{
		"name": "CATES",
		"latitude": "40-38-26.28 N",
		"longitude": "82-47-8.3 W",
		"state": "OHIO",
		"artcc": "ZOB",
		"type": "RNAV",
		"updated": "06/28/2007"
	},
	{
		"name": "CATLI",
		"latitude": "42-1-1.58 N",
		"longitude": "84-49-27.4 W",
		"state": "MICHIGAN",
		"artcc": "ZOB",
		"type": "RNAV",
		"updated": "02/20/2008"
	},
	{
		"name": "CATUV",
		"latitude": "39-21-5.82 N",
		"longitude": "84-14-49.34 W",
		"state": "OHIO",
		"artcc": "ZOB",
		"type": "RNAV",
		"updated": "10/22/2015"
	},
	{
		"name": "CAVDA",
		"latitude": "42-48-42.5 N",
		"longitude": "78-59-34.17 W",
		"state": "",
		"artcc": "ZOB",
		"type": "RNAV",
		"updated": "06/29/2011"
	},
	{
		"name": "CAVOK",
		"latitude": "43-24-27.22 N",
		"longitude": "84-42-10.81 W",
		"state": "MICHIGAN",
		"artcc": "ZOB",
		"type": "RP",
		"updated": "MOP*VOR/DME*178.38/13.00"
	},
	{
		"name": "CAXUD",
		"latitude": "42-10-43.26 N",
		"longitude": "83-23-19.2 W",
		"state": "MICHIGAN",
		"artcc": "ZOB",
		"type": "RP",
		"updated": "DTW*LD*214.69/3.76"
	},
	{
		"name": "CAXUX",
		"latitude": "41-34-7.66 N",
		"longitude": "79-44-19.01 W",
		"state": "PENNSYLVANIA",
		"artcc": "ZOB",
		"type": "RNAV",
		"updated": "06/09/2016"
	},
	{
		"name": "CEBAY",
		"latitude": "39-27-14.91 N",
		"longitude": "80-9-18.92 W",
		"state": "WEST VIRGINIA",
		"artcc": "ZOB",
		"type": "RNAV",
		"updated": "12/18/2006"
	},
	{
		"name": "CEBOX",
		"latitude": "40-45-18.42 N",
		"longitude": "78-42-29.49 W",
		"state": "PENNSYLVANIA",
		"artcc": "ZOB",
		"type": "RNAV",
		"updated": "07/26/2016"
	},
	{
		"name": "CEBTO",
		"latitude": "39-55-24.83 N",
		"longitude": "78-0-25.82 W",
		"state": "PENNSYLVANIA",
		"artcc": "ZOB",
		"type": "RNAV",
		"updated": "08/15/2013"
	},
	{
		"name": "CEBUV",
		"latitude": "42-47-27.11 N",
		"longitude": "76-46-19.41 W",
		"state": "NEW YORK",
		"artcc": "ZOB",
		"type": "RNAV",
		"updated": "10/23/2014"
	},
	{
		"name": "CECDA",
		"latitude": "42-12-33.17 N",
		"longitude": "84-54-46.73 W",
		"state": "MICHIGAN",
		"artcc": "ZOB",
		"type": "RNAV",
		"updated": "LFD*VOR/DME*328.18/11.00"
	},
	{
		"name": "CEDIT",
		"latitude": "42-25-3.32 N",
		"longitude": "83-27-37.56 W",
		"state": "MICHIGAN",
		"artcc": "ZOB",
		"type": "RNAV",
		"updated": "05/22/2014"
	},
	{
		"name": "CEDMA",
		"latitude": "40-10-35.7 N",
		"longitude": "78-40-0.4 W",
		"state": "PENNSYLVANIA",
		"artcc": "ZOB",
		"type": "RNAV",
		"updated": "05/13/2015"
	},
	{
		"name": "CEESL",
		"latitude": "41-49-26.82 N",
		"longitude": "84-8-24.18 W",
		"state": "MICHIGAN",
		"artcc": "ZOB",
		"type": "RNAV",
		"updated": "04/09/2013"
	},
	{
		"name": "CEFEP",
		"latitude": "41-17-32.1 N",
		"longitude": "80-22-9.78 W",
		"state": "PENNSYLVANIA",
		"artcc": "ZOB",
		"type": "RNAV",
		"updated": "01/25/2002"
	},
	{
		"name": "CEGED",
		"latitude": "39-56-30.93 N",
		"longitude": "83-7-55.07 W",
		"state": "OHIO",
		"artcc": "ZOB",
		"type": "RNAV",
		"updated": "10/02/2001"
	},
	{
		"name": "CEGEE",
		"latitude": "43-19-18.66 N",
		"longitude": "84-25-33.93 W",
		"state": "MICHIGAN",
		"artcc": "ZOB",
		"type": "RNAV",
		"updated": "04/25/2012"
	},
	{
		"name": "CEGIS",
		"latitude": "41-41-49.61 N",
		"longitude": "79-44-50.32 W",
		"state": "PENNSYLVANIA",
		"artcc": "ZOB",
		"type": "RNAV",
		"updated": "06/09/2016"
	},
	{
		"name": "CEGNA",
		"latitude": "43-0-21.85 N",
		"longitude": "83-44-38.95 W",
		"state": "MICHIGAN",
		"artcc": "ZOB",
		"type": "RNAV",
		"updated": "12/20/2001"
	},
	{
		"name": "CEGOL",
		"latitude": "42-5-31.31 N",
		"longitude": "84-52-23.98 W",
		"state": "MICHIGAN",
		"artcc": "ZOB",
		"type": "RNAV",
		"updated": "02/20/2008"
	},
	{
		"name": "CEKIB",
		"latitude": "41-17-40.98 N",
		"longitude": "79-48-40.93 W",
		"state": "PENNSYLVANIA",
		"artcc": "ZOB",
		"type": "RNAV",
		"updated": "02/16/2018"
	},
	{
		"name": "CEKMI",
		"latitude": "41-33-15.96 N",
		"longitude": "78-18-24.73 W",
		"state": "PENNSYLVANIA",
		"artcc": "ZOB",
		"type": "RNAV",
		"updated": "07/17/2006"
	},
	{
		"name": "CEKPY",
		"latitude": "40-4-42.31 N",
		"longitude": "79-55-55.35 W",
		"state": "PENNSYLVANIA",
		"artcc": "ZOB",
		"type": "WP",
		"updated": "07/17/2007"
	},
	{
		"name": "CEKUN",
		"latitude": "41-20-40.82 N",
		"longitude": "83-3-30.84 W",
		"state": "OHIO",
		"artcc": "ZOB",
		"type": "RNAV",
		"updated": "04/19/2012"
	},
	{
		"name": "CELER",
		"latitude": "41-44-1.9 N",
		"longitude": "79-57-10.23 W",
		"state": "PENNSYLVANIA",
		"artcc": "ZOB",
		"type": "RP",
		"updated": "TDT*VORTAC*282.15"
	},
	{
		"name": "CELKA",
		"latitude": "42-48-28.99 N",
		"longitude": "83-43-10.99 W",
		"state": "MICHIGAN",
		"artcc": "ZOB",
		"type": "RNAV",
		"updated": "06/04/2008"
	},
	{
		"name": "CELUB",
		"latitude": "42-32-29.99 N",
		"longitude": "83-26-48.38 W",
		"state": "MICHIGAN",
		"artcc": "ZOB",
		"type": "RNAV",
		"updated": "04/26/2017"
	},
	{
		"name": "CEMAD",
		"latitude": "40-33-0.79 N",
		"longitude": "79-21-2.69 W",
		"state": "PENNSYLVANIA",
		"artcc": "ZOB",
		"type": "RNAV",
		"updated": "02/21/2017"
	},
	{
		"name": "CEMIG",
		"latitude": "43-7-16.97 N",
		"longitude": "77-43-26.88 W",
		"state": "NEW YORK",
		"artcc": "ZOB",
		"type": "RNAV",
		"updated": "04/12/2004"
	},
	{
		"name": "CEMKI",
		"latitude": "41-41-22.03 N",
		"longitude": "82-49-22.77 W",
		"state": "OHIO",
		"artcc": "ZOB",
		"type": "RNAV",
		"updated": "07/28/2014"
	},
	{
		"name": "CENIP",
		"latitude": "39-4-6.01 N",
		"longitude": "84-8-46.04 W",
		"state": "OHIO",
		"artcc": "ZOB",
		"type": "RNAV",
		"updated": "10/08/2015"
	},
	{
		"name": "CEPAG",
		"latitude": "43-5-17.55 N",
		"longitude": "77-45-0.55 W",
		"state": "NEW YORK",
		"artcc": "ZOB",
		"type": "RNAV",
		"updated": "03/26/2014"
	},
	{
		"name": "CEPEB",
		"latitude": "42-58-37.17 N",
		"longitude": "76-47-32.81 W",
		"state": "NEW YORK",
		"artcc": "ZOB",
		"type": "RNAV",
		"updated": "10/23/2014"
	},
	{
		"name": "CEPGI",
		"latitude": "40-0-4.14 N",
		"longitude": "80-31-11.04 W",
		"state": "WEST VIRGINIA",
		"artcc": "ZOB",
		"type": "RNAV",
		"updated": "07/21/2009"
	},
	{
		"name": "CEPIV",
		"latitude": "40-29-24.8 N",
		"longitude": "79-54-4.25 W",
		"state": "PENNSYLVANIA",
		"artcc": "ZOB",
		"type": "RNAV",
		"updated": "03/15/2012"
	},
	{
		"name": "CEPSI",
		"latitude": "40-41-37.86 N",
		"longitude": "81-32-54.14 W",
		"state": "OHIO",
		"artcc": "ZOB",
		"type": "RNAV",
		"updated": "03/30/2018"
	},
	{
		"name": "CERER",
		"latitude": "39-58-28.54 N",
		"longitude": "80-57-28.89 W",
		"state": "OHIO",
		"artcc": "ZOB",
		"type": "RNAV",
		"updated": "09/24/2013"
	},
	{
		"name": "CERUL",
		"latitude": "40-46-58.93 N",
		"longitude": "79-48-33.82 W",
		"state": "PENNSYLVANIA",
		"artcc": "ZOB",
		"type": "RNAV",
		"updated": "02/26/2015"
	},
	{
		"name": "CERUS",
		"latitude": "42-26-46.92 N",
		"longitude": "82-50-33.91 W",
		"state": "MICHIGAN",
		"artcc": "ZOB",
		"type": "MR",
		"updated": "MTC*TACAN*/10.00"
	},
	{
		"name": "CESES",
		"latitude": "42-59-0.4 N",
		"longitude": "77-59-40.56 W",
		"state": "NEW YORK",
		"artcc": "ZOB",
		"type": "RNAV",
		"updated": "07/20/2012"
	},
	{
		"name": "CESKA",
		"latitude": "40-6-14.61 N",
		"longitude": "80-41-32.26 W",
		"state": "WEST VIRGINIA",
		"artcc": "ZOB",
		"type": "RP",
		"updated": "HLG*VOR/DME*/10.94"
	},
	{
		"name": "CESKO",
		"latitude": "41-31-55.8 N",
		"longitude": "78-35-39.21 W",
		"state": "PENNSYLVANIA",
		"artcc": "ZOB",
		"type": "RNAV",
		"updated": "07/18/2006"
	},
	{
		"name": "CESON",
		"latitude": "43-10-56.34 N",
		"longitude": "77-59-55.41 W",
		"state": "NEW YORK",
		"artcc": "ZOB",
		"type": "RNAV",
		"updated": "05/05/2011"
	},
	{
		"name": "CETIX",
		"latitude": "40-12-46.84 N",
		"longitude": "78-44-16.55 W",
		"state": "PENNSYLVANIA",
		"artcc": "ZOB",
		"type": "RNAV",
		"updated": "07/08/2009"
	},
	{
		"name": "CETPU",
		"latitude": "40-33-33.75 N",
		"longitude": "80-14-31.4 W",
		"state": "PENNSYLVANIA",
		"artcc": "ZOB",
		"type": "RP",
		"updated": "AGC*VOR/DME*340.35"
	},
	{
		"name": "CETYA",
		"latitude": "41-32-31.4 N",
		"longitude": "83-27-0.69 W",
		"state": "OHIO",
		"artcc": "ZOB",
		"type": "RNAV",
		"updated": "06/28/2011"
	},
	{
		"name": "CEVRA",
		"latitude": "42-39-39.72 N",
		"longitude": "83-33-2.34 W",
		"state": "MICHIGAN",
		"artcc": "ZOB",
		"type": "RNAV",
		"updated": "09/14/2009"
	},
	{
		"name": "CFBHW",
		"latitude": "41-17-4.85 N",
		"longitude": "81-56-17.79 W",
		"state": "OHIO",
		"artcc": "ZOB",
		"type": "CN",
		"updated": "04/18/2018"
	},
	{
		"name": "CFBJN",
		"latitude": "42-13-33.99 N",
		"longitude": "83-21-57.26 W",
		"state": "MICHIGAN",
		"artcc": "ZOB",
		"type": "CN",
		"updated": "10/06/2016"
	},
	{
		"name": "CFBLB",
		"latitude": "41-35-45.27 N",
		"longitude": "83-47-5.12 W",
		"state": "OHIO",
		"artcc": "ZOB",
		"type": "CN",
		"updated": "11/12/2014"
	},
	{
		"name": "CFBLK",
		"latitude": "41-16-4.78 N",
		"longitude": "82-23-38.48 W",
		"state": "OHIO",
		"artcc": "ZOB",
		"type": "CN",
		"updated": "01/26/2015"
	},
	{
		"name": "CFBMD",
		"latitude": "41-31-19.67 N",
		"longitude": "81-46-11.86 W",
		"state": "OHIO",
		"artcc": "ZOB",
		"type": "CN",
		"updated": "04/18/2018"
	},
	{
		"name": "CFBRG",
		"latitude": "42-33-43.75 N",
		"longitude": "83-11-17.87 W",
		"state": "MICHIGAN",
		"artcc": "ZOB",
		"type": "CN",
		"updated": "04/19/2018"
	},
	{
		"name": "CFBTK",
		"latitude": "41-58-12.06 N",
		"longitude": "83-38-26.02 W",
		"state": "MICHIGAN",
		"artcc": "ZOB",
		"type": "CN",
		"updated": "04/17/2018"
	},
	{
		"name": "CFBWM",
		"latitude": "42-1-8.48 N",
		"longitude": "83-36-19.52 W",
		"state": "MICHIGAN",
		"artcc": "ZOB",
		"type": "CN",
		"updated": "04/17/2018"
	},
	{
		"name": "CFBWQ",
		"latitude": "41-52-20.42 N",
		"longitude": "83-32-2.43 W",
		"state": "MICHIGAN",
		"artcc": "ZOB",
		"type": "CN",
		"updated": "04/17/2018"
	},
	{
		"name": "CFBXT",
		"latitude": "42-45-43.53 N",
		"longitude": "82-40-36.69 W",
		"state": "MICHIGAN",
		"artcc": "ZOB",
		"type": "CN",
		"updated": "08/11/2014"
	},
	{
		"name": "CFBZD",
		"latitude": "39-36-43.16 N",
		"longitude": "78-46-5.53 W",
		"state": "WEST VIRGINIA",
		"artcc": "ZOB",
		"type": "CN",
		"updated": "02/24/2016"
	},
	{
		"name": "CFCCT",
		"latitude": "41-22-58.53 N",
		"longitude": "81-59-35.17 W",
		"state": "OHIO",
		"artcc": "ZOB",
		"type": "CN",
		"updated": "04/18/2018"
	},
	{
		"name": "CFCCV",
		"latitude": "43-6-0.51 N",
		"longitude": "84-49-4.85 W",
		"state": "MICHIGAN",
		"artcc": "ZOB",
		"type": "CN",
		"updated": "07/29/2015"
	},
	{
		"name": "CFCGM",
		"latitude": "41-6-59.98 N",
		"longitude": "81-16-14.66 W",
		"state": "OHIO",
		"artcc": "ZOB",
		"type": "CN",
		"updated": "04/06/2018"
	},
	{
		"name": "CFCHL",
		"latitude": "40-41-32.86 N",
		"longitude": "82-21-20.92 W",
		"state": "OHIO",
		"artcc": "ZOB",
		"type": "CN",
		"updated": "04/04/2017"
	},
	{
		"name": "CFCHM",
		"latitude": "42-38-44.94 N",
		"longitude": "79-25-17.26 W",
		"state": "NEW YORK",
		"artcc": "ZOB",
		"type": "CN",
		"updated": "06/05/2017"
	},
	{
		"name": "CFCJJ",
		"latitude": "42-14-40.99 N",
		"longitude": "79-3-6.51 W",
		"state": "NEW YORK",
		"artcc": "ZOB",
		"type": "CN",
		"updated": "07/31/2017"
	},
	{
		"name": "CFCJS",
		"latitude": "41-51-45.73 N",
		"longitude": "83-30-33.05 W",
		"state": "MICHIGAN",
		"artcc": "ZOB",
		"type": "CN",
		"updated": "04/17/2018"
	},
	{
		"name": "CFCKC",
		"latitude": "41-55-38.76 N",
		"longitude": "83-40-10.58 W",
		"state": "MICHIGAN",
		"artcc": "ZOB",
		"type": "CN",
		"updated": "04/17/2018"
	},
	{
		"name": "CFCKD",
		"latitude": "42-56-47.91 N",
		"longitude": "82-54-13.74 W",
		"state": "MICHIGAN",
		"artcc": "ZOB",
		"type": "CN",
		"updated": "03/29/2012"
	},
	{
		"name": "CFDSJ",
		"latitude": "41-21-58.59 N",
		"longitude": "82-1-46.31 W",
		"state": "OHIO",
		"artcc": "ZOB",
		"type": "CN",
		"updated": "04/18/2018"
	},
	{
		"name": "CFDSP",
		"latitude": "42-0-49.55 N",
		"longitude": "83-36-5.36 W",
		"state": "MICHIGAN",
		"artcc": "ZOB",
		"type": "CN",
		"updated": "04/17/2018"
	},
	{
		"name": "CFDSV",
		"latitude": "41-53-14.9 N",
		"longitude": "83-31-11.58 W",
		"state": "MICHIGAN",
		"artcc": "ZOB",
		"type": "CN",
		"updated": "04/17/2018"
	},
	{
		"name": "CFDTC",
		"latitude": "41-59-26.01 N",
		"longitude": "83-40-41.99 W",
		"state": "MICHIGAN",
		"artcc": "ZOB",
		"type": "CN",
		"updated": "04/17/2018"
	},
	{
		"name": "CFDTF",
		"latitude": "41-56-25.24 N",
		"longitude": "83-38-59.9 W",
		"state": "MICHIGAN",
		"artcc": "ZOB",
		"type": "CN",
		"updated": "04/17/2018"
	},
	{
		"name": "CFDTQ",
		"latitude": "41-52-23.42 N",
		"longitude": "83-31-21.42 W",
		"state": "MICHIGAN",
		"artcc": "ZOB",
		"type": "CN",
		"updated": "04/17/2018"
	},
	{
		"name": "CFDTT",
		"latitude": "41-30-55.08 N",
		"longitude": "84-2-38.87 W",
		"state": "OHIO",
		"artcc": "ZOB",
		"type": "CN",
		"updated": "04/06/2018"
	},
	{
		"name": "CFDTW",
		"latitude": "42-31-58.8 N",
		"longitude": "83-2-47.99 W",
		"state": "MICHIGAN",
		"artcc": "ZQM",
		"type": "CN",
		"updated": "04/17/2018"
	},
	{
		"name": "CFDWV",
		"latitude": "41-55-48.64 N",
		"longitude": "78-48-19.79 W",
		"state": "PENNSYLVANIA",
		"artcc": "ZOB",
		"type": "CN",
		"updated": "12/04/2014"
	},
	{
		"name": "CFDXT",
		"latitude": "42-12-7.25 N",
		"longitude": "83-23-1.13 W",
		"state": "MICHIGAN",
		"artcc": "ZOB",
		"type": "CN",
		"updated": "10/06/2016"
	},
	{
		"name": "CFDZB",
		"latitude": "41-27-16.52 N",
		"longitude": "81-41-20.95 W",
		"state": "OHIO",
		"artcc": "ZOB",
		"type": "CN",
		"updated": "04/18/2018"
	},
	{
		"name": "CFDZZ",
		"latitude": "42-31-31.22 N",
		"longitude": "83-13-19.27 W",
		"state": "MICHIGAN",
		"artcc": "ZOB",
		"type": "CN",
		"updated": "04/17/2018"
	},
	{
		"name": "CFFCJ",
		"latitude": "41-18-50.45 N",
		"longitude": "81-54-57.83 W",
		"state": "OHIO",
		"artcc": "ZOB",
		"type": "CN",
		"updated": "04/18/2018"
	},
	{
		"name": "CFFCQ",
		"latitude": "41-22-53.79 N",
		"longitude": "81-59-29.96 W",
		"state": "OHIO",
		"artcc": "ZOB",
		"type": "CN",
		"updated": "04/18/2018"
	},
	{
		"name": "CFFCT",
		"latitude": "41-31-56 N",
		"longitude": "81-46-52.42 W",
		"state": "OHIO",
		"artcc": "ZOB",
		"type": "CN",
		"updated": "04/18/2018"
	},
	{
		"name": "CFFDZ",
		"latitude": "41-25-47.93 N",
		"longitude": "81-40-2.2 W",
		"state": "OHIO",
		"artcc": "ZOB",
		"type": "CN",
		"updated": "04/18/2018"
	},
	{
		"name": "CFFFL",
		"latitude": "41-17-4.91 N",
		"longitude": "81-55-27.66 W",
		"state": "OHIO",
		"artcc": "ZOB",
		"type": "CN",
		"updated": "04/18/2018"
	},
	{
		"name": "CFFFM",
		"latitude": "42-6-12.39 N",
		"longitude": "83-43-15.18 W",
		"state": "MICHIGAN",
		"artcc": "ZOB",
		"type": "CN",
		"updated": "01/31/2018"
	},
	{
		"name": "CFFGW",
		"latitude": "39-48-24.2 N",
		"longitude": "79-49-44.81 W",
		"state": "PENNSYLVANIA",
		"artcc": "ZOB",
		"type": "CN",
		"updated": "07/23/2012"
	},
	{
		"name": "CFHBJ",
		"latitude": "43-7-11.31 N",
		"longitude": "78-18-6.27 W",
		"state": "NEW YORK",
		"artcc": "ZOB",
		"type": "CN",
		"updated": "12/04/2014"
	},
	{
		"name": "CFHGD",
		"latitude": "42-58-46.63 N",
		"longitude": "82-49-26.8 W",
		"state": "MICHIGAN",
		"artcc": "ZOB",
		"type": "CN",
		"updated": "05/25/2012"
	},
	{
		"name": "CFHSN",
		"latitude": "42-57-12.42 N",
		"longitude": "78-38-35.71 W",
		"state": "NEW YORK",
		"artcc": "ZOB",
		"type": "CN",
		"updated": "07/25/2014"
	},
	{
		"name": "CFJJB",
		"latitude": "43-0-32.88 N",
		"longitude": "78-42-11.08 W",
		"state": "NEW YORK",
		"artcc": "ZOB",
		"type": "CN",
		"updated": "07/25/2014"
	},
	{
		"name": "CFJRZ",
		"latitude": "42-57-44.5 N",
		"longitude": "78-38-13.45 W",
		"state": "NEW YORK",
		"artcc": "ZOB",
		"type": "CN",
		"updated": "07/25/2014"
	},
	{
		"name": "CFLCL",
		"latitude": "41-25-51.65 N",
		"longitude": "81-39-46.55 W",
		"state": "OHIO",
		"artcc": "ZOB",
		"type": "CN",
		"updated": "04/18/2018"
	},
	{
		"name": "CFLMM",
		"latitude": "42-31-19.94 N",
		"longitude": "83-14-2.18 W",
		"state": "MICHIGAN",
		"artcc": "ZOB",
		"type": "CN",
		"updated": "04/17/2018"
	},
	{
		"name": "CFLSH",
		"latitude": "40-9-25.15 N",
		"longitude": "78-41-7.05 W",
		"state": "PENNSYLVANIA",
		"artcc": "ZOB",
		"type": "CN",
		"updated": "07/24/2012"
	},
	{
		"name": "CFMCD",
		"latitude": "43-6-32.64 N",
		"longitude": "78-44-50.37 W",
		"state": "NEW YORK",
		"artcc": "ZOB",
		"type": "CN",
		"updated": "10/31/2013"
	},
	{
		"name": "CFMCG",
		"latitude": "43-7-58.42 N",
		"longitude": "77-19-20.74 W",
		"state": "NEW YORK",
		"artcc": "ZOB",
		"type": "CN",
		"updated": "03/27/2014"
	},
	{
		"name": "CFMCL",
		"latitude": "42-21-14.53 N",
		"longitude": "83-20-32.34 W",
		"state": "MICHIGAN",
		"artcc": "ZOB",
		"type": "CN",
		"updated": "04/17/2018"
	},
	{
		"name": "CFMKH",
		"latitude": "42-52-20.26 N",
		"longitude": "78-45-20.09 W",
		"state": "NEW YORK",
		"artcc": "ZOB",
		"type": "CN",
		"updated": "07/25/2014"
	},
	{
		"name": "CFMNB",
		"latitude": "42-52-32.92 N",
		"longitude": "78-44-44.91 W",
		"state": "NEW YORK",
		"artcc": "ZOB",
		"type": "CN",
		"updated": "07/25/2014"
	},
	{
		"name": "CFMPW",
		"latitude": "42-57-45.16 N",
		"longitude": "78-52-59.75 W",
		"state": "NEW YORK",
		"artcc": "ZOB",
		"type": "CN",
		"updated": "07/25/2014"
	},
	{
		"name": "CFMRJ",
		"latitude": "42-55-32.94 N",
		"longitude": "78-49-52.43 W",
		"state": "NEW YORK",
		"artcc": "ZOB",
		"type": "CN",
		"updated": "07/25/2014"
	},
	{
		"name": "CFNBR",
		"latitude": "42-57-14.98 N",
		"longitude": "78-38-25.68 W",
		"state": "NEW YORK",
		"artcc": "ZOB",
		"type": "CN",
		"updated": "07/25/2014"
	},
	{
		"name": "CFPGV",
		"latitude": "42-23-41.61 N",
		"longitude": "83-7-52.76 W",
		"state": "MICHIGAN",
		"artcc": "ZOB",
		"type": "CN",
		"updated": "04/17/2018"
	},
	{
		"name": "CFPHB",
		"latitude": "41-32-3.23 N",
		"longitude": "81-46-40.57 W",
		"state": "OHIO",
		"artcc": "ZOB",
		"type": "CN",
		"updated": "04/18/2018"
	},
	{
		"name": "CFPHV",
		"latitude": "42-31-10.73 N",
		"longitude": "83-1-41.25 W",
		"state": "MICHIGAN",
		"artcc": "ZOB",
		"type": "CN",
		"updated": "04/17/2018"
	},
	{
		"name": "CFPJS",
		"latitude": "40-17-14.44 N",
		"longitude": "78-19-14.67 W",
		"state": "PENNSYLVANIA",
		"artcc": "ZOB",
		"type": "CN",
		"updated": "08/28/2017"
	},
	{
		"name": "CFPLP",
		"latitude": "41-52-20.08 N",
		"longitude": "83-31-24.83 W",
		"state": "MICHIGAN",
		"artcc": "ZOB",
		"type": "CN",
		"updated": "04/17/2018"
	},
	{
		"name": "CFPNT",
		"latitude": "42-20-59.18 N",
		"longitude": "83-10-2.68 W",
		"state": "MICHIGAN",
		"artcc": "ZOB",
		"type": "CN",
		"updated": "04/17/2018"
	},
	{
		"name": "CFPPP",
		"latitude": "42-31-26.8 N",
		"longitude": "83-13-54.29 W",
		"state": "MICHIGAN",
		"artcc": "ZOB",
		"type": "CN",
		"updated": "04/17/2018"
	},
	{
		"name": "CFQFT",
		"latitude": "43-0-14.56 N",
		"longitude": "78-42-39.76 W",
		"state": "NEW YORK",
		"artcc": "ZOB",
		"type": "CN",
		"updated": "07/25/2014"
	},
	{
		"name": "CFRGF",
		"latitude": "41-18-45.75 N",
		"longitude": "81-54-52.58 W",
		"state": "OHIO",
		"artcc": "ZOB",
		"type": "CN",
		"updated": "04/18/2018"
	},
	{
		"name": "CFRZZ",
		"latitude": "42-34-52.44 N",
		"longitude": "83-9-54.31 W",
		"state": "MICHIGAN",
		"artcc": "ZOB",
		"type": "CN",
		"updated": "04/17/2018"
	},
	{
		"name": "CFTVZ",
		"latitude": "42-1-16.89 N",
		"longitude": "83-24-35.41 W",
		"state": "MICHIGAN",
		"artcc": "ZOB",
		"type": "CN",
		"updated": "04/17/2018"
	},
	{
		"name": "CFVCH",
		"latitude": "41-58-31.08 N",
		"longitude": "83-26-36.34 W",
		"state": "MICHIGAN",
		"artcc": "ZOB",
		"type": "CN",
		"updated": "04/17/2018"
	},
	{
		"name": "CFVDB",
		"latitude": "41-37-30.62 N",
		"longitude": "81-27-20.31 W",
		"state": "OHIO",
		"artcc": "ZOB",
		"type": "CN",
		"updated": "04/13/2018"
	},
	{
		"name": "CFVDW",
		"latitude": "41-31-20.29 N",
		"longitude": "81-45-52.64 W",
		"state": "OHIO",
		"artcc": "ZOB",
		"type": "CN",
		"updated": "04/18/2018"
	},
	{
		"name": "CFVGH",
		"latitude": "42-29-52.9 N",
		"longitude": "83-0-40.03 W",
		"state": "MICHIGAN",
		"artcc": "ZOB",
		"type": "CN",
		"updated": "04/17/2018"
	},
	{
		"name": "CFVHF",
		"latitude": "42-30-35.65 N",
		"longitude": "83-3-36.42 W",
		"state": "MICHIGAN",
		"artcc": "ZOB",
		"type": "CN",
		"updated": "04/17/2018"
	},
	{
		"name": "CFVJB",
		"latitude": "41-22-17.02 N",
		"longitude": "82-1-16.72 W",
		"state": "OHIO",
		"artcc": "ZOB",
		"type": "CN",
		"updated": "04/18/2018"
	},
	{
		"name": "CFVWF",
		"latitude": "41-27-15.47 N",
		"longitude": "81-41-39.6 W",
		"state": "OHIO",
		"artcc": "ZOB",
		"type": "CN",
		"updated": "04/18/2018"
	},
	{
		"name": "CFVWL",
		"latitude": "42-31-19.95 N",
		"longitude": "83-14-2.18 W",
		"state": "MICHIGAN",
		"artcc": "ZOB",
		"type": "CN",
		"updated": "04/17/2018"
	},
	{
		"name": "CHAAP",
		"latitude": "42-30-19.02 N",
		"longitude": "80-40-57.36 W",
		"state": "",
		"artcc": "ZOB",
		"type": "RNAV",
		"updated": "08/27/2013"
	},
	{
		"name": "CHESY",
		"latitude": "42-42-48.04 N",
		"longitude": "77-17-14.53 W",
		"state": "NEW YORK",
		"artcc": "ZOB",
		"type": "RP",
		"updated": "ELZ*VORTAC*049.00"
	},
	{
		"name": "CHEWZ",
		"latitude": "42-29-3.29 N",
		"longitude": "82-54-7.46 W",
		"state": "MICHIGAN",
		"artcc": "ZOB",
		"type": "RNAV",
		"updated": "03/29/2018"
	},
	{
		"name": "CHEZE",
		"latitude": "40-58-35 N",
		"longitude": "81-3-57.84 W",
		"state": "OHIO",
		"artcc": "ZOB",
		"type": "RP",
		"updated": "BSV*VOR/DME*054.00"
	},
	{
		"name": "CHIIP",
		"latitude": "41-3-53.45 N",
		"longitude": "81-17-41.18 W",
		"state": "OHIO",
		"artcc": "ZOB",
		"type": "RNAV",
		"updated": "03/05/2018"
	},
	{
		"name": "CHIMS",
		"latitude": "40-26-28.91 N",
		"longitude": "78-48-48.05 W",
		"state": "PENNSYLVANIA",
		"artcc": "ZOB",
		"type": "RNAV",
		"updated": "03/28/2009"
	},
	{
		"name": "CHIZM",
		"latitude": "40-58-18.2 N",
		"longitude": "84-36-49.84 W",
		"state": "OHIO",
		"artcc": "ZOB",
		"type": "RP",
		"updated": "FWA*VORTAC*096.78/26.10"
	},
	{
		"name": "CHOOT",
		"latitude": "41-31-32.52 N",
		"longitude": "83-20-5.19 W",
		"state": "OHIO",
		"artcc": "ZOB",
		"type": "RP",
		"updated": "FBC*VORTAC*031.00/39.16"
	},
	{
		"name": "CHPAH",
		"latitude": "42-26-42.21 N",
		"longitude": "84-53-14.16 W",
		"state": "MICHIGAN",
		"artcc": "ZOB",
		"type": "RNAV",
		"updated": "07/19/2016"
	},
	{
		"name": "CHVVY",
		"latitude": "42-34-1.01 N",
		"longitude": "83-11-4.16 W",
		"state": "MICHIGAN",
		"artcc": "ZOB",
		"type": "RNAV",
		"updated": "04/17/2018"
	},
	{
		"name": "CHZTR",
		"latitude": "42-36-36.18 N",
		"longitude": "82-40-55.61 W",
		"state": "MICHIGAN",
		"artcc": "ZOB",
		"type": "RNAV",
		"updated": "03/29/2018"
	},
	{
		"name": "CIBAT",
		"latitude": "40-45-15.17 N",
		"longitude": "80-8-40.03 W",
		"state": "PENNSYLVANIA",
		"artcc": "ZOB",
		"type": "RNAV",
		"updated": "09/02/2016"
	},
	{
		"name": "CIBZE",
		"latitude": "40-51-52.26 N",
		"longitude": "79-5-20.88 W",
		"state": "PENNSYLVANIA",
		"artcc": "ZOB",
		"type": "RNAV",
		"updated": "02/26/2015"
	},
	{
		"name": "CICEE",
		"latitude": "40-50-35.86 N",
		"longitude": "81-32-45.02 W",
		"state": "OHIO",
		"artcc": "ZOB",
		"type": "RP",
		"updated": "BSV*VOR/DME*323.94"
	},
	{
		"name": "CIDAS",
		"latitude": "39-49-33.79 N",
		"longitude": "78-32-17.67 W",
		"state": "PENNSYLVANIA",
		"artcc": "ZOB",
		"type": "RNAV",
		"updated": "06/29/2011"
	},
	{
		"name": "CIDUX",
		"latitude": "41-5-32.2 N",
		"longitude": "82-21-45.01 W",
		"state": "OHIO",
		"artcc": "ZOB",
		"type": "RNAV",
		"updated": "01/04/2010"
	},
	{
		"name": "CIGAL",
		"latitude": "42-14-20.43 N",
		"longitude": "83-47-35.53 W",
		"state": "MICHIGAN",
		"artcc": "ZOB",
		"type": "RNAV",
		"updated": "10/23/2014"
	},
	{
		"name": "CIGAV",
		"latitude": "41-24-53.16 N",
		"longitude": "81-50-13.3 W",
		"state": "OHIO",
		"artcc": "ZOB",
		"type": "CN",
		"updated": "04/05/2005"
	},
	{
		"name": "CIGBA",
		"latitude": "41-0-34.1 N",
		"longitude": "79-49-2.69 W",
		"state": "PENNSYLVANIA",
		"artcc": "ZOB",
		"type": "RNAV",
		"updated": "05/14/2013"
	},
	{
		"name": "CIGMO",
		"latitude": "41-1-26.92 N",
		"longitude": "78-43-49.98 W",
		"state": "PENNSYLVANIA",
		"artcc": "ZOB",
		"type": "RNAV",
		"updated": "03/11/2015"
	},
	{
		"name": "CIHUB",
		"latitude": "42-52-47.14 N",
		"longitude": "84-0-20.08 W",
		"state": "MICHIGAN",
		"artcc": "ZOB",
		"type": "RNAV",
		"updated": "06/19/2009"
	},
	{
		"name": "CIKMU",
		"latitude": "41-23-56.55 N",
		"longitude": "81-51-42.82 W",
		"state": "OHIO",
		"artcc": "ZOB",
		"type": "CN",
		"updated": "04/05/2005"
	},
	{
		"name": "CILVI",
		"latitude": "41-32-18.66 N",
		"longitude": "78-17-2.88 W",
		"state": "PENNSYLVANIA",
		"artcc": "ZOB",
		"type": "RNAV",
		"updated": "08/17/2006"
	},
	{
		"name": "CIMLO",
		"latitude": "41-24-44.63 N",
		"longitude": "78-37-26.69 W",
		"state": "PENNSYLVANIA",
		"artcc": "ZOB",
		"type": "RNAV",
		"updated": "08/17/2006"
	},
	{
		"name": "CINSA",
		"latitude": "42-0-15.12 N",
		"longitude": "78-32-4.89 W",
		"state": "NEW YORK",
		"artcc": "ZOB",
		"type": "RNAV",
		"updated": "07/19/2006"
	},
	{
		"name": "CIPAY",
		"latitude": "42-59-18.27 N",
		"longitude": "84-4-45.98 W",
		"state": "MICHIGAN",
		"artcc": "ZOB",
		"type": "RP",
		"updated": "FNT*VORTAC*281.18/14.70"
	},
	{
		"name": "CIPOR",
		"latitude": "42-4-1.99 N",
		"longitude": "84-21-3.49 W",
		"state": "MICHIGAN",
		"artcc": "ZOB",
		"type": "RNAV",
		"updated": "09/09/2009"
	},
	{
		"name": "CISIB",
		"latitude": "40-46-16.66 N",
		"longitude": "80-40-10.07 W",
		"state": "OHIO",
		"artcc": "ZOB",
		"type": "RNAV",
		"updated": "02/21/2017"
	},
	{
		"name": "CISKI",
		"latitude": "42-38-8.75 N",
		"longitude": "79-26-24.13 W",
		"state": "NEW YORK",
		"artcc": "ZOB",
		"type": "RNAV",
		"updated": "03/02/2015"
	},
	{
		"name": "CIVIK",
		"latitude": "41-51-17.66 N",
		"longitude": "83-28-54.25 W",
		"state": "MICHIGAN",
		"artcc": "ZOB",
		"type": "RNAV",
		"updated": "06/12/2008"
	},
	{
		"name": "CIVPA",
		"latitude": "41-55-30.67 N",
		"longitude": "80-39-48.72 W",
		"state": "OHIO",
		"artcc": "ZOB",
		"type": "RNAV",
		"updated": "02/13/2004"
	},
	{
		"name": "CIVRO",
		"latitude": "41-2-10.56 N",
		"longitude": "83-43-19.4 W",
		"state": "OHIO",
		"artcc": "ZOB",
		"type": "RNAV",
		"updated": "07/09/2009"
	},
	{
		"name": "CIXDY",
		"latitude": "41-12-53.15 N",
		"longitude": "79-32-11.73 W",
		"state": "PENNSYLVANIA",
		"artcc": "ZOB",
		"type": "RNAV",
		"updated": "08/24/2001"
	},
	{
		"name": "CIXEB",
		"latitude": "40-57-40.85 N",
		"longitude": "80-37-21.45 W",
		"state": "OHIO",
		"artcc": "ZOB",
		"type": "RNAV",
		"updated": "04/15/2010"
	},
	{
		"name": "CIYAK",
		"latitude": "40-8-25.6 N",
		"longitude": "80-13-49.84 W",
		"state": "PENNSYLVANIA",
		"artcc": "ZOB",
		"type": "RP",
		"updated": "AFJ*LD*093.04/3.23"
	},
	{
		"name": "CIYAN",
		"latitude": "43-19-24.67 N",
		"longitude": "84-55-27.65 W",
		"state": "MICHIGAN",
		"artcc": "ZOB",
		"type": "RNAV",
		"updated": "10/28/2003"
	},
	{
		"name": "CLAPT",
		"latitude": "41-22-20.63 N",
		"longitude": "81-43-32.22 W",
		"state": "OHIO",
		"artcc": "ZOB",
		"type": "RNAV",
		"updated": "04/16/2018"
	},
	{
		"name": "CLDON",
		"latitude": "41-48-57.94 N",
		"longitude": "83-4-51.43 W",
		"state": "OHIO",
		"artcc": "ZOB",
		"type": "RNAV",
		"updated": "03/29/2018"
	},
	{
		"name": "CLERI",
		"latitude": "41-47-32.11 N",
		"longitude": "81-1-18.94 W",
		"state": "OHIO",
		"artcc": "ZOB",
		"type": "RNAV",
		"updated": "03/30/2018"
	},
	{
		"name": "CLERO",
		"latitude": "41-34-51.12 N",
		"longitude": "78-26-48.46 W",
		"state": "PENNSYLVANIA",
		"artcc": "ZOB",
		"type": "RP",
		"updated": "SLT*VORTAC*289.00/22.00"
	},
	{
		"name": "CLEVR",
		"latitude": "41-51-32.62 N",
		"longitude": "83-43-39.27 W",
		"state": "MICHIGAN",
		"artcc": "ZOB",
		"type": "RNAV",
		"updated": "04/18/2018"
	},
	{
		"name": "CLIOO",
		"latitude": "43-6-32.76 N",
		"longitude": "83-52-5.68 W",
		"state": "MICHIGAN",
		"artcc": "ZOB",
		"type": "RNAV",
		"updated": "03/27/2018"
	},
	{
		"name": "CLUNG",
		"latitude": "43-3-17.17 N",
		"longitude": "78-0-13.38 W",
		"state": "NEW YORK",
		"artcc": "ZOB",
		"type": "RP",
		"updated": "ROC*VOR/DME*267.51/15.04"
	},
	{
		"name": "COBBO",
		"latitude": "42-29-17.02 N",
		"longitude": "83-0-11.09 W",
		"state": "MICHIGAN",
		"artcc": "ZOB",
		"type": "RNAV",
		"updated": "04/17/2018"
	},
	{
		"name": "COBLI",
		"latitude": "41-48-18.97 N",
		"longitude": "83-34-25.29 W",
		"state": "MICHIGAN",
		"artcc": "ZOB",
		"type": "RNAV",
		"updated": "02/20/2014"
	},
	{
		"name": "COBMO",
		"latitude": "40-46-49.15 N",
		"longitude": "79-2-16.26 W",
		"state": "PENNSYLVANIA",
		"artcc": "ZOB",
		"type": "RNAV",
		"updated": "04/09/2014"
	},
	{
		"name": "COCDU",
		"latitude": "39-20-15.53 N",
		"longitude": "82-15-18.59 W",
		"state": "OHIO",
		"artcc": "ZOB",
		"type": "RNAV",
		"updated": "10/05/2001"
	},
	{
		"name": "COCJU",
		"latitude": "41-26-32.21 N",
		"longitude": "82-43-29.49 W",
		"state": "OHIO",
		"artcc": "ZOB",
		"type": "RNAV",
		"updated": "02/09/2018"
	},
	{
		"name": "CODAG",
		"latitude": "43-3-15.99 N",
		"longitude": "83-44-42.61 W",
		"state": "MICHIGAN",
		"artcc": "ZOB",
		"type": "RNAV",
		"updated": "06/19/2009"
	},
	{
		"name": "CODBA",
		"latitude": "41-16-27.19 N",
		"longitude": "83-5-9.25 W",
		"state": "OHIO",
		"artcc": "ZOB",
		"type": "RNAV",
		"updated": "06/06/2011"
	},
	{
		"name": "COFAX",
		"latitude": "40-18-46.73 N",
		"longitude": "77-58-0.98 W",
		"state": "PENNSYLVANIA",
		"artcc": "ZOB",
		"type": "RP",
		"updated": "THS*VORTAC*005.15/22.78"
	},
	{
		"name": "COFEE",
		"latitude": "40-29-46.42 N",
		"longitude": "80-2-35.77 W",
		"state": "PENNSYLVANIA",
		"artcc": "ZOB",
		"type": "RP",
		"updated": "MMJ*DME*/6.91"
	},
	{
		"name": "COGDI",
		"latitude": "41-31-54.09 N",
		"longitude": "78-16-27.84 W",
		"state": "PENNSYLVANIA",
		"artcc": "ZOB",
		"type": "RNAV",
		"updated": "08/17/2006"
	},
	{
		"name": "COGEN",
		"latitude": "40-14-10.64 N",
		"longitude": "78-46-6.1 W",
		"state": "PENNSYLVANIA",
		"artcc": "ZOB",
		"type": "RNAV",
		"updated": "04/25/2010"
	},
	{
		"name": "COGVA",
		"latitude": "41-20-19.41 N",
		"longitude": "81-37-20.81 W",
		"state": "OHIO",
		"artcc": "ZOB",
		"type": "RNAV",
		"updated": "03/24/2015"
	},
	{
		"name": "COHOW",
		"latitude": "42-9-23.89 N",
		"longitude": "80-41-38.91 W",
		"state": "OHIO",
		"artcc": "ZOB",
		"type": "RP",
		"updated": "JHW*VOR/DME*275.96"
	},
	{
		"name": "COJEZ",
		"latitude": "40-1-14.82 N",
		"longitude": "82-53-25.04 W",
		"state": "OHIO",
		"artcc": "ZOB",
		"type": "RNAV",
		"updated": "10/02/2001"
	},
	{
		"name": "COKIN",
		"latitude": "42-46-2.41 N",
		"longitude": "83-51-8.37 W",
		"state": "MICHIGAN",
		"artcc": "ZOB",
		"type": "RNAV",
		"updated": "06/19/2009"
	},
	{
		"name": "COKOX",
		"latitude": "42-3-27.1 N",
		"longitude": "79-22-1.06 W",
		"state": "NEW YORK",
		"artcc": "ZOB",
		"type": "RNAV",
		"updated": "04/14/2004"
	},
	{
		"name": "COKUV",
		"latitude": "41-32-27.38 N",
		"longitude": "80-6-4.53 W",
		"state": "PENNSYLVANIA",
		"artcc": "ZOB",
		"type": "RNAV",
		"updated": "04/14/2004"
	},
	{
		"name": "COKWE",
		"latitude": "40-45-21.53 N",
		"longitude": "82-16-45.57 W",
		"state": "OHIO",
		"artcc": "ZOB",
		"type": "RNAV",
		"updated": "05/10/2002"
	},
	{
		"name": "COLBA",
		"latitude": "43-0-45.03 N",
		"longitude": "83-31-43.03 W",
		"state": "MICHIGAN",
		"artcc": "ZOB",
		"type": "RP",
		"updated": "PSI*VORTAC*003.54"
	},
	{
		"name": "COLDO",
		"latitude": "43-0-5.57 N",
		"longitude": "84-11-27.93 W",
		"state": "MICHIGAN",
		"artcc": "ZOB",
		"type": "RNAV",
		"updated": "12/19/2001"
	},
	{
		"name": "COLEN",
		"latitude": "41-7-11.35 N",
		"longitude": "81-27-56.37 W",
		"state": "OHIO",
		"artcc": "ZOB",
		"type": "RP",
		"updated": "BSV*VOR/DME*000.18"
	},
	{
		"name": "COLUL",
		"latitude": "40-21-5.06 N",
		"longitude": "80-39-48.78 W",
		"state": "OHIO",
		"artcc": "ZOB",
		"type": "RNAV",
		"updated": "05/05/2016"
	},
	{
		"name": "COLVU",
		"latitude": "41-31-41.71 N",
		"longitude": "81-53-0.35 W",
		"state": "OHIO",
		"artcc": "ZOB",
		"type": "RNAV",
		"updated": "01/29/2015"
	},
	{
		"name": "COMDR",
		"latitude": "43-42-25.23 N",
		"longitude": "83-19-27.42 W",
		"state": "MICHIGAN",
		"artcc": "ZOB",
		"type": "RNAV",
		"updated": "07/31/2017"
	},
	{
		"name": "COMEN",
		"latitude": "42-55-1.77 N",
		"longitude": "83-44-18.09 W",
		"state": "MICHIGAN",
		"artcc": "ZOB",
		"type": "RP",
		"updated": "FNT*VORTAC*178.71/3.00"
	},
	{
		"name": "COMME",
		"latitude": "41-34-16.17 N",
		"longitude": "80-18-19.84 W",
		"state": "PENNSYLVANIA",
		"artcc": "ZOB",
		"type": "RP",
		"updated": "FKL*VOR*297.60"
	},
	{
		"name": "COMWE",
		"latitude": "40-52-29.13 N",
		"longitude": "81-46-7.24 W",
		"state": "OHIO",
		"artcc": "ZOB",
		"type": "RNAV",
		"updated": "09/24/2009"
	},
	{
		"name": "CONBU",
		"latitude": "40-2-15.81 N",
		"longitude": "82-7-51.98 W",
		"state": "OHIO",
		"artcc": "ZOB",
		"type": "RNAV",
		"updated": "02/14/2008"
	},
	{
		"name": "CONUG",
		"latitude": "40-40-55.04 N",
		"longitude": "79-57-29.97 W",
		"state": "PENNSYLVANIA",
		"artcc": "ZOB",
		"type": "RNAV",
		"updated": "07/24/2006"
	},
	{
		"name": "COOBE",
		"latitude": "41-21-16.48 N",
		"longitude": "79-11-16.13 W",
		"state": "PENNSYLVANIA",
		"artcc": "ZOB",
		"type": "RP",
		"updated": "CIP*VOR/DME*050.30"
	},
	{
		"name": "COPAK",
		"latitude": "40-52-29.4 N",
		"longitude": "81-56-45.54 W",
		"state": "OHIO",
		"artcc": "ZOB",
		"type": "RNAV",
		"updated": "09/24/2009"
	},
	{
		"name": "COPDA",
		"latitude": "40-19-28.75 N",
		"longitude": "78-17-30.14 W",
		"state": "PENNSYLVANIA",
		"artcc": "ZOB",
		"type": "RNAV",
		"updated": "03/07/2013"
	},
	{
		"name": "COPKU",
		"latitude": "40-20-2.8 N",
		"longitude": "80-1-24.69 W",
		"state": "PENNSYLVANIA",
		"artcc": "ZOB",
		"type": "RNAV",
		"updated": "12/15/2017"
	},
	{
		"name": "COPPE",
		"latitude": "40-26-40.39 N",
		"longitude": "79-57-20.76 W",
		"state": "PENNSYLVANIA",
		"artcc": "ZOB",
		"type": "RNAV",
		"updated": "10/26/2009"
	},
	{
		"name": "COPUL",
		"latitude": "39-31-22.67 N",
		"longitude": "84-44-16.23 W",
		"state": "OHIO",
		"artcc": "ZOB",
		"type": "RNAV",
		"updated": "10/22/2015"
	},
	{
		"name": "CORBI",
		"latitude": "41-57-52.96 N",
		"longitude": "83-37-28.2 W",
		"state": "MICHIGAN",
		"artcc": "ZOB",
		"type": "RNAV",
		"updated": "04/17/2018"
	},
	{
		"name": "COREB",
		"latitude": "40-56-46.48 N",
		"longitude": "79-43-55.73 W",
		"state": "PENNSYLVANIA",
		"artcc": "ZOB",
		"type": "RNAV",
		"updated": "10/02/2014"
	},
	{
		"name": "CORNA",
		"latitude": "43-7-13 N",
		"longitude": "78-19-2 W",
		"state": "NEW YORK",
		"artcc": "ZOB",
		"type": "RNAV",
		"updated": "04/12/2005"
	},
	{
		"name": "CORVS",
		"latitude": "40-0-40.05 N",
		"longitude": "81-13-51.39 W",
		"state": "OHIO",
		"artcc": "ZOB",
		"type": "RP",
		"updated": "AIR*VOR/DME*276.07/19.08"
	},
	{
		"name": "CORVU",
		"latitude": "43-0-35.77 N",
		"longitude": "78-17-3.78 W",
		"state": "NEW YORK",
		"artcc": "ZOB",
		"type": "RP",
		"updated": "ROC*VOR/DME*268.66"
	},
	{
		"name": "COSDA",
		"latitude": "41-44-49.14 N",
		"longitude": "80-54-1.72 W",
		"state": "OHIO",
		"artcc": "ZOB",
		"type": "RNAV",
		"updated": "01/29/2015"
	},
	{
		"name": "COSLU",
		"latitude": "40-28-42.58 N",
		"longitude": "79-57-2.7 W",
		"state": "PENNSYLVANIA",
		"artcc": "ZOB",
		"type": "RP",
		"updated": "MMJ*DME*/11.15"
	},
	{
		"name": "COSOP",
		"latitude": "40-35-40.68 N",
		"longitude": "83-49-30.32 W",
		"state": "OHIO",
		"artcc": "ZOB",
		"type": "RNAV",
		"updated": "06/27/2007"
	},
	{
		"name": "COTRO",
		"latitude": "41-52-44.74 N",
		"longitude": "80-45-54.25 W",
		"state": "OHIO",
		"artcc": "ZOB",
		"type": "RNAV",
		"updated": "02/13/2004"
	},
	{
		"name": "COTSO",
		"latitude": "40-7-53.53 N",
		"longitude": "78-39-41.11 W",
		"state": "PENNSYLVANIA",
		"artcc": "ZOB",
		"type": "RNAV",
		"updated": "07/08/2009"
	},
	{
		"name": "COTUM",
		"latitude": "38-48-45.36 N",
		"longitude": "83-6-6.51 W",
		"state": "OHIO",
		"artcc": "ZOB",
		"type": "RNAV",
		"updated": "10/05/2001"
	},
	{
		"name": "COUNT",
		"latitude": "42-32-44.94 N",
		"longitude": "83-5-32.19 W",
		"state": "MICHIGAN",
		"artcc": "ZOB",
		"type": "RP",
		"updated": "EJR*LD*035.71/24.13"
	},
	{
		"name": "COVNA",
		"latitude": "41-10-21.38 N",
		"longitude": "78-57-5.99 W",
		"state": "PENNSYLVANIA",
		"artcc": "ZOB",
		"type": "RP",
		"updated": "CIP*VOR/DME*091.90/23.00"
	},
	{
		"name": "COVVA",
		"latitude": "41-31-21.59 N",
		"longitude": "80-21-10.39 W",
		"state": "PENNSYLVANIA",
		"artcc": "ZOB",
		"type": "RNAV",
		"updated": "12/22/2015"
	},
	{
		"name": "COXOB",
		"latitude": "39-47-48.35 N",
		"longitude": "81-3-4.16 W",
		"state": "OHIO",
		"artcc": "ZOB",
		"type": "RNAV",
		"updated": "09/24/2013"
	},
	{
		"name": "COZZS",
		"latitude": "42-53-15.6 N",
		"longitude": "78-38-57.57 W",
		"state": "NEW YORK",
		"artcc": "ZOB",
		"type": "RNAV",
		"updated": "07/25/2014"
	},
	{
		"name": "COZZY",
		"latitude": "41-57-0.02 N",
		"longitude": "83-35-17.1 W",
		"state": "MICHIGAN",
		"artcc": "ZOB",
		"type": "RP",
		"updated": "ALA*LD*218.21/17.48"
	},
	{
		"name": "CRAKN",
		"latitude": "41-40-22.53 N",
		"longitude": "82-56-26.04 W",
		"state": "OHIO",
		"artcc": "ZOB",
		"type": "RNAV",
		"updated": "03/29/2018"
	},
	{
		"name": "CRATR",
		"latitude": "42-37-12.62 N",
		"longitude": "84-5-36.43 W",
		"state": "MICHIGAN",
		"artcc": "ZOB",
		"type": "RP",
		"updated": "DXO*VOR/DME*313.33/40.49"
	},
	{
		"name": "CRIBS",
		"latitude": "41-38-8.57 N",
		"longitude": "81-59-54.62 W",
		"state": "OHIO",
		"artcc": "ZOB",
		"type": "RP",
		"updated": "DJB*VOR/DME*028.82/18.21"
	},
	{
		"name": "CRLNG",
		"latitude": "42-22-33.35 N",
		"longitude": "83-23-47.37 W",
		"state": "MICHIGAN",
		"artcc": "ZOB",
		"type": "RNAV",
		"updated": "04/17/2018"
	},
	{
		"name": "CROZE",
		"latitude": "40-36-11.6 N",
		"longitude": "79-10-10.5 W",
		"state": "PENNSYLVANIA",
		"artcc": "ZOB",
		"type": "RNAV",
		"updated": "10/02/2014"
	},
	{
		"name": "CRPSL",
		"latitude": "42-13-0.33 N",
		"longitude": "81-11-24.43 W",
		"state": "OHIO",
		"artcc": "ZOB",
		"type": "CN",
		"updated": "12/30/2008"
	},
	{
		"name": "CRSBY",
		"latitude": "40-15-55.95 N",
		"longitude": "80-5-18.35 W",
		"state": "PENNSYLVANIA",
		"artcc": "ZOB",
		"type": "RNAV",
		"updated": "10/26/2009"
	},
	{
		"name": "CRTEZ",
		"latitude": "41-18-59.22 N",
		"longitude": "82-3-9.63 W",
		"state": "OHIO",
		"artcc": "ZOB",
		"type": "RNAV",
		"updated": "04/18/2018"
	},
	{
		"name": "CRUXX",
		"latitude": "41-58-12.67 N",
		"longitude": "84-8-39.46 W",
		"state": "MICHIGAN",
		"artcc": "ZOB",
		"type": "RP",
		"updated": "DXO*VOR/DME*253.50/37.67"
	},
	{
		"name": "CRWDR",
		"latitude": "40-41-14.28 N",
		"longitude": "81-55-22.11 W",
		"state": "OHIO",
		"artcc": "ZOB",
		"type": "RNAV",
		"updated": "03/05/2018"
	},
	{
		"name": "CRYSS",
		"latitude": "40-6-34.52 N",
		"longitude": "78-27-35.52 W",
		"state": "PENNSYLVANIA",
		"artcc": "ZOB",
		"type": "RNAV",
		"updated": "04/06/2005"
	},
	{
		"name": "CRYST",
		"latitude": "42-14-18.94 N",
		"longitude": "79-27-34.72 W",
		"state": "NEW YORK",
		"artcc": "ZOB",
		"type": "RNAV",
		"updated": "02/14/2002"
	},
	{
		"name": "CUBEN",
		"latitude": "42-36-5.8 N",
		"longitude": "82-50-14.43 W",
		"state": "MICHIGAN",
		"artcc": "ZOB",
		"type": "MR",
		"updated": "MTC*TACAN*/0.72"
	},
	{
		"name": "CUBLE",
		"latitude": "41-11-9.08 N",
		"longitude": "82-37-56.11 W",
		"state": "OHIO",
		"artcc": "ZOB",
		"type": "RNAV",
		"updated": "02/09/2018"
	},
	{
		"name": "CUBUP",
		"latitude": "41-16-43.06 N",
		"longitude": "83-15-3.23 W",
		"state": "OHIO",
		"artcc": "ZOB",
		"type": "RNAV",
		"updated": "02/09/2018"
	},
	{
		"name": "CUBUX",
		"latitude": "41-29-46.73 N",
		"longitude": "78-28-11.87 W",
		"state": "PENNSYLVANIA",
		"artcc": "ZOB",
		"type": "RNAV",
		"updated": "07/24/2006"
	},
	{
		"name": "CUBYS",
		"latitude": "40-46-54.47 N",
		"longitude": "82-41-25.45 W",
		"state": "OHIO",
		"artcc": "ZOB",
		"type": "RP",
		"updated": "MFD*VORTAC*224.06/6.90"
	},
	{
		"name": "CUDIR",
		"latitude": "40-51-53.27 N",
		"longitude": "82-14-47.71 W",
		"state": "OHIO",
		"artcc": "ZOB",
		"type": "RNAV",
		"updated": "04/04/2017"
	},
	{
		"name": "CUDOD",
		"latitude": "40-59-53.84 N",
		"longitude": "83-40-46.56 W",
		"state": "OHIO",
		"artcc": "ZOB",
		"type": "RNAV",
		"updated": "03/30/2009"
	},
	{
		"name": "CUHSU",
		"latitude": "40-20-57.1 N",
		"longitude": "81-12-36.27 W",
		"state": "OHIO",
		"artcc": "ZOB",
		"type": "RNAV",
		"updated": "03/11/2011"
	},
	{
		"name": "CUKDI",
		"latitude": "41-30-49.27 N",
		"longitude": "78-31-56.53 W",
		"state": "PENNSYLVANIA",
		"artcc": "ZOB",
		"type": "RNAV",
		"updated": "10/21/2014"
	},
	{
		"name": "CULAK",
		"latitude": "43-26-0.12 N",
		"longitude": "84-7-23.54 W",
		"state": "MICHIGAN",
		"artcc": "ZOB",
		"type": "RNAV",
		"updated": "10/11/2017"
	},
	{
		"name": "CULIM",
		"latitude": "40-4-53.92 N",
		"longitude": "82-0-50.67 W",
		"state": "OHIO",
		"artcc": "ZOB",
		"type": "RNAV",
		"updated": "02/14/2008"
	},
	{
		"name": "CULOP",
		"latitude": "41-57-33.18 N",
		"longitude": "83-32-58.02 W",
		"state": "MICHIGAN",
		"artcc": "ZOB",
		"type": "RP",
		"updated": "DTW*LD*215.69/18.75"
	},
	{
		"name": "CUNEG",
		"latitude": "41-27-56 N",
		"longitude": "81-11-3.56 W",
		"state": "OHIO",
		"artcc": "ZOB",
		"type": "RNAV",
		"updated": "08/28/2013"
	},
	{
		"name": "CUNER",
		"latitude": "41-15-51.52 N",
		"longitude": "82-24-15.93 W",
		"state": "OHIO",
		"artcc": "ZOB",
		"type": "RNAV",
		"updated": "04/13/2009"
	},
	{
		"name": "CUNSO",
		"latitude": "40-55-49.32 N",
		"longitude": "82-58-41.23 W",
		"state": "OHIO",
		"artcc": "ZOB",
		"type": "MR",
		"updated": "MFD*VORTAC*285.00/18.00"
	},
	{
		"name": "CUPIN",
		"latitude": "41-45-36.49 N",
		"longitude": "77-57-48.1 W",
		"state": "PENNSYLVANIA",
		"artcc": "ZOB",
		"type": "RNAV",
		"updated": "01/09/2018"
	},
	{
		"name": "CUPUD",
		"latitude": "42-18-39.76 N",
		"longitude": "82-54-32.41 W",
		"state": "",
		"artcc": "ZOB",
		"type": "RNAV",
		"updated": "04/13/2018"
	},
	{
		"name": "CUREB",
		"latitude": "39-51-33.92 N",
		"longitude": "82-56-40.86 W",
		"state": "OHIO",
		"artcc": "ZOB",
		"type": "RNAV",
		"updated": "10/02/2001"
	},
	{
		"name": "CURGO",
		"latitude": "42-58-3.25 N",
		"longitude": "83-49-17.13 W",
		"state": "MICHIGAN",
		"artcc": "ZOB",
		"type": "RNAV",
		"updated": "10/15/2008"
	},
	{
		"name": "CURLA",
		"latitude": "40-45-28.88 N",
		"longitude": "79-51-58.99 W",
		"state": "PENNSYLVANIA",
		"artcc": "ZOB",
		"type": "RNAV",
		"updated": "01/15/2010"
	},
	{
		"name": "CURUS",
		"latitude": "40-3-34.92 N",
		"longitude": "82-4-21.39 W",
		"state": "OHIO",
		"artcc": "ZOB",
		"type": "RNAV",
		"updated": "12/02/2014"
	},
	{
		"name": "CUSES",
		"latitude": "40-0-53.04 N",
		"longitude": "82-2-38.58 W",
		"state": "OHIO",
		"artcc": "ZOB",
		"type": "RNAV",
		"updated": "10/09/2001"
	},
	{
		"name": "CUSMA",
		"latitude": "41-47-1.95 N",
		"longitude": "83-42-39.36 W",
		"state": "MICHIGAN",
		"artcc": "ZOB",
		"type": "RNAV",
		"updated": "03/27/2018"
	},
	{
		"name": "CUSUS",
		"latitude": "42-58-38.52 N",
		"longitude": "77-49-48.22 W",
		"state": "NEW YORK",
		"artcc": "ZOB",
		"type": "RNAV",
		"updated": "07/20/2012"
	},
	{
		"name": "CUTTA",
		"latitude": "40-52-34.51 N",
		"longitude": "80-38-35.65 W",
		"state": "OHIO",
		"artcc": "ZOB",
		"type": "RP",
		"updated": "BSV*VOR/DME*081.00/36.85"
	},
	{
		"name": "CUTTY",
		"latitude": "43-5-15.5 N",
		"longitude": "84-42-49.52 W",
		"state": "MICHIGAN",
		"artcc": "ZOB",
		"type": "RP",
		"updated": "FNT*VORTAC*286.00/43.16"
	},
	{
		"name": "CUTUS",
		"latitude": "42-1-56.65 N",
		"longitude": "78-35-24.33 W",
		"state": "NEW YORK",
		"artcc": "ZOB",
		"type": "RNAV",
		"updated": "10/21/2014"
	},
	{
		"name": "CUUGR",
		"latitude": "42-21-51.77 N",
		"longitude": "83-5-50.75 W",
		"state": "MICHIGAN",
		"artcc": "ZOB",
		"type": "RNAV",
		"updated": "03/29/2018"
	},
	{
		"name": "CUVBA",
		"latitude": "42-31-53.91 N",
		"longitude": "79-12-42.12 W",
		"state": "NEW YORK",
		"artcc": "ZOB",
		"type": "RNAV",
		"updated": "03/02/2015"
	},
	{
		"name": "CUVSO",
		"latitude": "43-21-29.5 N",
		"longitude": "83-5-15.18 W",
		"state": "MICHIGAN",
		"artcc": "ZOB",
		"type": "RNAV",
		"updated": "03/01/2011"
	},
	{
		"name": "CUVTU",
		"latitude": "43-6-31.45 N",
		"longitude": "78-39-24.16 W",
		"state": "NEW YORK",
		"artcc": "ZOB",
		"type": "RNAV",
		"updated": "07/26/2013"
	},
	{
		"name": "CUVUS",
		"latitude": "40-29-45.63 N",
		"longitude": "82-29-50.8 W",
		"state": "OHIO",
		"artcc": "ZOB",
		"type": "RNAV",
		"updated": "10/30/2001"
	},
	{
		"name": "CUXOM",
		"latitude": "41-46-43.72 N",
		"longitude": "79-27-16.97 W",
		"state": "PENNSYLVANIA",
		"artcc": "ZOB",
		"type": "RNAV",
		"updated": "08/06/2010"
	},
	{
		"name": "CUXUS",
		"latitude": "41-2-43.3 N",
		"longitude": "83-9-10.3 W",
		"state": "OHIO",
		"artcc": "ZOB",
		"type": "RNAV",
		"updated": "02/09/2018"
	},
	{
		"name": "CYDNY",
		"latitude": "40-23-45.62 N",
		"longitude": "80-0-17.72 W",
		"state": "PENNSYLVANIA",
		"artcc": "ZOB",
		"type": "RNAV",
		"updated": "10/26/2009"
	}
]
