	{
		"name": "DAAAV",
		"latitude": "41-11-53.96 N",
		"longitude": "78-29-22.09 W",
		"state": "PENNSYLVANIA",
		"artcc": "ZOB",
		"type": "RP",
		"updated": "ETG*VORTAC*276.48",
	},
	{
		"name": "DABAY",
		"latitude": "41-30-50.16 N",
		"longitude": "80-17-14.45 W",
		"state": "PENNSYLVANIA",
		"artcc": "ZOB",
		"type": "RNAV",
		"updated": "11/13/2017",
	},
	{
		"name": "DACCA",
		"latitude": "41-34-16.9 N",
		"longitude": "79-46-48.02 W",
		"state": "PENNSYLVANIA",
		"artcc": "ZOB",
		"type": "RP",
		"updated": "FKL*LS*027.27",
	},
	{
		"name": "DACUG",
		"latitude": "43-28-13.72 N",
		"longitude": "83-33-26.51 W",
		"state": "MICHIGAN",
		"artcc": "ZOB",
		"type": "RP",
		"updated": "MBS*VOR/DME*102.00/23.00",
	},
	{
		"name": "DADBE",
		"latitude": "40-24-10.46 N",
		"longitude": "78-14-43.66 W",
		"state": "PENNSYLVANIA",
		"artcc": "ZOB",
		"type": "RNAV",
		"updated": "05/31/2005",
	},
	{
		"name": "DADCO",
		"latitude": "41-17-35.42 N",
		"longitude": "84-14-2.49 W",
		"state": "OHIO",
		"artcc": "ZOB",
		"type": "RNAV",
		"updated": "02/17/2015",
	},
	{
		"name": "DAFKE",
		"latitude": "41-22-34.44 N",
		"longitude": "84-32-24.13 W",
		"state": "OHIO",
		"artcc": "ZOB",
		"type": "RNAV",
		"updated": "12/21/2010",
	},
	{
		"name": "DAFLU",
		"latitude": "42-22-44.7 N",
		"longitude": "82-41-19.6 W",
		"state": "",
		"artcc": "ZOB",
		"type": "RP",
		"updated": "11/09/2016",
	},
	{
		"name": "DAGLE",
		"latitude": "40-2-54.46 N",
		"longitude": "83-2-17.59 W",
		"state": "OHIO",
		"artcc": "ZOB",
		"type": "RNAV",
		"updated": "10/09/2001",
	},
	{
		"name": "DAHOO",
		"latitude": "41-30-18.29 N",
		"longitude": "81-52-53.14 W",
		"state": "OHIO",
		"artcc": "ZOB",
		"type": "RNAV",
		"updated": "04/16/2018",
	},
	{
		"name": "DAHPI",
		"latitude": "39-56-1.7 N",
		"longitude": "80-38-55.45 W",
		"state": "WEST VIRGINIA",
		"artcc": "ZOB",
		"type": "RNAV",
		"updated": "01/31/2009",
	},
	{
		"name": "DAJEB",
		"latitude": "43-19-24.24 N",
		"longitude": "84-33-47.09 W",
		"state": "MICHIGAN",
		"artcc": "ZOB",
		"type": "CN",
		"updated": "02/16/2001",
	},
	{
		"name": "DALEE",
		"latitude": "42-45-22.73 N",
		"longitude": "78-18-12.85 W",
		"state": "NEW YORK",
		"artcc": "ZOB",
		"type": "RP",
		"updated": "BUF*VOR/DME*132.28/18.34",
	},
	{
		"name": "DALTS",
		"latitude": "40-46-45.9 N",
		"longitude": "81-46-17.41 W",
		"state": "OHIO",
		"artcc": "ZOB",
		"type": "RNAV",
		"updated": "03/30/2018",
	},
	{
		"name": "DAMBI",
		"latitude": "41-57-42.91 N",
		"longitude": "83-54-30.37 W",
		"state": "MICHIGAN",
		"artcc": "ZOB",
		"type": "RNAV",
		"updated": "02/23/2015",
	},
	{
		"name": "DAPAY",
		"latitude": "42-17-55.07 N",
		"longitude": "83-26-47.71 W",
		"state": "MICHIGAN",
		"artcc": "ZOB",
		"type": "RNAV",
		"updated": "07/04/2011",
	},
	{
		"name": "DAPQO",
		"latitude": "40-25-30.18 N",
		"longitude": "78-28-8.52 W",
		"state": "PENNSYLVANIA",
		"artcc": "ZOB",
		"type": "RNAV",
		"updated": "07/24/2012",
	},
	{
		"name": "DAREC",
		"latitude": "40-39-55.41 N",
		"longitude": "80-36-12.05 W",
		"state": "OHIO",
		"artcc": "ZOB",
		"type": "RNAV",
		"updated": "08/12/2008",
	},
	{
		"name": "DAUGS",
		"latitude": "41-18-46.87 N",
		"longitude": "82-2-50.55 W",
		"state": "OHIO",
		"artcc": "ZOB",
		"type": "RNAV",
		"updated": "04/18/2018",
	},
	{
		"name": "DAVVS",
		"latitude": "41-11-26.15 N",
		"longitude": "83-30-19.44 W",
		"state": "OHIO",
		"artcc": "ZOB",
		"type": "RNAV",
		"updated": "05/12/2010",
	},
	{
		"name": "DAYZD",
		"latitude": "41-17-27.22 N",
		"longitude": "82-2-42.44 W",
		"state": "OHIO",
		"artcc": "ZOB",
		"type": "RP",
		"updated": "LIZ*LD*237.94/11.96",
	},
	{
		"name": "DAZEY",
		"latitude": "41-17-34.01 N",
		"longitude": "83-30-28.19 W",
		"state": "OHIO",
		"artcc": "ZOB",
		"type": "RNAV",
		"updated": "03/30/2018",
	},
	{
		"name": "DBEAM",
		"latitude": "41-7-13.14 N",
		"longitude": "79-17-9.83 W",
		"state": "PENNSYLVANIA",
		"artcc": "ZOB",
		"type": "RP",
		"updated": "PSB*VORTAC*292.19/60.00",
	},
	{
		"name": "DDOGG",
		"latitude": "40-45-36.3 N",
		"longitude": "81-41-25.74 W",
		"state": "OHIO",
		"artcc": "ZOB",
		"type": "RNAV",
		"updated": "03/05/2018",
	},
	{
		"name": "DEAHD",
		"latitude": "40-10-54.17 N",
		"longitude": "83-26-49.43 W",
		"state": "OHIO",
		"artcc": "ZOB",
		"type": "RNAV",
		"updated": "03/29/2018",
	},
	{
		"name": "DECAB",
		"latitude": "41-50-23.85 N",
		"longitude": "79-22-44.27 W",
		"state": "PENNSYLVANIA",
		"artcc": "ZOB",
		"type": "RNAV",
		"updated": "08/12/2010",
	},
	{
		"name": "DECOY",
		"latitude": "41-44-22.83 N",
		"longitude": "77-58-59.41 W",
		"state": "PENNSYLVANIA",
		"artcc": "ZOB",
		"type": "RP",
		"updated": "ELZ*VORTAC*187.00",
	},
	{
		"name": "DECSA",
		"latitude": "40-10-47.36 N",
		"longitude": "79-55-30.94 W",
		"state": "PENNSYLVANIA",
		"artcc": "ZOB",
		"type": "RNAV",
		"updated": "02/11/2005",
	},
	{
		"name": "DEEBE",
		"latitude": "41-41-28.01 N",
		"longitude": "84-26-32.77 W",
		"state": "OHIO",
		"artcc": "ZOB",
		"type": "RP",
		"updated": "DQN*VOR/DME*359.83/100.44",
	},
	{
		"name": "DEFJO",
		"latitude": "42-8-21.65 N",
		"longitude": "80-3-58.68 W",
		"state": "PENNSYLVANIA",
		"artcc": "ZOB",
		"type": "RP",
		"updated": "AWY*LD*064.49/6.61",
	},
	{
		"name": "DEFLU",
		"latitude": "40-50-15.08 N",
		"longitude": "79-42-13.61 W",
		"state": "PENNSYLVANIA",
		"artcc": "ZOB",
		"type": "RNAV",
		"updated": "05/15/2012",
	},
	{
		"name": "DEFOE",
		"latitude": "41-2-37.31 N",
		"longitude": "81-2-44.94 W",
		"state": "OHIO",
		"artcc": "ZOB",
		"type": "RNAV",
		"updated": "03/30/2018",
	},
	{
		"name": "DEHYY",
		"latitude": "40-52-28.27 N",
		"longitude": "81-38-9.65 W",
		"state": "OHIO",
		"artcc": "ZOB",
		"type": "RNAV",
		"updated": "09/24/2009",
	},
	{
		"name": "DEJPI",
		"latitude": "40-50-22.43 N",
		"longitude": "79-1-55.29 W",
		"state": "PENNSYLVANIA",
		"artcc": "ZOB",
		"type": "RNAV",
		"updated": "07/17/2007",
	},
	{
		"name": "DELOW",
		"latitude": "42-27-36.86 N",
		"longitude": "83-4-3.36 W",
		"state": "MICHIGAN",
		"artcc": "ZOB",
		"type": "RNAV",
		"updated": "03/30/2018",
	},
	{
		"name": "DEMME",
		"latitude": "40-13-41.61 N",
		"longitude": "79-48-47.54 W",
		"state": "PENNSYLVANIA",
		"artcc": "ZOB",
		"type": "RNAV",
		"updated": "10/26/2009",
	},
	{
		"name": "DEPEW",
		"latitude": "42-53-17.76 N",
		"longitude": "78-38-4.49 W",
		"state": "NEW YORK",
		"artcc": "ZOB",
		"type": "RP",
		"updated": "BNQ*LD*137.67/6.00",
	},
	{
		"name": "DERBY",
		"latitude": "40-59-48.29 N",
		"longitude": "81-26-10.52 W",
		"state": "OHIO",
		"artcc": "ZOB",
		"type": "RP",
		"updated": "ACO*VOR/DME*242.05",
	},
	{
		"name": "DESDN",
		"latitude": "42-31-24 N",
		"longitude": "82-15-24 W",
		"state": "",
		"artcc": "ZOB",
		"type": "RP",
		"updated": "YQG*VOR/DME*063.00",
	},
	{
		"name": "DETPE",
		"latitude": "41-29-22.8 N",
		"longitude": "79-0-40.27 W",
		"state": "PENNSYLVANIA",
		"artcc": "ZOB",
		"type": "RP",
		"updated": "TDT*VORTAC*135.10/22.66",
	},
	{
		"name": "DEUSO",
		"latitude": "40-59-27.47 N",
		"longitude": "80-13-33.43 W",
		"state": "PENNSYLVANIA",
		"artcc": "ZOB",
		"type": "RNAV",
		"updated": "03/30/2009",
	},
	{
		"name": "DEVOH",
		"latitude": "41-3-3.73 N",
		"longitude": "82-21-3.41 W",
		"state": "OHIO",
		"artcc": "ZOB",
		"type": "RNAV",
		"updated": "03/29/2018",
	},
	{
		"name": "DEVYL",
		"latitude": "41-20-54.5 N",
		"longitude": "81-57-16.41 W",
		"state": "OHIO",
		"artcc": "ZOB",
		"type": "RP",
		"updated": "LIZ*LD*237.94/6.61",
	},
	{
		"name": "DEWIT",
		"latitude": "42-48-9.14 N",
		"longitude": "84-33-0.01 W",
		"state": "MICHIGAN",
		"artcc": "ZOB",
		"type": "RP",
		"updated": "FNT*VORTAC*260.73/36.76",
	},
	{
		"name": "DEXER",
		"latitude": "42-20-13.19 N",
		"longitude": "83-53-37.26 W",
		"state": "MICHIGAN",
		"artcc": "ZOB",
		"type": "RNAV",
		"updated": "03/29/2018",
	},
	{
		"name": "DEZZZ",
		"latitude": "40-30-48.24 N",
		"longitude": "78-40-11.5 W",
		"state": "PENNSYLVANIA",
		"artcc": "ZOB",
		"type": "RNAV",
		"updated": "03/28/2009",
	},
	{
		"name": "DIGAW",
		"latitude": "41-45-36.33 N",
		"longitude": "80-48-48.51 W",
		"state": "OHIO",
		"artcc": "ZOB",
		"type": "RNAV",
		"updated": "07/19/2017",
	},
	{
		"name": "DILNE",
		"latitude": "40-28-4.6 N",
		"longitude": "80-52-32.49 W",
		"state": "OHIO",
		"artcc": "ZOB",
		"type": "RP",
		"updated": "HLG*VOR/DME*318.63/18.81",
	},
	{
		"name": "DILSE",
		"latitude": "43-6-2.7 N",
		"longitude": "78-28-28.52 W",
		"state": "NEW YORK",
		"artcc": "ZOB",
		"type": "RNAV",
		"updated": "06/06/2002",
	},
	{
		"name": "DILYN",
		"latitude": "41-21-46.18 N",
		"longitude": "81-55-29.65 W",
		"state": "OHIO",
		"artcc": "ZOB",
		"type": "RP",
		"updated": "CLE*LD*237.94/5.18",
	},
	{
		"name": "DINES",
		"latitude": "43-18-42.94 N",
		"longitude": "77-7-28.23 W",
		"state": "NEW YORK",
		"artcc": "ZOB",
		"type": "RP",
		"updated": "SYR*VORTAC*294.00/41.36",
	},
	{
		"name": "DIONE",
		"latitude": "43-6-29.66 N",
		"longitude": "78-41-11.69 W",
		"state": "NEW YORK",
		"artcc": "ZOB",
		"type": "RP",
		"updated": "IAG*TACAN*101.14/12.00",
	},
	{
		"name": "DIPRE",
		"latitude": "42-10-25.3 N",
		"longitude": "79-12-39.75 W",
		"state": "NEW YORK",
		"artcc": "ZOB",
		"type": "RP",
		"updated": "JHW*LD*068.96/2.27",
	},
	{
		"name": "DIRKE",
		"latitude": "40-34-14.78 N",
		"longitude": "83-9-48.21 W",
		"state": "OHIO",
		"artcc": "ZOB",
		"type": "RNAV",
		"updated": "06/28/2007",
	},
	{
		"name": "DISHE",
		"latitude": "41-5-3.45 N",
		"longitude": "80-10-32.95 W",
		"state": "PENNSYLVANIA",
		"artcc": "ZOB",
		"type": "RP",
		"updated": "EWC*VOR/DME*013.95/15.64",
	},
	{
		"name": "DITBE",
		"latitude": "39-15-51.88 N",
		"longitude": "84-20-53.2 W",
		"state": "OHIO",
		"artcc": "ZOB",
		"type": "RNAV",
		"updated": "10/22/2015",
	},
	{
		"name": "DITPE",
		"latitude": "40-29-1.78 N",
		"longitude": "80-8-33.92 W",
		"state": "PENNSYLVANIA",
		"artcc": "ZOB",
		"type": "RNAV",
		"updated": "07/08/2003",
	},
	{
		"name": "DIWUV",
		"latitude": "39-43-49.88 N",
		"longitude": "80-49-4.66 W",
		"state": "WEST VIRGINIA",
		"artcc": "ZOB",
		"type": "RNAV",
		"updated": "09/24/2013",
	},
	{
		"name": "DIXBO",
		"latitude": "42-17-35.96 N",
		"longitude": "83-41-2.45 W",
		"state": "MICHIGAN",
		"artcc": "ZOB",
		"type": "RP",
		"updated": "SVM*VORTAC*213.00/8.00",
	},
	{
		"name": "DIXIN",
		"latitude": "39-43-38.26 N",
		"longitude": "79-55-55.3 W",
		"state": "PENNSYLVANIA",
		"artcc": "ZOB",
		"type": "RP",
		"updated": "MGW*LS*N CRS",
	},
	{
		"name": "DIXSN",
		"latitude": "42-48-44.33 N",
		"longitude": "83-54-29.02 W",
		"state": "MICHIGAN",
		"artcc": "ZOB",
		"type": "RNAV",
		"updated": "08/27/2013",
	},
	{
		"name": "DIYAC",
		"latitude": "40-25-10.39 N",
		"longitude": "79-48-12.68 W",
		"state": "PENNSYLVANIA",
		"artcc": "ZOB",
		"type": "RNAV",
		"updated": "08/12/2008",
	},
	{
		"name": "DIZNO",
		"latitude": "43-37-11.09 N",
		"longitude": "84-36-13.5 W",
		"state": "MICHIGAN",
		"artcc": "ZOB",
		"type": "RNAV",
		"updated": "06/19/2009",
	},
	{
		"name": "DMACK",
		"latitude": "41-47-8.73 N",
		"longitude": "77-33-6.92 W",
		"state": "PENNSYLVANIA",
		"artcc": "ZOB",
		"type": "RP",
		"updated": "SLT*VORTAC*056.83/24.94",
	},
	{
		"name": "DOBIE",
		"latitude": "42-25-41.52 N",
		"longitude": "81-2-44.9 W",
		"state": "",
		"artcc": "ZOB",
		"type": "RNAV",
		"updated": "03/28/2014",
	},
	{
		"name": "DOBZY",
		"latitude": "42-14-23.18 N",
		"longitude": "77-37-41.09 W",
		"state": "NEW YORK",
		"artcc": "ZOB",
		"type": "RNAV",
		"updated": "04/20/2012",
	},
	{
		"name": "DOCAY",
		"latitude": "39-28-20.07 N",
		"longitude": "80-0-23.17 W",
		"state": "WEST VIRGINIA",
		"artcc": "ZOB",
		"type": "RNAV",
		"updated": "12/18/2006",
	},
	{
		"name": "DODKE",
		"latitude": "43-33-24.79 N",
		"longitude": "83-1-15.62 W",
		"state": "MICHIGAN",
		"artcc": "ZOB",
		"type": "RNAV",
		"updated": "06/25/2007",
	},
	{
		"name": "DODLE",
		"latitude": "40-1-57.45 N",
		"longitude": "83-11-13.01 W",
		"state": "OHIO",
		"artcc": "ZOB",
		"type": "RNAV",
		"updated": "10/02/2001",
	},
	{
		"name": "DOGGS",
		"latitude": "42-23-39.35 N",
		"longitude": "81-4-52.3 W",
		"state": "",
		"artcc": "ZOB",
		"type": "RNAV",
		"updated": "04/17/2018",
	},
	{
		"name": "DOHNT",
		"latitude": "42-18-12.54 N",
		"longitude": "83-41-30.41 W",
		"state": "MICHIGAN",
		"artcc": "ZOB",
		"type": "RP",
		"updated": "JXN*VOR/DME*090.30/34.25",
	},
	{
		"name": "DOLFN",
		"latitude": "42-12-47.67 N",
		"longitude": "81-39-12.58 W",
		"state": "",
		"artcc": "ZOB",
		"type": "RP",
		"updated": "YQG*VOR/DME*098.00/52.44",
	},
	{
		"name": "DONDE",
		"latitude": "41-46-4.75 N",
		"longitude": "83-23-57.27 W",
		"state": "MICHIGAN",
		"artcc": "ZOB",
		"type": "RP",
		"updated": "CRL*VOR/DME*174.13/17.00",
	},
	{
		"name": "DONEO",
		"latitude": "42-47-4.97 N",
		"longitude": "79-43-38.44 W",
		"state": "",
		"artcc": "ZOB",
		"type": "RNAV",
		"updated": "04/02/2018",
	},
	{
		"name": "DONUT",
		"latitude": "40-28-43.83 N",
		"longitude": "81-27-17.77 W",
		"state": "OHIO",
		"artcc": "ZOB",
		"type": "RNAV",
		"updated": "03/30/2018",
	},
	{
		"name": "DONYA",
		"latitude": "42-12-18.36 N",
		"longitude": "82-57-20.82 W",
		"state": "",
		"artcc": "ZOB",
		"type": "RP",
		"updated": "EPA*LD*095.73/18.27",
	},
	{
		"name": "DOORZ",
		"latitude": "41-19-50.18 N",
		"longitude": "81-58-32.33 W",
		"state": "OHIO",
		"artcc": "ZOB",
		"type": "RP",
		"updated": "CLE*LD*237.94/8.18",
	},
	{
		"name": "DOPNE",
		"latitude": "40-29-57.8 N",
		"longitude": "80-9-33.14 W",
		"state": "PENNSYLVANIA",
		"artcc": "ZOB",
		"type": "RP",
		"updated": "12/15/2017",
	},
	{
		"name": "DORET",
		"latitude": "41-48-5.9 N",
		"longitude": "80-35-4.64 W",
		"state": "OHIO",
		"artcc": "ZOB",
		"type": "RP",
		"updated": "SLT*VORTAC*287.25/118.85",
	},
	{
		"name": "DOTTI",
		"latitude": "42-13-12.36 N",
		"longitude": "83-10-4.35 W",
		"state": "MICHIGAN",
		"artcc": "ZOB",
		"type": "RP",
		"updated": "DXO*VOR/DME*/8.87",
	},
	{
		"name": "DOTYU",
		"latitude": "41-7-23.9 N",
		"longitude": "83-33-19.85 W",
		"state": "OHIO",
		"artcc": "ZOB",
		"type": "RNAV",
		"updated": "02/09/2018",
	},
	{
		"name": "DOURA",
		"latitude": "40-48-18.26 N",
		"longitude": "79-7-36.41 W",
		"state": "PENNSYLVANIA",
		"artcc": "ZOB",
		"type": "RNAV",
		"updated": "02/21/2017",
	},
	{
		"name": "DOXXY",
		"latitude": "42-7-21 N",
		"longitude": "84-28-25 W",
		"state": "MICHIGAN",
		"artcc": "ZOB",
		"type": "RNAV",
		"updated": "11/19/2007",
	},
	{
		"name": "DOYET",
		"latitude": "41-5-2.05 N",
		"longitude": "83-26-5.81 W",
		"state": "OHIO",
		"artcc": "ZOB",
		"type": "RNAV",
		"updated": "06/27/2007",
	},
	{
		"name": "DOZYO",
		"latitude": "41-0-55.5 N",
		"longitude": "83-39-57.52 W",
		"state": "OHIO",
		"artcc": "ZOB",
		"type": "RNAV",
		"updated": "02/09/2018",
	},
	{
		"name": "DRAIP",
		"latitude": "41-46-22.59 N",
		"longitude": "83-46-56.38 W",
		"state": "MICHIGAN",
		"artcc": "ZOB",
		"type": "RNAV",
		"updated": "04/16/2001",
	},
	{
		"name": "DRBRN",
		"latitude": "42-32-9.65 N",
		"longitude": "83-7-26.76 W",
		"state": "MICHIGAN",
		"artcc": "ZOB",
		"type": "RP",
		"updated": "DWC*LD*035.71/20.70",
	},
	{
		"name": "DRIFF",
		"latitude": "40-51-57.28 N",
		"longitude": "84-21-39.68 W",
		"state": "OHIO",
		"artcc": "ZOB",
		"type": "RNAV",
		"updated": "11/12/2008",
	},
	{
		"name": "DROVE",
		"latitude": "41-21-14.05 N",
		"longitude": "81-50-50.32 W",
		"state": "OHIO",
		"artcc": "ZOB",
		"type": "RNAV",
		"updated": "03/27/2018",
	},
	{
		"name": "DRTHE",
		"latitude": "41-23-2.18 N",
		"longitude": "78-39-43.78 W",
		"state": "PENNSYLVANIA",
		"artcc": "ZOB",
		"type": "RNAV",
		"updated": "03/29/2010",
	},
	{
		"name": "DRUGA",
		"latitude": "39-41-16.7 N",
		"longitude": "83-59-48.61 W",
		"state": "OHIO",
		"artcc": "ZOB",
		"type": "RP",
		"updated": "CVG*VORTAC*043.00/52.00",
	},
	{
		"name": "DUBOI",
		"latitude": "41-13-5.68 N",
		"longitude": "78-47-49.94 W",
		"state": "PENNSYLVANIA",
		"artcc": "ZOB",
		"type": "RNAV",
		"updated": "11/06/2014",
	},
	{
		"name": "DUCAT",
		"latitude": "41-30-13.65 N",
		"longitude": "80-30-39.86 W",
		"state": "PENNSYLVANIA",
		"artcc": "ZOB",
		"type": "RNAV",
		"updated": "06/28/2011",
	},
	{
		"name": "DUCZZ",
		"latitude": "41-36-26.42 N",
		"longitude": "84-21-17.6 W",
		"state": "OHIO",
		"artcc": "ZOB",
		"type": "RNAV",
		"updated": "04/19/2012",
	},
	{
		"name": "DUDAC",
		"latitude": "43-42-7.11 N",
		"longitude": "83-2-45.67 W",
		"state": "MICHIGAN",
		"artcc": "ZOB",
		"type": "RNAV",
		"updated": "10/24/2007",
	},
	{
		"name": "DUDAY",
		"latitude": "41-58-36.9 N",
		"longitude": "79-54-25.74 W",
		"state": "PENNSYLVANIA",
		"artcc": "ZOB",
		"type": "RNAV",
		"updated": "08/12/2010",
	},
	{
		"name": "DUDUW",
		"latitude": "41-27-2.57 N",
		"longitude": "83-46-7.13 W",
		"state": "OHIO",
		"artcc": "ZOB",
		"type": "RNAV",
		"updated": "06/24/2013",
	},
	{
		"name": "DULJE",
		"latitude": "40-6-45.68 N",
		"longitude": "79-48-34.6 W",
		"state": "PENNSYLVANIA",
		"artcc": "ZOB",
		"type": "RNAV",
		"updated": "10/20/2017",
	},
	{
		"name": "DULSY",
		"latitude": "40-48-28.88 N",
		"longitude": "79-45-8.49 W",
		"state": "PENNSYLVANIA",
		"artcc": "ZOB",
		"type": "RNAV",
		"updated": "01/15/2010",
	},
	{
		"name": "DUMKE",
		"latitude": "41-52-19.22 N",
		"longitude": "78-43-31.49 W",
		"state": "PENNSYLVANIA",
		"artcc": "ZOB",
		"type": "RP",
		"updated": "BFD*VOR/DME*324.22/7.00",
	},
	{
		"name": "DUNDY",
		"latitude": "41-8-31.54 N",
		"longitude": "81-55-43.02 W",
		"state": "OHIO",
		"artcc": "ZOB",
		"type": "RP",
		"updated": "BSV*VOR/DME*321.00/33.00",
	},
	{
		"name": "DUNKS",
		"latitude": "42-25-38.68 N",
		"longitude": "84-11-39.28 W",
		"state": "MICHIGAN",
		"artcc": "ZOB",
		"type": "RP",
		"updated": "JXN*VOR/DME*054.29",
	},
	{
		"name": "DUPDE",
		"latitude": "41-56-4.6 N",
		"longitude": "83-23-33.75 W",
		"state": "MICHIGAN",
		"artcc": "ZOB",
		"type": "RNAV",
		"updated": "02/09/2018",
	},
	{
		"name": "DURAC",
		"latitude": "42-31-19.89 N",
		"longitude": "83-27-59.8 W",
		"state": "MICHIGAN",
		"artcc": "ZOB",
		"type": "RNAV",
		"updated": "12/04/2007",
	},
	{
		"name": "DUREY",
		"latitude": "43-19-22.08 N",
		"longitude": "84-37-53.66 W",
		"state": "MICHIGAN",
		"artcc": "ZOB",
		"type": "RNAV",
		"updated": "04/25/2012",
	},
	{
		"name": "DURGY",
		"latitude": "42-40-51.22 N",
		"longitude": "84-4-25.1 W",
		"state": "MICHIGAN",
		"artcc": "ZOB",
		"type": "RP",
		"updated": "FNT*VORTAC*226.18",
	},
	{
		"name": "DUSKY",
		"latitude": "40-54-55.55 N",
		"longitude": "83-11-58.79 W",
		"state": "OHIO",
		"artcc": "ZOB",
		"type": "RNAV",
		"updated": "03/30/2018",
	},
	{
		"name": "DUSUT",
		"latitude": "42-38-58.19 N",
		"longitude": "81-23-18.55 W",
		"state": "",
		"artcc": "ZOB",
		"type": "RP",
		"updated": "YQO*VOR/DME*269.36",
	},
	{
		"name": "DUTSH",
		"latitude": "41-8-26.35 N",
		"longitude": "82-33-12.68 W",
		"state": "OHIO",
		"artcc": "ZOB",
		"type": "RNAV",
		"updated": "09/22/2014",
	},
	{
		"name": "DUTVE",
		"latitude": "42-46-32.81 N",
		"longitude": "84-19-42.33 W",
		"state": "MICHIGAN",
		"artcc": "ZOB",
		"type": "RNAV",
		"updated": "07/09/2009",
	},
	{
		"name": "DUVIH",
		"latitude": "42-54-28.3 N",
		"longitude": "83-44-31.57 W",
		"state": "MICHIGAN",
		"artcc": "ZOB",
		"type": "RNAV",
		"updated": "06/19/2009",
	},
	{
		"name": "DUZKO",
		"latitude": "42-16-44.55 N",
		"longitude": "82-44-14.2 W",
		"state": "",
		"artcc": "ZOB",
		"type": "RNAV",
		"updated": "04/13/2018",
	},
	{
		"name": "DZMND",
		"latitude": "42-18-28.71 N",
		"longitude": "83-26-46.81 W",
		"state": "MICHIGAN",
		"artcc": "ZOB",
		"type": "RNAV",
		"updated": "03/29/2018",
	},
