[
	{
		"name": "FAALS",
		"latitude": "41-2-51 N",
		"longitude": "80-52-40.1 W",
		"state": "OHIO",
		"artcc": "ZOB",
		"type": "RNAV",
		"updated": "01/12/2007"
	},
	{
		"name": "FAAVA",
		"latitude": "41-49-16.58 N",
		"longitude": "83-38-59.6 W",
		"state": "MICHIGAN",
		"artcc": "ZOB",
		"type": "RNAV",
		"updated": "DTW*LD*215.70/28.17"
	},
	{
		"name": "FABAD",
		"latitude": "43-0-9.51 N",
		"longitude": "84-11-51.84 W",
		"state": "MICHIGAN",
		"artcc": "ZOB",
		"type": "RNAV",
		"updated": "08/11/2008"
	},
	{
		"name": "FABAM",
		"latitude": "41-43-3.41 N",
		"longitude": "79-31-49.15 W",
		"state": "PENNSYLVANIA",
		"artcc": "ZOB",
		"type": "RNAV",
		"updated": "08/12/2010"
	},
	{
		"name": "FABKI",
		"latitude": "40-54-56.92 N",
		"longitude": "83-40-0.82 W",
		"state": "OHIO",
		"artcc": "ZOB",
		"type": "RNAV",
		"updated": "09/04/2010"
	},
	{
		"name": "FABVA",
		"latitude": "40-19-30.45 N",
		"longitude": "78-49-24.85 W",
		"state": "PENNSYLVANIA",
		"artcc": "ZOB",
		"type": "RP",
		"updated": "JST*VOR/DME*050.00/0.70"
	},
	{
		"name": "FABVO",
		"latitude": "42-54-44.88 N",
		"longitude": "78-40-43.43 W",
		"state": "NEW YORK",
		"artcc": "ZOB",
		"type": "RNAV",
		"updated": "06/01/2012"
	},
	{
		"name": "FAEGO",
		"latitude": "42-48-4.68 N",
		"longitude": "82-27-59.29 W",
		"state": "",
		"artcc": "ZOB",
		"type": "RNAV",
		"updated": "03/27/2018"
	},
	{
		"name": "FAILS",
		"latitude": "41-50-16.09 N",
		"longitude": "81-25-13.25 W",
		"state": "OHIO",
		"artcc": "ZOB",
		"type": "RP",
		"updated": "DJB*VOR/DME*054.00/44.07"
	},
	{
		"name": "FALGI",
		"latitude": "43-9-17.21 N",
		"longitude": "76-46-26.9 W",
		"state": "NEW YORK",
		"artcc": "ZOB",
		"type": "RNAV",
		"updated": "07/22/2002"
	},
	{
		"name": "FALUB",
		"latitude": "40-35-28.58 N",
		"longitude": "80-0-49.8 W",
		"state": "PENNSYLVANIA",
		"artcc": "ZOB",
		"type": "RNAV",
		"updated": "08/17/2006"
	},
	{
		"name": "FALWA",
		"latitude": "41-20-4.49 N",
		"longitude": "83-17-1.76 W",
		"state": "OHIO",
		"artcc": "ZOB",
		"type": "RNAV",
		"updated": "09/16/2009"
	},
	{
		"name": "FAMEB",
		"latitude": "41-39-54.11 N",
		"longitude": "78-57-42.26 W",
		"state": "PENNSYLVANIA",
		"artcc": "ZOB",
		"type": "RNAV",
		"updated": "01/25/2002"
	},
	{
		"name": "FAMLI",
		"latitude": "42-46-44.34 N",
		"longitude": "84-42-10.24 W",
		"state": "MICHIGAN",
		"artcc": "ZOB",
		"type": "RP",
		"updated": "LAN*VORTAC*001.50"
	},
	{
		"name": "FAMLY",
		"latitude": "41-58-45.41 N",
		"longitude": "83-38-17.96 W",
		"state": "MICHIGAN",
		"artcc": "ZOB",
		"type": "RNAV",
		"updated": "04/17/2018"
	},
	{
		"name": "FAMRR",
		"latitude": "42-16-36.21 N",
		"longitude": "71-4-53.31 W",
		"state": "MASSACHUSETTS",
		"artcc": "ZOB",
		"type": "RNAV",
		"updated": "07/20/2017"
	},
	{
		"name": "FANDA",
		"latitude": "40-28-48.42 N",
		"longitude": "78-44-10.47 W",
		"state": "PENNSYLVANIA",
		"artcc": "ZOB",
		"type": "RNAV",
		"updated": "03/28/2009"
	},
	{
		"name": "FANEE",
		"latitude": "41-24-14.1 N",
		"longitude": "80-52-25.41 W",
		"state": "OHIO",
		"artcc": "ZOB",
		"type": "RP",
		"updated": "YNG*VORTAC*301.00/10.00"
	},
	{
		"name": "FAPEL",
		"latitude": "40-29-5.07 N",
		"longitude": "80-40-33.82 W",
		"state": "OHIO",
		"artcc": "ZOB",
		"type": "RNAV",
		"updated": "05/05/2016"
	},
	{
		"name": "FAPNU",
		"latitude": "40-19-35.08 N",
		"longitude": "80-45-15.63 W",
		"state": "OHIO",
		"artcc": "ZOB",
		"type": "RNAV",
		"updated": "06/22/2017"
	},
	{
		"name": "FAPUR",
		"latitude": "41-39-19.13 N",
		"longitude": "77-58-21.41 W",
		"state": "PENNSYLVANIA",
		"artcc": "ZOB",
		"type": "RNAV",
		"updated": "08/24/2001"
	},
	{
		"name": "FAPVI",
		"latitude": "42-14-26.77 N",
		"longitude": "84-50-7.46 W",
		"state": "MICHIGAN",
		"artcc": "ZOB",
		"type": "RNAV",
		"updated": "03/01/2013"
	},
	{
		"name": "FARAP",
		"latitude": "39-32-23.92 N",
		"longitude": "83-17-43.43 W",
		"state": "OHIO",
		"artcc": "ZOB",
		"type": "RNAV",
		"updated": "10/09/2001"
	},
	{
		"name": "FARGE",
		"latitude": "41-17-4.11 N",
		"longitude": "79-52-19.38 W",
		"state": "PENNSYLVANIA",
		"artcc": "ZOB",
		"type": "RP",
		"updated": "FKL*VOR*190.27"
	},
	{
		"name": "FARGN",
		"latitude": "42-36-42.19 N",
		"longitude": "79-47-18.42 W",
		"state": "",
		"artcc": "ZOB",
		"type": "RNAV",
		"updated": "08/27/2013"
	},
	{
		"name": "FARSI",
		"latitude": "41-20-27.88 N",
		"longitude": "80-21-58.99 W",
		"state": "PENNSYLVANIA",
		"artcc": "ZOB",
		"type": "RNAV",
		"updated": "11/13/2017"
	},
	{
		"name": "FARWO",
		"latitude": "41-11-47.64 N",
		"longitude": "80-19-50.25 W",
		"state": "PENNSYLVANIA",
		"artcc": "ZOB",
		"type": "RNAV",
		"updated": "01/25/2002"
	},
	{
		"name": "FASLA",
		"latitude": "42-26-59.28 N",
		"longitude": "82-52-42.88 W",
		"state": "MICHIGAN",
		"artcc": "ZOB",
		"type": "MR",
		"updated": "MTC*TACAN*198.00/10.00"
	},
	{
		"name": "FASTI",
		"latitude": "41-30-19.37 N",
		"longitude": "82-59-24.72 W",
		"state": "OHIO",
		"artcc": "ZOB",
		"type": "RNAV",
		"updated": "01/26/2015"
	},
	{
		"name": "FATAX",
		"latitude": "39-57-6.2 N",
		"longitude": "79-57-20.01 W",
		"state": "PENNSYLVANIA",
		"artcc": "ZOB",
		"type": "RNAV",
		"updated": "02/21/2017"
	},
	{
		"name": "FATEK",
		"latitude": "41-28-1.15 N",
		"longitude": "78-33-22.39 W",
		"state": "PENNSYLVANIA",
		"artcc": "ZOB",
		"type": "RNAV",
		"updated": "08/17/2006"
	},
	{
		"name": "FATEP",
		"latitude": "41-23-52.79 N",
		"longitude": "83-40-33.44 W",
		"state": "OHIO",
		"artcc": "ZOB",
		"type": "RNAV",
		"updated": "11/28/2005"
	},
	{
		"name": "FATOT",
		"latitude": "42-9-48.22 N",
		"longitude": "83-38-23.18 W",
		"state": "MICHIGAN",
		"artcc": "ZOB",
		"type": "RNAV",
		"updated": "07/04/2011"
	},
	{
		"name": "FAULT",
		"latitude": "42-59-3.01 N",
		"longitude": "77-21-47.78 W",
		"state": "NEW YORK",
		"artcc": "ZOB",
		"type": "RP",
		"updated": "ROC*VOR/DME*132.41/15.81"
	},
	{
		"name": "FAVIL",
		"latitude": "40-30-51.89 N",
		"longitude": "79-33-6.2 W",
		"state": "PENNSYLVANIA",
		"artcc": "ZOB",
		"type": "RNAV",
		"updated": "04/09/2014"
	},
	{
		"name": "FAVLI",
		"latitude": "42-40-7.02 N",
		"longitude": "83-17-58.03 W",
		"state": "MICHIGAN",
		"artcc": "ZOB",
		"type": "RNAV",
		"updated": "09/24/2009"
	},
	{
		"name": "FAVRR",
		"latitude": "38-50-48.61 N",
		"longitude": "82-58-53.6 W",
		"state": "OHIO",
		"artcc": "ZOB",
		"type": "RNAV",
		"updated": "10/31/2001"
	},
	{
		"name": "FAYRO",
		"latitude": "40-58-8.53 N",
		"longitude": "78-9-32.74 W",
		"state": "PENNSYLVANIA",
		"artcc": "ZOB",
		"type": "RP",
		"updated": "ETG*VORTAC*192.88"
	},
	{
		"name": "FAZIP",
		"latitude": "40-5-46.94 N",
		"longitude": "80-58-29.63 W",
		"state": "OHIO",
		"artcc": "ZOB",
		"type": "RNAV",
		"updated": "02/09/2018"
	},
	{
		"name": "FEBWO",
		"latitude": "41-17-29.13 N",
		"longitude": "79-27-5.03 W",
		"state": "PENNSYLVANIA",
		"artcc": "ZOB",
		"type": "RNAV",
		"updated": "08/03/2017"
	},
	{
		"name": "FECYI",
		"latitude": "41-44-26.32 N",
		"longitude": "83-25-2.29 W",
		"state": "MICHIGAN",
		"artcc": "ZOB",
		"type": "RNAV",
		"updated": "02/20/2014"
	},
	{
		"name": "FEDGA",
		"latitude": "40-16-29.75 N",
		"longitude": "78-20-31.25 W",
		"state": "PENNSYLVANIA",
		"artcc": "ZOB",
		"type": "RNAV",
		"updated": "05/31/2005"
	},
	{
		"name": "FEGLI",
		"latitude": "41-41-49.39 N",
		"longitude": "78-29-35.31 W",
		"state": "PENNSYLVANIA",
		"artcc": "ZOB",
		"type": "RP",
		"updated": "BFD*VOR/DME*/7.80"
	},
	{
		"name": "FEGOV",
		"latitude": "39-35-22.95 N",
		"longitude": "79-55-19.7 W",
		"state": "WEST VIRGINIA",
		"artcc": "ZOB",
		"type": "RNAV",
		"updated": "12/18/2006"
	},
	{
		"name": "FEGVO",
		"latitude": "40-34-8.25 N",
		"longitude": "78-22-25.87 W",
		"state": "PENNSYLVANIA",
		"artcc": "ZOB",
		"type": "RNAV",
		"updated": "10/23/2014"
	},
	{
		"name": "FEKBO",
		"latitude": "42-7-38.84 N",
		"longitude": "77-35-8.25 W",
		"state": "NEW YORK",
		"artcc": "ZOB",
		"type": "RNAV",
		"updated": "04/20/2012"
	},
	{
		"name": "FEKMI",
		"latitude": "40-34-12.71 N",
		"longitude": "79-12-51.91 W",
		"state": "PENNSYLVANIA",
		"artcc": "ZOB",
		"type": "RNAV",
		"updated": "10/02/2014"
	},
	{
		"name": "FELEV",
		"latitude": "40-38-12.76 N",
		"longitude": "79-59-12.57 W",
		"state": "PENNSYLVANIA",
		"artcc": "ZOB",
		"type": "RNAV",
		"updated": "03/11/2015"
	},
	{
		"name": "FELLR",
		"latitude": "41-27-16.07 N",
		"longitude": "81-46-48.35 W",
		"state": "OHIO",
		"artcc": "ZOB",
		"type": "RP",
		"updated": "HPI*LD*057.96/5.43"
	},
	{
		"name": "FELMO",
		"latitude": "42-6-42.36 N",
		"longitude": "79-9-2.72 W",
		"state": "NEW YORK",
		"artcc": "ZOB",
		"type": "RNAV",
		"updated": "02/14/2002"
	},
	{
		"name": "FELUS",
		"latitude": "42-17-21.66 N",
		"longitude": "83-27-21.1 W",
		"state": "MICHIGAN",
		"artcc": "ZOB",
		"type": "RP",
		"updated": "SVM*VORTAC*142.31"
	},
	{
		"name": "FEMLO",
		"latitude": "40-42-41.11 N",
		"longitude": "83-2-27.31 W",
		"state": "OHIO",
		"artcc": "ZOB",
		"type": "RNAV",
		"updated": "03/07/2016"
	},
	{
		"name": "FEMOT",
		"latitude": "41-49-53.96 N",
		"longitude": "78-40-31.36 W",
		"state": "PENNSYLVANIA",
		"artcc": "ZOB",
		"type": "RP",
		"updated": "BFD*VOR/DME*324.22/3.70"
	},
	{
		"name": "FENDO",
		"latitude": "42-59-30.06 N",
		"longitude": "84-7-51.88 W",
		"state": "MICHIGAN",
		"artcc": "ZOB",
		"type": "RP",
		"updated": "FNT*VORTAC*281.18/16.98"
	},
	{
		"name": "FENRU",
		"latitude": "41-8-17.16 N",
		"longitude": "79-54-22.32 W",
		"state": "PENNSYLVANIA",
		"artcc": "ZOB",
		"type": "RNAV",
		"updated": "05/14/2013"
	},
	{
		"name": "FEPEV",
		"latitude": "41-5-24.14 N",
		"longitude": "82-8-31.55 W",
		"state": "OHIO",
		"artcc": "ZOB",
		"type": "RNAV",
		"updated": "12/31/2009"
	},
	{
		"name": "FEPIS",
		"latitude": "40-30-57.52 N",
		"longitude": "79-50-41.94 W",
		"state": "PENNSYLVANIA",
		"artcc": "ZOB",
		"type": "RNAV",
		"updated": "07/26/2017"
	},
	{
		"name": "FEPKU",
		"latitude": "39-53-6.75 N",
		"longitude": "78-1-10.51 W",
		"state": "PENNSYLVANIA",
		"artcc": "ZOB",
		"type": "RNAV",
		"updated": "08/15/2013"
	},
	{
		"name": "FEPLI",
		"latitude": "41-9-1.67 N",
		"longitude": "81-32-39.19 W",
		"state": "OHIO",
		"artcc": "ZOB",
		"type": "RNAV",
		"updated": "09/10/2002"
	},
	{
		"name": "FEPNA",
		"latitude": "42-10-47.1 N",
		"longitude": "82-55-3 W",
		"state": "",
		"artcc": "ZOB",
		"type": "RNAV",
		"updated": "04/13/2018"
	},
	{
		"name": "FEPUG",
		"latitude": "42-55-51.34 N",
		"longitude": "77-50-6.62 W",
		"state": "NEW YORK",
		"artcc": "ZOB",
		"type": "RP",
		"updated": "ROC*VOR/DME*224.55/13.30"
	},
	{
		"name": "FERRL",
		"latitude": "42-28-34.81 N",
		"longitude": "82-29-38.62 W",
		"state": "",
		"artcc": "ZOB",
		"type": "RNAV",
		"updated": "04/02/2018"
	},
	{
		"name": "FESEK",
		"latitude": "40-47-28.32 N",
		"longitude": "82-8-31.54 W",
		"state": "OHIO",
		"artcc": "ZOB",
		"type": "RNAV",
		"updated": "09/24/2009"
	},
	{
		"name": "FESOX",
		"latitude": "41-44-55.14 N",
		"longitude": "83-32-25.39 W",
		"state": "MICHIGAN",
		"artcc": "ZOB",
		"type": "RNAV",
		"updated": "06/12/2008"
	},
	{
		"name": "FESRI",
		"latitude": "39-25-17.72 N",
		"longitude": "82-11-5.73 W",
		"state": "OHIO",
		"artcc": "ZOB",
		"type": "RNAV",
		"updated": "10/05/2001"
	},
	{
		"name": "FESTO",
		"latitude": "41-6-46.16 N",
		"longitude": "81-59-28.61 W",
		"state": "OHIO",
		"artcc": "ZOB",
		"type": "RNAV",
		"updated": "09/17/2002"
	},
	{
		"name": "FESTR",
		"latitude": "41-6-27.23 N",
		"longitude": "83-8-53.09 W",
		"state": "OHIO",
		"artcc": "ZOB",
		"type": "RNAV",
		"updated": "05/12/2010"
	},
	{
		"name": "FETCH",
		"latitude": "41-12-1.46 N",
		"longitude": "80-35-46.64 W",
		"state": "OHIO",
		"artcc": "ZOB",
		"type": "RP",
		"updated": "ACO*VOR/DME*082.37"
	},
	{
		"name": "FETIB",
		"latitude": "40-52-48.32 N",
		"longitude": "79-43-9.35 W",
		"state": "PENNSYLVANIA",
		"artcc": "ZOB",
		"type": "RNAV",
		"updated": "05/03/2016"
	},
	{
		"name": "FETKU",
		"latitude": "41-24-44.9 N",
		"longitude": "78-25-18.15 W",
		"state": "PENNSYLVANIA",
		"artcc": "ZOB",
		"type": "RP",
		"updated": "OYM*LE*E CRS/4.13"
	},
	{
		"name": "FETUM",
		"latitude": "42-53-18.36 N",
		"longitude": "84-23-33.13 W",
		"state": "MICHIGAN",
		"artcc": "ZOB",
		"type": "RNAV",
		"updated": "07/09/2009"
	},
	{
		"name": "FEWGA",
		"latitude": "40-11-14.04 N",
		"longitude": "80-35-53.23 W",
		"state": "WEST VIRGINIA",
		"artcc": "ZOB",
		"type": "RNAV",
		"updated": "10/26/2009"
	},
	{
		"name": "FEYPU",
		"latitude": "40-45-55.75 N",
		"longitude": "80-25-32.43 W",
		"state": "PENNSYLVANIA",
		"artcc": "ZOB",
		"type": "RNAV",
		"updated": "04/28/2010"
	},
	{
		"name": "FFITT",
		"latitude": "42-34-30.37 N",
		"longitude": "83-13-43.64 W",
		"state": "MICHIGAN",
		"artcc": "ZOB",
		"type": "RNAV",
		"updated": "04/17/2018"
	},
	{
		"name": "FFORK",
		"latitude": "42-5-15.28 N",
		"longitude": "83-17-48.37 W",
		"state": "MICHIGAN",
		"artcc": "ZOB",
		"type": "RNAV",
		"updated": "03/29/2018"
	},
	{
		"name": "FIBAL",
		"latitude": "40-48-55.12 N",
		"longitude": "79-41-50.55 W",
		"state": "PENNSYLVANIA",
		"artcc": "ZOB",
		"type": "RNAV",
		"updated": "10/02/2014"
	},
	{
		"name": "FIBIN",
		"latitude": "43-9-24.34 N",
		"longitude": "83-38-0.44 W",
		"state": "MICHIGAN",
		"artcc": "ZOB",
		"type": "RNAV",
		"updated": "06/19/2009"
	},
	{
		"name": "FIDBA",
		"latitude": "43-4-7.65 N",
		"longitude": "77-43-10.97 W",
		"state": "NEW YORK",
		"artcc": "ZOB",
		"type": "RNAV",
		"updated": "03/24/2010"
	},
	{
		"name": "FIDIN",
		"latitude": "41-26-30.02 N",
		"longitude": "81-48-26.66 W",
		"state": "OHIO",
		"artcc": "ZOB",
		"type": "RP",
		"updated": "PVY*LD*057.95/2.08"
	},
	{
		"name": "FIGEB",
		"latitude": "41-37-18.84 N",
		"longitude": "80-8-59.52 W",
		"state": "PENNSYLVANIA",
		"artcc": "ZOB",
		"type": "RNAV",
		"updated": "04/14/2004"
	},
	{
		"name": "FIGIV",
		"latitude": "41-4-4.3 N",
		"longitude": "78-29-14.99 W",
		"state": "PENNSYLVANIA",
		"artcc": "ZOB",
		"type": "RNAV",
		"updated": "07/23/2012"
	},
	{
		"name": "FIGUX",
		"latitude": "39-27-11.88 N",
		"longitude": "83-21-35.96 W",
		"state": "OHIO",
		"artcc": "ZOB",
		"type": "RNAV",
		"updated": "10/09/2001"
	},
	{
		"name": "FIITE",
		"latitude": "41-4-12.18 N",
		"longitude": "80-56-26.95 W",
		"state": "OHIO",
		"artcc": "ZOB",
		"type": "RNAV",
		"updated": "03/05/2018"
	},
	{
		"name": "FIKEP",
		"latitude": "40-57-43.2 N",
		"longitude": "80-44-2.26 W",
		"state": "OHIO",
		"artcc": "ZOB",
		"type": "RNAV",
		"updated": "04/15/2010"
	},
	{
		"name": "FIKIB",
		"latitude": "43-19-30.69 N",
		"longitude": "84-41-23.83 W",
		"state": "MICHIGAN",
		"artcc": "ZOB",
		"type": "RP",
		"updated": "MOP*VOR/DME*178.38/17.97"
	},
	{
		"name": "FIKTA",
		"latitude": "42-58-59.67 N",
		"longitude": "84-4-48.46 W",
		"state": "MICHIGAN",
		"artcc": "ZOB",
		"type": "RNAV",
		"updated": "08/11/2008"
	},
	{
		"name": "FILKO",
		"latitude": "43-30-24.89 N",
		"longitude": "84-43-7.63 W",
		"state": "MICHIGAN",
		"artcc": "ZOB",
		"type": "RP",
		"updated": "MOP*VOR/DME*178.38/7.00"
	},
	{
		"name": "FIMOL",
		"latitude": "41-25-38.93 N",
		"longitude": "82-6-11.13 W",
		"state": "OHIO",
		"artcc": "ZOB",
		"type": "RNAV",
		"updated": "05/10/2010"
	},
	{
		"name": "FIMON",
		"latitude": "41-4-56.08 N",
		"longitude": "81-29-9.51 W",
		"state": "OHIO",
		"artcc": "ZOB",
		"type": "RNAV",
		"updated": "11/30/2017"
	},
	{
		"name": "FIMTA",
		"latitude": "40-2-54.46 N",
		"longitude": "82-54-28.8 W",
		"state": "OHIO",
		"artcc": "ZOB",
		"type": "RP",
		"updated": "10/09/2001"
	},
	{
		"name": "FINEX",
		"latitude": "42-48-46.6 N",
		"longitude": "82-49-47.9 W",
		"state": "MICHIGAN",
		"artcc": "ZOB",
		"type": "MR",
		"updated": "MTC*TACAN*/12.00"
	},
	{
		"name": "FIRAD",
		"latitude": "41-0-37.38 N",
		"longitude": "78-46-12.51 W",
		"state": "PENNSYLVANIA",
		"artcc": "ZOB",
		"type": "RNAV",
		"updated": "02/21/2017"
	},
	{
		"name": "FIRME",
		"latitude": "41-54-6.46 N",
		"longitude": "83-1-45.98 W",
		"state": "",
		"artcc": "ZOB",
		"type": "RP",
		"updated": "DXO*VOR/DME*146.98/24.00"
	},
	{
		"name": "FIROD",
		"latitude": "39-55-9.96 N",
		"longitude": "79-48-51.01 W",
		"state": "PENNSYLVANIA",
		"artcc": "ZOB",
		"type": "RNAV",
		"updated": "05/03/2016"
	},
	{
		"name": "FISKU",
		"latitude": "42-46-11.63 N",
		"longitude": "83-37-33.87 W",
		"state": "MICHIGAN",
		"artcc": "ZOB",
		"type": "RNAV",
		"updated": "06/19/2009"
	},
	{
		"name": "FISMU",
		"latitude": "41-49-31 N",
		"longitude": "80-40-13.94 W",
		"state": "OHIO",
		"artcc": "ZOB",
		"type": "RNAV",
		"updated": "02/13/2004"
	},
	{
		"name": "FISOD",
		"latitude": "43-32-4.08 N",
		"longitude": "84-27-59.18 W",
		"state": "MICHIGAN",
		"artcc": "ZOB",
		"type": "RNAV",
		"updated": "06/19/2009"
	},
	{
		"name": "FISRA",
		"latitude": "41-42-44.25 N",
		"longitude": "80-16-59.79 W",
		"state": "PENNSYLVANIA",
		"artcc": "ZOB",
		"type": "RNAV",
		"updated": "02/21/2017"
	},
	{
		"name": "FITBA",
		"latitude": "41-16-32.2 N",
		"longitude": "79-31-21.1 W",
		"state": "PENNSYLVANIA",
		"artcc": "ZOB",
		"type": "RNAV",
		"updated": "02/21/2017"
	},
	{
		"name": "FITIX",
		"latitude": "41-10-32.82 N",
		"longitude": "79-53-24 W",
		"state": "PENNSYLVANIA",
		"artcc": "ZOB",
		"type": "RNAV",
		"updated": "10/02/2014"
	},
	{
		"name": "FITRO",
		"latitude": "39-10-21.84 N",
		"longitude": "84-29-27.84 W",
		"state": "OHIO",
		"artcc": "ZOB",
		"type": "RNAV",
		"updated": "10/22/2015"
	},
	{
		"name": "FITUM",
		"latitude": "39-1-50.19 N",
		"longitude": "84-8-13.77 W",
		"state": "OHIO",
		"artcc": "ZOB",
		"type": "RNAV",
		"updated": "10/08/2015"
	},
	{
		"name": "FIVEG",
		"latitude": "40-52-42.32 N",
		"longitude": "80-34-33.62 W",
		"state": "OHIO",
		"artcc": "ZOB",
		"type": "RNAV",
		"updated": "08/24/2007"
	},
	{
		"name": "FIVMO",
		"latitude": "41-27-15.82 N",
		"longitude": "81-37-29.83 W",
		"state": "OHIO",
		"artcc": "ZOB",
		"type": "RNAV",
		"updated": "02/11/2014"
	},
	{
		"name": "FIXUS",
		"latitude": "42-59-12.37 N",
		"longitude": "78-1-47.66 W",
		"state": "NEW YORK",
		"artcc": "ZOB",
		"type": "RP",
		"updated": "ROC*VOR/DME*255.51/17.57"
	},
	{
		"name": "FLIPE",
		"latitude": "43-19-45.72 N",
		"longitude": "83-58-36.71 W",
		"state": "MICHIGAN",
		"artcc": "ZOB",
		"type": "RNAV",
		"updated": "03/30/2018"
	},
	{
		"name": "FLOES",
		"latitude": "41-46-45.78 N",
		"longitude": "80-41-10.22 W",
		"state": "OHIO",
		"artcc": "ZOB",
		"type": "WP",
		"updated": "JFN*VOR/DME*072.46/3.00"
	},
	{
		"name": "FLURY",
		"latitude": "40-20-30.75 N",
		"longitude": "80-13-50.72 W",
		"state": "PENNSYLVANIA",
		"artcc": "ZOB",
		"type": "RNAV",
		"updated": "10/26/2009"
	},
	{
		"name": "FOBER",
		"latitude": "42-52-9.96 N",
		"longitude": "83-54-35.47 W",
		"state": "MICHIGAN",
		"artcc": "ZOB",
		"type": "RNAV",
		"updated": "08/11/2008"
	},
	{
		"name": "FODAS",
		"latitude": "40-42-57.33 N",
		"longitude": "80-14-39.91 W",
		"state": "PENNSYLVANIA",
		"artcc": "ZOB",
		"type": "RNAV",
		"updated": "10/02/2014"
	},
	{
		"name": "FOGLO",
		"latitude": "42-9-22.81 N",
		"longitude": "79-20-45.4 W",
		"state": "NEW YORK",
		"artcc": "ZOB",
		"type": "RNAV",
		"updated": "04/14/2004"
	},
	{
		"name": "FOLIX",
		"latitude": "41-33-29.93 N",
		"longitude": "80-13-56.71 W",
		"state": "PENNSYLVANIA",
		"artcc": "ZOB",
		"type": "RNAV",
		"updated": "04/14/2004"
	},
	{
		"name": "FOLLO",
		"latitude": "42-13-28.33 N",
		"longitude": "84-7-20.71 W",
		"state": "MICHIGAN",
		"artcc": "ZOB",
		"type": "RNAV",
		"updated": "03/28/2018"
	},
	{
		"name": "FOLNY",
		"latitude": "41-25-47.7 N",
		"longitude": "84-33-42.18 W",
		"state": "OHIO",
		"artcc": "ZOB",
		"type": "RNAV",
		"updated": "02/09/2018"
	},
	{
		"name": "FOLOX",
		"latitude": "40-29-14.17 N",
		"longitude": "80-8-53.05 W",
		"state": "PENNSYLVANIA",
		"artcc": "ZOB",
		"type": "RNAV",
		"updated": "08/08/2005"
	},
	{
		"name": "FOMPU",
		"latitude": "40-52-46.19 N",
		"longitude": "80-55-42.71 W",
		"state": "OHIO",
		"artcc": "ZOB",
		"type": "RNAV",
		"updated": "04/15/2010"
	},
	{
		"name": "FOMSA",
		"latitude": "40-21-21.79 N",
		"longitude": "80-36-58.98 W",
		"state": "OHIO",
		"artcc": "ZOB",
		"type": "RNAV",
		"updated": "08/12/2008"
	},
	{
		"name": "FOMTI",
		"latitude": "40-4-58.05 N",
		"longitude": "78-44-58.36 W",
		"state": "PENNSYLVANIA",
		"artcc": "ZOB",
		"type": "RNAV",
		"updated": "07/08/2009"
	},
	{
		"name": "FONKO",
		"latitude": "43-2-46.95 N",
		"longitude": "84-0-47.6 W",
		"state": "MICHIGAN",
		"artcc": "ZOB",
		"type": "RNAV",
		"updated": "06/19/2009"
	},
	{
		"name": "FONRU",
		"latitude": "41-2-36.77 N",
		"longitude": "80-27-20.25 W",
		"state": "PENNSYLVANIA",
		"artcc": "ZOB",
		"type": "RNAV",
		"updated": "04/28/2010"
	},
	{
		"name": "FONTZ",
		"latitude": "39-29-37.63 N",
		"longitude": "80-7-15.41 W",
		"state": "WEST VIRGINIA",
		"artcc": "ZOB",
		"type": "RP",
		"updated": "MGW*VORTAC*257.77/12.67"
	},
	{
		"name": "FOOLD",
		"latitude": "41-24-38.43 N",
		"longitude": "81-42-37.86 W",
		"state": "OHIO",
		"artcc": "ZOB",
		"type": "RP",
		"updated": "PXP*LD*101.32/6.60"
	},
	{
		"name": "FOREY",
		"latitude": "41-49-39.56 N",
		"longitude": "82-39-15.7 W",
		"state": "",
		"artcc": "ZOB",
		"type": "RNAV",
		"updated": "03/27/2018"
	},
	{
		"name": "FORIG",
		"latitude": "41-4-17.15 N",
		"longitude": "79-14-11.57 W",
		"state": "PENNSYLVANIA",
		"artcc": "ZOB",
		"type": "RP",
		"updated": "CIP*VOR/DME*120.00/11.00"
	},
	{
		"name": "FORMM",
		"latitude": "40-29-34.73 N",
		"longitude": "80-22-5.9 W",
		"state": "PENNSYLVANIA",
		"artcc": "ZOB",
		"type": "RNAV",
		"updated": "09/03/2008"
	},
	{
		"name": "FORMN",
		"latitude": "42-51-27.21 N",
		"longitude": "78-47-47.37 W",
		"state": "NEW YORK",
		"artcc": "ZOB",
		"type": "RNAV",
		"updated": "07/25/2014"
	},
	{
		"name": "FOROX",
		"latitude": "43-40-13.44 N",
		"longitude": "83-53-12.89 W",
		"state": "MICHIGAN",
		"artcc": "ZOB",
		"type": "RNAV",
		"updated": "12/01/2017"
	},
	{
		"name": "FOSAG",
		"latitude": "39-53-7.67 N",
		"longitude": "79-2-21.63 W",
		"state": "PENNSYLVANIA",
		"artcc": "ZOB",
		"type": "RNAV",
		"updated": "11/10/2016"
	},
	{
		"name": "FOSGO",
		"latitude": "40-55-34.95 N",
		"longitude": "81-46-24.88 W",
		"state": "OHIO",
		"artcc": "ZOB",
		"type": "RNAV",
		"updated": "03/28/2018"
	},
	{
		"name": "FOTBL",
		"latitude": "42-59-28.7 N",
		"longitude": "78-48-22.02 W",
		"state": "NEW YORK",
		"artcc": "ZOB",
		"type": "RNAV",
		"updated": "07/25/2014"
	},
	{
		"name": "FOUTN",
		"latitude": "42-21-7.91 N",
		"longitude": "79-34-32.11 W",
		"state": "NEW YORK",
		"artcc": "ZOB",
		"type": "RNAV",
		"updated": "06/06/2017"
	},
	{
		"name": "FOXAT",
		"latitude": "42-5-15.02 N",
		"longitude": "79-5-31.27 W",
		"state": "NEW YORK",
		"artcc": "ZOB",
		"type": "RNAV",
		"updated": "02/14/2002"
	},
	{
		"name": "FOXEE",
		"latitude": "41-11-37.87 N",
		"longitude": "80-29-44.09 W",
		"state": "PENNSYLVANIA",
		"artcc": "ZOB",
		"type": "RNAV",
		"updated": "09/20/2014"
	},
	{
		"name": "FOYYU",
		"latitude": "41-12-59.73 N",
		"longitude": "84-15-13.13 W",
		"state": "OHIO",
		"artcc": "ZOB",
		"type": "RNAV",
		"updated": "02/09/2018"
	},
	{
		"name": "FRDOM",
		"latitude": "41-13-3.19 N",
		"longitude": "81-8-14.08 W",
		"state": "OHIO",
		"artcc": "ZOB",
		"type": "RNAV",
		"updated": "01/31/2014"
	},
	{
		"name": "FRIND",
		"latitude": "41-27-10.04 N",
		"longitude": "81-58-32.32 W",
		"state": "OHIO",
		"artcc": "ZOB",
		"type": "RNAV",
		"updated": "04/18/2018"
	},
	{
		"name": "FRNDS",
		"latitude": "42-13-26.53 N",
		"longitude": "82-53-8.76 W",
		"state": "",
		"artcc": "ZOB",
		"type": "RP",
		"updated": "DXO*VOR/DME*/21.45"
	},
	{
		"name": "FRSST",
		"latitude": "42-34-44.38 N",
		"longitude": "84-55-45.57 W",
		"state": "MICHIGAN",
		"artcc": "ZOB",
		"type": "RNAV",
		"updated": "03/28/2014"
	},
	{
		"name": "FUDDJ",
		"latitude": "42-30-4.46 N",
		"longitude": "83-9-46.01 W",
		"state": "MICHIGAN",
		"artcc": "ZOB",
		"type": "RP",
		"updated": "JKI*LD*035.69/18.65"
	},
	{
		"name": "FURIX",
		"latitude": "40-17-43.08 N",
		"longitude": "79-33-40.53 W",
		"state": "PENNSYLVANIA",
		"artcc": "ZOB",
		"type": "RP",
		"updated": "JST*VOR/DME*274.03/33.40"
	},
	{
		"name": "FUZED",
		"latitude": "41-17-10.03 N",
		"longitude": "82-1-2.49 W",
		"state": "OHIO",
		"artcc": "ZOB",
		"type": "RNAV",
		"updated": "04/18/2018"
	},
	{
		"name": "FWBKB",
		"latitude": "42-32-50.2 N",
		"longitude": "79-40-49.85 W",
		"state": "NEW YORK",
		"artcc": "ZOB",
		"type": "CN",
		"updated": "06/12/2002"
	}
]
