	{
		"name": "GAABE",
		"latitude": "41-6-26.66 N",
		"longitude": "81-54-18.87 W",
		"state": "OHIO",
		"artcc": "ZOB",
		"type": "RP",
		"updated": "DJB*VOR/DME*147.20/19.00",
	},
	{
		"name": "GAAGE",
		"latitude": "42-5-36.52 N",
		"longitude": "83-2-42.14 W",
		"state": "",
		"artcc": "ZOB",
		"type": "RP",
		"updated": "DXO*VOR/DME*122.46/16.05",
	},
	{
		"name": "GADAV",
		"latitude": "42-42-37.6 N",
		"longitude": "82-28-46.4 W",
		"state": "",
		"artcc": "ZOB",
		"type": "RNAV",
		"updated": "08/01/2017",
	},
	{
		"name": "GAGZI",
		"latitude": "41-9-33.59 N",
		"longitude": "83-32-56.23 W",
		"state": "OHIO",
		"artcc": "ZOB",
		"type": "RNAV",
		"updated": "11/07/2014",
	},
	{
		"name": "GAHGU",
		"latitude": "41-43-15.94 N",
		"longitude": "83-33-33.89 W",
		"state": "OHIO",
		"artcc": "ZOB",
		"type": "RNAV",
		"updated": "02/20/2014",
	},
	{
		"name": "GAKDE",
		"latitude": "40-1-10.5 N",
		"longitude": "78-54-15.48 W",
		"state": "PENNSYLVANIA",
		"artcc": "ZOB",
		"type": "RNAV",
		"updated": "07/24/2012",
	},
	{
		"name": "GAKRE",
		"latitude": "41-47-37.73 N",
		"longitude": "83-17-10.84 W",
		"state": "OHIO",
		"artcc": "ZOB",
		"type": "RNAV",
		"updated": "06/12/2008",
	},
	{
		"name": "GALLS",
		"latitude": "39-49-34.35 N",
		"longitude": "80-1-9.86 W",
		"state": "PENNSYLVANIA",
		"artcc": "ZOB",
		"type": "RP",
		"updated": "IHD*VORTAC*260.00/31.79",
	},
	{
		"name": "GANEC",
		"latitude": "40-29-22.3 N",
		"longitude": "78-10-47.57 W",
		"state": "PENNSYLVANIA",
		"artcc": "ZOB",
		"type": "RNAV",
		"updated": "04/06/2005",
	},
	{
		"name": "GANIS",
		"latitude": "43-0-38.1 N",
		"longitude": "78-53-48.84 W",
		"state": "NEW YORK",
		"artcc": "ZOB",
		"type": "RP",
		"updated": "BUF*VOR/DME*302.00/12.07",
	},
	{
		"name": "GANKY",
		"latitude": "41-40-50.32 N",
		"longitude": "83-42-51.22 W",
		"state": "OHIO",
		"artcc": "ZOB",
		"type": "RNAV",
		"updated": "02/06/2014",
	},
	{
		"name": "GAPVE",
		"latitude": "40-27-36.09 N",
		"longitude": "82-32-34.7 W",
		"state": "OHIO",
		"artcc": "ZOB",
		"type": "RNAV",
		"updated": "11/07/2014",
	},
	{
		"name": "GARDN",
		"latitude": "40-3-3 N",
		"longitude": "78-54-17 W",
		"state": "PENNSYLVANIA",
		"artcc": "ZOB",
		"type": "RNAV",
		"updated": "08/31/2011",
	},
	{
		"name": "GASXI",
		"latitude": "41-25-30.19 N",
		"longitude": "84-40-51.07 W",
		"state": "OHIO",
		"artcc": "ZOB",
		"type": "RNAV",
		"updated": "12/21/2010",
	},
	{
		"name": "GAVEY",
		"latitude": "41-12-14.81 N",
		"longitude": "83-39-53.16 W",
		"state": "OHIO",
		"artcc": "ZOB",
		"type": "RNAV",
		"updated": "06/28/2007",
	},
	{
		"name": "GAZJY",
		"latitude": "41-24-42.42 N",
		"longitude": "82-51-51.04 W",
		"state": "OHIO",
		"artcc": "ZOB",
		"type": "RNAV",
		"updated": "02/09/2018",
	},
	{
		"name": "GEAGA",
		"latitude": "41-33-57.99 N",
		"longitude": "80-55-40.72 W",
		"state": "OHIO",
		"artcc": "ZOB",
		"type": "RP",
		"updated": "YNG*VORTAC*326.05",
	},
	{
		"name": "GEDDY",
		"latitude": "40-32-11.21 N",
		"longitude": "81-49-35.66 W",
		"state": "OHIO",
		"artcc": "ZOB",
		"type": "RNAV",
		"updated": "03/29/2018",
	},
	{
		"name": "GEETR",
		"latitude": "42-17-9.86 N",
		"longitude": "83-19-19.85 W",
		"state": "MICHIGAN",
		"artcc": "ZOB",
		"type": "RP",
		"updated": "JKI*LD*035.69/3.92",
	},
	{
		"name": "GEFRC",
		"latitude": "41-47-54.3 N",
		"longitude": "81-28-55.11 W",
		"state": "OHIO",
		"artcc": "ZOB",
		"type": "RNAV",
		"updated": "09/21/2007",
	},
	{
		"name": "GELIF",
		"latitude": "39-55-20.14 N",
		"longitude": "80-35-59.12 W",
		"state": "WEST VIRGINIA",
		"artcc": "ZOB",
		"type": "RNAV",
		"updated": "06/27/2017",
	},
	{
		"name": "GEMNI",
		"latitude": "41-43-35 N",
		"longitude": "82-46-49 W",
		"state": "OHIO",
		"artcc": "ZOB",
		"type": "RP",
		"updated": "DXO*VOR/DME*143.85/39.26",
	},
	{
		"name": "GEOFF",
		"latitude": "40-59-33.9 N",
		"longitude": "80-57-32.01 W",
		"state": "OHIO",
		"artcc": "ZOB",
		"type": "RP",
		"updated": "ACO*VOR/DME*126.00/13.00",
	},
	{
		"name": "GEPPE",
		"latitude": "41-13-31.21 N",
		"longitude": "79-58-57.8 W",
		"state": "PENNSYLVANIA",
		"artcc": "ZOB",
		"type": "RNAV",
		"updated": "01/18/2018",
	},
	{
		"name": "GERBS",
		"latitude": "41-46-39.86 N",
		"longitude": "84-25-30.2 W",
		"state": "MICHIGAN",
		"artcc": "ZOB",
		"type": "RP",
		"updated": "GIJ*VORTAC*089.00/85.00",
	},
	{
		"name": "GERVE",
		"latitude": "41-51-51.48 N",
		"longitude": "78-43-31.4 W",
		"state": "PENNSYLVANIA",
		"artcc": "ZOB",
		"type": "RNAV",
		"updated": "08/12/2010",
	},
	{
		"name": "GETLY",
		"latitude": "39-55-21.16 N",
		"longitude": "82-54-54.39 W",
		"state": "OHIO",
		"artcc": "ZOB",
		"type": "RNAV",
		"updated": "10/02/2001",
	},
	{
		"name": "GETTT",
		"latitude": "41-24-27.17 N",
		"longitude": "81-38-27.91 W",
		"state": "OHIO",
		"artcc": "ZOB",
		"type": "RP",
		"updated": "PXP*LD*101.32/9.74",
	},
	{
		"name": "GGUCE",
		"latitude": "42-42-24.64 N",
		"longitude": "80-53-26.73 W",
		"state": "",
		"artcc": "ZOB",
		"type": "RNAV",
		"updated": "04/02/2018",
	},
	{
		"name": "GGUSS",
		"latitude": "41-51-41.65 N",
		"longitude": "83-27-24.91 W",
		"state": "MICHIGAN",
		"artcc": "ZOB",
		"type": "RNAV",
		"updated": "04/17/2018",
	},
	{
		"name": "GIBBE",
		"latitude": "42-31-43.17 N",
		"longitude": "77-0-3.39 W",
		"state": "NEW YORK",
		"artcc": "ZOB",
		"type": "RP",
		"updated": "ULW*VOR/DME*014.33/26.08",
	},
	{
		"name": "GICEV",
		"latitude": "43-30-20.06 N",
		"longitude": "84-2-49.12 W",
		"state": "MICHIGAN",
		"artcc": "ZOB",
		"type": "RNAV",
		"updated": "12/01/2017",
	},
	{
		"name": "GIDXO",
		"latitude": "40-46-54.76 N",
		"longitude": "82-24-23.24 W",
		"state": "OHIO",
		"artcc": "ZOB",
		"type": "RNAV",
		"updated": "09/15/2004",
	},
	{
		"name": "GIGGY",
		"latitude": "42-23-49.6 N",
		"longitude": "82-34-39.27 W",
		"state": "",
		"artcc": "ZOB",
		"type": "RNAV",
		"updated": "04/03/2018",
	},
	{
		"name": "GILBA",
		"latitude": "40-59-56.82 N",
		"longitude": "83-52-29.04 W",
		"state": "OHIO",
		"artcc": "ZOB",
		"type": "RP",
		"updated": "FBC*VORTAC*297.99/6.00",
	},
	{
		"name": "GILKE",
		"latitude": "41-49-47.59 N",
		"longitude": "84-58-25.72 W",
		"state": "MICHIGAN",
		"artcc": "ZOB",
		"type": "RNAV",
		"updated": "10/30/2001",
	},
	{
		"name": "GILLS",
		"latitude": "41-53-7.06 N",
		"longitude": "81-51-0.96 W",
		"state": "OHIO",
		"artcc": "ZOB",
		"type": "RNAV",
		"updated": "03/30/2018",
	},
	{
		"name": "GIMMU",
		"latitude": "40-57-28.45 N",
		"longitude": "81-38-8.41 W",
		"state": "OHIO",
		"artcc": "ZOB",
		"type": "RNAV",
		"updated": "09/24/2009",
	},
	{
		"name": "GIVVE",
		"latitude": "39-37-51.84 N",
		"longitude": "79-54-55.38 W",
		"state": "WEST VIRGINIA",
		"artcc": "ZOB",
		"type": "RNAV",
		"updated": "12/18/2006",
	},
	{
		"name": "GIVVZ",
		"latitude": "42-34-21.02 N",
		"longitude": "83-3-48.55 W",
		"state": "MICHIGAN",
		"artcc": "ZOB",
		"type": "RNAV",
		"updated": "04/17/2018",
	},
	{
		"name": "GIYEK",
		"latitude": "41-47-17.58 N",
		"longitude": "80-39-31.9 W",
		"state": "OHIO",
		"artcc": "ZOB",
		"type": "RP",
		"updated": "JFN*VOR/DME*072.17/4.35",
	},
	{
		"name": "GLOZE",
		"latitude": "42-6-51.08 N",
		"longitude": "83-14-47.18 W",
		"state": "MICHIGAN",
		"artcc": "ZOB",
		"type": "RP",
		"updated": "YQG*VOR/DME*252.56/20.33",
	},
	{
		"name": "GLUTE",
		"latitude": "42-50-49.22 N",
		"longitude": "78-42-18.65 W",
		"state": "NEW YORK",
		"artcc": "ZOB",
		"type": "RNAV",
		"updated": "07/25/2014",
	},
	{
		"name": "GMOTR",
		"latitude": "42-28-50.54 N",
		"longitude": "82-48-37.07 W",
		"state": "MICHIGAN",
		"artcc": "ZOB",
		"type": "RNAV",
		"updated": "03/29/2018",
	},
	{
		"name": "GNDAY",
		"latitude": "41-19-31.94 N",
		"longitude": "81-48-35.92 W",
		"state": "OHIO",
		"artcc": "ZOB",
		"type": "RNAV",
		"updated": "03/29/2018",
	},
	{
		"name": "GNTRY",
		"latitude": "42-30-35 N",
		"longitude": "81-47-23 W",
		"state": "",
		"artcc": "ZOB",
		"type": "RNAV",
		"updated": "11/09/2016",
	},
	{
		"name": "GOALS",
		"latitude": "42-46-56.38 N",
		"longitude": "78-44-47.25 W",
		"state": "NEW YORK",
		"artcc": "ZOB",
		"type": "RNAV",
		"updated": "07/25/2014",
	},
	{
		"name": "GOGSE",
		"latitude": "42-47-59.43 N",
		"longitude": "78-48-33.33 W",
		"state": "NEW YORK",
		"artcc": "ZOB",
		"type": "RNAV",
		"updated": "06/27/2011",
	},
	{
		"name": "GOHMA",
		"latitude": "42-36-54.2 N",
		"longitude": "82-36-30.97 W",
		"state": "MICHIGAN",
		"artcc": "ZOB",
		"type": "RP",
		"updated": "YQG*VOR/DME*030.01/24.00",
	},
	{
		"name": "GOHST",
		"latitude": "42-35-40.11 N",
		"longitude": "82-49-21.78 W",
		"state": "MICHIGAN",
		"artcc": "ZOB",
		"type": "RNAV",
		"updated": "03/29/2018",
	},
	{
		"name": "GOLDH",
		"latitude": "40-20-33.33 N",
		"longitude": "80-17-57.4 W",
		"state": "PENNSYLVANIA",
		"artcc": "ZOB",
		"type": "RNAV",
		"updated": "10/26/2009",
	},
	{
		"name": "GOLEC",
		"latitude": "41-56-42.94 N",
		"longitude": "79-41-45.05 W",
		"state": "PENNSYLVANIA",
		"artcc": "ZOB",
		"type": "RNAV",
		"updated": "08/12/2010",
	},
	{
		"name": "GOMAC",
		"latitude": "42-18-40.06 N",
		"longitude": "82-54-32.37 W",
		"state": "",
		"artcc": "ZOB",
		"type": "RP",
		"updated": "YQG*VOR/DME*/5.10",
	},
	{
		"name": "GONER",
		"latitude": "40-57-56.38 N",
		"longitude": "84-12-3 W",
		"state": "OHIO",
		"artcc": "ZOB",
		"type": "RP",
		"updated": "FWA*VORTAC*096.70/44.87",
	},
	{
		"name": "GOODD",
		"latitude": "41-0-40.1 N",
		"longitude": "81-20-59.3 W",
		"state": "OHIO",
		"artcc": "ZOB",
		"type": "RNAV",
		"updated": "07/01/2010",
	},
	{
		"name": "GORNE",
		"latitude": "40-35-11.7 N",
		"longitude": "78-17-0.15 W",
		"state": "PENNSYLVANIA",
		"artcc": "ZOB",
		"type": "RNAV",
		"updated": "03/07/2005",
	},
	{
		"name": "GOSPL",
		"latitude": "42-4-16.73 N",
		"longitude": "79-3-10.4 W",
		"state": "NEW YORK",
		"artcc": "ZOB",
		"type": "RNAV",
		"updated": "02/14/2002",
	},
	{
		"name": "GOTTZ",
		"latitude": "41-1-22.84 N",
		"longitude": "81-16-7.86 W",
		"state": "OHIO",
		"artcc": "ZOB",
		"type": "RNAV",
		"updated": "03/05/2018",
	},
	{
		"name": "GOURD",
		"latitude": "40-25-50.33 N",
		"longitude": "83-9-24.22 W",
		"state": "OHIO",
		"artcc": "ZOB",
		"type": "RP",
		"updated": "MFD*VORTAC*227.72/36.84",
	},
	{
		"name": "GOYBU",
		"latitude": "42-49-18.13 N",
		"longitude": "84-19-28.71 W",
		"state": "MICHIGAN",
		"artcc": "ZOB",
		"type": "RNAV",
		"updated": "07/11/2009",
	},
	{
		"name": "GOYER",
		"latitude": "43-13-44.53 N",
		"longitude": "77-22-46.81 W",
		"state": "NEW YORK",
		"artcc": "ZOB",
		"type": "RNAV",
		"updated": "06/18/2008",
	},
	{
		"name": "GOYPE",
		"latitude": "42-18-14.38 N",
		"longitude": "83-17-46.61 W",
		"state": "MICHIGAN",
		"artcc": "ZOB",
		"type": "RNAV",
		"updated": "08/11/2008",
	},
	{
		"name": "GRACC",
		"latitude": "41-15-24.18 N",
		"longitude": "78-41-57.13 W",
		"state": "PENNSYLVANIA",
		"artcc": "ZOB",
		"type": "RP",
		"updated": "DUJ*LS*072.43",
	},
	{
		"name": "GRACE",
		"latitude": "40-51-24.66 N",
		"longitude": "79-48-2.12 W",
		"state": "PENNSYLVANIA",
		"artcc": "ZOB",
		"type": "RP",
		"updated": "CIP*VOR/DME*228.00/23.31",
	},
	{
		"name": "GRAHM",
		"latitude": "39-58-6.58 N",
		"longitude": "77-52-4.07 W",
		"state": "PENNSYLVANIA",
		"artcc": "ZOB",
		"type": "RP",
		"updated": "CYN*VORTAC*284.37/158.93",
	},
	{
		"name": "GRAYT",
		"latitude": "42-54-54.23 N",
		"longitude": "83-36-7.1 W",
		"state": "MICHIGAN",
		"artcc": "ZOB",
		"type": "RNAV",
		"updated": "03/29/2018",
	},
	{
		"name": "GRBAC",
		"latitude": "42-1-26.07 N",
		"longitude": "83-44-7.38 W",
		"state": "MICHIGAN",
		"artcc": "ZOB",
		"type": "RNAV",
		"updated": "10/06/2016",
	},
	{
		"name": "GRDCY",
		"latitude": "42-30-18.98 N",
		"longitude": "83-10-48.83 W",
		"state": "MICHIGAN",
		"artcc": "ZOB",
		"type": "RP",
		"updated": "BZB*LD*033.19/20.50",
	},
	{
		"name": "GRHMM",
		"latitude": "41-31-20.64 N",
		"longitude": "81-40-45.75 W",
		"state": "OHIO",
		"artcc": "ZOB",
		"type": "RP",
		"updated": "PVY*LD*057.95/9.61",
	},
	{
		"name": "GROHL",
		"latitude": "41-10-36.32 N",
		"longitude": "81-59-5.68 W",
		"state": "OHIO",
		"artcc": "ZOB",
		"type": "RNAV",
		"updated": "04/16/2018",
	},
	{
		"name": "GROZA",
		"latitude": "41-27-18 N",
		"longitude": "81-47-10.69 W",
		"state": "OHIO",
		"artcc": "ZOB",
		"type": "RP",
		"updated": "PVY*LD*057.95/3.32",
	},
	{
		"name": "GRUNI",
		"latitude": "43-37-4.06 N",
		"longitude": "84-27-50.9 W",
		"state": "MICHIGAN",
		"artcc": "ZOB",
		"type": "RNAV",
		"updated": "06/19/2009",
	},
	{
		"name": "GRUNZ",
		"latitude": "40-16-27.5 N",
		"longitude": "79-56-58.2 W",
		"state": "PENNSYLVANIA",
		"artcc": "ZOB",
		"type": "RP",
		"updated": "TQW*LD*145.40/18.44",
	},
	{
		"name": "GUBLE",
		"latitude": "40-29-13.1 N",
		"longitude": "80-8-13.56 W",
		"state": "PENNSYLVANIA",
		"artcc": "ZOB",
		"type": "RNAV",
		"updated": "07/08/2003",
	},
	{
		"name": "GUCYE",
		"latitude": "41-55-8.86 N",
		"longitude": "84-32-22.74 W",
		"state": "MICHIGAN",
		"artcc": "ZOB",
		"type": "RNAV",
		"updated": "06/10/2013",
	},
	{
		"name": "GUGRE",
		"latitude": "42-13-8.43 N",
		"longitude": "83-14-18.21 W",
		"state": "MICHIGAN",
		"artcc": "ZOB",
		"type": "RP",
		"updated": "DXO*VOR/DME*/5.73",
	},
	{
		"name": "GUGTE",
		"latitude": "40-20-55.55 N",
		"longitude": "79-41-51.77 W",
		"state": "PENNSYLVANIA",
		"artcc": "ZOB",
		"type": "RP",
		"updated": "07/24/2012",
	},
	{
		"name": "GUINZ",
		"latitude": "40-24-0.62 N",
		"longitude": "80-9-11.02 W",
		"state": "PENNSYLVANIA",
		"artcc": "ZOB",
		"type": "RNAV",
		"updated": "10/26/2009",
	},
	{
		"name": "GUKBE",
		"latitude": "42-3-7.75 N",
		"longitude": "79-28-53.86 W",
		"state": "NEW YORK",
		"artcc": "ZOB",
		"type": "RNAV",
		"updated": "11/10/2009",
	},
	{
		"name": "GULKY",
		"latitude": "41-37-41.07 N",
		"longitude": "82-50-8.81 W",
		"state": "OHIO",
		"artcc": "ZOB",
		"type": "RNAV",
		"updated": "07/28/2014",
	},
	{
		"name": "GUMDE",
		"latitude": "43-6-33.99 N",
		"longitude": "78-55-14.84 W",
		"state": "NEW YORK",
		"artcc": "ZOB",
		"type": "MR",
		"updated": "IAG*TACAN*106.11/1.74",
	},
	{
		"name": "GURKE",
		"latitude": "40-23-0.54 N",
		"longitude": "78-45-39.38 W",
		"state": "PENNSYLVANIA",
		"artcc": "ZOB",
		"type": "RNAV",
		"updated": "07/24/2012",
	},
	{
		"name": "GURVE",
		"latitude": "42-57-2.54 N",
		"longitude": "83-53-4.81 W",
		"state": "MICHIGAN",
		"artcc": "ZOB",
		"type": "RNAV",
		"updated": "08/11/2008",
	},
	{
		"name": "GUTTR",
		"latitude": "41-53-41.05 N",
		"longitude": "83-19-23.15 W",
		"state": "MICHIGAN",
		"artcc": "ZOB",
		"type": "RNAV",
		"updated": "03/29/2018",
	},
	{
		"name": "GUVYE",
		"latitude": "41-11-26.18 N",
		"longitude": "83-30-24.26 W",
		"state": "OHIO",
		"artcc": "ZOB",
		"type": "RNAV",
		"updated": "05/14/2012",
	},
	{
		"name": "GUYEB",
		"latitude": "41-29-38.97 N",
		"longitude": "84-6-17.27 W",
		"state": "OHIO",
		"artcc": "ZOB",
		"type": "MR",
		"updated": "TOL*TACAN*/15.00",
	},
	{
		"name": "GUYVE",
		"latitude": "42-25-26.28 N",
		"longitude": "83-13-12.61 W",
		"state": "MICHIGAN",
		"artcc": "ZOB",
		"type": "RP",
		"updated": "JKI*LD*035.69/13.36",
	},
	{
		"name": "GUZVY",
		"latitude": "42-40-21.35 N",
		"longitude": "83-9-34.28 W",
		"state": "MICHIGAN",
		"artcc": "ZOB",
		"type": "RNAV",
		"updated": "09/15/2009",
	},
