	{
		"name": "JAAIN",
		"latitude": "41-20-42.4 N",
		"longitude": "81-46-26.46 W",
		"state": "OHIO",
		"artcc": "ZOB",
		"type": "RNAV",
		"updated": "04/18/2018",
	},
	{
		"name": "JAAJA",
		"latitude": "42-40-0 N",
		"longitude": "81-16-0 W",
		"state": "",
		"artcc": "ZOB",
		"type": "RNAV",
		"updated": "08/27/2013",
	},
	{
		"name": "JABET",
		"latitude": "43-1-52.45 N",
		"longitude": "78-40-6.43 W",
		"state": "NEW YORK",
		"artcc": "ZOB",
		"type": "RNAV",
		"updated": "07/25/2014",
	},
	{
		"name": "JACCI",
		"latitude": "42-28-11.29 N",
		"longitude": "78-43-46.85 W",
		"state": "NEW YORK",
		"artcc": "ZOB",
		"type": "RNAV",
		"updated": "03/30/2018",
	},
	{
		"name": "JADAL",
		"latitude": "39-2-16.12 N",
		"longitude": "84-21-32.11 W",
		"state": "KENTUCKY",
		"artcc": "ZOB",
		"type": "RNAV",
		"updated": "10/08/2015",
	},
	{
		"name": "JAELO",
		"latitude": "41-54-17.08 N",
		"longitude": "84-20-58.89 W",
		"state": "MICHIGAN",
		"artcc": "ZOB",
		"type": "RP",
		"updated": "JXN*VOR/DME*172.08",
	},
	{
		"name": "JAGET",
		"latitude": "40-49-3.63 N",
		"longitude": "79-27-13.83 W",
		"state": "PENNSYLVANIA",
		"artcc": "ZOB",
		"type": "RNAV",
		"updated": "07/26/2016",
	},
	{
		"name": "JAGMI",
		"latitude": "42-58-29.55 N",
		"longitude": "83-28-59.92 W",
		"state": "MICHIGAN",
		"artcc": "ZOB",
		"type": "RNAV",
		"updated": "10/10/2008",
	},
	{
		"name": "JAGRI",
		"latitude": "41-22-24.59 N",
		"longitude": "81-32-28.55 W",
		"state": "OHIO",
		"artcc": "ZOB",
		"type": "RNAV",
		"updated": "01/29/2015",
	},
	{
		"name": "JAIBE",
		"latitude": "43-0-20.38 N",
		"longitude": "80-33-51.01 W",
		"state": "",
		"artcc": "ZOB",
		"type": "RNAV",
		"updated": "04/03/2018",
	},
	{
		"name": "JAKEE",
		"latitude": "41-17-30.83 N",
		"longitude": "82-1-42 W",
		"state": "OHIO",
		"artcc": "ZOB",
		"type": "RP",
		"updated": "MFD*VORTAC*047.98/36.00",
	},
	{
		"name": "JAKMA",
		"latitude": "40-27-35.21 N",
		"longitude": "80-10-46.86 W",
		"state": "PENNSYLVANIA",
		"artcc": "ZOB",
		"type": "RNAV",
		"updated": "07/10/2003",
	},
	{
		"name": "JAKNO",
		"latitude": "40-27-43.79 N",
		"longitude": "80-27-55.01 W",
		"state": "PENNSYLVANIA",
		"artcc": "ZOB",
		"type": "RNAV",
		"updated": "08/12/2008",
	},
	{
		"name": "JAKRR",
		"latitude": "43-14-12.31 N",
		"longitude": "77-0-37.2 W",
		"state": "NEW YORK",
		"artcc": "ZOB",
		"type": "RNAV",
		"updated": "04/25/2010",
	},
	{
		"name": "JALBI",
		"latitude": "40-0-30.38 N",
		"longitude": "83-6-1.73 W",
		"state": "OHIO",
		"artcc": "ZOB",
		"type": "RNAV",
		"updated": "10/02/2001",
	},
	{
		"name": "JALIR",
		"latitude": "41-42-8.76 N",
		"longitude": "84-59-36.58 W",
		"state": "INDIANA",
		"artcc": "ZOB",
		"type": "RNAV",
		"updated": "10/30/2001",
	},
	{
		"name": "JALVI",
		"latitude": "41-23-0.52 N",
		"longitude": "79-34-49.06 W",
		"state": "PENNSYLVANIA",
		"artcc": "ZOB",
		"type": "RNAV",
		"updated": "06/09/2016",
	},
	{
		"name": "JALWE",
		"latitude": "42-53-12.79 N",
		"longitude": "78-40-45.72 W",
		"state": "NEW YORK",
		"artcc": "ZOB",
		"type": "RNAV",
		"updated": "06/27/2011",
	},
	{
		"name": "JAMAB",
		"latitude": "40-42-14.58 N",
		"longitude": "80-9-28.56 W",
		"state": "PENNSYLVANIA",
		"artcc": "ZOB",
		"type": "RNAV",
		"updated": "10/02/2014",
	},
	{
		"name": "JAMJU",
		"latitude": "41-13-0.92 N",
		"longitude": "83-13-24.63 W",
		"state": "OHIO",
		"artcc": "ZOB",
		"type": "RNAV",
		"updated": "02/09/2018",
	},
	{
		"name": "JAMOM",
		"latitude": "41-27-19.61 N",
		"longitude": "81-40-17.32 W",
		"state": "OHIO",
		"artcc": "ZOB",
		"type": "RNAV",
		"updated": "02/11/2014",
	},
	{
		"name": "JAMOV",
		"latitude": "43-14-6.39 N",
		"longitude": "83-5-55.36 W",
		"state": "MICHIGAN",
		"artcc": "ZOB",
		"type": "RNAV",
		"updated": "03/01/2011",
	},
	{
		"name": "JANAK",
		"latitude": "41-58-26.27 N",
		"longitude": "83-24-56.74 W",
		"state": "MICHIGAN",
		"artcc": "ZOB",
		"type": "RNAV",
		"updated": "06/12/2008",
	},
	{
		"name": "JANAT",
		"latitude": "40-36-42.63 N",
		"longitude": "78-20-24.14 W",
		"state": "PENNSYLVANIA",
		"artcc": "ZOB",
		"type": "RNAV",
		"updated": "10/23/2014",
	},
	{
		"name": "JANDU",
		"latitude": "40-12-13.98 N",
		"longitude": "79-11-54.56 W",
		"state": "PENNSYLVANIA",
		"artcc": "ZOB",
		"type": "RNAV",
		"updated": "07/24/2012",
	},
	{
		"name": "JANEP",
		"latitude": "41-30-53.6 N",
		"longitude": "81-49-3.57 W",
		"state": "OHIO",
		"artcc": "ZOB",
		"type": "RNAV",
		"updated": "01/29/2015",
	},
	{
		"name": "JANLO",
		"latitude": "41-29-1.36 N",
		"longitude": "81-30-55 W",
		"state": "OHIO",
		"artcc": "ZOB",
		"type": "RNAV",
		"updated": "02/11/2014",
	},
	{
		"name": "JANTA",
		"latitude": "39-27-13.13 N",
		"longitude": "84-24-13.09 W",
		"state": "OHIO",
		"artcc": "ZOB",
		"type": "RNAV",
		"updated": "10/08/2015",
	},
	{
		"name": "JANTI",
		"latitude": "41-13-35.31 N",
		"longitude": "80-25-22.77 W",
		"state": "PENNSYLVANIA",
		"artcc": "ZOB",
		"type": "RNAV",
		"updated": "10/02/2014",
	},
	{
		"name": "JANYS",
		"latitude": "39-46-39.94 N",
		"longitude": "82-0-31.08 W",
		"state": "OHIO",
		"artcc": "ZOB",
		"type": "RNAV",
		"updated": "03/29/2018",
	},
	{
		"name": "JAPAV",
		"latitude": "40-25-41.98 N",
		"longitude": "80-0-37.2 W",
		"state": "PENNSYLVANIA",
		"artcc": "ZOB",
		"type": "RNAV",
		"updated": "08/12/2008",
	},
	{
		"name": "JAPNO",
		"latitude": "42-6-24.96 N",
		"longitude": "79-21-23.26 W",
		"state": "NEW YORK",
		"artcc": "ZOB",
		"type": "RNAV",
		"updated": "10/08/2015",
	},
	{
		"name": "JARVO",
		"latitude": "41-43-52.59 N",
		"longitude": "78-32-25.67 W",
		"state": "PENNSYLVANIA",
		"artcc": "ZOB",
		"type": "RNAV",
		"updated": "08/17/2010",
	},
	{
		"name": "JARVS",
		"latitude": "42-44-23.5182 N",
		"longitude": "80-7-11.496 W",
		"state": "",
		"artcc": "ZOB",
		"type": "RP",
		"updated": "YQO*VOR/DME*094.00",
	},
	{
		"name": "JASAR",
		"latitude": "42-26-54.21 N",
		"longitude": "77-42-26.43 W",
		"state": "NEW YORK",
		"artcc": "ZOB",
		"type": "RNAV",
		"updated": "04/20/2012",
	},
	{
		"name": "JASBU",
		"latitude": "41-32-58.72 N",
		"longitude": "80-10-0.59 W",
		"state": "PENNSYLVANIA",
		"artcc": "ZOB",
		"type": "RNAV",
		"updated": "10/21/2014",
	},
	{
		"name": "JASLO",
		"latitude": "40-2-54.52 N",
		"longitude": "82-58-23.19 W",
		"state": "OHIO",
		"artcc": "ZOB",
		"type": "RNAV",
		"updated": "09/28/2014",
	},
	{
		"name": "JASPU",
		"latitude": "40-27-19.44 N",
		"longitude": "79-15-0.98 W",
		"state": "PENNSYLVANIA",
		"artcc": "ZOB",
		"type": "RNAV",
		"updated": "10/02/2014",
	},
	{
		"name": "JASVO",
		"latitude": "38-58-0.34 N",
		"longitude": "84-12-31.98 W",
		"state": "OHIO",
		"artcc": "ZOB",
		"type": "RNAV",
		"updated": "10/22/2015",
	},
	{
		"name": "JATUB",
		"latitude": "39-29-47.92 N",
		"longitude": "83-19-39.77 W",
		"state": "OHIO",
		"artcc": "ZOB",
		"type": "RNAV",
		"updated": "09/28/2014",
	},
	{
		"name": "JATVA",
		"latitude": "42-51-47.37 N",
		"longitude": "84-50-25.07 W",
		"state": "MICHIGAN",
		"artcc": "ZOB",
		"type": "RNAV",
		"updated": "07/09/2009",
	},
	{
		"name": "JAVBI",
		"latitude": "38-49-47.04 N",
		"longitude": "83-2-30.11 W",
		"state": "OHIO",
		"artcc": "ZOB",
		"type": "RNAV",
		"updated": "10/05/2001",
	},
	{
		"name": "JAVET",
		"latitude": "40-34-20.1 N",
		"longitude": "80-19-12.6 W",
		"state": "PENNSYLVANIA",
		"artcc": "ZOB",
		"type": "RNAV",
		"updated": "08/12/2008",
	},
	{
		"name": "JAVGA",
		"latitude": "41-3-23.13 N",
		"longitude": "81-0-54.74 W",
		"state": "OHIO",
		"artcc": "ZOB",
		"type": "RP",
		"updated": "ACO*VOR/DME*114.00/9.00",
	},
	{
		"name": "JAVNE",
		"latitude": "40-52-28.51 N",
		"longitude": "82-8-32.64 W",
		"state": "OHIO",
		"artcc": "ZOB",
		"type": "RNAV",
		"updated": "09/24/2009",
	},
	{
		"name": "JAVUR",
		"latitude": "40-16-59.28 N",
		"longitude": "80-39-23.72 W",
		"state": "OHIO",
		"artcc": "ZOB",
		"type": "RNAV",
		"updated": "05/05/2016",
	},
	{
		"name": "JAWXE",
		"latitude": "41-10-8.15 N",
		"longitude": "83-26-30.67 W",
		"state": "OHIO",
		"artcc": "ZOB",
		"type": "RNAV",
		"updated": "02/09/2018",
	},
	{
		"name": "JAXUM",
		"latitude": "39-35-52.58 N",
		"longitude": "79-13-20.52 W",
		"state": "MARYLAND",
		"artcc": "ZOB",
		"type": "RNAV",
		"updated": "10/23/2014",
	},
	{
		"name": "JAXUP",
		"latitude": "42-31-52.85 N",
		"longitude": "82-51-18.74 W",
		"state": "MICHIGAN",
		"artcc": "ZOB",
		"type": "MR",
		"updated": "MTC*TACAN*198.00/5.00",
	},
	{
		"name": "JAXYN",
		"latitude": "42-53-43.93 N",
		"longitude": "78-47-18.26 W",
		"state": "NEW YORK",
		"artcc": "ZOB",
		"type": "RNAV",
		"updated": "07/25/2014",
	},
	{
		"name": "JEBEM",
		"latitude": "43-10-49.29 N",
		"longitude": "77-51-27.06 W",
		"state": "NEW YORK",
		"artcc": "ZOB",
		"type": "RNAV",
		"updated": "05/05/2011",
	},
	{
		"name": "JEBOK",
		"latitude": "40-55-6.23 N",
		"longitude": "83-40-30.15 W",
		"state": "OHIO",
		"artcc": "ZOB",
		"type": "RNAV",
		"updated": "02/09/2018",
	},
	{
		"name": "JECKA",
		"latitude": "41-11-38.15 N",
		"longitude": "83-44-44.75 W",
		"state": "OHIO",
		"artcc": "ZOB",
		"type": "RP",
		"updated": "ROD*VORTAC*018.92/56.00",
	},
	{
		"name": "JEDAR",
		"latitude": "42-58-4.09 N",
		"longitude": "78-35-13.52 W",
		"state": "NEW YORK",
		"artcc": "ZOB",
		"type": "RNAV",
		"updated": "07/25/2014",
	},
	{
		"name": "JEDUV",
		"latitude": "40-45-28.98 N",
		"longitude": "80-6-58.89 W",
		"state": "PENNSYLVANIA",
		"artcc": "ZOB",
		"type": "RNAV",
		"updated": "05/05/2011",
	},
	{
		"name": "JEEEP",
		"latitude": "42-19-26.61 N",
		"longitude": "83-6-34.6 W",
		"state": "MICHIGAN",
		"artcc": "ZOB",
		"type": "RNAV",
		"updated": "04/17/2018",
	},
	{
		"name": "JEHMY",
		"latitude": "41-18-18.99 N",
		"longitude": "83-41-31.68 W",
		"state": "OHIO",
		"artcc": "ZOB",
		"type": "RNAV",
		"updated": "06/24/2013",
	},
	{
		"name": "JEJME",
		"latitude": "41-59-25.46 N",
		"longitude": "83-17-9.6 W",
		"state": "MICHIGAN",
		"artcc": "ZOB",
		"type": "RNAV",
		"updated": "02/09/2018",
	},
	{
		"name": "JEKAV",
		"latitude": "42-37-22.29 N",
		"longitude": "83-39-52.03 W",
		"state": "MICHIGAN",
		"artcc": "ZOB",
		"type": "RNAV",
		"updated": "03/30/2018",
	},
	{
		"name": "JEKHU",
		"latitude": "41-56-2.14 N",
		"longitude": "83-48-54.31 W",
		"state": "MICHIGAN",
		"artcc": "ZOB",
		"type": "RNAV",
		"updated": "02/09/2018",
	},
	{
		"name": "JEKIK",
		"latitude": "40-26-13.92 N",
		"longitude": "79-48-51.99 W",
		"state": "PENNSYLVANIA",
		"artcc": "ZOB",
		"type": "RNAV",
		"updated": "02/21/2017",
	},
	{
		"name": "JEKUR",
		"latitude": "41-2-44.84 N",
		"longitude": "78-10-51.01 W",
		"state": "PENNSYLVANIA",
		"artcc": "ZOB",
		"type": "RNAV",
		"updated": "04/20/2011",
	},
	{
		"name": "JELEP",
		"latitude": "41-3-12.1 N",
		"longitude": "78-50-35.59 W",
		"state": "PENNSYLVANIA",
		"artcc": "ZOB",
		"type": "RNAV",
		"updated": "07/23/2012",
	},
	{
		"name": "JELLY",
		"latitude": "42-5-50.32 N",
		"longitude": "83-26-54.35 W",
		"state": "MICHIGAN",
		"artcc": "ZOB",
		"type": "RP",
		"updated": "DTW*LD*215.69/9.32",
	},
	{
		"name": "JEMDA",
		"latitude": "40-57-4.48 N",
		"longitude": "79-1-24.06 W",
		"state": "PENNSYLVANIA",
		"artcc": "ZOB",
		"type": "RNAV",
		"updated": "02/26/2015",
	},
	{
		"name": "JENER",
		"latitude": "40-6-2.38 N",
		"longitude": "79-2-18.3 W",
		"state": "PENNSYLVANIA",
		"artcc": "ZOB",
		"type": "RP",
		"updated": "JST*VOR/DME*222.00/16.00",
	},
	{
		"name": "JENIT",
		"latitude": "39-53-34.5 N",
		"longitude": "82-53-47.15 W",
		"state": "OHIO",
		"artcc": "ZOB",
		"type": "RNAV",
		"updated": "09/28/2014",
	},
	{
		"name": "JENIV",
		"latitude": "41-45-35.57 N",
		"longitude": "81-2-25.95 W",
		"state": "OHIO",
		"artcc": "ZOB",
		"type": "RNAV",
		"updated": "01/29/2015",
	},
	{
		"name": "JEPMO",
		"latitude": "41-4-23.76 N",
		"longitude": "81-25-50.43 W",
		"state": "OHIO",
		"artcc": "ZOB",
		"type": "RNAV",
		"updated": "03/29/2018",
	},
	{
		"name": "JERIK",
		"latitude": "42-7-40.07 N",
		"longitude": "84-16-26.64 W",
		"state": "MICHIGAN",
		"artcc": "ZOB",
		"type": "RNAV",
		"updated": "08/17/2009",
	},
	{
		"name": "JERRI",
		"latitude": "41-23-1.57 N",
		"longitude": "82-36-12.2 W",
		"state": "OHIO",
		"artcc": "ZOB",
		"type": "RP",
		"updated": "DJB*VOR/DME*279.57/20.00",
	},
	{
		"name": "JESBO",
		"latitude": "41-11-27 N",
		"longitude": "79-42-2.42 W",
		"state": "PENNSYLVANIA",
		"artcc": "ZOB",
		"type": "RNAV",
		"updated": "02/21/2017",
	},
	{
		"name": "JESEY",
		"latitude": "40-44-30.91 N",
		"longitude": "80-29-4.87 W",
		"state": "PENNSYLVANIA",
		"artcc": "ZOB",
		"type": "RNAV",
		"updated": "10/26/2009",
	},
	{
		"name": "JESUN",
		"latitude": "41-26-3.12 N",
		"longitude": "80-56-48.63 W",
		"state": "OHIO",
		"artcc": "ZOB",
		"type": "RNAV",
		"updated": "08/28/2013",
	},
	{
		"name": "JETJO",
		"latitude": "41-40-56.91 N",
		"longitude": "84-2-10.06 W",
		"state": "OHIO",
		"artcc": "ZOB",
		"type": "RNAV",
		"updated": "02/06/2014",
	},
	{
		"name": "JETRA",
		"latitude": "41-7-19.96 N",
		"longitude": "81-52-54.21 W",
		"state": "OHIO",
		"artcc": "ZOB",
		"type": "RNAV",
		"updated": "09/10/2002",
	},
	{
		"name": "JETUG",
		"latitude": "39-24-31.26 N",
		"longitude": "84-42-1.99 W",
		"state": "OHIO",
		"artcc": "ZOB",
		"type": "RNAV",
		"updated": "10/08/2015",
	},
	{
		"name": "JEVET",
		"latitude": "41-4-3.26 N",
		"longitude": "81-31-56.29 W",
		"state": "OHIO",
		"artcc": "ZOB",
		"type": "RNAV",
		"updated": "09/10/2002",
	},
	{
		"name": "JEVKO",
		"latitude": "39-59-54.38 N",
		"longitude": "82-58-23.19 W",
		"state": "OHIO",
		"artcc": "ZOB",
		"type": "RNAV",
		"updated": "10/09/2001",
	},
	{
		"name": "JEVRT",
		"latitude": "40-26-37.36 N",
		"longitude": "78-45-17.8 W",
		"state": "PENNSYLVANIA",
		"artcc": "ZOB",
		"type": "RNAV",
		"updated": "07/26/2016",
	},
	{
		"name": "JEZYA",
		"latitude": "40-21-37.3 N",
		"longitude": "80-4-8.41 W",
		"state": "PENNSYLVANIA",
		"artcc": "ZOB",
		"type": "RNAV",
		"updated": "10/21/2014",
	},
	{
		"name": "JFSON",
		"latitude": "40-19-25.17 N",
		"longitude": "78-40-51.34 W",
		"state": "PENNSYLVANIA",
		"artcc": "ZOB",
		"type": "RNAV",
		"updated": "05/13/2015",
	},
	{
		"name": "JHENY",
		"latitude": "41-24-11.15 N",
		"longitude": "81-32-37.69 W",
		"state": "OHIO",
		"artcc": "ZOB",
		"type": "RP",
		"updated": "PXP*LD*101.32/14.15",
	},
	{
		"name": "JHUDY",
		"latitude": "41-28-58.53 N",
		"longitude": "81-55-40.58 W",
		"state": "OHIO",
		"artcc": "ZOB",
		"type": "RNAV",
		"updated": "04/18/2018",
	},
	{
		"name": "JIBEK",
		"latitude": "41-50-57.62 N",
		"longitude": "77-14-46.45 W",
		"state": "PENNSYLVANIA",
		"artcc": "ZOB",
		"type": "RNAV",
		"updated": "01/09/2018",
	},
	{
		"name": "JIDXI",
		"latitude": "40-48-41.29 N",
		"longitude": "82-56-46.41 W",
		"state": "OHIO",
		"artcc": "ZOB",
		"type": "RNAV",
		"updated": "03/07/2016",
	},
	{
		"name": "JIGIP",
		"latitude": "41-38-6.17 N",
		"longitude": "80-36-28.67 W",
		"state": "OHIO",
		"artcc": "ZOB",
		"type": "RNAV",
		"updated": "06/28/2011",
	},
	{
		"name": "JIGON",
		"latitude": "42-57-19.78 N",
		"longitude": "84-25-54.46 W",
		"state": "MICHIGAN",
		"artcc": "ZOB",
		"type": "RNAV",
		"updated": "08/11/2008",
	},
	{
		"name": "JIGVU",
		"latitude": "41-54-26.91 N",
		"longitude": "84-11-30.16 W",
		"state": "MICHIGAN",
		"artcc": "ZOB",
		"type": "RNAV",
		"updated": "04/16/2013",
	},
	{
		"name": "JIHFY",
		"latitude": "39-55-12.65 N",
		"longitude": "79-53-18.42 W",
		"state": "PENNSYLVANIA",
		"artcc": "ZOB",
		"type": "RNAV",
		"updated": "04/13/2015",
	},
	{
		"name": "JILKU",
		"latitude": "42-6-30.76 N",
		"longitude": "78-5-27.19 W",
		"state": "NEW YORK",
		"artcc": "ZOB",
		"type": "RNAV",
		"updated": "12/08/2006",
	},
	{
		"name": "JIMTU",
		"latitude": "41-4-25.03 N",
		"longitude": "79-9-45.46 W",
		"state": "PENNSYLVANIA",
		"artcc": "ZOB",
		"type": "RNAV",
		"updated": "09/24/2007",
	},
	{
		"name": "JINAK",
		"latitude": "40-57-55.48 N",
		"longitude": "84-14-35.41 W",
		"state": "OHIO",
		"artcc": "ZOB",
		"type": "RP",
		"updated": "FBC*VORTAC*273.72/22.15",
	},
	{
		"name": "JIPET",
		"latitude": "41-17-19.56 N",
		"longitude": "79-26-49.72 W",
		"state": "PENNSYLVANIA",
		"artcc": "ZOB",
		"type": "RNAV",
		"updated": "02/21/2017",
	},
	{
		"name": "JIPLA",
		"latitude": "40-44-59.94 N",
		"longitude": "80-19-8.02 W",
		"state": "PENNSYLVANIA",
		"artcc": "ZOB",
		"type": "RNAV",
		"updated": "02/21/2017",
	},
	{
		"name": "JIREV",
		"latitude": "39-23-8.03 N",
		"longitude": "80-10-47.44 W",
		"state": "WEST VIRGINIA",
		"artcc": "ZOB",
		"type": "RNAV",
		"updated": "03/09/2015",
	},
	{
		"name": "JIRMO",
		"latitude": "39-30-40.72 N",
		"longitude": "78-48-47.18 W",
		"state": "WEST VIRGINIA",
		"artcc": "ZOB",
		"type": "RNAV",
		"updated": "02/24/2016",
	},
	{
		"name": "JITLI",
		"latitude": "42-3-14.62 N",
		"longitude": "83-30-13.99 W",
		"state": "MICHIGAN",
		"artcc": "ZOB",
		"type": "RP",
		"updated": "ALA*LD*218.21/10.19",
	},
	{
		"name": "JITLO",
		"latitude": "41-18-28.66 N",
		"longitude": "81-27-41.31 W",
		"state": "OHIO",
		"artcc": "ZOB",
		"type": "RNAV",
		"updated": "03/24/2015",
	},
	{
		"name": "JITSI",
		"latitude": "42-26-48.74 N",
		"longitude": "83-2-43.13 W",
		"state": "MICHIGAN",
		"artcc": "ZOB",
		"type": "RNAV",
		"updated": "02/02/2009",
	},
	{
		"name": "JITUS",
		"latitude": "40-3-41.78 N",
		"longitude": "81-30-14.56 W",
		"state": "OHIO",
		"artcc": "ZOB",
		"type": "RNAV",
		"updated": "08/29/2013",
	},
	{
		"name": "JIVEX",
		"latitude": "42-39-17.37 N",
		"longitude": "84-1-38.23 W",
		"state": "MICHIGAN",
		"artcc": "ZOB",
		"type": "RP",
		"updated": "FNT*VORTAC*219.58",
	},
	{
		"name": "JIVIS",
		"latitude": "39-57-54.29 N",
		"longitude": "82-58-23.19 W",
		"state": "OHIO",
		"artcc": "ZOB",
		"type": "RNAV",
		"updated": "09/28/2014",
	},
	{
		"name": "JIXOB",
		"latitude": "40-24-7.6 N",
		"longitude": "82-27-52.04 W",
		"state": "OHIO",
		"artcc": "ZOB",
		"type": "RNAV",
		"updated": "11/07/2014",
	},
	{
		"name": "JJUST",
		"latitude": "40-56-41.87 N",
		"longitude": "84-16-45.06 W",
		"state": "OHIO",
		"artcc": "ZOB",
		"type": "RNAV",
		"updated": "03/07/2018",
	},
	{
		"name": "JLIET",
		"latitude": "43-6-33.85 N",
		"longitude": "76-48-25.23 W",
		"state": "NEW YORK",
		"artcc": "ZOB",
		"type": "RNAV",
		"updated": "10/23/2014",
	},
	{
		"name": "JNKAL",
		"latitude": "42-59-41.11 N",
		"longitude": "78-49-45.64 W",
		"state": "NEW YORK",
		"artcc": "ZOB",
		"type": "RNAV",
		"updated": "05/15/2013",
	},
	{
		"name": "JOBLO",
		"latitude": "39-52-54.06 N",
		"longitude": "82-58-23.2 W",
		"state": "OHIO",
		"artcc": "ZOB",
		"type": "RNAV",
		"updated": "10/09/2001",
	},
	{
		"name": "JODOV",
		"latitude": "41-4-43.08 N",
		"longitude": "78-31-45.15 W",
		"state": "PENNSYLVANIA",
		"artcc": "ZOB",
		"type": "RNAV",
		"updated": "07/23/2012",
	},
	{
		"name": "JOEPA",
		"latitude": "40-22-13.37 N",
		"longitude": "80-13-42.64 W",
		"state": "PENNSYLVANIA",
		"artcc": "ZOB",
		"type": "RNAV",
		"updated": "10/26/2009",
	},
	{
		"name": "JOHFO",
		"latitude": "41-22-32.53 N",
		"longitude": "84-30-4.83 W",
		"state": "OHIO",
		"artcc": "ZOB",
		"type": "RNAV",
		"updated": "02/09/2018",
	},
	{
		"name": "JOHNB",
		"latitude": "39-50-29.54 N",
		"longitude": "79-57-6.69 W",
		"state": "PENNSYLVANIA",
		"artcc": "ZOB",
		"type": "RP",
		"updated": "IHD*VORTAC*260.00",
	},
	{
		"name": "JOKAM",
		"latitude": "40-41-39.74 N",
		"longitude": "82-41-21.79 W",
		"state": "OHIO",
		"artcc": "ZOB",
		"type": "RNAV",
		"updated": "04/04/2017",
	},
	{
		"name": "JOKUB",
		"latitude": "40-46-44.2 N",
		"longitude": "80-31-9.08 W",
		"state": "OHIO",
		"artcc": "ZOB",
		"type": "RNAV",
		"updated": "05/05/2011",
	},
	{
		"name": "JOLIM",
		"latitude": "43-13-44.02 N",
		"longitude": "84-52-53.71 W",
		"state": "MICHIGAN",
		"artcc": "ZOB",
		"type": "RNAV",
		"updated": "03/12/2014",
	},
	{
		"name": "JOLIN",
		"latitude": "41-0-16.41 N",
		"longitude": "78-50-48.51 W",
		"state": "PENNSYLVANIA",
		"artcc": "ZOB",
		"type": "RNAV",
		"updated": "02/21/2017",
	},
	{
		"name": "JOLMU",
		"latitude": "40-12-40.23 N",
		"longitude": "80-57-52.9 W",
		"state": "OHIO",
		"artcc": "ZOB",
		"type": "RNAV",
		"updated": "03/11/2011",
	},
	{
		"name": "JOMBO",
		"latitude": "39-8-25.21 N",
		"longitude": "84-26-24.88 W",
		"state": "OHIO",
		"artcc": "ZOB",
		"type": "RNAV",
		"updated": "10/08/2015",
	},
	{
		"name": "JOMGI",
		"latitude": "41-29-32.29 N",
		"longitude": "81-35-51.66 W",
		"state": "OHIO",
		"artcc": "ZOB",
		"type": "RNAV",
		"updated": "01/29/2015",
	},
	{
		"name": "JOMKU",
		"latitude": "41-14-40.74 N",
		"longitude": "82-30-22.43 W",
		"state": "OHIO",
		"artcc": "ZOB",
		"type": "RNAV",
		"updated": "12/03/2014",
	},
	{
		"name": "JONEH",
		"latitude": "42-2-18 N",
		"longitude": "77-22-0 W",
		"state": "NEW YORK",
		"artcc": "ZOB",
		"type": "RNAV",
		"updated": "04/12/2005",
	},
	{
		"name": "JONLI",
		"latitude": "42-12-8.32 N",
		"longitude": "79-56-50.02 W",
		"state": "PENNSYLVANIA",
		"artcc": "ZOB",
		"type": "RP",
		"updated": "AWY*LD*064.49/13.13",
	},
	{
		"name": "JOPAD",
		"latitude": "42-2-52.45 N",
		"longitude": "80-13-16.96 W",
		"state": "PENNSYLVANIA",
		"artcc": "ZOB",
		"type": "RNAV",
		"updated": "02/21/2017",
	},
	{
		"name": "JOPNA",
		"latitude": "39-4-24.69 N",
		"longitude": "84-19-54.07 W",
		"state": "OHIO",
		"artcc": "ZOB",
		"type": "RNAV",
		"updated": "10/08/2015",
	},
	{
		"name": "JORAX",
		"latitude": "43-9-21.6 N",
		"longitude": "76-52-11.03 W",
		"state": "NEW YORK",
		"artcc": "ZOB",
		"type": "RNAV",
		"updated": "06/18/2008",
	},
	{
		"name": "JORDI",
		"latitude": "42-52-12.99 N",
		"longitude": "83-44-28.75 W",
		"state": "MICHIGAN",
		"artcc": "ZOB",
		"type": "RNAV",
		"updated": "06/19/2009",
	},
	{
		"name": "JOSEF",
		"latitude": "40-52-51.58 N",
		"longitude": "81-35-46.93 W",
		"state": "OHIO",
		"artcc": "ZOB",
		"type": "RNAV",
		"updated": "03/29/2018",
	},
	{
		"name": "JOSHY",
		"latitude": "41-55-58.3 N",
		"longitude": "83-28-0.08 W",
		"state": "MICHIGAN",
		"artcc": "ZOB",
		"type": "RNAV",
		"updated": "04/17/2018",
	},
	{
		"name": "JOSSY",
		"latitude": "42-53-29.93 N",
		"longitude": "77-2-36.8 W",
		"state": "NEW YORK",
		"artcc": "ZOB",
		"type": "RNAV",
		"updated": "09/20/2014",
	},
	{
		"name": "JOSTU",
		"latitude": "41-10-26.73 N",
		"longitude": "80-3-27.8 W",
		"state": "PENNSYLVANIA",
		"artcc": "ZOB",
		"type": "RNAV",
		"updated": "10/02/2014",
	},
	{
		"name": "JOSZY",
		"latitude": "41-16-32.03 N",
		"longitude": "84-19-54.29 W",
		"state": "OHIO",
		"artcc": "ZOB",
		"type": "RNAV",
		"updated": "02/09/2018",
	},
	{
		"name": "JOTMI",
		"latitude": "40-47-10.19 N",
		"longitude": "80-39-57.37 W",
		"state": "OHIO",
		"artcc": "ZOB",
		"type": "RP",
		"updated": "EWC*VOR/DME*271.74/20.83",
	},
	{
		"name": "JOTRO",
		"latitude": "41-28-6.91 N",
		"longitude": "85-4-31.76 W",
		"state": "INDIANA",
		"artcc": "ZOB",
		"type": "RNAV",
		"updated": "07/31/2013",
	},
	{
		"name": "JOWLY",
		"latitude": "40-25-18.12 N",
		"longitude": "79-49-10.15 W",
		"state": "PENNSYLVANIA",
		"artcc": "ZOB",
		"type": "RNAV",
		"updated": "05/03/2016",
	},
	{
		"name": "JOYDD",
		"latitude": "42-22-40.84 N",
		"longitude": "83-15-15.21 W",
		"state": "MICHIGAN",
		"artcc": "ZOB",
		"type": "RP",
		"updated": "JKI*LD*035.69/10.21",
	},
	{
		"name": "JPATT",
		"latitude": "41-17-29.68 N",
		"longitude": "84-21-46.52 W",
		"state": "OHIO",
		"artcc": "ZOB",
		"type": "RNAV",
		"updated": "02/17/2015",
	},
	{
		"name": "JPLIN",
		"latitude": "40-21-18.57 N",
		"longitude": "81-52-7.8 W",
		"state": "OHIO",
		"artcc": "ZOB",
		"type": "RNAV",
		"updated": "03/29/2018",
	},
	{
		"name": "JUBDA",
		"latitude": "41-36-50.88 N",
		"longitude": "81-38-24.66 W",
		"state": "OHIO",
		"artcc": "ZOB",
		"type": "RNAV",
		"updated": "10/16/2008",
	},
	{
		"name": "JUBER",
		"latitude": "43-9-19.94 N",
		"longitude": "83-44-50.26 W",
		"state": "MICHIGAN",
		"artcc": "ZOB",
		"type": "RNAV",
		"updated": "06/19/2009",
	},
	{
		"name": "JUBLO",
		"latitude": "40-44-28.34 N",
		"longitude": "79-43-5.86 W",
		"state": "PENNSYLVANIA",
		"artcc": "ZOB",
		"type": "RNAV",
		"updated": "04/09/2014",
	},
	{
		"name": "JUBUG",
		"latitude": "42-58-14.09 N",
		"longitude": "83-41-15.21 W",
		"state": "MICHIGAN",
		"artcc": "ZOB",
		"type": "RNAV",
		"updated": "06/19/2009",
	},
	{
		"name": "JUDAM",
		"latitude": "40-50-49.59 N",
		"longitude": "79-2-32.28 W",
		"state": "PENNSYLVANIA",
		"artcc": "ZOB",
		"type": "RNAV",
		"updated": "04/09/2014",
	},
	{
		"name": "JUDEM",
		"latitude": "40-4-56 N",
		"longitude": "79-41-21.09 W",
		"state": "PENNSYLVANIA",
		"artcc": "ZOB",
		"type": "RNAV",
		"updated": "02/21/2017",
	},
	{
		"name": "JUDEY",
		"latitude": "40-26-11.77 N",
		"longitude": "78-40-57.15 W",
		"state": "PENNSYLVANIA",
		"artcc": "ZOB",
		"type": "RP",
		"updated": "JST*VOR/DME*050.00/10.00",
	},
	{
		"name": "JUDHI",
		"latitude": "41-44-15.8 N",
		"longitude": "83-32-40.61 W",
		"state": "OHIO",
		"artcc": "ZOB",
		"type": "RNAV",
		"updated": "02/09/2018",
	},
	{
		"name": "JUDIE",
		"latitude": "40-50-32.93 N",
		"longitude": "81-32-8.58 W",
		"state": "OHIO",
		"artcc": "ZOB",
		"type": "RP",
		"updated": "BSV*VOR/DME*326.32",
	},
	{
		"name": "JUDYS",
		"latitude": "42-13-22.71 N",
		"longitude": "82-58-20.8 W",
		"state": "",
		"artcc": "ZOB",
		"type": "RP",
		"updated": "DXO*VOR/DME*/17.59",
	},
	{
		"name": "JUGAD",
		"latitude": "40-25-5.67 N",
		"longitude": "80-40-0.31 W",
		"state": "OHIO",
		"artcc": "ZOB",
		"type": "RNAV",
		"updated": "05/05/2016",
	},
	{
		"name": "JUKAP",
		"latitude": "40-59-20.66 N",
		"longitude": "82-15-14.81 W",
		"state": "OHIO",
		"artcc": "ZOB",
		"type": "RNAV",
		"updated": "12/31/2009",
	},
	{
		"name": "JUKIR",
		"latitude": "42-54-5.82 N",
		"longitude": "78-11-33.09 W",
		"state": "NEW YORK",
		"artcc": "ZOB",
		"type": "RNAV",
		"updated": "07/20/2012",
	},
	{
		"name": "JUKLA",
		"latitude": "39-44-40.19 N",
		"longitude": "78-37-50.07 W",
		"state": "PENNSYLVANIA",
		"artcc": "ZOB",
		"type": "RP",
		"updated": "CBE*LE*047.50/10.16",
	},
	{
		"name": "JULAD",
		"latitude": "42-56-43.99 N",
		"longitude": "82-29-40.69 W",
		"state": "MICHIGAN",
		"artcc": "ZOB",
		"type": "RNAV",
		"updated": "06/29/2011",
	},
	{
		"name": "JULEP",
		"latitude": "41-54-47.39 N",
		"longitude": "83-34-58.89 W",
		"state": "MICHIGAN",
		"artcc": "ZOB",
		"type": "RP",
		"updated": "DTW*LD*215.69/21.90",
	},
	{
		"name": "JUMAK",
		"latitude": "41-34-46.88 N",
		"longitude": "83-38-12.35 W",
		"state": "OHIO",
		"artcc": "ZOB",
		"type": "RNAV",
		"updated": "11/15/2010",
	},
	{
		"name": "JUMEP",
		"latitude": "40-8-1.54 N",
		"longitude": "79-39-12.55 W",
		"state": "PENNSYLVANIA",
		"artcc": "ZOB",
		"type": "RNAV",
		"updated": "02/21/2017",
	},
	{
		"name": "JUMSU",
		"latitude": "39-49-42.26 N",
		"longitude": "80-49-17.96 W",
		"state": "WEST VIRGINIA",
		"artcc": "ZOB",
		"type": "RNAV",
		"updated": "01/31/2009",
	},
	{
		"name": "JUNEX",
		"latitude": "40-46-31.49 N",
		"longitude": "81-38-34.43 W",
		"state": "OHIO",
		"artcc": "ZOB",
		"type": "RP",
		"updated": "BSV*VOR/DME*286.30",
	},
	{
		"name": "JUNOG",
		"latitude": "42-3-31.45 N",
		"longitude": "80-13-5.03 W",
		"state": "PENNSYLVANIA",
		"artcc": "ZOB",
		"type": "RP",
		"updated": "ERI*LD*244.48",
	},
	{
		"name": "JURBO",
		"latitude": "43-36-2.06 N",
		"longitude": "83-59-7.8 W",
		"state": "MICHIGAN",
		"artcc": "ZOB",
		"type": "RNAV",
		"updated": "12/01/2017",
	},
	{
		"name": "JURHY",
		"latitude": "41-43-8.25 N",
		"longitude": "83-40-16.72 W",
		"state": "OHIO",
		"artcc": "ZOB",
		"type": "RNAV",
		"updated": "02/06/2014",
	},
	{
		"name": "JUROL",
		"latitude": "41-14-42.48 N",
		"longitude": "82-48-11.69 W",
		"state": "OHIO",
		"artcc": "ZOB",
		"type": "RNAV",
		"updated": "12/03/2014",
	},
	{
		"name": "JURUP",
		"latitude": "39-40-44.12 N",
		"longitude": "78-41-45.2 W",
		"state": "MARYLAND",
		"artcc": "ZOB",
		"type": "RP",
		"updated": "CBE*LE*047.50/5.20",
	},
	{
		"name": "JUSEP",
		"latitude": "40-51-17.28 N",
		"longitude": "82-27-37.53 W",
		"state": "OHIO",
		"artcc": "ZOB",
		"type": "RNAV",
		"updated": "03/29/2018",
	},
	{
		"name": "JUSKI",
		"latitude": "42-2-27 N",
		"longitude": "83-25-43.72 W",
		"state": "MICHIGAN",
		"artcc": "ZOB",
		"type": "RP",
		"updated": "DXO*VOR/DME*201.05/10.70",
	},
	{
		"name": "JUSTS",
		"latitude": "41-9-28.83 N",
		"longitude": "79-14-16.4 W",
		"state": "PENNSYLVANIA",
		"artcc": "ZOB",
		"type": "RP",
		"updated": "CIP*VOR/DME*091.90/10.00",
	},
	{
		"name": "JUSTT",
		"latitude": "42-12-11.34 N",
		"longitude": "83-5-48.47 W",
		"state": "",
		"artcc": "ZOB",
		"type": "RP",
		"updated": "EPA*LD*095.73/11.98",
	},
	{
		"name": "JUSUL",
		"latitude": "42-1-59.94 N",
		"longitude": "83-35-25.18 W",
		"state": "MICHIGAN",
		"artcc": "ZOB",
		"type": "RNAV",
		"updated": "04/19/2018",
	},
	{
		"name": "JUTLI",
		"latitude": "41-18-50.56 N",
		"longitude": "84-21-41.97 W",
		"state": "OHIO",
		"artcc": "ZOB",
		"type": "RNAV",
		"updated": "12/21/2010",
	},
	{
		"name": "JUTPU",
		"latitude": "40-25-49.84 N",
		"longitude": "79-35-54.29 W",
		"state": "PENNSYLVANIA",
		"artcc": "ZOB",
		"type": "RNAV",
		"updated": "10/02/2014",
	},
	{
		"name": "JUUBA",
		"latitude": "41-25-18.35 N",
		"longitude": "81-57-52.27 W",
		"state": "OHIO",
		"artcc": "ZOB",
		"type": "RNAV",
		"updated": "10/24/2011",
	},
	{
		"name": "JUULY",
		"latitude": "42-35-4.59 N",
		"longitude": "83-2-48.95 W",
		"state": "MICHIGAN",
		"artcc": "ZOB",
		"type": "RNAV",
		"updated": "04/18/2018",
	},
	{
		"name": "JUUNY",
		"latitude": "40-21-17.01 N",
		"longitude": "82-2-15.29 W",
		"state": "OHIO",
		"artcc": "ZOB",
		"type": "RNAV",
		"updated": "03/07/2018",
	},
	{
		"name": "JUVDU",
		"latitude": "40-48-1.96 N",
		"longitude": "83-13-49 W",
		"state": "OHIO",
		"artcc": "ZOB",
		"type": "RNAV",
		"updated": "03/29/2018",
	},
	{
		"name": "JUVKI",
		"latitude": "43-1-49.96 N",
		"longitude": "78-3-30.1 W",
		"state": "NEW YORK",
		"artcc": "ZOB",
		"type": "RNAV",
		"updated": "12/04/2008",
	},
	{
		"name": "JUXOL",
		"latitude": "40-46-41.04 N",
		"longitude": "82-41-18.32 W",
		"state": "OHIO",
		"artcc": "ZOB",
		"type": "RNAV",
		"updated": "06/28/2011",
	},
