	{
		"name": "KAALI",
		"latitude": "42-29-29 N",
		"longitude": "83-5-35.89 W",
		"state": "MICHIGAN",
		"artcc": "ZOB",
		"type": "RNAV",
		"updated": "04/17/2018",
	},
	{
		"name": "KABVE",
		"latitude": "43-2-3.88 N",
		"longitude": "78-26-57.95 W",
		"state": "NEW YORK",
		"artcc": "ZOB",
		"type": "RNAV",
		"updated": "04/20/2011",
	},
	{
		"name": "KADBY",
		"latitude": "41-20-5.56 N",
		"longitude": "83-26-44.83 W",
		"state": "OHIO",
		"artcc": "ZOB",
		"type": "RNAV",
		"updated": "09/14/2009",
	},
	{
		"name": "KADEC",
		"latitude": "40-28-56.05 N",
		"longitude": "80-5-1.75 W",
		"state": "PENNSYLVANIA",
		"artcc": "ZOB",
		"type": "RNAV",
		"updated": "08/12/2008",
	},
	{
		"name": "KAGPE",
		"latitude": "39-33-20.86 N",
		"longitude": "78-47-35.81 W",
		"state": "WEST VIRGINIA",
		"artcc": "ZOB",
		"type": "RNAV",
		"updated": "02/24/2016",
	},
	{
		"name": "KANFY",
		"latitude": "40-5-15.49 N",
		"longitude": "78-55-12.48 W",
		"state": "PENNSYLVANIA",
		"artcc": "ZOB",
		"type": "RNAV",
		"updated": "10/03/2014",
	},
	{
		"name": "KANVE",
		"latitude": "40-30-18.88 N",
		"longitude": "80-23-10.69 W",
		"state": "PENNSYLVANIA",
		"artcc": "ZOB",
		"type": "RNAV",
		"updated": "07/08/2003",
	},
	{
		"name": "KARAY",
		"latitude": "41-31-42.65 N",
		"longitude": "81-41-44.39 W",
		"state": "OHIO",
		"artcc": "ZOB",
		"type": "RNAV",
		"updated": "04/18/2018",
	},
	{
		"name": "KARBE",
		"latitude": "41-22-20.59 N",
		"longitude": "79-52-16.24 W",
		"state": "PENNSYLVANIA",
		"artcc": "ZOB",
		"type": "RNAV",
		"updated": "06/09/2016",
	},
	{
		"name": "KARIT",
		"latitude": "43-43-23 N",
		"longitude": "82-8-40 W",
		"state": "",
		"artcc": "ZOB",
		"type": "RNAV",
		"updated": "09/20/2014",
	},
	{
		"name": "KASPE",
		"latitude": "40-48-51.24 N",
		"longitude": "83-40-3.5 W",
		"state": "OHIO",
		"artcc": "ZOB",
		"type": "RNAV",
		"updated": "06/28/2007",
	},
	{
		"name": "KATEC",
		"latitude": "42-49-46.36 N",
		"longitude": "78-28-53.62 W",
		"state": "NEW YORK",
		"artcc": "ZOB",
		"type": "RP",
		"updated": "GEE*VOR/DME*278.75/33.06",
	},
	{
		"name": "KATHI",
		"latitude": "43-6-33.5 N",
		"longitude": "78-50-18.21 W",
		"state": "NEW YORK",
		"artcc": "ZOB",
		"type": "RP",
		"updated": "IAG*TACAN*/5.35",
	},
	{
		"name": "KATKE",
		"latitude": "40-21-15.04 N",
		"longitude": "79-34-47.51 W",
		"state": "PENNSYLVANIA",
		"artcc": "ZOB",
		"type": "RNAV",
		"updated": "07/08/2003",
	},
	{
		"name": "KATTY",
		"latitude": "42-57-50.59 N",
		"longitude": "83-30-50.76 W",
		"state": "MICHIGAN",
		"artcc": "ZOB",
		"type": "RP",
		"updated": "PSI*VORTAC*005.98",
	},
	{
		"name": "KAVGY",
		"latitude": "39-56-21.42 N",
		"longitude": "79-12-28.2 W",
		"state": "PENNSYLVANIA",
		"artcc": "ZOB",
		"type": "RNAV",
		"updated": "10/03/2014",
	},
	{
		"name": "KAYEL",
		"latitude": "43-21-30.71 N",
		"longitude": "84-41-23.11 W",
		"state": "MICHIGAN",
		"artcc": "ZOB",
		"type": "RNAV",
		"updated": "10/28/2003",
	},
	{
		"name": "KAYET",
		"latitude": "43-30-48.68 N",
		"longitude": "83-21-16.9 W",
		"state": "MICHIGAN",
		"artcc": "ZOB",
		"type": "RNAV",
		"updated": "04/22/2016",
	},
	{
		"name": "KBARS",
		"latitude": "42-6-22.52 N",
		"longitude": "80-13-13.52 W",
		"state": "PENNSYLVANIA",
		"artcc": "ZOB",
		"type": "RNAV",
		"updated": "02/21/2017",
	},
	{
		"name": "KC57U",
		"latitude": "39-30-0 N",
		"longitude": "80-0-0 W",
		"state": "WEST VIRGINIA",
		"artcc": "ZOB",
		"type": "NRS",
		"updated": "03/05/2005",
	},
	{
		"name": "KC60U",
		"latitude": "40-0-0 N",
		"longitude": "80-0-0 W",
		"state": "PENNSYLVANIA",
		"artcc": "ZOB",
		"type": "NRS",
		"updated": "03/05/2005",
	},
	{
		"name": "KC60W",
		"latitude": "40-0-0 N",
		"longitude": "78-0-0 W",
		"state": "PENNSYLVANIA",
		"artcc": "ZOB",
		"type": "NRS",
		"updated": "03/05/2005",
	},
	{
		"name": "KC63U",
		"latitude": "40-30-0 N",
		"longitude": "80-0-0 W",
		"state": "PENNSYLVANIA",
		"artcc": "ZOB",
		"type": "NRS",
		"updated": "03/05/2005",
	},
	{
		"name": "KC63W",
		"latitude": "40-30-0 N",
		"longitude": "78-0-0 W",
		"state": "PENNSYLVANIA",
		"artcc": "ZOB",
		"type": "NRS",
		"updated": "03/05/2005",
	},
	{
		"name": "KC66Q",
		"latitude": "41-0-0 N",
		"longitude": "84-0-0 W",
		"state": "OHIO",
		"artcc": "ZOB",
		"type": "NRS",
		"updated": "03/05/2005",
	},
	{
		"name": "KC66S",
		"latitude": "41-0-0 N",
		"longitude": "82-0-0 W",
		"state": "OHIO",
		"artcc": "ZOB",
		"type": "NRS",
		"updated": "03/05/2005",
	},
	{
		"name": "KC66U",
		"latitude": "41-0-0 N",
		"longitude": "80-0-0 W",
		"state": "PENNSYLVANIA",
		"artcc": "ZOB",
		"type": "NRS",
		"updated": "03/05/2005",
	},
	{
		"name": "KC69Q",
		"latitude": "41-30-0 N",
		"longitude": "84-0-0 W",
		"state": "OHIO",
		"artcc": "ZOB",
		"type": "NRS",
		"updated": "03/05/2005",
	},
	{
		"name": "KC69S",
		"latitude": "41-30-0 N",
		"longitude": "82-0-0 W",
		"state": "OHIO",
		"artcc": "ZOB",
		"type": "NRS",
		"updated": "03/05/2005",
	},
	{
		"name": "KC69U",
		"latitude": "41-30-0 N",
		"longitude": "80-0-0 W",
		"state": "PENNSYLVANIA",
		"artcc": "ZOB",
		"type": "NRS",
		"updated": "03/05/2005",
	},
	{
		"name": "KC69W",
		"latitude": "41-30-0 N",
		"longitude": "78-0-0 W",
		"state": "PENNSYLVANIA",
		"artcc": "ZOB",
		"type": "NRS",
		"updated": "03/05/2005",
	},
	{
		"name": "KC72Q",
		"latitude": "42-0-0 N",
		"longitude": "84-0-0 W",
		"state": "MICHIGAN",
		"artcc": "ZOB",
		"type": "NRS",
		"updated": "03/05/2005",
	},
	{
		"name": "KC72U",
		"latitude": "42-0-0 N",
		"longitude": "80-0-0 W",
		"state": "PENNSYLVANIA",
		"artcc": "ZOB",
		"type": "NRS",
		"updated": "03/05/2005",
	},
	{
		"name": "KC72W",
		"latitude": "42-0-0 N",
		"longitude": "78-0-0 W",
		"state": "NEW YORK",
		"artcc": "ZOB",
		"type": "NRS",
		"updated": "03/05/2005",
	},
	{
		"name": "KC75Q",
		"latitude": "42-30-0 N",
		"longitude": "84-0-0 W",
		"state": "MICHIGAN",
		"artcc": "ZOB",
		"type": "NRS",
		"updated": "03/05/2005",
	},
	{
		"name": "KC75W",
		"latitude": "42-30-0 N",
		"longitude": "78-0-0 W",
		"state": "NEW YORK",
		"artcc": "ZOB",
		"type": "NRS",
		"updated": "03/05/2005",
	},
	{
		"name": "KC78Q",
		"latitude": "43-0-0 N",
		"longitude": "84-0-0 W",
		"state": "MICHIGAN",
		"artcc": "ZOB",
		"type": "NRS",
		"updated": "03/05/2005",
	},
	{
		"name": "KC78W",
		"latitude": "43-0-0 N",
		"longitude": "78-0-0 W",
		"state": "NEW YORK",
		"artcc": "ZOB",
		"type": "NRS",
		"updated": "03/05/2005",
	},
	{
		"name": "KC81Q",
		"latitude": "43-30-0 N",
		"longitude": "84-0-0 W",
		"state": "MICHIGAN",
		"artcc": "ZOB",
		"type": "NRS",
		"updated": "03/05/2005",
	},
	{
		"name": "KC81W",
		"latitude": "43-30-0 N",
		"longitude": "78-0-0 W",
		"state": "NEW YORK",
		"artcc": "ZOB",
		"type": "NRS",
		"updated": "03/05/2005",
	},
	{
		"name": "KEATN",
		"latitude": "40-55-53.03 N",
		"longitude": "81-39-20.12 W",
		"state": "OHIO",
		"artcc": "ZOB",
		"type": "RP",
		"updated": "BSV*VOR/DME*322.40/15.31",
	},
	{
		"name": "KECKE",
		"latitude": "43-18-27.62 N",
		"longitude": "77-31-5.5 W",
		"state": "NEW YORK",
		"artcc": "ZOB",
		"type": "RP",
		"updated": "ROC*VOR/DME*042.74/13.25",
	},
	{
		"name": "KEDKE",
		"latitude": "40-23-55.14 N",
		"longitude": "80-6-40.08 W",
		"state": "PENNSYLVANIA",
		"artcc": "ZOB",
		"type": "RNAV",
		"updated": "01/11/2011",
	},
	{
		"name": "KEDSE",
		"latitude": "40-18-30.76 N",
		"longitude": "80-37-54.33 W",
		"state": "OHIO",
		"artcc": "ZOB",
		"type": "RNAV",
		"updated": "09/21/2016",
	},
	{
		"name": "KEEEP",
		"latitude": "41-32-25.36 N",
		"longitude": "81-42-23.61 W",
		"state": "OHIO",
		"artcc": "ZOB",
		"type": "RNAV",
		"updated": "04/18/2018",
	},
	{
		"name": "KEEGO",
		"latitude": "42-38-24.15 N",
		"longitude": "83-19-22.88 W",
		"state": "MICHIGAN",
		"artcc": "ZOB",
		"type": "RP",
		"updated": "PSI*VORTAC*114.38/9.97",
	},
	{
		"name": "KEEHO",
		"latitude": "41-55-3.34 N",
		"longitude": "81-49-51.44 W",
		"state": "OHIO",
		"artcc": "ZOB",
		"type": "RP",
		"updated": "DJB*VOR/DME*028.82",
	},
	{
		"name": "KELIE",
		"latitude": "42-39-37.32 N",
		"longitude": "77-44-41.05 W",
		"state": "NEW YORK",
		"artcc": "ZOB",
		"type": "RP",
		"updated": "SLT*VORTAC*016.25",
	},
	{
		"name": "KEMAN",
		"latitude": "39-51-37.81 N",
		"longitude": "80-2-30.15 W",
		"state": "PENNSYLVANIA",
		"artcc": "ZOB",
		"type": "RP",
		"updated": "EWC*VOR/DME*180.27",
	},
	{
		"name": "KEMZO",
		"latitude": "39-28-29.56 N",
		"longitude": "80-5-46.53 W",
		"state": "WEST VIRGINIA",
		"artcc": "ZOB",
		"type": "RP",
		"updated": "MGW*VORTAC*250.95/12.00",
	},
	{
		"name": "KENWU",
		"latitude": "41-14-23.19 N",
		"longitude": "81-23-50.83 W",
		"state": "OHIO",
		"artcc": "ZOB",
		"type": "RNAV",
		"updated": "08/03/2006",
	},
	{
		"name": "KERBY",
		"latitude": "42-59-4.22 N",
		"longitude": "84-1-6.09 W",
		"state": "MICHIGAN",
		"artcc": "ZOB",
		"type": "RP",
		"updated": "FNT*VORTAC*281.18/12.00",
	},
	{
		"name": "KERPY",
		"latitude": "40-10-49.71 N",
		"longitude": "79-35-19.4 W",
		"state": "PENNSYLVANIA",
		"artcc": "ZOB",
		"type": "WP",
		"updated": "07/20/2007",
	},
	{
		"name": "KERRS",
		"latitude": "40-29-39.47 N",
		"longitude": "79-58-28.2 W",
		"state": "PENNSYLVANIA",
		"artcc": "ZOB",
		"type": "RP",
		"updated": "MMJ*DME*/10.05",
	},
	{
		"name": "KESEC",
		"latitude": "40-0-17.83 N",
		"longitude": "81-8-21.25 W",
		"state": "OHIO",
		"artcc": "ZOB",
		"type": "RNAV",
		"updated": "04/18/2012",
	},
	{
		"name": "KESVE",
		"latitude": "43-5-7.52 N",
		"longitude": "78-37-15.67 W",
		"state": "NEW YORK",
		"artcc": "ZOB",
		"type": "MR",
		"updated": "IAG*TACAN*106.11/15.00",
	},
	{
		"name": "KEWER",
		"latitude": "40-29-49.01 N",
		"longitude": "78-14-42.09 W",
		"state": "PENNSYLVANIA",
		"artcc": "ZOB",
		"type": "RP",
		"updated": "JST*VOR/DME*074.00/29.08",
	},
	{
		"name": "KEYRE",
		"latitude": "40-9-12.11 N",
		"longitude": "80-1-57.64 W",
		"state": "PENNSYLVANIA",
		"artcc": "ZOB",
		"type": "RP",
		"updated": "AGC*VOR/DME*186.13/7.52",
	},
	{
		"name": "KICEC",
		"latitude": "41-53-24.6 N",
		"longitude": "84-2-36.19 W",
		"state": "MICHIGAN",
		"artcc": "ZOB",
		"type": "RNAV",
		"updated": "02/28/2007",
	},
	{
		"name": "KIFGU",
		"latitude": "40-50-25.52 N",
		"longitude": "79-40-48.26 W",
		"state": "PENNSYLVANIA",
		"artcc": "ZOB",
		"type": "RNAV",
		"updated": "03/20/2015",
	},
	{
		"name": "KIGRY",
		"latitude": "41-23-8.97 N",
		"longitude": "82-50-0.69 W",
		"state": "OHIO",
		"artcc": "ZOB",
		"type": "RNAV",
		"updated": "12/26/2013",
	},
	{
		"name": "KIGUW",
		"latitude": "43-6-33.73 N",
		"longitude": "78-51-57.73 W",
		"state": "NEW YORK",
		"artcc": "ZOB",
		"type": "RNAV",
		"updated": "07/26/2013",
	},
	{
		"name": "KILTT",
		"latitude": "42-32-40.09 N",
		"longitude": "84-13-33.85 W",
		"state": "MICHIGAN",
		"artcc": "ZOB",
		"type": "RNAV",
		"updated": "03/28/2018",
	},
	{
		"name": "KINBE",
		"latitude": "42-46-46.49 N",
		"longitude": "82-49-40.16 W",
		"state": "MICHIGAN",
		"artcc": "ZOB",
		"type": "MR",
		"updated": "MTC*TACAN*007.00/10.00",
	},
	{
		"name": "KINCS",
		"latitude": "41-6-8.29 N",
		"longitude": "82-17-23.91 W",
		"state": "OHIO",
		"artcc": "ZOB",
		"type": "RNAV",
		"updated": "03/29/2018",
	},
	{
		"name": "KINDE",
		"latitude": "40-46-48.46 N",
		"longitude": "83-49-55.18 W",
		"state": "OHIO",
		"artcc": "ZOB",
		"type": "RP",
		"updated": "FBC*VORTAC*200.25/11.06",
	},
	{
		"name": "KINXU",
		"latitude": "41-21-24.93 N",
		"longitude": "83-57-39.77 W",
		"state": "OHIO",
		"artcc": "ZOB",
		"type": "RNAV",
		"updated": "08/06/2001",
	},
	{
		"name": "KIRBY",
		"latitude": "40-41-53.61 N",
		"longitude": "83-1-27.49 W",
		"state": "OHIO",
		"artcc": "ZOB",
		"type": "RNAV",
		"updated": "04/19/2018",
	},
	{
		"name": "KIRGE",
		"latitude": "39-33-7.71 N",
		"longitude": "79-55-41.76 W",
		"state": "WEST VIRGINIA",
		"artcc": "ZOB",
		"type": "RNAV",
		"updated": "12/18/2006",
	},
	{
		"name": "KISBE",
		"latitude": "38-46-57.74 N",
		"longitude": "83-1-11.32 W",
		"state": "OHIO",
		"artcc": "ZOB",
		"type": "RNAV",
		"updated": "10/05/2001",
	},
	{
		"name": "KITGY",
		"latitude": "41-37-24.83 N",
		"longitude": "78-55-27.96 W",
		"state": "PENNSYLVANIA",
		"artcc": "ZOB",
		"type": "RNAV",
		"updated": "02/26/2015",
	},
	{
		"name": "KITNS",
		"latitude": "43-7-0.16 N",
		"longitude": "83-13-6.92 W",
		"state": "MICHIGAN",
		"artcc": "ZOB",
		"type": "RP",
		"updated": "PSI*VORTAC*031.94/28.53",
	},
	{
		"name": "KIVGE",
		"latitude": "39-54-15.93 N",
		"longitude": "80-44-7.27 W",
		"state": "WEST VIRGINIA",
		"artcc": "ZOB",
		"type": "RP",
		"updated": "AIR*VOR/DME*157.74/7.74",
	},
	{
		"name": "KIVRE",
		"latitude": "42-39-50.91 N",
		"longitude": "78-48-34.97 W",
		"state": "NEW YORK",
		"artcc": "ZOB",
		"type": "RNAV",
		"updated": "06/27/2011",
	},
	{
		"name": "KLIER",
		"latitude": "42-33-55.17 N",
		"longitude": "83-11-3.94 W",
		"state": "MICHIGAN",
		"artcc": "ZOB",
		"type": "RNAV",
		"updated": "10/06/2016",
	},
	{
		"name": "KLOEE",
		"latitude": "41-15-48.84 N",
		"longitude": "84-11-38.27 W",
		"state": "OHIO",
		"artcc": "ZOB",
		"type": "RP",
		"updated": "FBC*VORTAC*315.08/27.13",
	},
	{
		"name": "KLUMP",
		"latitude": "43-0-1.11 N",
		"longitude": "78-39-3.3 W",
		"state": "NEW YORK",
		"artcc": "ZOB",
		"type": "RP",
		"updated": "BUF*VOR/DME*005.30",
	},
	{
		"name": "KLYNE",
		"latitude": "40-41-54.46 N",
		"longitude": "83-18-44.19 W",
		"state": "OHIO",
		"artcc": "ZOB",
		"type": "RNAV",
		"updated": "09/20/2014",
	},
	{
		"name": "KLYNK",
		"latitude": "41-52-45.71 N",
		"longitude": "82-59-19.66 W",
		"state": "MICHIGAN",
		"artcc": "ZOB",
		"type": "RNAV",
		"updated": "03/29/2018",
	},
	{
		"name": "KNNNY",
		"latitude": "41-57-14.32 N",
		"longitude": "83-23-20.52 W",
		"state": "MICHIGAN",
		"artcc": "ZOB",
		"type": "RNAV",
		"updated": "04/18/2018",
	},
	{
		"name": "KNOIT",
		"latitude": "42-12-7.6 N",
		"longitude": "83-10-2.29 W",
		"state": "MICHIGAN",
		"artcc": "ZOB",
		"type": "RP",
		"updated": "EPA*LD*095.73/8.83",
	},
	{
		"name": "KNOOK",
		"latitude": "42-48-4 N",
		"longitude": "82-2-17 W",
		"state": "",
		"artcc": "ZOB",
		"type": "RNAV",
		"updated": "10/06/2016",
	},
	{
		"name": "KOCUR",
		"latitude": "42-32-57.48 N",
		"longitude": "83-16-52.99 W",
		"state": "MICHIGAN",
		"artcc": "ZOB",
		"type": "RNAV",
		"updated": "04/18/2018",
	},
	{
		"name": "KODIE",
		"latitude": "40-28-7.92 N",
		"longitude": "80-19-53.55 W",
		"state": "PENNSYLVANIA",
		"artcc": "ZOB",
		"type": "RP",
		"updated": "SLT*VORTAC*248.52/124.21",
	},
	{
		"name": "KOFFE",
		"latitude": "40-29-13.45 N",
		"longitude": "81-16-53.19 W",
		"state": "OHIO",
		"artcc": "ZOB",
		"type": "RNAV",
		"updated": "08/29/2012",
	},
	{
		"name": "KOFZU",
		"latitude": "40-57-36.61 N",
		"longitude": "80-27-24.33 W",
		"state": "PENNSYLVANIA",
		"artcc": "ZOB",
		"type": "RNAV",
		"updated": "04/28/2010",
	},
	{
		"name": "KOLLR",
		"latitude": "42-10-30 N",
		"longitude": "78-57-16 W",
		"state": "NEW YORK",
		"artcc": "ZOB",
		"type": "RNAV",
		"updated": "04/27/2005",
	},
	{
		"name": "KONBE",
		"latitude": "41-56-4.74 N",
		"longitude": "78-49-25.19 W",
		"state": "PENNSYLVANIA",
		"artcc": "ZOB",
		"type": "RNAV",
		"updated": "08/12/2010",
	},
	{
		"name": "KOOPR",
		"latitude": "42-42-55.23 N",
		"longitude": "78-57-58.83 W",
		"state": "NEW YORK",
		"artcc": "ZOB",
		"type": "RP",
		"updated": "ULW*VOR/DME*306.00/93.99",
	},
	{
		"name": "KOOTH",
		"latitude": "42-11-54.23 N",
		"longitude": "79-21-41.02 W",
		"state": "NEW YORK",
		"artcc": "ZOB",
		"type": "RNAV",
		"updated": "02/14/2002",
	},
	{
		"name": "KOREW",
		"latitude": "41-18-19.02 N",
		"longitude": "83-22-20.95 W",
		"state": "OHIO",
		"artcc": "ZOB",
		"type": "RNAV",
		"updated": "03/01/2018",
	},
	{
		"name": "KOZAR",
		"latitude": "40-35-42.17 N",
		"longitude": "80-35-5.05 W",
		"state": "WEST VIRGINIA",
		"artcc": "ZOB",
		"type": "RP",
		"updated": "DJB*VOR/DME*127.03/85.03",
	},
	{
		"name": "KRABB",
		"latitude": "40-0-28.09 N",
		"longitude": "81-4-46.17 W",
		"state": "OHIO",
		"artcc": "ZOB",
		"type": "RNAV",
		"updated": "04/18/2012",
	},
	{
		"name": "KRIKK",
		"latitude": "40-35-9.72 N",
		"longitude": "80-18-25.94 W",
		"state": "PENNSYLVANIA",
		"artcc": "ZOB",
		"type": "RNAV",
		"updated": "10/26/2009",
	},
	{
		"name": "KROGR",
		"latitude": "42-57-57 N",
		"longitude": "83-53-43.78 W",
		"state": "MICHIGAN",
		"artcc": "ZOB",
		"type": "RP",
		"updated": "FNT*VORTAC*275.56/6.54",
	},
	{
		"name": "KROOK",
		"latitude": "41-36-58.72 N",
		"longitude": "81-24-23.46 W",
		"state": "OHIO",
		"artcc": "ZOB",
		"type": "RP",
		"updated": "CXR*VOR/DME*303.62",
	},
	{
		"name": "KUBFA",
		"latitude": "41-40-43.73 N",
		"longitude": "77-54-49.39 W",
		"state": "PENNSYLVANIA",
		"artcc": "ZOB",
		"type": "RNAV",
		"updated": "10/21/2014",
	},
	{
		"name": "KUHNA",
		"latitude": "42-35-21.47 N",
		"longitude": "83-9-18.97 W",
		"state": "MICHIGAN",
		"artcc": "ZOB",
		"type": "RNAV",
		"updated": "09/24/2009",
	},
	{
		"name": "KUKAF",
		"latitude": "41-32-17.05 N",
		"longitude": "82-39-13.9 W",
		"state": "OHIO",
		"artcc": "ZOB",
		"type": "RNAV",
		"updated": "05/20/2009",
	},
	{
		"name": "KUNHA",
		"latitude": "41-14-35.87 N",
		"longitude": "78-45-30.32 W",
		"state": "PENNSYLVANIA",
		"artcc": "ZOB",
		"type": "RNAV",
		"updated": "07/23/2012",
	},
	{
		"name": "KUPNE",
		"latitude": "42-26-24.33 N",
		"longitude": "83-26-24.99 W",
		"state": "MICHIGAN",
		"artcc": "ZOB",
		"type": "RP",
		"updated": "DXO*VOR/DME*352.49/14.00",
	},
	{
		"name": "KURKE",
		"latitude": "40-19-25.79 N",
		"longitude": "78-50-31.02 W",
		"state": "PENNSYLVANIA",
		"artcc": "ZOB",
		"type": "RP",
		"updated": "JST*VOR/DME*326.01/0.56",
	},
	{
		"name": "KURYE",
		"latitude": "43-26-1.5 N",
		"longitude": "83-59-1.23 W",
		"state": "MICHIGAN",
		"artcc": "ZOB",
		"type": "RNAV",
		"updated": "10/11/2017",
	},
	{
		"name": "KUSRE",
		"latitude": "42-11-51.49 N",
		"longitude": "84-22-24.14 W",
		"state": "MICHIGAN",
		"artcc": "ZOB",
		"type": "RNAV",
		"updated": "09/15/2009",
	},
	{
		"name": "KUZJO",
		"latitude": "41-55-31.67 N",
		"longitude": "83-59-31.94 W",
		"state": "MICHIGAN",
		"artcc": "ZOB",
		"type": "RNAV",
		"updated": "02/09/2018",
	},
	{
		"name": "KWENE",
		"latitude": "41-13-30.51 N",
		"longitude": "82-8-53.51 W",
		"state": "OHIO",
		"artcc": "ZOB",
		"type": "RP",
		"updated": "LIZ*LD*237.94/18.07",
	},
	{
		"name": "KWORD",
		"latitude": "43-27-43.08 N",
		"longitude": "84-10-49.75 W",
		"state": "MICHIGAN",
		"artcc": "ZOB",
		"type": "RP",
		"updated": "MBS*VOR/DME*230.18/6.15",
	},
