[
	{
		"name": "LABXO",
		"latitude": "41-14-39.88 N",
		"longitude": "80-20-59.97 W",
		"state": "PENNSYLVANIA",
		"artcc": "ZOB",
		"type": "RNAV",
		"updated": "02/06/2018"
	},
	{
		"name": "LADVE",
		"latitude": "41-57-26.19 N",
		"longitude": "80-24-28.9 W",
		"state": "PENNSYLVANIA",
		"artcc": "ZOB",
		"type": "RP",
		"updated": "JFN*VOR/DME*057.09/19.30"
	},
	{
		"name": "LAILA",
		"latitude": "41-25-17.56 N",
		"longitude": "81-39-3.03 W",
		"state": "OHIO",
		"artcc": "ZOB",
		"type": "RNAV",
		"updated": "04/18/2018"
	},
	{
		"name": "LAJGE",
		"latitude": "41-15-11.14 N",
		"longitude": "79-29-38.42 W",
		"state": "PENNSYLVANIA",
		"artcc": "ZOB",
		"type": "RNAV",
		"updated": "04/13/2015"
	},
	{
		"name": "LAJOY",
		"latitude": "42-31-14.19 N",
		"longitude": "82-50-24.61 W",
		"state": "MICHIGAN",
		"artcc": "ZOB",
		"type": "MR",
		"updated": "PSI*VORTAC*112.17/32.53"
	},
	{
		"name": "LAKOZ",
		"latitude": "41-46-20.9 N",
		"longitude": "83-29-45.01 W",
		"state": "MICHIGAN",
		"artcc": "ZOB",
		"type": "RNAV",
		"updated": "02/20/2014"
	},
	{
		"name": "LANEC",
		"latitude": "42-54-8.06 N",
		"longitude": "78-46-46.7 W",
		"state": "NEW YORK",
		"artcc": "ZOB",
		"type": "RNAV",
		"updated": "06/01/2012"
	},
	{
		"name": "LANGS",
		"latitude": "42-34-59.35 N",
		"longitude": "78-52-11.02 W",
		"state": "NEW YORK",
		"artcc": "ZOB",
		"type": "RP",
		"updated": "JHW*VOR/DME*032.22/26.18"
	},
	{
		"name": "LANLE",
		"latitude": "40-20-33.72 N",
		"longitude": "78-48-4.98 W",
		"state": "PENNSYLVANIA",
		"artcc": "ZOB",
		"type": "RP",
		"updated": "JST*VOR/DME*050.00/2.17"
	},
	{
		"name": "LARCH",
		"latitude": "41-25-59.99 N",
		"longitude": "84-37-10.41 W",
		"state": "OHIO",
		"artcc": "ZOB",
		"type": "RNAV",
		"updated": "04/18/2012"
	},
	{
		"name": "LARFI",
		"latitude": "39-22-46.65 N",
		"longitude": "82-13-12.24 W",
		"state": "OHIO",
		"artcc": "ZOB",
		"type": "RNAV",
		"updated": "03/10/2015"
	},
	{
		"name": "LARGY",
		"latitude": "39-58-17.99 N",
		"longitude": "82-54-9.75 W",
		"state": "OHIO",
		"artcc": "ZOB",
		"type": "RNAV",
		"updated": "09/28/2014"
	},
	{
		"name": "LASTY",
		"latitude": "42-5-2.08 N",
		"longitude": "83-21-4.44 W",
		"state": "MICHIGAN",
		"artcc": "ZOB",
		"type": "WP",
		"updated": "CRL*VOR/DME*068.64/5.22"
	},
	{
		"name": "LATEC",
		"latitude": "41-1-50.79 N",
		"longitude": "78-42-22.43 W",
		"state": "PENNSYLVANIA",
		"artcc": "ZOB",
		"type": "RP",
		"updated": "PSB*VORTAC*292.19/33.15"
	},
	{
		"name": "LAUDR",
		"latitude": "42-40-26.8 N",
		"longitude": "83-7-14.29 W",
		"state": "MICHIGAN",
		"artcc": "ZOB",
		"type": "RP",
		"updated": "DXO*VOR/DME*027.49"
	},
	{
		"name": "LAWTO",
		"latitude": "40-46-20.01 N",
		"longitude": "83-29-10.14 W",
		"state": "OHIO",
		"artcc": "ZOB",
		"type": "RP",
		"updated": "FBC*VORTAC*133.70"
	},
	{
		"name": "LAYES",
		"latitude": "40-33-26.76 N",
		"longitude": "81-51-1.23 W",
		"state": "OHIO",
		"artcc": "ZOB",
		"type": "RNAV",
		"updated": "03/07/2018"
	},
	{
		"name": "LAYKS",
		"latitude": "42-51-11.28 N",
		"longitude": "83-32-59.35 W",
		"state": "MICHIGAN",
		"artcc": "ZOB",
		"type": "RNAV",
		"updated": "03/29/2018"
	},
	{
		"name": "LAYNE",
		"latitude": "42-54-48.22 N",
		"longitude": "83-22-0.23 W",
		"state": "MICHIGAN",
		"artcc": "ZOB",
		"type": "RP",
		"updated": "DXO*VOR/DME*006.00/42.00"
	},
	{
		"name": "LAZKI",
		"latitude": "40-24-4.53 N",
		"longitude": "79-53-56.64 W",
		"state": "PENNSYLVANIA",
		"artcc": "ZOB",
		"type": "RNAV",
		"updated": "03/15/2012"
	},
	{
		"name": "LEASE",
		"latitude": "39-34-29.77 N",
		"longitude": "79-27-5.72 W",
		"state": "MARYLAND",
		"artcc": "ZOB",
		"type": "RP",
		"updated": "MGW*VORTAC*091.57/19.00"
	},
	{
		"name": "LEBJA",
		"latitude": "41-4-9.37 N",
		"longitude": "81-50-16.44 W",
		"state": "OHIO",
		"artcc": "ZOB",
		"type": "RP",
		"updated": "BSV*VOR/DME*321.00/27.00"
	},
	{
		"name": "LEBJE",
		"latitude": "40-42-46.56 N",
		"longitude": "82-50-24.75 W",
		"state": "OHIO",
		"artcc": "ZOB",
		"type": "RNAV",
		"updated": "06/28/2007"
	},
	{
		"name": "LEBRN",
		"latitude": "41-27-8.01 N",
		"longitude": "81-38-36.22 W",
		"state": "OHIO",
		"artcc": "ZOB",
		"type": "RP",
		"updated": "DJB*VOR/DME*081.27/24.08"
	},
	{
		"name": "LEDBE",
		"latitude": "40-28-20.13 N",
		"longitude": "78-58-58.56 W",
		"state": "PENNSYLVANIA",
		"artcc": "ZOB",
		"type": "RNAV",
		"updated": "07/08/2009"
	},
	{
		"name": "LEEDO",
		"latitude": "41-32-20.03 N",
		"longitude": "81-31-37.85 W",
		"state": "OHIO",
		"artcc": "ZOB",
		"type": "RP",
		"updated": "CGF*LD*237.47/1.83"
	},
	{
		"name": "LEFSO",
		"latitude": "39-39-47.88 N",
		"longitude": "80-4-45.93 W",
		"state": "WEST VIRGINIA",
		"artcc": "ZOB",
		"type": "RP",
		"updated": "MGW*VORTAC*307.25/12.00"
	},
	{
		"name": "LEGGY",
		"latitude": "43-2-25.7 N",
		"longitude": "78-28-38.95 W",
		"state": "NEW YORK",
		"artcc": "ZOB",
		"type": "RNAV",
		"updated": "03/07/2005"
	},
	{
		"name": "LEHRA",
		"latitude": "42-45-21.23 N",
		"longitude": "83-9-49.63 W",
		"state": "MICHIGAN",
		"artcc": "ZOB",
		"type": "RNAV",
		"updated": "01/12/2010"
	},
	{
		"name": "LEJOY",
		"latitude": "40-0-12.22 N",
		"longitude": "79-24-53.61 W",
		"state": "PENNSYLVANIA",
		"artcc": "ZOB",
		"type": "RP",
		"updated": "AIR*VOR/DME*097.27/64.66"
	},
	{
		"name": "LEJYU",
		"latitude": "40-46-8.21 N",
		"longitude": "82-20-34.36 W",
		"state": "OHIO",
		"artcc": "ZOB",
		"type": "RNAV",
		"updated": "03/10/2015"
	},
	{
		"name": "LEKSE",
		"latitude": "40-12-2.09 N",
		"longitude": "78-42-27.25 W",
		"state": "PENNSYLVANIA",
		"artcc": "ZOB",
		"type": "RNAV",
		"updated": "05/13/2015"
	},
	{
		"name": "LELUW",
		"latitude": "41-29-42.65 N",
		"longitude": "82-55-50.27 W",
		"state": "OHIO",
		"artcc": "ZOB",
		"type": "RNAV",
		"updated": "02/09/2018"
	},
	{
		"name": "LEMEW",
		"latitude": "40-23-42.14 N",
		"longitude": "80-37-45.29 W",
		"state": "OHIO",
		"artcc": "ZOB",
		"type": "RNAV",
		"updated": "10/26/2009"
	},
	{
		"name": "LENER",
		"latitude": "42-59-32 N",
		"longitude": "78-4-47.91 W",
		"state": "NEW YORK",
		"artcc": "ZOB",
		"type": "RP",
		"updated": "GEE*VOR/DME*310.85/18.00"
	},
	{
		"name": "LENLE",
		"latitude": "40-21-15.76 N",
		"longitude": "79-48-11.68 W",
		"state": "PENNSYLVANIA",
		"artcc": "ZOB",
		"type": "RNAV",
		"updated": "07/08/2003"
	},
	{
		"name": "LEONI",
		"latitude": "39-59-7.28 N",
		"longitude": "78-19-21.12 W",
		"state": "PENNSYLVANIA",
		"artcc": "ZOB",
		"type": "RP",
		"updated": "JST*VOR/DME*136.00/30.80"
	},
	{
		"name": "LEPEW",
		"latitude": "40-52-12.92 N",
		"longitude": "81-8-39.59 W",
		"state": "OHIO",
		"artcc": "ZOB",
		"type": "RP",
		"updated": "DJB*VOR/DME*127.03/54.64"
	},
	{
		"name": "LEPNE",
		"latitude": "41-51-7.37 N",
		"longitude": "78-42-29.89 W",
		"state": "PENNSYLVANIA",
		"artcc": "ZOB",
		"type": "RNAV",
		"updated": "08/17/2010"
	},
	{
		"name": "LEPSE",
		"latitude": "41-3-19.92 N",
		"longitude": "81-44-30.72 W",
		"state": "OHIO",
		"artcc": "ZOB",
		"type": "RNAV",
		"updated": "03/28/2018"
	},
	{
		"name": "LERIC",
		"latitude": "40-58-6.68 N",
		"longitude": "78-56-5.49 W",
		"state": "PENNSYLVANIA",
		"artcc": "ZOB",
		"type": "RP",
		"updated": "CIP*VOR/DME*120.00/26.03"
	},
	{
		"name": "LESSY",
		"latitude": "42-26-13.26 N",
		"longitude": "84-33-2.97 W",
		"state": "MICHIGAN",
		"artcc": "ZOB",
		"type": "RP",
		"updated": "JXN*VOR/DME*343.97/11.43"
	},
	{
		"name": "LEWIZ",
		"latitude": "40-44-27.09 N",
		"longitude": "81-33-45.1 W",
		"state": "OHIO",
		"artcc": "ZOB",
		"type": "RNAV",
		"updated": "03/07/2018"
	},
	{
		"name": "LEWUK",
		"latitude": "41-57-4.44 N",
		"longitude": "83-31-51.63 W",
		"state": "MICHIGAN",
		"artcc": "ZOB",
		"type": "RP",
		"updated": "HUU*LD*215.71/16.54"
	},
	{
		"name": "LEYIR",
		"latitude": "41-30-37.26 N",
		"longitude": "83-52-50.78 W",
		"state": "OHIO",
		"artcc": "ZOB",
		"type": "RNAV",
		"updated": "03/01/2018"
	},
	{
		"name": "LIANG",
		"latitude": "40-38-37.29 N",
		"longitude": "83-6-17.34 W",
		"state": "OHIO",
		"artcc": "ZOB",
		"type": "RNAV",
		"updated": "03/07/2016"
	},
	{
		"name": "LIBBR",
		"latitude": "39-15-11.12 N",
		"longitude": "80-27-9.13 W",
		"state": "WEST VIRGINIA",
		"artcc": "ZOB",
		"type": "RP",
		"updated": "EKN*VORTAC*328.00"
	},
	{
		"name": "LIBRA",
		"latitude": "40-10-30.55 N",
		"longitude": "79-32-30.43 W",
		"state": "PENNSYLVANIA",
		"artcc": "ZOB",
		"type": "WP",
		"updated": "IHD*VORTAC*331.02/14.71"
	},
	{
		"name": "LIDVE",
		"latitude": "39-36-16.82 N",
		"longitude": "78-46-17.29 W",
		"state": "MARYLAND",
		"artcc": "ZOB",
		"type": "RNAV",
		"updated": "02/24/2016"
	},
	{
		"name": "LILLI",
		"latitude": "40-27-52.14 N",
		"longitude": "78-39-27.39 W",
		"state": "PENNSYLVANIA",
		"artcc": "ZOB",
		"type": "RP",
		"updated": "JST*VOR/DME*048.36/12.00"
	},
	{
		"name": "LILPE",
		"latitude": "41-43-57.56 N",
		"longitude": "80-12-36.98 W",
		"state": "PENNSYLVANIA",
		"artcc": "ZOB",
		"type": "RNAV",
		"updated": "02/21/2017"
	},
	{
		"name": "LIMBS",
		"latitude": "40-29-52.68 N",
		"longitude": "79-51-3.66 W",
		"state": "PENNSYLVANIA",
		"artcc": "ZOB",
		"type": "RNAV",
		"updated": "04/09/2014"
	},
	{
		"name": "LINZZ",
		"latitude": "40-48-22.53 N",
		"longitude": "84-6-12.24 W",
		"state": "OHIO",
		"artcc": "ZOB",
		"type": "RP",
		"updated": "FBC*VORTAC*242.63/18.16"
	},
	{
		"name": "LIONZ",
		"latitude": "41-59-50.17 N",
		"longitude": "83-29-50.54 W",
		"state": "MICHIGAN",
		"artcc": "ZOB",
		"type": "RP",
		"updated": "HUU*LD*215.71/13.39"
	},
	{
		"name": "LIVER",
		"latitude": "40-40-20.25 N",
		"longitude": "80-44-26.76 W",
		"state": "OHIO",
		"artcc": "ZOB",
		"type": "RP",
		"updated": "DJB*VOR/DME*127.03/76.53"
	},
	{
		"name": "LIVLE",
		"latitude": "43-13-55.39 N",
		"longitude": "77-14-31.31 W",
		"state": "NEW YORK",
		"artcc": "ZOB",
		"type": "RNAV",
		"updated": "06/18/2008"
	},
	{
		"name": "LIYIG",
		"latitude": "43-29-20.93 N",
		"longitude": "83-23-43.11 W",
		"state": "MICHIGAN",
		"artcc": "ZOB",
		"type": "RNAV",
		"updated": "04/22/2016"
	},
	{
		"name": "LIZEE",
		"latitude": "42-19-39.78 N",
		"longitude": "71-1-44.32 W",
		"state": "MASSACHUSETTS",
		"artcc": "ZOB",
		"type": "RNAV",
		"updated": "07/20/2017"
	},
	{
		"name": "LIZHO",
		"latitude": "41-10-39.11 N",
		"longitude": "80-4-23.42 W",
		"state": "PENNSYLVANIA",
		"artcc": "ZOB",
		"type": "RNAV",
		"updated": "10/21/2014"
	},
	{
		"name": "LIZIO",
		"latitude": "39-29-55.94 N",
		"longitude": "79-7-55.61 W",
		"state": "MARYLAND",
		"artcc": "ZOB",
		"type": "RP",
		"updated": "MGW*VORTAC*100.52/33.99"
	},
	{
		"name": "LKERI",
		"latitude": "42-50-11.44 N",
		"longitude": "78-56-1.94 W",
		"state": "NEW YORK",
		"artcc": "ZOB",
		"type": "RNAV",
		"updated": "07/25/2014"
	},
	{
		"name": "LLEEO",
		"latitude": "41-50-32.7 N",
		"longitude": "82-37-23.01 W",
		"state": "",
		"artcc": "ZOB",
		"type": "RP",
		"updated": "DXO*VOR/DME*129.52/40.00"
	},
	{
		"name": "LLONG",
		"latitude": "40-36-42.81 N",
		"longitude": "81-10-34.78 W",
		"state": "OHIO",
		"artcc": "ZOB",
		"type": "RP",
		"updated": "BSV*VOR/DME*127.40/14.00"
	},
	{
		"name": "LLROY",
		"latitude": "41-37-30.61 N",
		"longitude": "81-43-22.58 W",
		"state": "OHIO",
		"artcc": "ZOB",
		"type": "RNAV",
		"updated": "04/18/2018"
	},
	{
		"name": "LMBRT",
		"latitude": "40-18-35.22 N",
		"longitude": "79-49-45.79 W",
		"state": "PENNSYLVANIA",
		"artcc": "ZOB",
		"type": "RNAV",
		"updated": "10/27/2009"
	},
	{
		"name": "LMCTG",
		"latitude": "41-24-17.76 N",
		"longitude": "80-52-5.6 W",
		"state": "OHIO",
		"artcc": "ZOB",
		"type": "CN",
		"updated": "09/30/2011"
	},
	{
		"name": "LNDAN",
		"latitude": "41-48-10.61 N",
		"longitude": "83-30-5.59 W",
		"state": "MICHIGAN",
		"artcc": "ZOB",
		"type": "RNAV",
		"updated": "04/17/2018"
	},
	{
		"name": "LNDDA",
		"latitude": "41-9-43.72 N",
		"longitude": "79-13-27.46 W",
		"state": "PENNSYLVANIA",
		"artcc": "ZOB",
		"type": "RNAV",
		"updated": "09/24/2007"
	},
	{
		"name": "LNDOR",
		"latitude": "41-40-13.88 N",
		"longitude": "82-18-49.9 W",
		"state": "OHIO",
		"artcc": "ZOB",
		"type": "RNAV",
		"updated": "07/31/2017"
	},
	{
		"name": "LOCPI",
		"latitude": "41-5-20.63 N",
		"longitude": "79-37-11.01 W",
		"state": "PENNSYLVANIA",
		"artcc": "ZOB",
		"type": "RNAV",
		"updated": "02/04/2008"
	},
	{
		"name": "LODEY",
		"latitude": "42-58-8.37 N",
		"longitude": "78-34-35.57 W",
		"state": "NEW YORK",
		"artcc": "ZOB",
		"type": "RP",
		"updated": "BUF*VOR/DME*060.02/3.90"
	},
	{
		"name": "LOFWY",
		"latitude": "42-32-33.29 N",
		"longitude": "83-16-15.69 W",
		"state": "MICHIGAN",
		"artcc": "ZOB",
		"type": "RNAV",
		"updated": "04/26/2017"
	},
	{
		"name": "LOPPO",
		"latitude": "40-13-7.67 N",
		"longitude": "79-37-50.43 W",
		"state": "PENNSYLVANIA",
		"artcc": "ZOB",
		"type": "RNAV",
		"updated": "11/05/2014"
	},
	{
		"name": "LOPVO",
		"latitude": "42-55-1 N",
		"longitude": "80-24-2 W",
		"state": "",
		"artcc": "ZOB",
		"type": "RNAV",
		"updated": "04/03/2018"
	},
	{
		"name": "LORES",
		"latitude": "39-58-26.11 N",
		"longitude": "81-26-35.76 W",
		"state": "OHIO",
		"artcc": "ZOB",
		"type": "RP",
		"updated": "CTW*VOR/DME*181.29/15.38"
	},
	{
		"name": "LORRI",
		"latitude": "43-2-22.91 N",
		"longitude": "82-24-2.59 W",
		"state": "MICHIGAN",
		"artcc": "ZOB",
		"type": "WP",
		"updated": "10/07/2014"
	},
	{
		"name": "LORTH",
		"latitude": "43-7-47.93 N",
		"longitude": "77-19-5.32 W",
		"state": "NEW YORK",
		"artcc": "ZOB",
		"type": "RP",
		"updated": "ROC*VOR/DME*099.23/15.60"
	},
	{
		"name": "LOTAH",
		"latitude": "40-54-24.31 N",
		"longitude": "79-0-8.84 W",
		"state": "PENNSYLVANIA",
		"artcc": "ZOB",
		"type": "RNAV",
		"updated": "04/09/2014"
	},
	{
		"name": "LOYIC",
		"latitude": "40-42-27.37 N",
		"longitude": "79-34-49.42 W",
		"state": "PENNSYLVANIA",
		"artcc": "ZOB",
		"type": "RNAV",
		"updated": "10/02/2014"
	},
	{
		"name": "LTOUR",
		"latitude": "42-50-57.69 N",
		"longitude": "84-55-5.9 W",
		"state": "MICHIGAN",
		"artcc": "ZOB",
		"type": "RNAV",
		"updated": "02/28/2018"
	},
	{
		"name": "LUCCA",
		"latitude": "40-47-55.75 N",
		"longitude": "79-18-51.97 W",
		"state": "PENNSYLVANIA",
		"artcc": "ZOB",
		"type": "RNAV",
		"updated": "03/23/2018"
	},
	{
		"name": "LUGGS",
		"latitude": "43-3-16.87 N",
		"longitude": "84-26-34.48 W",
		"state": "MICHIGAN",
		"artcc": "ZOB",
		"type": "RP",
		"updated": "FNT*VORTAC*286.00/31.09"
	},
	{
		"name": "LUISE",
		"latitude": "39-34-27.39 N",
		"longitude": "80-41-54.64 W",
		"state": "WEST VIRGINIA",
		"artcc": "ZOB",
		"type": "RP",
		"updated": "APE*VORTAC*117.00/93.91"
	},
	{
		"name": "LUJOJ",
		"latitude": "43-1-8.68 N",
		"longitude": "84-49-26.61 W",
		"state": "MICHIGAN",
		"artcc": "ZOB",
		"type": "RNAV",
		"updated": "08/25/2000"
	},
	{
		"name": "LUKSS",
		"latitude": "42-0-11.4 N",
		"longitude": "84-21-48.37 W",
		"state": "MICHIGAN",
		"artcc": "ZOB",
		"type": "RP",
		"updated": "JXN*VOR/DME*169.51"
	},
	{
		"name": "LUNDY",
		"latitude": "39-39-39.4 N",
		"longitude": "79-5-34.57 W",
		"state": "MARYLAND",
		"artcc": "ZOB",
		"type": "RP",
		"updated": "AIR*VOR/DME*111.44/82.50"
	},
	{
		"name": "LUPAY",
		"latitude": "42-26-22.02 N",
		"longitude": "83-11-45.38 W",
		"state": "MICHIGAN",
		"artcc": "ZOB",
		"type": "RP",
		"updated": "DXO*VOR/DME*035.18/15.56"
	},
	{
		"name": "LUYIT",
		"latitude": "42-9-21.17 N",
		"longitude": "84-51-32.9 W",
		"state": "MICHIGAN",
		"artcc": "ZOB",
		"type": "RP",
		"updated": "LFD*VOR/DME*328.18/7.00"
	},
	{
		"name": "LUYRI",
		"latitude": "42-45-2.3 N",
		"longitude": "84-43-17.57 W",
		"state": "MICHIGAN",
		"artcc": "ZOB",
		"type": "RNAV",
		"updated": "09/04/2007"
	},
	{
		"name": "LVISS",
		"latitude": "41-4-52.26 N",
		"longitude": "81-47-47 W",
		"state": "OHIO",
		"artcc": "ZOB",
		"type": "RNAV",
		"updated": "03/29/2018"
	},
	{
		"name": "LYCEE",
		"latitude": "41-24-44.81 N",
		"longitude": "78-23-0.11 W",
		"state": "PENNSYLVANIA",
		"artcc": "ZOB",
		"type": "RP",
		"updated": "OYM*LE*E CRS/5.86"
	},
	{
		"name": "LYNTN",
		"latitude": "41-43-4.17 N",
		"longitude": "82-57-51 W",
		"state": "OHIO",
		"artcc": "ZOB",
		"type": "RP",
		"updated": "DXO*VOR/DME*154.63/34.74"
	}
]
