	{
		"name": "MAARS",
		"latitude": "42-5-18 N",
		"longitude": "82-29-10.46 W",
		"state": "",
		"artcc": "ZOB",
		"type": "RP",
		"updated": "DXO*VOR/DME*106.49/40.00",
	},
	{
		"name": "MABFA",
		"latitude": "41-8-44.16 N",
		"longitude": "80-10-2.4 W",
		"state": "PENNSYLVANIA",
		"artcc": "ZOB",
		"type": "RP",
		"updated": "EWC*VOR/DME*013.95/19.33",
	},
	{
		"name": "MABYV",
		"latitude": "39-58-11.57 N",
		"longitude": "77-38-48.85 W",
		"state": "PENNSYLVANIA",
		"artcc": "ZOB",
		"type": "CN",
		"updated": "08/21/2002",
	},
	{
		"name": "MACCS",
		"latitude": "42-1-3.88 N",
		"longitude": "83-8-25.26 W",
		"state": "MICHIGAN",
		"artcc": "ZOB",
		"type": "RP",
		"updated": "SVM*VORTAC*142.07",
	},
	{
		"name": "MACCY",
		"latitude": "41-11-19.41 N",
		"longitude": "83-23-59.18 W",
		"state": "OHIO",
		"artcc": "ZOB",
		"type": "RP",
		"updated": "FBC*VORTAC*051.00/21.38",
	},
	{
		"name": "MACEV",
		"latitude": "43-10-18.05 N",
		"longitude": "78-16-38.86 W",
		"state": "NEW YORK",
		"artcc": "ZOB",
		"type": "CN",
		"updated": "12/04/2014",
	},
	{
		"name": "MACIP",
		"latitude": "43-4-32.41 N",
		"longitude": "77-13-59.72 W",
		"state": "NEW YORK",
		"artcc": "ZOB",
		"type": "CN",
		"updated": "12/04/2014",
	},
	{
		"name": "MACTI",
		"latitude": "40-54-13.51 N",
		"longitude": "82-15-24.6 W",
		"state": "OHIO",
		"artcc": "ZOB",
		"type": "RP",
		"updated": "MFD*VORTAC*085.00/15.35",
	},
	{
		"name": "MACUC",
		"latitude": "39-58-26.4 N",
		"longitude": "81-34-56.89 W",
		"state": "OHIO",
		"artcc": "ZOB",
		"type": "RP",
		"updated": "ZZV*VOR/DME*088.00/14.45",
	},
	{
		"name": "MACXY",
		"latitude": "42-39-51.05 N",
		"longitude": "82-58-11.52 W",
		"state": "MICHIGAN",
		"artcc": "ZOB",
		"type": "CN",
		"updated": "02/20/2001",
	},
	{
		"name": "MADBE",
		"latitude": "43-27-28.38 N",
		"longitude": "83-27-10.31 W",
		"state": "MICHIGAN",
		"artcc": "ZOB",
		"type": "RP",
		"updated": "MBS*VOR/DME*102.00/27.63",
	},
	{
		"name": "MADDA",
		"latitude": "40-53-0.62 N",
		"longitude": "83-18-57.77 W",
		"state": "OHIO",
		"artcc": "ZOB",
		"type": "RP",
		"updated": "FBC*VORTAC*104.00/20.47",
	},
	{
		"name": "MADJA",
		"latitude": "40-57-49.75 N",
		"longitude": "80-41-0.9 W",
		"state": "OHIO",
		"artcc": "ZOB",
		"type": "RP",
		"updated": "ACO*VOR/DME*114.00/25.05",
	},
	{
		"name": "MADWE",
		"latitude": "42-20-55.55 N",
		"longitude": "83-27-30.6 W",
		"state": "MICHIGAN",
		"artcc": "ZOB",
		"type": "RP",
		"updated": "SVM*VORTAC*123.76/7.01",
	},
	{
		"name": "MADWI",
		"latitude": "40-57-0.39 N",
		"longitude": "80-52-10.24 W",
		"state": "OHIO",
		"artcc": "ZOB",
		"type": "CN",
		"updated": "06/07/2001",
	},
	{
		"name": "MAFMO",
		"latitude": "39-52-54.45 N",
		"longitude": "80-44-10.89 W",
		"state": "WEST VIRGINIA",
		"artcc": "ZOB",
		"type": "RP",
		"updated": "AIR*VOR/DME*162.26/8.93",
	},
	{
		"name": "MAGEN",
		"latitude": "43-8-3.28 N",
		"longitude": "77-11-0.84 W",
		"state": "NEW YORK",
		"artcc": "ZOB",
		"type": "RP",
		"updated": "ROC*VOR/DME*099.23/21.52",
	},
	{
		"name": "MAGNV",
		"latitude": "42-6-25.69 N",
		"longitude": "77-59-28.09 W",
		"state": "NEW YORK",
		"artcc": "ZOB",
		"type": "RP",
		"updated": "ELZ*VORTAC*028.71/1.11",
	},
	{
		"name": "MAGWE",
		"latitude": "42-13-54.76 N",
		"longitude": "83-21-7.14 W",
		"state": "MICHIGAN",
		"artcc": "ZOB",
		"type": "CN",
		"updated": "02/20/2001",
	},
	{
		"name": "MAHIH",
		"latitude": "43-1-21.1 N",
		"longitude": "78-28-40.55 W",
		"state": "NEW YORK",
		"artcc": "ZOB",
		"type": "CN",
		"updated": "12/04/2014",
	},
	{
		"name": "MAHXA",
		"latitude": "42-59-26.38 N",
		"longitude": "84-8-5 W",
		"state": "MICHIGAN",
		"artcc": "ZOB",
		"type": "CN",
		"updated": "02/21/2001",
	},
	{
		"name": "MAHZE",
		"latitude": "42-56-20.79 N",
		"longitude": "78-43-28.35 W",
		"state": "NEW YORK",
		"artcc": "ZOB",
		"type": "CN",
		"updated": "12/04/2014",
	},
	{
		"name": "MAINE",
		"latitude": "40-53-36.05 N",
		"longitude": "81-41-16.81 W",
		"state": "OHIO",
		"artcc": "ZOB",
		"type": "RP",
		"updated": "DJB*VOR/DME*147.21/35.19",
	},
	{
		"name": "MAJGU",
		"latitude": "43-1-44.66 N",
		"longitude": "78-9-41.91 W",
		"state": "NEW YORK",
		"artcc": "ZOB",
		"type": "RP",
		"updated": "GEE*VOR/DME*310.85/22.22",
	},
	{
		"name": "MAJLY",
		"latitude": "42-58-39.84 N",
		"longitude": "77-55-56.68 W",
		"state": "NEW YORK",
		"artcc": "ZOB",
		"type": "RP",
		"updated": "GEE*VOR/DME*323.39/12.31",
	},
	{
		"name": "MAJOJ",
		"latitude": "41-2-10.58 N",
		"longitude": "82-43-21.34 W",
		"state": "OHIO",
		"artcc": "ZOB",
		"type": "RP",
		"updated": "MFD*VORTAC*332.28/11.70",
	},
	{
		"name": "MAJUW",
		"latitude": "42-30-5.27 N",
		"longitude": "83-37-23.08 W",
		"state": "MICHIGAN",
		"artcc": "ZOB",
		"type": "CN",
		"updated": "02/21/2001",
	},
	{
		"name": "MAJWE",
		"latitude": "41-39-52.37 N",
		"longitude": "81-11-47.69 W",
		"state": "OHIO",
		"artcc": "ZOB",
		"type": "CN",
		"updated": "06/07/2001",
	},
	{
		"name": "MAKCE",
		"latitude": "42-15-1.06 N",
		"longitude": "83-31-8.98 W",
		"state": "MICHIGAN",
		"artcc": "ZOB",
		"type": "RP",
		"updated": "SVM*VORTAC*163.63/10.08",
	},
	{
		"name": "MALPG",
		"latitude": "41-55-59.66 N",
		"longitude": "83-26-25.53 W",
		"state": "MICHIGAN",
		"artcc": "ZOB",
		"type": "CN",
		"updated": "08/21/2002",
	},
	{
		"name": "MANBP",
		"latitude": "43-26-12.16 N",
		"longitude": "83-52-10.03 W",
		"state": "MICHIGAN",
		"artcc": "ZOB",
		"type": "RP",
		"updated": "MBS*VOR/DME*125.03/10.72",
	},
	{
		"name": "MANGS",
		"latitude": "41-30-33.1 N",
		"longitude": "82-57-5.12 W",
		"state": "OHIO",
		"artcc": "ZOB",
		"type": "RNAV",
		"updated": "01/26/2015",
	},
	{
		"name": "MANNS",
		"latitude": "40-45-56.52 N",
		"longitude": "82-26-43.9 W",
		"state": "OHIO",
		"artcc": "ZOB",
		"type": "RP",
		"updated": "MFD*VORTAC*/9.05",
	},
	{
		"name": "MANSY",
		"latitude": "41-5-56.48 N",
		"longitude": "83-39-55.96 W",
		"state": "OHIO",
		"artcc": "ZOB",
		"type": "RNAV",
		"updated": "06/28/2007",
	},
	{
		"name": "MAPES",
		"latitude": "43-12-18.87 N",
		"longitude": "77-36-17.41 W",
		"state": "NEW YORK",
		"artcc": "ZOB",
		"type": "RP",
		"updated": "ROC*VOR/DME*/6.03",
	},
	{
		"name": "MAPSV",
		"latitude": "40-33-50.05 N",
		"longitude": "81-4-53.66 W",
		"state": "OHIO",
		"artcc": "ZOB",
		"type": "RP",
		"updated": "BSV*VOR/DME*127.40/19.20",
	},
	{
		"name": "MARGN",
		"latitude": "42-56-59.18 N",
		"longitude": "82-38-49.14 W",
		"state": "MICHIGAN",
		"artcc": "ZOB",
		"type": "RP",
		"updated": "FNT*VORTAC*096.83/48.47",
	},
	{
		"name": "MASDE",
		"latitude": "40-31-16.25 N",
		"longitude": "78-53-40.1 W",
		"state": "PENNSYLVANIA",
		"artcc": "ZOB",
		"type": "RNAV",
		"updated": "07/08/2009",
	},
	{
		"name": "MASEY",
		"latitude": "42-42-26.04 N",
		"longitude": "82-50-1.19 W",
		"state": "MICHIGAN",
		"artcc": "ZOB",
		"type": "MR",
		"updated": "MTC*TACAN*/5.66",
	},
	{
		"name": "MASGL",
		"latitude": "40-54-38.18 N",
		"longitude": "80-59-54.67 W",
		"state": "OHIO",
		"artcc": "ZOB",
		"type": "CN",
		"updated": "04/21/2003",
	},
	{
		"name": "MATHE",
		"latitude": "41-48-53.9 N",
		"longitude": "79-6-0.1 W",
		"state": "PENNSYLVANIA",
		"artcc": "ZOB",
		"type": "RNAV",
		"updated": "10/21/2014",
	},
	{
		"name": "MAULL",
		"latitude": "40-55-17.93 N",
		"longitude": "79-19-44.99 W",
		"state": "PENNSYLVANIA",
		"artcc": "ZOB",
		"type": "RP",
		"updated": "JHW*VOR/DME*194.09",
	},
	{
		"name": "MAVPE",
		"latitude": "41-14-28.28 N",
		"longitude": "79-25-35.94 W",
		"state": "PENNSYLVANIA",
		"artcc": "ZOB",
		"type": "RNAV",
		"updated": "02/21/2017",
	},
	{
		"name": "MAVVV",
		"latitude": "42-39-34.93 N",
		"longitude": "81-48-39.97 W",
		"state": "",
		"artcc": "ZOB",
		"type": "RNAV",
		"updated": "04/03/2018",
	},
	{
		"name": "MAWRE",
		"latitude": "41-32-53.56 N",
		"longitude": "82-54-17.4 W",
		"state": "OHIO",
		"artcc": "ZOB",
		"type": "RNAV",
		"updated": "07/28/2014",
	},
	{
		"name": "MAYZE",
		"latitude": "41-26-18.68 N",
		"longitude": "83-39-50.66 W",
		"state": "OHIO",
		"artcc": "ZOB",
		"type": "RP",
		"updated": "DJB*VOR/DME*279.57/68.00",
	},
	{
		"name": "MAZKY",
		"latitude": "40-59-22.24 N",
		"longitude": "83-25-13.31 W",
		"state": "OHIO",
		"artcc": "ZOB",
		"type": "RNAV",
		"updated": "05/27/2009",
	},
	{
		"name": "MCANN",
		"latitude": "42-57-28.16 N",
		"longitude": "77-25-39.73 W",
		"state": "NEW YORK",
		"artcc": "ZOB",
		"type": "RNAV",
		"updated": "09/11/2014",
	},
	{
		"name": "MCHGN",
		"latitude": "42-39-3.84 N",
		"longitude": "83-23-31.38 W",
		"state": "MICHIGAN",
		"artcc": "ZOB",
		"type": "RNAV",
		"updated": "03/29/2018",
	},
	{
		"name": "MCLUR",
		"latitude": "41-19-15.88 N",
		"longitude": "84-1-30.6 W",
		"state": "OHIO",
		"artcc": "ZOB",
		"type": "RP",
		"updated": "FBC*VORTAC*333.00",
	},
	{
		"name": "MCOMB",
		"latitude": "42-35-3.44 N",
		"longitude": "83-5-17.25 W",
		"state": "MICHIGAN",
		"artcc": "ZOB",
		"type": "RP",
		"updated": "DWC*LD*035.71/24.00",
	},
	{
		"name": "MDDIE",
		"latitude": "41-54-26.08 N",
		"longitude": "83-25-23.63 W",
		"state": "MICHIGAN",
		"artcc": "ZOB",
		"type": "RNAV",
		"updated": "04/17/2018",
	},
	{
		"name": "MEADI",
		"latitude": "41-40-31.35 N",
		"longitude": "80-5-45.3 W",
		"state": "PENNSYLVANIA",
		"artcc": "ZOB",
		"type": "RP",
		"updated": "FKL*VOR*328.89",
	},
	{
		"name": "MEDAV",
		"latitude": "43-29-19 N",
		"longitude": "78-45-46 W",
		"state": "NEW YORK",
		"artcc": "ZOB",
		"type": "RNAV",
		"updated": "09/20/2014",
	},
	{
		"name": "MEDCO",
		"latitude": "41-53-37.76 N",
		"longitude": "83-56-4.08 W",
		"state": "MICHIGAN",
		"artcc": "ZOB",
		"type": "RNAV",
		"updated": "02/23/2015",
	},
	{
		"name": "MEEAT",
		"latitude": "41-12-6.69 N",
		"longitude": "81-43-57.36 W",
		"state": "OHIO",
		"artcc": "ZOB",
		"type": "RNAV",
		"updated": "03/29/2018",
	},
	{
		"name": "MEEKS",
		"latitude": "40-36-33.52 N",
		"longitude": "83-14-53.02 W",
		"state": "OHIO",
		"artcc": "ZOB",
		"type": "RNAV",
		"updated": "03/29/2018",
	},
	{
		"name": "MEGNE",
		"latitude": "39-16-18.03 N",
		"longitude": "84-17-1.41 W",
		"state": "OHIO",
		"artcc": "ZOB",
		"type": "RNAV",
		"updated": "10/08/2015",
	},
	{
		"name": "MEHIF",
		"latitude": "39-45-48.45 N",
		"longitude": "80-55-39.9 W",
		"state": "OHIO",
		"artcc": "ZOB",
		"type": "RNAV",
		"updated": "01/02/2009",
	},
	{
		"name": "MELIS",
		"latitude": "41-23-19.18 N",
		"longitude": "83-22-21.4 W",
		"state": "OHIO",
		"artcc": "ZOB",
		"type": "RNAV",
		"updated": "01/25/2007",
	},
	{
		"name": "MELRR",
		"latitude": "43-5-20.05 N",
		"longitude": "84-56-17.93 W",
		"state": "MICHIGAN",
		"artcc": "ZOB",
		"type": "RNAV",
		"updated": "02/25/2013",
	},
	{
		"name": "MERCA",
		"latitude": "41-50-31.32 N",
		"longitude": "83-23-13.16 W",
		"state": "MICHIGAN",
		"artcc": "ZOB",
		"type": "RNAV",
		"updated": "04/17/2018",
	},
	{
		"name": "MERCY",
		"latitude": "41-15-57.79 N",
		"longitude": "80-14-10.13 W",
		"state": "PENNSYLVANIA",
		"artcc": "ZOB",
		"type": "RP",
		"updated": "EWC*VOR/DME*005.59/26.48",
	},
	{
		"name": "MERFI",
		"latitude": "42-27-2.57 N",
		"longitude": "83-20-16.66 W",
		"state": "MICHIGAN",
		"artcc": "ZOB",
		"type": "RNAV",
		"updated": "03/29/2018",
	},
	{
		"name": "MESIE",
		"latitude": "40-21-14.92 N",
		"longitude": "80-1-36.41 W",
		"state": "PENNSYLVANIA",
		"artcc": "ZOB",
		"type": "RNAV",
		"updated": "07/08/2003",
	},
	{
		"name": "METZE",
		"latitude": "39-31-37.69 N",
		"longitude": "80-16-26.59 W",
		"state": "WEST VIRGINIA",
		"artcc": "ZOB",
		"type": "RP",
		"updated": "MGW*VORTAC*270.00/19.30",
	},
	{
		"name": "MGOOD",
		"latitude": "40-57-27.92 N",
		"longitude": "81-10-2.25 W",
		"state": "OHIO",
		"artcc": "ZOB",
		"type": "RNAV",
		"updated": "03/07/2018",
	},
	{
		"name": "MICKJ",
		"latitude": "41-13-5.78 N",
		"longitude": "82-7-46.97 W",
		"state": "OHIO",
		"artcc": "ZOB",
		"type": "RNAV",
		"updated": "03/29/2018",
	},
	{
		"name": "MIDME",
		"latitude": "39-54-23.41 N",
		"longitude": "79-6-36.15 W",
		"state": "PENNSYLVANIA",
		"artcc": "ZOB",
		"type": "RNAV",
		"updated": "11/10/2016",
	},
	{
		"name": "MIDST",
		"latitude": "40-58-10.87 N",
		"longitude": "78-25-39.22 W",
		"state": "PENNSYLVANIA",
		"artcc": "ZOB",
		"type": "RP",
		"updated": "PSB*VORTAC*289.35/20.03",
	},
	{
		"name": "MIGET",
		"latitude": "41-17-40.43 N",
		"longitude": "78-51-51.49 W",
		"state": "PENNSYLVANIA",
		"artcc": "ZOB",
		"type": "RP",
		"updated": "JHW*VOR/DME*174.76",
	},
	{
		"name": "MIKIE",
		"latitude": "41-36-12.77 N",
		"longitude": "83-45-37.65 W",
		"state": "OHIO",
		"artcc": "ZOB",
		"type": "RP",
		"updated": "TOL*TACAN*/1.85",
	},
	{
		"name": "MIKKY",
		"latitude": "42-18-48.52 N",
		"longitude": "79-43-39.57 W",
		"state": "NEW YORK",
		"artcc": "ZOB",
		"type": "RNAV",
		"updated": "02/04/2014",
	},
	{
		"name": "MILKE",
		"latitude": "40-21-15.53 N",
		"longitude": "79-40-20.78 W",
		"state": "PENNSYLVANIA",
		"artcc": "ZOB",
		"type": "RNAV",
		"updated": "07/26/2005",
	},
	{
		"name": "MILNR",
		"latitude": "39-58-45.04 N",
		"longitude": "82-13-18.05 W",
		"state": "OHIO",
		"artcc": "ZOB",
		"type": "RP",
		"updated": "ROD*VORTAC*106.86",
	},
	{
		"name": "MILPE",
		"latitude": "39-31-18.04 N",
		"longitude": "83-23-1.14 W",
		"state": "OHIO",
		"artcc": "ZOB",
		"type": "RNAV",
		"updated": "10/09/2001",
	},
	{
		"name": "MILWO",
		"latitude": "40-18-3.21 N",
		"longitude": "79-23-8.89 W",
		"state": "PENNSYLVANIA",
		"artcc": "ZOB",
		"type": "RP",
		"updated": "IHD*VORTAC*002.32/19.63",
	},
	{
		"name": "MIMRE",
		"latitude": "40-46-2.16 N",
		"longitude": "80-14-44.07 W",
		"state": "PENNSYLVANIA",
		"artcc": "ZOB",
		"type": "RNAV",
		"updated": "02/21/2017",
	},
	{
		"name": "MINER",
		"latitude": "40-41-42.26 N",
		"longitude": "81-12-34.62 W",
		"state": "OHIO",
		"artcc": "ZOB",
		"type": "RP",
		"updated": "BSV*VOR/DME*109.01/10.51",
	},
	{
		"name": "MINSK",
		"latitude": "41-24-44.13 N",
		"longitude": "78-15-1.65 W",
		"state": "PENNSYLVANIA",
		"artcc": "ZOB",
		"type": "RP",
		"updated": "SLT*VORTAC*252.61",
	},
	{
		"name": "MIROY",
		"latitude": "40-18-55.72 N",
		"longitude": "78-21-26.7 W",
		"state": "PENNSYLVANIA",
		"artcc": "ZOB",
		"type": "RP",
		"updated": "JST*VOR/DME*096.04/21.88",
	},
	{
		"name": "MIRTE",
		"latitude": "42-51-22.18 N",
		"longitude": "78-34-33.94 W",
		"state": "NEW YORK",
		"artcc": "ZOB",
		"type": "RNAV",
		"updated": "06/01/2012",
	},
	{
		"name": "MITEN",
		"latitude": "39-55-34.03 N",
		"longitude": "80-45-46.18 W",
		"state": "OHIO",
		"artcc": "ZOB",
		"type": "RP",
		"updated": "AIR*VOR/DME*162.26/6.00",
	},
	{
		"name": "MITTE",
		"latitude": "42-37-59.98 N",
		"longitude": "83-19-42.48 W",
		"state": "MICHIGAN",
		"artcc": "ZOB",
		"type": "RNAV",
		"updated": "03/29/2018",
	},
	{
		"name": "MIXED",
		"latitude": "43-2-23.12 N",
		"longitude": "83-23-50.79 W",
		"state": "MICHIGAN",
		"artcc": "ZOB",
		"type": "RP",
		"updated": "PSI*VORTAC*019.28",
	},
	{
		"name": "MIXPI",
		"latitude": "39-30-7.93 N",
		"longitude": "80-1-3.71 W",
		"state": "WEST VIRGINIA",
		"artcc": "ZOB",
		"type": "RP",
		"updated": "MGW*VORTAC*250.95/8.00",
	},
	{
		"name": "MIZAR",
		"latitude": "41-49-32.78 N",
		"longitude": "84-2-23.17 W",
		"state": "MICHIGAN",
		"artcc": "ZOB",
		"type": "RP",
		"updated": "DXO*VOR/DME*238.57/38.02",
	},
	{
		"name": "MLKIN",
		"latitude": "40-20-29.6 N",
		"longitude": "80-11-1.85 W",
		"state": "PENNSYLVANIA",
		"artcc": "ZOB",
		"type": "RNAV",
		"updated": "10/27/2009",
	},
	{
		"name": "MMOTR",
		"latitude": "42-28-31.38 N",
		"longitude": "83-12-0.72 W",
		"state": "MICHIGAN",
		"artcc": "ZOB",
		"type": "RP",
		"updated": "BZB*LD*033.19/18.50",
	},
	{
		"name": "MMOTT",
		"latitude": "41-56-59.97 N",
		"longitude": "83-37-57.77 W",
		"state": "MICHIGAN",
		"artcc": "ZOB",
		"type": "RNAV",
		"updated": "10/06/2016",
	},
	{
		"name": "MOAWK",
		"latitude": "42-45-1.18 N",
		"longitude": "79-50-58.08 W",
		"state": "",
		"artcc": "ZOB",
		"type": "RP",
		"updated": "YQO*VOR/DME*094.39",
	},
	{
		"name": "MODEM",
		"latitude": "41-43-40.9 N",
		"longitude": "84-53-50.18 W",
		"state": "INDIANA",
		"artcc": "ZOB",
		"type": "RP",
		"updated": "DXO*VOR/DME*253.50",
	},
	{
		"name": "MODLT",
		"latitude": "42-13-44.82 N",
		"longitude": "83-11-9.72 W",
		"state": "MICHIGAN",
		"artcc": "ZOB",
		"type": "RNAV",
		"updated": "03/29/2018",
	},
	{
		"name": "MOGUE",
		"latitude": "41-59-41.49 N",
		"longitude": "78-44-47.02 W",
		"state": "PENNSYLVANIA",
		"artcc": "ZOB",
		"type": "RNAV",
		"updated": "08/17/2010",
	},
	{
		"name": "MOHLR",
		"latitude": "39-34-6.18 N",
		"longitude": "79-36-8.01 W",
		"state": "WEST VIRGINIA",
		"artcc": "ZOB",
		"type": "RP",
		"updated": "MGW*VORTAC*091.57/12.00",
	},
	{
		"name": "MOMBE",
		"latitude": "41-27-17.12 N",
		"longitude": "81-46-46.62 W",
		"state": "OHIO",
		"artcc": "ZOB",
		"type": "RNAV",
		"updated": "04/15/2008",
	},
	{
		"name": "MONCK",
		"latitude": "43-4-33.36 N",
		"longitude": "77-53-36.67 W",
		"state": "NEW YORK",
		"artcc": "ZOB",
		"type": "RP",
		"updated": "ROC*VOR/DME*267.51/10.03",
	},
	{
		"name": "MONEE",
		"latitude": "43-14-25.8 N",
		"longitude": "84-27-50.95 W",
		"state": "MICHIGAN",
		"artcc": "ZOB",
		"type": "RP",
		"updated": "FNT*VORTAC*303.76/35.54",
	},
	{
		"name": "MONLE",
		"latitude": "42-1-21.96 N",
		"longitude": "83-13-3.9 W",
		"state": "MICHIGAN",
		"artcc": "ZOB",
		"type": "RNAV",
		"updated": "03/03/2009",
	},
	{
		"name": "MONOE",
		"latitude": "41-27-13.13 N",
		"longitude": "81-28-1.22 W",
		"state": "OHIO",
		"artcc": "ZOB",
		"type": "RNAV",
		"updated": "01/29/2015",
	},
	{
		"name": "MOOLA",
		"latitude": "42-56-49.94 N",
		"longitude": "78-43-14.47 W",
		"state": "NEW YORK",
		"artcc": "ZOB",
		"type": "WP",
		"updated": "BUF*VOR/DME*296.46/3.45",
	},
	{
		"name": "MOONN",
		"latitude": "42-22-9.64 N",
		"longitude": "82-27-7.14 W",
		"state": "",
		"artcc": "ZOB",
		"type": "RP",
		"updated": "DXO*VOR/DME*082.74/41.80",
	},
	{
		"name": "MOOVN",
		"latitude": "42-19-39.83 N",
		"longitude": "83-6-47.63 W",
		"state": "MICHIGAN",
		"artcc": "ZOB",
		"type": "RNAV",
		"updated": "04/18/2018",
	},
	{
		"name": "MORNG",
		"latitude": "41-35-38.47 N",
		"longitude": "80-33-10.98 W",
		"state": "OHIO",
		"artcc": "ZOB",
		"type": "RNAV",
		"updated": "10/06/2015",
	},
	{
		"name": "MOROW",
		"latitude": "41-20-40.84 N",
		"longitude": "81-17-49.16 W",
		"state": "OHIO",
		"artcc": "ZOB",
		"type": "RNAV",
		"updated": "04/19/2018",
	},
	{
		"name": "MOSKI",
		"latitude": "41-19-59.24 N",
		"longitude": "80-46-20.81 W",
		"state": "OHIO",
		"artcc": "ZOB",
		"type": "RP",
		"updated": "ACO*VOR/DME*059.05",
	},
	{
		"name": "MOTAR",
		"latitude": "42-23-59.5 N",
		"longitude": "78-54-39.5 W",
		"state": "NEW YORK",
		"artcc": "ZOB",
		"type": "RNAV",
		"updated": "03/02/2015",
	},
	{
		"name": "MOTME",
		"latitude": "39-27-26.47 N",
		"longitude": "79-35-47.23 W",
		"state": "WEST VIRGINIA",
		"artcc": "ZOB",
		"type": "RP",
		"updated": "IHD*VORTAC*205.66",
	},
	{
		"name": "MOTWN",
		"latitude": "42-8-37.67 N",
		"longitude": "83-25-51.72 W",
		"state": "MICHIGAN",
		"artcc": "ZOB",
		"type": "RP",
		"updated": "ALA*LD*218.21/3.91",
	},
	{
		"name": "MOYVY",
		"latitude": "42-20-0.05 N",
		"longitude": "79-4-15.28 W",
		"state": "NEW YORK",
		"artcc": "ZOB",
		"type": "RNAV",
		"updated": "11/10/2009",
	},
	{
		"name": "MPALA",
		"latitude": "41-50-4.78 N",
		"longitude": "83-33-9.23 W",
		"state": "MICHIGAN",
		"artcc": "ZOB",
		"type": "RNAV",
		"updated": "04/17/2018",
	},
	{
		"name": "MUDHN",
		"latitude": "41-39-25.4 N",
		"longitude": "84-20-25.72 W",
		"state": "OHIO",
		"artcc": "ZOB",
		"type": "RNAV",
		"updated": "02/27/2018",
	},
	{
		"name": "MUFTI",
		"latitude": "40-29-38.67 N",
		"longitude": "80-32-50.92 W",
		"state": "WEST VIRGINIA",
		"artcc": "ZOB",
		"type": "RP",
		"updated": "MMJ*DME*/16.19",
	},
	{
		"name": "MUGOE",
		"latitude": "41-53-4.61 N",
		"longitude": "79-54-26.58 W",
		"state": "PENNSYLVANIA",
		"artcc": "ZOB",
		"type": "RP",
		"updated": "TDT*VORTAC*304.24/24.28",
	},
	{
		"name": "MUHDY",
		"latitude": "43-31-6 N",
		"longitude": "76-50-35 W",
		"state": "NEW YORK",
		"artcc": "ZOB",
		"type": "RNAV",
		"updated": "10/22/2012",
	},
	{
		"name": "MUHSI",
		"latitude": "40-52-36.44 N",
		"longitude": "80-27-28.4 W",
		"state": "PENNSYLVANIA",
		"artcc": "ZOB",
		"type": "RNAV",
		"updated": "04/28/2010",
	},
	{
		"name": "MULIK",
		"latitude": "41-8-33.43 N",
		"longitude": "81-22-18.71 W",
		"state": "OHIO",
		"artcc": "ZOB",
		"type": "RP",
		"updated": "AK*NDB*016.20",
	},
	{
		"name": "MULNS",
		"latitude": "42-27-16.12 N",
		"longitude": "83-41-18.19 W",
		"state": "MICHIGAN",
		"artcc": "ZOB",
		"type": "RP",
		"updated": "SVM*VORTAC*306.20/5.00",
	},
	{
		"name": "MUMPE",
		"latitude": "42-30-55.33 N",
		"longitude": "83-14-30.56 W",
		"state": "MICHIGAN",
		"artcc": "ZOB",
		"type": "RP",
		"updated": "PSI*VORTAC*133.70/17.03",
	},
	{
		"name": "MUSCA",
		"latitude": "41-54-57.28 N",
		"longitude": "83-0-25.56 W",
		"state": "",
		"artcc": "ZOB",
		"type": "RP",
		"updated": "YQG*VOR/DME*207.74/21.54",
	},
	{
		"name": "MUVNE",
		"latitude": "41-3-37.47 N",
		"longitude": "78-46-15.42 W",
		"state": "PENNSYLVANIA",
		"artcc": "ZOB",
		"type": "RNAV",
		"updated": "02/21/2017",
	},
	{
		"name": "MUZLE",
		"latitude": "41-0-10.93 N",
		"longitude": "79-2-8.43 W",
		"state": "PENNSYLVANIA",
		"artcc": "ZOB",
		"type": "RP",
		"updated": "CIP*VOR/DME*120.00/21.00",
	},
	{
		"name": "MYANN",
		"latitude": "41-11-27.33 N",
		"longitude": "83-39-23.47 W",
		"state": "OHIO",
		"artcc": "ZOB",
		"type": "RP",
		"updated": "TOL*TACAN*170.00/25.00",
	},
	{
		"name": "MYMOM",
		"latitude": "41-4-41.94 N",
		"longitude": "82-33-5.56 W",
		"state": "OHIO",
		"artcc": "ZOB",
		"type": "RNAV",
		"updated": "03/29/2018",
	},
	{
		"name": "MYPAL",
		"latitude": "42-49-56.85 N",
		"longitude": "79-18-28.11 W",
		"state": "",
		"artcc": "ZOB",
		"type": "RP",
		"updated": "BUF*VOR/DME*266.97/29.75",
	},
	{
		"name": "MYRNA",
		"latitude": "41-50-9.13 N",
		"longitude": "77-55-0.4 W",
		"state": "PENNSYLVANIA",
		"artcc": "ZOB",
		"type": "RNAV",
		"updated": "01/09/2018",
	},
	{
		"name": "MYRON",
		"latitude": "40-37-2.48 N",
		"longitude": "79-51-54.58 W",
		"state": "PENNSYLVANIA",
		"artcc": "ZOB",
		"type": "RNAV",
		"updated": "10/27/2009",
	},
	{
		"name": "MYSTI",
		"latitude": "43-23-15 N",
		"longitude": "77-39-50 W",
		"state": "NEW YORK",
		"artcc": "ZOB",
		"type": "RNAV",
		"updated": "12/02/2011",
	},
