	{
		"name": "OASTS",
		"latitude": "41-41-14.9 N",
		"longitude": "80-10-53.86 W",
		"state": "PENNSYLVANIA",
		"artcc": "ZOB",
		"type": "RNAV",
		"updated": "02/21/2017",
	},
	{
		"name": "OBEGE",
		"latitude": "43-29-31.26 N",
		"longitude": "83-44-17.15 W",
		"state": "MICHIGAN",
		"artcc": "ZOB",
		"type": "RP",
		"updated": "MBS*VOR/DME*102.00/15.00",
	},
	{
		"name": "OBEID",
		"latitude": "39-50-9.78 N",
		"longitude": "80-3-35.61 W",
		"state": "PENNSYLVANIA",
		"artcc": "ZOB",
		"type": "RP",
		"updated": "AIR*VOR/DME*114.00/36.60",
	},
	{
		"name": "OBIDE",
		"latitude": "43-38-45.79 N",
		"longitude": "84-17-56.91 W",
		"state": "MICHIGAN",
		"artcc": "ZOB",
		"type": "RNAV",
		"updated": "04/07/2009",
	},
	{
		"name": "OBIHI",
		"latitude": "41-44-13 N",
		"longitude": "84-15-52.27 W",
		"state": "MICHIGAN",
		"artcc": "ZOB",
		"type": "RNAV",
		"updated": "03/14/2008",
	},
	{
		"name": "OBILY",
		"latitude": "43-10-46.34 N",
		"longitude": "77-48-6.82 W",
		"state": "NEW YORK",
		"artcc": "ZOB",
		"type": "RNAV",
		"updated": "05/05/2011",
	},
	{
		"name": "OBKUW",
		"latitude": "42-51-8.58 N",
		"longitude": "84-49-37.87 W",
		"state": "MICHIGAN",
		"artcc": "ZOB",
		"type": "RNAV",
		"updated": "08/25/2000",
	},
	{
		"name": "OBLOW",
		"latitude": "41-11-15.61 N",
		"longitude": "83-5-48.54 W",
		"state": "OHIO",
		"artcc": "ZOB",
		"type": "RNAV",
		"updated": "02/09/2018",
	},
	{
		"name": "OBONE",
		"latitude": "41-52-40.33 N",
		"longitude": "80-44-1.95 W",
		"state": "OHIO",
		"artcc": "ZOB",
		"type": "RNAV",
		"updated": "02/13/2004",
	},
	{
		"name": "OBOSE",
		"latitude": "42-1-11.53 N",
		"longitude": "83-23-24.89 W",
		"state": "MICHIGAN",
		"artcc": "ZOB",
		"type": "RNAV",
		"updated": "06/12/2008",
	},
	{
		"name": "OBOZE",
		"latitude": "41-23-2.06 N",
		"longitude": "82-50-13.02 W",
		"state": "OHIO",
		"artcc": "ZOB",
		"type": "RNAV",
		"updated": "06/06/2011",
	},
	{
		"name": "OBRLN",
		"latitude": "41-6-23.39 N",
		"longitude": "82-44-5.24 W",
		"state": "OHIO",
		"artcc": "ZOB",
		"type": "RP",
		"updated": "MFD*VORTAC*338.43",
	},
	{
		"name": "OBUBY",
		"latitude": "39-52-15.19 N",
		"longitude": "79-53-58.65 W",
		"state": "PENNSYLVANIA",
		"artcc": "ZOB",
		"type": "RNAV",
		"updated": "08/08/2017",
	},
	{
		"name": "OBZOF",
		"latitude": "42-13-45.95 N",
		"longitude": "82-49-38.85 W",
		"state": "",
		"artcc": "ZOB",
		"type": "RP",
		"updated": "DXO*VOR/DME*093.49",
	},
	{
		"name": "OCASA",
		"latitude": "42-6-57.42 N",
		"longitude": "77-22-56.61 W",
		"state": "NEW YORK",
		"artcc": "ZOB",
		"type": "RNAV",
		"updated": "04/20/2012",
	},
	{
		"name": "OCLIG",
		"latitude": "40-17-24.11 N",
		"longitude": "79-33-20.56 W",
		"state": "PENNSYLVANIA",
		"artcc": "ZOB",
		"type": "RNAV",
		"updated": "03/11/2015",
	},
	{
		"name": "OCOCE",
		"latitude": "41-9-51.96 N",
		"longitude": "83-19-54.03 W",
		"state": "OHIO",
		"artcc": "ZOB",
		"type": "RNAV",
		"updated": "02/09/2018",
	},
	{
		"name": "OCOPO",
		"latitude": "40-45-48.3 N",
		"longitude": "82-26-33.82 W",
		"state": "OHIO",
		"artcc": "ZOB",
		"type": "RNAV",
		"updated": "01/21/2009",
	},
	{
		"name": "OCTAS",
		"latitude": "42-13-29.91 N",
		"longitude": "82-26-56.09 W",
		"state": "",
		"artcc": "ZOB",
		"type": "RP",
		"updated": "YQG*VOR/DME*100.88/17.00",
	},
	{
		"name": "OCTEC",
		"latitude": "42-46-47.3 N",
		"longitude": "84-50-28.2 W",
		"state": "MICHIGAN",
		"artcc": "ZOB",
		"type": "RNAV",
		"updated": "07/09/2009",
	},
	{
		"name": "OCTEN",
		"latitude": "41-15-5 N",
		"longitude": "78-38-7 W",
		"state": "PENNSYLVANIA",
		"artcc": "ZOB",
		"type": "RNAV",
		"updated": "04/12/2005",
	},
	{
		"name": "OCUGA",
		"latitude": "41-4-6.62 N",
		"longitude": "81-13-17.38 W",
		"state": "OHIO",
		"artcc": "ZOB",
		"type": "RP",
		"updated": "BSV*VOR/DME*029.92",
	},
	{
		"name": "ODNEF",
		"latitude": "40-13-4.64 N",
		"longitude": "79-20-22.6 W",
		"state": "PENNSYLVANIA",
		"artcc": "ZOB",
		"type": "RNAV",
		"updated": "09/17/2015",
	},
	{
		"name": "ODPAE",
		"latitude": "40-41-17.89 N",
		"longitude": "79-39-52.29 W",
		"state": "PENNSYLVANIA",
		"artcc": "ZOB",
		"type": "RNAV",
		"updated": "05/03/2016",
	},
	{
		"name": "ODPOJ",
		"latitude": "41-43-16.8 N",
		"longitude": "77-37-26.35 W",
		"state": "PENNSYLVANIA",
		"artcc": "ZOB",
		"type": "RNAV",
		"updated": "09/04/2012",
	},
	{
		"name": "ODRAW",
		"latitude": "40-59-17.14 N",
		"longitude": "83-41-28.4 W",
		"state": "OHIO",
		"artcc": "ZOB",
		"type": "RNAV",
		"updated": "02/09/2018",
	},
	{
		"name": "ODUSY",
		"latitude": "41-23-12.83 N",
		"longitude": "83-40-16.2 W",
		"state": "OHIO",
		"artcc": "ZOB",
		"type": "RNAV",
		"updated": "06/24/2013",
	},
	{
		"name": "ODVEJ",
		"latitude": "39-55-10.04 N",
		"longitude": "78-27-23.68 W",
		"state": "PENNSYLVANIA",
		"artcc": "ZOB",
		"type": "RNAV",
		"updated": "02/09/2018",
	},
	{
		"name": "OFOYE",
		"latitude": "42-1-51.94 N",
		"longitude": "83-24-30.77 W",
		"state": "MICHIGAN",
		"artcc": "ZOB",
		"type": "RNAV",
		"updated": "02/09/2018",
	},
	{
		"name": "OFUZU",
		"latitude": "41-14-38.08 N",
		"longitude": "82-18-6.71 W",
		"state": "OHIO",
		"artcc": "ZOB",
		"type": "RNAV",
		"updated": "12/03/2014",
	},
	{
		"name": "OGEVY",
		"latitude": "41-39-20.84 N",
		"longitude": "84-10-53.4 W",
		"state": "OHIO",
		"artcc": "ZOB",
		"type": "RNAV",
		"updated": "02/06/2014",
	},
	{
		"name": "OGPUE",
		"latitude": "43-11-6.57 N",
		"longitude": "84-50-54.35 W",
		"state": "MICHIGAN",
		"artcc": "ZOB",
		"type": "RNAV",
		"updated": "03/13/2014",
	},
	{
		"name": "OGRUE",
		"latitude": "40-28-48.51 N",
		"longitude": "79-56-24.7 W",
		"state": "PENNSYLVANIA",
		"artcc": "ZOB",
		"type": "RNAV",
		"updated": "04/09/2014",
	},
	{
		"name": "OGUGY",
		"latitude": "41-59-53.32 N",
		"longitude": "84-8-6.25 W",
		"state": "MICHIGAN",
		"artcc": "ZOB",
		"type": "RNAV",
		"updated": "04/16/2013",
	},
	{
		"name": "OGVOE",
		"latitude": "41-7-17.07 N",
		"longitude": "81-15-31.15 W",
		"state": "OHIO",
		"artcc": "ZOB",
		"type": "RNAV",
		"updated": "08/28/2014",
	},
	{
		"name": "OGWIT",
		"latitude": "41-46-2.82 N",
		"longitude": "83-35-44.74 W",
		"state": "MICHIGAN",
		"artcc": "ZOB",
		"type": "RNAV",
		"updated": "03/10/2015",
	},
	{
		"name": "OHEWY",
		"latitude": "41-8-28.2 N",
		"longitude": "78-35-46.8 W",
		"state": "PENNSYLVANIA",
		"artcc": "ZOB",
		"type": "RP",
		"updated": "SLT*VORTAC*240.00/36.03",
	},
	{
		"name": "OHLLY",
		"latitude": "42-28-24.24 N",
		"longitude": "82-37-35.96 W",
		"state": "",
		"artcc": "ZOB",
		"type": "RNAV",
		"updated": "04/03/2018",
	},
	{
		"name": "OHOJY",
		"latitude": "41-23-3.92 N",
		"longitude": "84-38-1.23 W",
		"state": "OHIO",
		"artcc": "ZOB",
		"type": "RNAV",
		"updated": "02/09/2018",
	},
	{
		"name": "OHZUF",
		"latitude": "41-7-10.24 N",
		"longitude": "83-43-2.61 W",
		"state": "OHIO",
		"artcc": "ZOB",
		"type": "RP",
		"updated": "FBC*VORTAC*012.09/10.00",
	},
	{
		"name": "OJACE",
		"latitude": "40-49-2 N",
		"longitude": "83-37-58.3 W",
		"state": "OHIO",
		"artcc": "ZOB",
		"type": "RP",
		"updated": "FBC*VORTAC*147.87/10.00",
	},
	{
		"name": "OJGIX",
		"latitude": "41-20-16.11 N",
		"longitude": "84-16-10.9 W",
		"state": "OHIO",
		"artcc": "ZOB",
		"type": "RNAV",
		"updated": "02/09/2018",
	},
	{
		"name": "OJIVO",
		"latitude": "42-48-10.21 N",
		"longitude": "77-10-40.68 W",
		"state": "NEW YORK",
		"artcc": "ZOB",
		"type": "RNAV",
		"updated": "04/10/2002",
	},
	{
		"name": "OJMEF",
		"latitude": "40-51-18.9 N",
		"longitude": "79-51-51.4 W",
		"state": "PENNSYLVANIA",
		"artcc": "ZOB",
		"type": "RNAV",
		"updated": "02/26/2015",
	},
	{
		"name": "OJYUS",
		"latitude": "41-41-52.26 N",
		"longitude": "83-34-51.84 W",
		"state": "OHIO",
		"artcc": "ZOB",
		"type": "RNAV",
		"updated": "02/20/2014",
	},
	{
		"name": "OKEWI",
		"latitude": "42-32-36.34 N",
		"longitude": "83-0-52.98 W",
		"state": "MICHIGAN",
		"artcc": "ZOB",
		"type": "WP",
		"updated": "11/02/1998",
	},
	{
		"name": "OKICY",
		"latitude": "42-29-24.05 N",
		"longitude": "83-24-12.38 W",
		"state": "MICHIGAN",
		"artcc": "ZOB",
		"type": "RNAV",
		"updated": "09/25/2015",
	},
	{
		"name": "OKLND",
		"latitude": "42-43-43.95 N",
		"longitude": "83-31-41.66 W",
		"state": "MICHIGAN",
		"artcc": "ZOB",
		"type": "RNAV",
		"updated": "03/28/2018",
	},
	{
		"name": "OKUBE",
		"latitude": "42-5-56.86 N",
		"longitude": "79-17-24.42 W",
		"state": "NEW YORK",
		"artcc": "ZOB",
		"type": "RNAV",
		"updated": "04/14/2004",
	},
	{
		"name": "OKWIV",
		"latitude": "40-23-59.2 N",
		"longitude": "81-0-18.97 W",
		"state": "OHIO",
		"artcc": "ZOB",
		"type": "RNAV",
		"updated": "09/21/2016",
	},
	{
		"name": "OLOCI",
		"latitude": "41-18-15.76 N",
		"longitude": "83-37-59.31 W",
		"state": "OHIO",
		"artcc": "ZOB",
		"type": "RNAV",
		"updated": "11/15/2010",
	},
	{
		"name": "OLSTE",
		"latitude": "43-27-42.66 N",
		"longitude": "84-10-49.12 W",
		"state": "MICHIGAN",
		"artcc": "ZOB",
		"type": "RP",
		"updated": "MBS*LS*232.61",
	},
	{
		"name": "OMADE",
		"latitude": "40-57-42.81 N",
		"longitude": "81-27-10.05 W",
		"state": "OHIO",
		"artcc": "ZOB",
		"type": "RNAV",
		"updated": "08/02/2006",
	},
	{
		"name": "OMEVE",
		"latitude": "41-35-56.08 N",
		"longitude": "80-9-18.96 W",
		"state": "PENNSYLVANIA",
		"artcc": "ZOB",
		"type": "RNAV",
		"updated": "04/14/2004",
	},
	{
		"name": "OMFAY",
		"latitude": "41-45-42.14 N",
		"longitude": "78-53-4.62 W",
		"state": "PENNSYLVANIA",
		"artcc": "ZOB",
		"type": "CN",
		"updated": "12/04/2014",
	},
	{
		"name": "OMISE",
		"latitude": "40-39-20.89 N",
		"longitude": "79-24-3.86 W",
		"state": "PENNSYLVANIA",
		"artcc": "ZOB",
		"type": "RNAV",
		"updated": "07/26/2016",
	},
	{
		"name": "OMOSE",
		"latitude": "40-56-24.31 N",
		"longitude": "79-0-14.64 W",
		"state": "PENNSYLVANIA",
		"artcc": "ZOB",
		"type": "RNAV",
		"updated": "04/09/2014",
	},
	{
		"name": "OMTEE",
		"latitude": "42-10-23.05 N",
		"longitude": "83-23-34.05 W",
		"state": "MICHIGAN",
		"artcc": "ZOB",
		"type": "RNAV",
		"updated": "03/05/2003",
	},
	{
		"name": "OMUSY",
		"latitude": "39-49-55.45 N",
		"longitude": "80-14-57.1 W",
		"state": "PENNSYLVANIA",
		"artcc": "ZOB",
		"type": "RNAV",
		"updated": "04/16/2018",
	},
	{
		"name": "ONCET",
		"latitude": "42-51-34.17 N",
		"longitude": "78-50-7.97 W",
		"state": "NEW YORK",
		"artcc": "ZOB",
		"type": "RNAV",
		"updated": "07/25/2014",
	},
	{
		"name": "ONEMY",
		"latitude": "40-19-19.44 N",
		"longitude": "80-1-36.9 W",
		"state": "PENNSYLVANIA",
		"artcc": "ZOB",
		"type": "RNAV",
		"updated": "01/11/2011",
	},
	{
		"name": "ONERR",
		"latitude": "42-30-3.3 N",
		"longitude": "83-4-21.29 W",
		"state": "MICHIGAN",
		"artcc": "ZOB",
		"type": "RNAV",
		"updated": "10/05/2016",
	},
	{
		"name": "ONERY",
		"latitude": "40-49-23.97 N",
		"longitude": "79-37-5.4 W",
		"state": "PENNSYLVANIA",
		"artcc": "ZOB",
		"type": "RNAV",
		"updated": "06/29/2001",
	},
	{
		"name": "ONMME",
		"latitude": "40-42-30.84 N",
		"longitude": "82-58-35.8 W",
		"state": "OHIO",
		"artcc": "ZOB",
		"type": "RNAV",
		"updated": "03/06/2018",
	},
	{
		"name": "ONNEX",
		"latitude": "41-56-32.37 N",
		"longitude": "83-49-2.32 W",
		"state": "MICHIGAN",
		"artcc": "ZOB",
		"type": "RNAV",
		"updated": "02/23/2015",
	},
	{
		"name": "ONZIT",
		"latitude": "41-20-10.26 N",
		"longitude": "82-50-36.16 W",
		"state": "OHIO",
		"artcc": "ZOB",
		"type": "RNAV",
		"updated": "12/26/2013",
	},
	{
		"name": "OPDEQ",
		"latitude": "42-55-31.36 N",
		"longitude": "78-42-15.66 W",
		"state": "NEW YORK",
		"artcc": "ZOB",
		"type": "RNAV",
		"updated": "08/07/2013",
	},
	{
		"name": "OPEMY",
		"latitude": "41-22-55.03 N",
		"longitude": "84-1-6.77 W",
		"state": "OHIO",
		"artcc": "ZOB",
		"type": "RNAV",
		"updated": "08/06/2001",
	},
	{
		"name": "OPIBY",
		"latitude": "41-39-5.58 N",
		"longitude": "78-52-8.99 W",
		"state": "PENNSYLVANIA",
		"artcc": "ZOB",
		"type": "RNAV",
		"updated": "01/25/2002",
	},
	{
		"name": "OPNUF",
		"latitude": "41-43-22.76 N",
		"longitude": "77-56-42.16 W",
		"state": "PENNSYLVANIA",
		"artcc": "ZOB",
		"type": "RNAV",
		"updated": "08/24/2001",
	},
	{
		"name": "OQONI",
		"latitude": "42-48-18.03 N",
		"longitude": "84-1-41.26 W",
		"state": "MICHIGAN",
		"artcc": "ZOB",
		"type": "RNAV",
		"updated": "06/04/2008",
	},
	{
		"name": "ORECO",
		"latitude": "42-19-26.95 N",
		"longitude": "84-33-14.92 W",
		"state": "MICHIGAN",
		"artcc": "ZOB",
		"type": "RNAV",
		"updated": "03/13/2012",
	},
	{
		"name": "OREST",
		"latitude": "41-10-7.64 N",
		"longitude": "79-1-40.28 W",
		"state": "PENNSYLVANIA",
		"artcc": "ZOB",
		"type": "RP",
		"updated": "CIP*VOR/DME*091.90/19.54",
	},
	{
		"name": "OREYO",
		"latitude": "43-30-30.8 N",
		"longitude": "84-41-19.85 W",
		"state": "MICHIGAN",
		"artcc": "ZOB",
		"type": "RNAV",
		"updated": "03/30/2018",
	},
	{
		"name": "ORIMY",
		"latitude": "41-13-47.28 N",
		"longitude": "80-24-48.16 W",
		"state": "PENNSYLVANIA",
		"artcc": "ZOB",
		"type": "RNAV",
		"updated": "01/25/2002",
	},
	{
		"name": "ORNOW",
		"latitude": "41-13-15.41 N",
		"longitude": "79-26-35.61 W",
		"state": "PENNSYLVANIA",
		"artcc": "ZOB",
		"type": "RNAV",
		"updated": "08/24/2001",
	},
	{
		"name": "ORUYI",
		"latitude": "41-37-10.3 N",
		"longitude": "83-40-14.08 W",
		"state": "OHIO",
		"artcc": "ZOB",
		"type": "RP",
		"updated": "TOL*TACAN*080.00/6.00",
	},
	{
		"name": "ORYUJ",
		"latitude": "41-43-16.99 N",
		"longitude": "83-32-0.64 W",
		"state": "OHIO",
		"artcc": "ZOB",
		"type": "RNAV",
		"updated": "02/20/2014",
	},
	{
		"name": "OSAMY",
		"latitude": "40-9-46.04 N",
		"longitude": "79-58-43.05 W",
		"state": "PENNSYLVANIA",
		"artcc": "ZOB",
		"type": "WP",
		"updated": "11/02/1998",
	},
	{
		"name": "OSASY",
		"latitude": "39-21-8.57 N",
		"longitude": "82-9-57.55 W",
		"state": "OHIO",
		"artcc": "ZOB",
		"type": "RNAV",
		"updated": "10/05/2001",
	},
	{
		"name": "OSELY",
		"latitude": "39-58-52.42 N",
		"longitude": "82-57-59.58 W",
		"state": "OHIO",
		"artcc": "ZOB",
		"type": "RNAV",
		"updated": "10/02/2001",
	},
	{
		"name": "OSIWO",
		"latitude": "40-49-2.19 N",
		"longitude": "82-19-33.05 W",
		"state": "OHIO",
		"artcc": "ZOB",
		"type": "RNAV",
		"updated": "05/10/2002",
	},
	{
		"name": "OSIZO",
		"latitude": "40-27-11.7 N",
		"longitude": "79-51-58.44 W",
		"state": "PENNSYLVANIA",
		"artcc": "ZOB",
		"type": "RNAV",
		"updated": "01/11/2011",
	},
	{
		"name": "OSKER",
		"latitude": "42-23-28.14 N",
		"longitude": "83-13-54.39 W",
		"state": "MICHIGAN",
		"artcc": "ZOB",
		"type": "RP",
		"updated": "DWC*LD*035.71/10.78",
	},
	{
		"name": "OSMOE",
		"latitude": "41-43-14.28 N",
		"longitude": "78-21-55.83 W",
		"state": "PENNSYLVANIA",
		"artcc": "ZOB",
		"type": "RNAV",
		"updated": "08/17/2010",
	},
	{
		"name": "OSSAR",
		"latitude": "40-14-45.34 N",
		"longitude": "79-43-2.94 W",
		"state": "PENNSYLVANIA",
		"artcc": "ZOB",
		"type": "RNAV",
		"updated": "02/11/2005",
	},
	{
		"name": "OTANE",
		"latitude": "43-23-36.74 N",
		"longitude": "83-53-48.84 W",
		"state": "MICHIGAN",
		"artcc": "ZOB",
		"type": "RNAV",
		"updated": "12/06/2017",
	},
	{
		"name": "OTBUE",
		"latitude": "41-41-17.3 N",
		"longitude": "83-29-26.19 W",
		"state": "OHIO",
		"artcc": "ZOB",
		"type": "MR",
		"updated": "TOL*TACAN*/15.00",
	},
	{
		"name": "OTCAK",
		"latitude": "42-43-34.86 N",
		"longitude": "83-30-12.15 W",
		"state": "MICHIGAN",
		"artcc": "ZOB",
		"type": "RNAV",
		"updated": "06/04/2008",
	},
	{
		"name": "OTIKE",
		"latitude": "40-42-13.72 N",
		"longitude": "80-7-37.84 W",
		"state": "PENNSYLVANIA",
		"artcc": "ZOB",
		"type": "RNAV",
		"updated": "09/02/2016",
	},
	{
		"name": "OTILE",
		"latitude": "43-28-7.56 N",
		"longitude": "84-10-14.3 W",
		"state": "MICHIGAN",
		"artcc": "ZOB",
		"type": "RNAV",
		"updated": "12/06/2017",
	},
	{
		"name": "OTNEE",
		"latitude": "39-32-18.12 N",
		"longitude": "83-25-15.44 W",
		"state": "OHIO",
		"artcc": "ZOB",
		"type": "RNAV",
		"updated": "09/28/2014",
	},
	{
		"name": "OTNOE",
		"latitude": "41-24-28.17 N",
		"longitude": "80-52-19.5 W",
		"state": "OHIO",
		"artcc": "ZOB",
		"type": "RNAV",
		"updated": "02/28/2008",
	},
	{
		"name": "OTOCE",
		"latitude": "41-33-0.02 N",
		"longitude": "82-2-56.91 W",
		"state": "OHIO",
		"artcc": "ZOB",
		"type": "RP",
		"updated": "DJB*VOR/DME*028.82/12.59",
	},
	{
		"name": "OTOGE",
		"latitude": "40-42-39.71 N",
		"longitude": "83-16-31.64 W",
		"state": "OHIO",
		"artcc": "ZOB",
		"type": "RNAV",
		"updated": "02/13/2008",
	},
	{
		"name": "OTOWN",
		"latitude": "39-52-47.58 N",
		"longitude": "79-47-11.13 W",
		"state": "PENNSYLVANIA",
		"artcc": "ZOB",
		"type": "RP",
		"updated": "IHD*VORTAC*260.16/20.55",
	},
	{
		"name": "OUZOS",
		"latitude": "39-16-18.14 N",
		"longitude": "84-29-44.42 W",
		"state": "OHIO",
		"artcc": "ZOB",
		"type": "RNAV",
		"updated": "10/22/2015",
	},
	{
		"name": "OVITE",
		"latitude": "43-0-53.35 N",
		"longitude": "84-16-19.09 W",
		"state": "MICHIGAN",
		"artcc": "ZOB",
		"type": "RNAV",
		"updated": "08/11/2008",
	},
	{
		"name": "OVUHU",
		"latitude": "42-44-8.86 N",
		"longitude": "82-56-31.65 W",
		"state": "MICHIGAN",
		"artcc": "ZOB",
		"type": "RNAV",
		"updated": "11/05/2014",
	},
	{
		"name": "OWOSO",
		"latitude": "43-0-42.44 N",
		"longitude": "84-5-56.73 W",
		"state": "MICHIGAN",
		"artcc": "ZOB",
		"type": "RP",
		"updated": "FNT*VORTAC*286.00/15.74",
	},
	{
		"name": "OXESE",
		"latitude": "41-0-1.53 N",
		"longitude": "81-26-9.76 W",
		"state": "OHIO",
		"artcc": "ZOB",
		"type": "RNAV",
		"updated": "12/06/2010",
	},
	{
		"name": "OXMAN",
		"latitude": "42-6-38 N",
		"longitude": "79-21-58 W",
		"state": "NEW YORK",
		"artcc": "ZOB",
		"type": "RNAV",
		"updated": "02/04/2014",
	},
	{
		"name": "OXWUP",
		"latitude": "43-18-39.73 N",
		"longitude": "82-58-11.39 W",
		"state": "MICHIGAN",
		"artcc": "ZOB",
		"type": "RNAV",
		"updated": "03/01/2011",
	},
	{
		"name": "OYEPA",
		"latitude": "41-45-49.57 N",
		"longitude": "81-7-33.3 W",
		"state": "OHIO",
		"artcc": "ZOB",
		"type": "RNAV",
		"updated": "10/10/2008",
	},
	{
		"name": "OYITI",
		"latitude": "41-36-1.63 N",
		"longitude": "81-37-37.31 W",
		"state": "OHIO",
		"artcc": "ZOB",
		"type": "RNAV",
		"updated": "10/15/2008",
	},
	{
		"name": "OYNEM",
		"latitude": "42-15-42.51 N",
		"longitude": "79-0-47.74 W",
		"state": "NEW YORK",
		"artcc": "ZOB",
		"type": "RNAV",
		"updated": "11/10/2009",
	},
	{
		"name": "OYVAA",
		"latitude": "42-32-34.94 N",
		"longitude": "83-17-16.41 W",
		"state": "MICHIGAN",
		"artcc": "ZOB",
		"type": "RNAV",
		"updated": "04/18/2018",
	},
