	{
		"name": "PADDE",
		"latitude": "42-17-9 N",
		"longitude": "84-28-28 W",
		"state": "MICHIGAN",
		"artcc": "ZOB",
		"type": "RNAV",
		"updated": "09/20/2014",
	},
	{
		"name": "PADIY",
		"latitude": "41-40-55.4 N",
		"longitude": "81-19-45.81 W",
		"state": "OHIO",
		"artcc": "ZOB",
		"type": "RNAV",
		"updated": "10/15/2008",
	},
	{
		"name": "PAGIC",
		"latitude": "41-11-5.42 N",
		"longitude": "81-24-30.38 W",
		"state": "OHIO",
		"artcc": "ZOB",
		"type": "RNAV",
		"updated": "08/03/2006",
	},
	{
		"name": "PALOW",
		"latitude": "43-6-18.4 N",
		"longitude": "84-53-54.83 W",
		"state": "MICHIGAN",
		"artcc": "ZOB",
		"type": "RP",
		"updated": "MKG*VORTAC*095.00/50.26",
	},
	{
		"name": "PANTY",
		"latitude": "41-16-29.63 N",
		"longitude": "84-19-28.69 W",
		"state": "OHIO",
		"artcc": "ZOB",
		"type": "RNAV",
		"updated": "02/17/2015",
	},
	{
		"name": "PARDY",
		"latitude": "41-10-36.32 N",
		"longitude": "78-54-33.11 W",
		"state": "PENNSYLVANIA",
		"artcc": "ZOB",
		"type": "RP",
		"updated": "CIP*VOR/DME*092.00/25.00",
	},
	{
		"name": "PARKY",
		"latitude": "42-38-9.62 N",
		"longitude": "83-54-34.29 W",
		"state": "MICHIGAN",
		"artcc": "ZOB",
		"type": "RP",
		"updated": "DXO*VOR/DME*322.62/35.00",
	},
	{
		"name": "PARMA",
		"latitude": "41-24-38.29 N",
		"longitude": "81-42-35 W",
		"state": "OHIO",
		"artcc": "ZOB",
		"type": "RP",
		"updated": "PXP*LD*E CRS",
	},
	{
		"name": "PASLE",
		"latitude": "41-34-34.95 N",
		"longitude": "81-49-36.39 W",
		"state": "OHIO",
		"artcc": "ZOB",
		"type": "RP",
		"updated": "DJB*VOR/DME*054.00/20.00",
	},
	{
		"name": "PASSN",
		"latitude": "41-55-11.3 N",
		"longitude": "83-43-27.26 W",
		"state": "MICHIGAN",
		"artcc": "ZOB",
		"type": "RNAV",
		"updated": "04/17/2018",
	},
	{
		"name": "PATES",
		"latitude": "40-49-11.43 N",
		"longitude": "79-46-33.08 W",
		"state": "PENNSYLVANIA",
		"artcc": "ZOB",
		"type": "WP",
		"updated": "EWC*VOR/DME*098.78/19.90",
	},
	{
		"name": "PATME",
		"latitude": "40-30-21.53 N",
		"longitude": "79-29-49.79 W",
		"state": "PENNSYLVANIA",
		"artcc": "ZOB",
		"type": "RNAV",
		"updated": "07/26/2016",
	},
	{
		"name": "PATTT",
		"latitude": "40-14-10.18 N",
		"longitude": "81-7-37.56 W",
		"state": "OHIO",
		"artcc": "ZOB",
		"type": "RP",
		"updated": "CTW*VOR/DME*095.40/16.06",
	},
	{
		"name": "PAULB",
		"latitude": "41-33-21.61 N",
		"longitude": "81-37-33.34 W",
		"state": "OHIO",
		"artcc": "ZOB",
		"type": "RP",
		"updated": "PVY*LD*057.95/12.75",
	},
	{
		"name": "PAYED",
		"latitude": "42-8-32.84 N",
		"longitude": "83-25-40.4 W",
		"state": "MICHIGAN",
		"artcc": "ZOB",
		"type": "RP",
		"updated": "HJT*LD*215.68/5.90",
	},
	{
		"name": "PAYIV",
		"latitude": "42-6-41.15 N",
		"longitude": "77-45-24.31 W",
		"state": "NEW YORK",
		"artcc": "ZOB",
		"type": "RNAV",
		"updated": "12/08/2006",
	},
	{
		"name": "PAYLE",
		"latitude": "41-54-56.47 N",
		"longitude": "83-39-44.07 W",
		"state": "MICHIGAN",
		"artcc": "ZOB",
		"type": "RNAV",
		"updated": "04/17/2018",
	},
	{
		"name": "PAYOT",
		"latitude": "43-24-28.42 N",
		"longitude": "84-41-22.05 W",
		"state": "MICHIGAN",
		"artcc": "ZOB",
		"type": "RNAV",
		"updated": "10/28/2003",
	},
	{
		"name": "PBODI",
		"latitude": "42-0-35.57 N",
		"longitude": "83-59-20.86 W",
		"state": "MICHIGAN",
		"artcc": "ZOB",
		"type": "RNAV",
		"updated": "03/24/2011",
	},
	{
		"name": "PECIB",
		"latitude": "42-55-26.12 N",
		"longitude": "78-37-26.03 W",
		"state": "NEW YORK",
		"artcc": "ZOB",
		"type": "RNAV",
		"updated": "06/27/2011",
	},
	{
		"name": "PEETE",
		"latitude": "40-28-35.43 N",
		"longitude": "79-52-55.68 W",
		"state": "PENNSYLVANIA",
		"artcc": "ZOB",
		"type": "RP",
		"updated": "MMJ*DME*/14.29",
	},
	{
		"name": "PEGEE",
		"latitude": "43-8-32.05 N",
		"longitude": "84-54-44.81 W",
		"state": "MICHIGAN",
		"artcc": "ZOB",
		"type": "RP",
		"updated": "CRL*VOR/DME*319.00/92.00",
	},
	{
		"name": "PEGGE",
		"latitude": "40-56-54.79 N",
		"longitude": "83-40-3.78 W",
		"state": "OHIO",
		"artcc": "ZOB",
		"type": "RP",
		"updated": "FBC*VORTAC*097.75",
	},
	{
		"name": "PEJAE",
		"latitude": "41-38-4.02 N",
		"longitude": "82-12-49.51 W",
		"state": "OHIO",
		"artcc": "ZOB",
		"type": "RP",
		"updated": "DJB*VOR/DME*357.00",
	},
	{
		"name": "PEKIN",
		"latitude": "43-2-17.2 N",
		"longitude": "78-39-6.1 W",
		"state": "NEW YORK",
		"artcc": "ZOB",
		"type": "WP",
		"updated": "BUF*VOR/DME*005.90/6.60",
	},
	{
		"name": "PEKUN",
		"latitude": "38-58-10.06 N",
		"longitude": "84-1-12.31 W",
		"state": "OHIO",
		"artcc": "ZOB",
		"type": "RNAV",
		"updated": "10/22/2015",
	},
	{
		"name": "PENGN",
		"latitude": "40-24-9.12 N",
		"longitude": "80-12-57.33 W",
		"state": "PENNSYLVANIA",
		"artcc": "ZOB",
		"type": "RNAV",
		"updated": "10/27/2009",
	},
	{
		"name": "PENVE",
		"latitude": "40-3-43.83 N",
		"longitude": "78-58-10.91 W",
		"state": "PENNSYLVANIA",
		"artcc": "ZOB",
		"type": "RNAV",
		"updated": "10/03/2014",
	},
	{
		"name": "PEREA",
		"latitude": "41-8-21.48 N",
		"longitude": "79-53-10.82 W",
		"state": "PENNSYLVANIA",
		"artcc": "ZOB",
		"type": "RP",
		"updated": "EWC*VOR/DME*045.99/23.95",
	},
	{
		"name": "PERLS",
		"latitude": "42-34-58.42 N",
		"longitude": "83-16-2.18 W",
		"state": "MICHIGAN",
		"artcc": "ZOB",
		"type": "RP",
		"updated": "PSI*VORTAC*123.95/13.72",
	},
	{
		"name": "PERPS",
		"latitude": "40-25-19.62 N",
		"longitude": "79-45-34.12 W",
		"state": "PENNSYLVANIA",
		"artcc": "ZOB",
		"type": "RNAV",
		"updated": "05/05/2016",
	},
	{
		"name": "PETKE",
		"latitude": "42-46-47.41 N",
		"longitude": "84-50-27.38 W",
		"state": "MICHIGAN",
		"artcc": "ZOB",
		"type": "RP",
		"updated": "CPQ*LS*275.61",
	},
	{
		"name": "PETTE",
		"latitude": "42-4-44.29 N",
		"longitude": "84-20-39.31 W",
		"state": "MICHIGAN",
		"artcc": "ZOB",
		"type": "RNAV",
		"updated": "03/28/2018",
	},
	{
		"name": "PEVSE",
		"latitude": "42-5-56.17 N",
		"longitude": "83-28-2.94 W",
		"state": "MICHIGAN",
		"artcc": "ZOB",
		"type": "RP",
		"updated": "ALA*LD*218.21/7.05",
	},
	{
		"name": "PFDND",
		"latitude": "41-7-42.14 N",
		"longitude": "80-30-4.07 W",
		"state": "PENNSYLVANIA",
		"artcc": "ZOB",
		"type": "CN",
		"updated": "09/30/2011",
	},
	{
		"name": "PHILL",
		"latitude": "40-11-43.42 N",
		"longitude": "78-23-34.56 W",
		"state": "PENNSYLVANIA",
		"artcc": "ZOB",
		"type": "RNAV",
		"updated": "03/07/2013",
	},
	{
		"name": "PHREE",
		"latitude": "42-25-24.19 N",
		"longitude": "83-2-27.14 W",
		"state": "MICHIGAN",
		"artcc": "ZOB",
		"type": "RNAV",
		"updated": "04/18/2018",
	},
	{
		"name": "PHURN",
		"latitude": "42-50-34.28 N",
		"longitude": "82-35-47.68 W",
		"state": "MICHIGAN",
		"artcc": "ZOB",
		"type": "RNAV",
		"updated": "PHN*LS*223.13",
	},
	{
		"name": "PIBPI",
		"latitude": "42-25-44.86 N",
		"longitude": "79-11-57.76 W",
		"state": "NEW YORK",
		"artcc": "ZOB",
		"type": "RNAV",
		"updated": "03/02/2015",
	},
	{
		"name": "PIBYI",
		"latitude": "43-33-14.27 N",
		"longitude": "84-6-43.39 W",
		"state": "MICHIGAN",
		"artcc": "ZOB",
		"type": "RNAV",
		"updated": "12/06/2017",
	},
	{
		"name": "PICES",
		"latitude": "42-46-44.9 N",
		"longitude": "82-11-8.99 W",
		"state": "",
		"artcc": "ZOB",
		"type": "RP",
		"updated": "PSI*VORTAC*088.04/59.74",
	},
	{
		"name": "PICTR",
		"latitude": "42-32-6.29 N",
		"longitude": "83-53-46.48 W",
		"state": "MICHIGAN",
		"artcc": "ZOB",
		"type": "RNAV",
		"updated": "03/28/2018",
	},
	{
		"name": "PICUP",
		"latitude": "42-51-23.14 N",
		"longitude": "81-50-14.14 W",
		"state": "",
		"artcc": "ZOB",
		"type": "RNAV",
		"updated": "04/03/2018",
	},
	{
		"name": "PIDYY",
		"latitude": "40-15-28.93 N",
		"longitude": "80-42-17.21 W",
		"state": "OHIO",
		"artcc": "ZOB",
		"type": "RP",
		"updated": "AGC*VOR/DME*276.89/30.52",
	},
	{
		"name": "PIGGZ",
		"latitude": "41-30-15.81 N",
		"longitude": "78-27-47.89 W",
		"state": "PENNSYLVANIA",
		"artcc": "ZOB",
		"type": "RNAV",
		"updated": "02/26/2015",
	},
	{
		"name": "PINIC",
		"latitude": "39-32-16.45 N",
		"longitude": "79-37-1.57 W",
		"state": "WEST VIRGINIA",
		"artcc": "ZOB",
		"type": "RP",
		"updated": "MGW*VORTAC*100.62/11.35",
	},
	{
		"name": "PIONS",
		"latitude": "41-39-13.98 N",
		"longitude": "84-28-54.92 W",
		"state": "OHIO",
		"artcc": "ZOB",
		"type": "RNAV",
		"updated": "03/29/2018",
	},
	{
		"name": "PIPTY",
		"latitude": "42-49-56.67 N",
		"longitude": "84-7-54.7 W",
		"state": "MICHIGAN",
		"artcc": "ZOB",
		"type": "RNAV",
		"updated": "06/29/2011",
	},
	{
		"name": "PIRCI",
		"latitude": "40-41-16.16 N",
		"longitude": "82-21-0.49 W",
		"state": "OHIO",
		"artcc": "ZOB",
		"type": "RNAV",
		"updated": "01/21/2009",
	},
	{
		"name": "PISTN",
		"latitude": "42-53-32.51 N",
		"longitude": "83-8-11.26 W",
		"state": "MICHIGAN",
		"artcc": "ZOB",
		"type": "RP",
		"updated": "DXO*VOR/DME*019.99/42.00",
	},
	{
		"name": "PITTZ",
		"latitude": "40-28-56.19 N",
		"longitude": "80-5-7.88 W",
		"state": "PENNSYLVANIA",
		"artcc": "ZOB",
		"type": "RP",
		"updated": "MMJ*DME*/4.97",
	},
	{
		"name": "PLACE",
		"latitude": "41-26-24.85 N",
		"longitude": "80-30-26.4 W",
		"state": "PENNSYLVANIA",
		"artcc": "ZOB",
		"type": "RP",
		"updated": "JFN*VOR/DME*155.45",
	},
	{
		"name": "PLAZE",
		"latitude": "40-29-42.75 N",
		"longitude": "80-27-28.22 W",
		"state": "PENNSYLVANIA",
		"artcc": "ZOB",
		"type": "RNAV",
		"updated": "11/14/2006",
	},
	{
		"name": "PLAZZ",
		"latitude": "42-52-26.22 N",
		"longitude": "78-48-59.98 W",
		"state": "NEW YORK",
		"artcc": "ZOB",
		"type": "RP",
		"updated": "06/01/2012",
	},
	{
		"name": "PLEAZ",
		"latitude": "41-7-59.44 N",
		"longitude": "79-0-45.75 W",
		"state": "PENNSYLVANIA",
		"artcc": "ZOB",
		"type": "RNAV",
		"updated": "03/29/2010",
	},
	{
		"name": "PLEEZ",
		"latitude": "40-7-39.51 N",
		"longitude": "79-36-19.4 W",
		"state": "PENNSYLVANIA",
		"artcc": "ZOB",
		"type": "RP",
		"updated": "IHD*VORTAC*315.02/14.63",
	},
	{
		"name": "PLONK",
		"latitude": "39-15-34.01 N",
		"longitude": "84-19-49.83 W",
		"state": "OHIO",
		"artcc": "ZOB",
		"type": "RNAV",
		"updated": "10/08/2015",
	},
	{
		"name": "PLYMT",
		"latitude": "42-22-27.87 N",
		"longitude": "83-23-5.29 W",
		"state": "MICHIGAN",
		"artcc": "ZOB",
		"type": "RNAV",
		"updated": "12/08/2015",
	},
	{
		"name": "PNLTE",
		"latitude": "43-24-31.46 N",
		"longitude": "82-53-44.69 W",
		"state": "MICHIGAN",
		"artcc": "ZOB",
		"type": "RNAV",
		"updated": "02/04/2014",
	},
	{
		"name": "PNSIC",
		"latitude": "40-58-39 N",
		"longitude": "80-8-22 W",
		"state": "PENNSYLVANIA",
		"artcc": "ZOB",
		"type": "RNAV",
		"updated": "06/30/2014",
	},
	{
		"name": "POAST",
		"latitude": "41-20-45.08 N",
		"longitude": "81-57-5.92 W",
		"state": "OHIO",
		"artcc": "ZOB",
		"type": "RP",
		"updated": "CLE*LD*237.94/6.76",
	},
	{
		"name": "POBAE",
		"latitude": "40-50-55.57 N",
		"longitude": "80-16-7.52 W",
		"state": "PENNSYLVANIA",
		"artcc": "ZOB",
		"type": "RNAV",
		"updated": "02/21/2017",
	},
	{
		"name": "POCZI",
		"latitude": "43-1-43.98 N",
		"longitude": "77-55-10.8 W",
		"state": "NEW YORK",
		"artcc": "ZOB",
		"type": "RP",
		"updated": "ROC*VOR/DME*255.88/12.10",
	},
	{
		"name": "PODEE",
		"latitude": "42-35-23.16 N",
		"longitude": "83-54-42.89 W",
		"state": "MICHIGAN",
		"artcc": "ZOB",
		"type": "RNAV",
		"updated": "06/29/2011",
	},
	{
		"name": "POGEA",
		"latitude": "40-8-2.59 N",
		"longitude": "78-35-40.62 W",
		"state": "PENNSYLVANIA",
		"artcc": "ZOB",
		"type": "RNAV",
		"updated": "04/25/2010",
	},
	{
		"name": "POKLY",
		"latitude": "41-23-27.21 N",
		"longitude": "84-45-35.34 W",
		"state": "OHIO",
		"artcc": "ZOB",
		"type": "RNAV",
		"updated": "04/17/2012",
	},
	{
		"name": "POLAR",
		"latitude": "42-50-14.67 N",
		"longitude": "83-44-7.58 W",
		"state": "MICHIGAN",
		"artcc": "ZOB",
		"type": "RP",
		"updated": "DXO*VOR/DME*342.52/40.86",
	},
	{
		"name": "POLOE",
		"latitude": "40-29-2.24 N",
		"longitude": "80-8-50.23 W",
		"state": "PENNSYLVANIA",
		"artcc": "ZOB",
		"type": "RNAV",
		"updated": "06/13/2008",
	},
	{
		"name": "POMPE",
		"latitude": "43-11-58.48 N",
		"longitude": "84-43-7.11 W",
		"state": "MICHIGAN",
		"artcc": "ZOB",
		"type": "RP",
		"updated": "MOP*VOR/DME*183.16/25.40",
	},
	{
		"name": "PONOC",
		"latitude": "40-57-28.69 N",
		"longitude": "82-8-33.75 W",
		"state": "OHIO",
		"artcc": "ZOB",
		"type": "RNAV",
		"updated": "09/24/2009",
	},
	{
		"name": "POOFE",
		"latitude": "41-48-43.43 N",
		"longitude": "83-5-24.65 W",
		"state": "OHIO",
		"artcc": "ZOB",
		"type": "RP",
		"updated": "DXO*VOR/DME*158.70/27.05",
	},
	{
		"name": "POSER",
		"latitude": "40-19-41.66 N",
		"longitude": "79-20-10.6 W",
		"state": "PENNSYLVANIA",
		"artcc": "ZOB",
		"type": "RNAV",
		"updated": "LBE*LS*052.78",
	},
	{
		"name": "POSIE",
		"latitude": "42-26-28.34 N",
		"longitude": "84-43-34.83 W",
		"state": "MICHIGAN",
		"artcc": "ZOB",
		"type": "RP",
		"updated": "SVM*VORTAC*275.61/50.36",
	},
	{
		"name": "POUDR",
		"latitude": "41-21-7.39 N",
		"longitude": "83-42-48.38 W",
		"state": "OHIO",
		"artcc": "ZOB",
		"type": "MR",
		"updated": "TOL*TACAN*170.00/15.00",
	},
	{
		"name": "POVCI",
		"latitude": "42-25-4.79 N",
		"longitude": "83-52-36.89 W",
		"state": "MICHIGAN",
		"artcc": "ZOB",
		"type": "RP",
		"updated": "SVM*VORTAC*275.59/12.58",
	},
	{
		"name": "POVGE",
		"latitude": "41-12-32.44 N",
		"longitude": "81-15-3.44 W",
		"state": "OHIO",
		"artcc": "ZOB",
		"type": "RP",
		"updated": "ACO*VOR/DME*343.73/6.46",
	},
	{
		"name": "POXXY",
		"latitude": "41-9-46.79 N",
		"longitude": "83-26-19.43 W",
		"state": "OHIO",
		"artcc": "ZOB",
		"type": "RNAV",
		"updated": "11/07/2014",
	},
	{
		"name": "POYIB",
		"latitude": "42-27-20.4 N",
		"longitude": "79-19-51.71 W",
		"state": "NEW YORK",
		"artcc": "ZOB",
		"type": "RNAV",
		"updated": "03/02/2015",
	},
	{
		"name": "PRANG",
		"latitude": "41-51-22.54 N",
		"longitude": "79-34-51.7 W",
		"state": "PENNSYLVANIA",
		"artcc": "ZOB",
		"type": "RP",
		"updated": "TDT*VORTAC*328.50/11.31",
	},
	{
		"name": "PRATS",
		"latitude": "41-39-26.46 N",
		"longitude": "80-9-45.15 W",
		"state": "PENNSYLVANIA",
		"artcc": "ZOB",
		"type": "RNAV",
		"updated": "02/21/2017",
	},
	{
		"name": "PRESY",
		"latitude": "40-28-54.96 N",
		"longitude": "79-57-21.52 W",
		"state": "PENNSYLVANIA",
		"artcc": "ZOB",
		"type": "RNAV",
		"updated": "08/12/2008",
	},
	{
		"name": "PROGY",
		"latitude": "40-32-7.81 N",
		"longitude": "80-11-6.56 W",
		"state": "PENNSYLVANIA",
		"artcc": "ZOB",
		"type": "RNAV",
		"updated": "10/27/2009",
	},
	{
		"name": "PRUIT",
		"latitude": "40-28-52.54 N",
		"longitude": "80-3-16.91 W",
		"state": "PENNSYLVANIA",
		"artcc": "ZOB",
		"type": "RNAV",
		"updated": "10/27/2009",
	},
	{
		"name": "PRYDE",
		"latitude": "42-35-46.74 N",
		"longitude": "83-9-25.66 W",
		"state": "MICHIGAN",
		"artcc": "ZOB",
		"type": "RNAV",
		"updated": "10/05/2016",
	},
	{
		"name": "PSKUR",
		"latitude": "41-9-15.85 N",
		"longitude": "82-42-56.76 W",
		"state": "OHIO",
		"artcc": "ZOB",
		"type": "RNAV",
		"updated": "08/25/2011",
	},
	{
		"name": "PSYKO",
		"latitude": "40-8-37 N",
		"longitude": "79-9-13 W",
		"state": "PENNSYLVANIA",
		"artcc": "ZOB",
		"type": "RNAV",
		"updated": "09/20/2014",
	},
	{
		"name": "PTATO",
		"latitude": "40-54-21.5 N",
		"longitude": "82-0-25.36 W",
		"state": "OHIO",
		"artcc": "ZOB",
		"type": "RP",
		"updated": "BSV*VOR/DME*294.92/28.00",
	},
	{
		"name": "PUBTE",
		"latitude": "38-49-58.65 N",
		"longitude": "83-50-33.23 W",
		"state": "OHIO",
		"artcc": "ZOB",
		"type": "RNAV",
		"updated": "10/08/2015",
	},
	{
		"name": "PUCKA",
		"latitude": "39-8-25.32 N",
		"longitude": "84-29-22.25 W",
		"state": "OHIO",
		"artcc": "ZOB",
		"type": "RNAV",
		"updated": "10/08/2015",
	},
	{
		"name": "PUKLE",
		"latitude": "42-16-47.89 N",
		"longitude": "83-17-22.5 W",
		"state": "MICHIGAN",
		"artcc": "ZOB",
		"type": "RP",
		"updated": "SVM*VORTAC*122.58",
	},
	{
		"name": "PULRE",
		"latitude": "42-17-46.55 N",
		"longitude": "82-53-8.73 W",
		"state": "",
		"artcc": "ZOB",
		"type": "RP",
		"updated": "DXO*VOR/DME*082.74/22.00",
	},
	{
		"name": "PUNCO",
		"latitude": "41-21-49.64 N",
		"longitude": "79-15-34.45 W",
		"state": "PENNSYLVANIA",
		"artcc": "ZOB",
		"type": "RNAV",
		"updated": "03/27/2018",
	},
	{
		"name": "PUNIY",
		"latitude": "39-52-52.14 N",
		"longitude": "80-15-42.64 W",
		"state": "PENNSYLVANIA",
		"artcc": "ZOB",
		"type": "RNAV",
		"updated": "04/15/2008",
	},
	{
		"name": "PUNKS",
		"latitude": "41-24-43.74 N",
		"longitude": "78-45-31.29 W",
		"state": "PENNSYLVANIA",
		"artcc": "ZOB",
		"type": "RNAV",
		"updated": "06/27/2005",
	},
	{
		"name": "PURIC",
		"latitude": "40-56-44.43 N",
		"longitude": "83-54-8.51 W",
		"state": "OHIO",
		"artcc": "ZOB",
		"type": "RNAV",
		"updated": "06/28/2007",
	},
	{
		"name": "PUSIC",
		"latitude": "42-2-19.51 N",
		"longitude": "77-45-3.15 W",
		"state": "NEW YORK",
		"artcc": "ZOB",
		"type": "RNAV",
		"updated": "04/20/2012",
	},
	{
		"name": "PUTOL",
		"latitude": "43-29-8.34 N",
		"longitude": "79-6-2.73 W",
		"state": "NEW YORK",
		"artcc": "ZOB",
		"type": "CN",
		"updated": "04/16/2008",
	},
	{
		"name": "PUTYM",
		"latitude": "40-54-35.27 N",
		"longitude": "83-50-28.19 W",
		"state": "OHIO",
		"artcc": "ZOB",
		"type": "RNAV",
		"updated": "03/06/2018",
	},
	{
		"name": "PUVAE",
		"latitude": "41-12-34.09 N",
		"longitude": "79-24-46.78 W",
		"state": "PENNSYLVANIA",
		"artcc": "ZOB",
		"type": "RNAV",
		"updated": "02/21/2017",
	},
	{
		"name": "PUYCO",
		"latitude": "40-11-4.44 N",
		"longitude": "80-55-3.43 W",
		"state": "OHIO",
		"artcc": "ZOB",
		"type": "RNAV",
		"updated": "03/11/2011",
	},
	{
		"name": "PUYCU",
		"latitude": "43-7-23.69 N",
		"longitude": "82-34-47.73 W",
		"state": "MICHIGAN",
		"artcc": "ZOB",
		"type": "RNAV",
		"updated": "05/29/2014",
	},
	{
		"name": "PUYIY",
		"latitude": "40-47-26.38 N",
		"longitude": "82-28-34.21 W",
		"state": "OHIO",
		"artcc": "ZOB",
		"type": "RNAV",
		"updated": "01/21/2009",
	},
	{
		"name": "PUZEL",
		"latitude": "42-35-5.15 N",
		"longitude": "82-59-11.76 W",
		"state": "MICHIGAN",
		"artcc": "ZOB",
		"type": "RNAV",
		"updated": "10/05/2016",
	},
	{
		"name": "PUZTY",
		"latitude": "41-29-51.53 N",
		"longitude": "80-39-57.27 W",
		"state": "OHIO",
		"artcc": "ZOB",
		"type": "RP",
		"updated": "YNG*VORTAC*007.26/10.00",
	},
	{
		"name": "PYRET",
		"latitude": "42-33-7.9 N",
		"longitude": "83-8-55.82 W",
		"state": "MICHIGAN",
		"artcc": "ZOB",
		"type": "RP",
		"updated": "BZB*LD*033.19/23.63",
	},
