	{
		"name": "QADIF",
		"latitude": "41-15-27.9 N",
		"longitude": "80-28-33.73 W",
		"state": "PENNSYLVANIA",
		"artcc": "ZOB",
		"type": "RP",
		"updated": "YNG*VORTAC*121.00/10.00",
	},
	{
		"name": "QAJJU",
		"latitude": "43-18-29.94 N",
		"longitude": "83-20-56.25 W",
		"state": "MICHIGAN",
		"artcc": "ZOB",
		"type": "RNAV",
		"updated": "03/01/2011",
	},
	{
		"name": "QEBZA",
		"latitude": "43-10-38.55 N",
		"longitude": "77-39-46.91 W",
		"state": "NEW YORK",
		"artcc": "ZOB",
		"type": "RNAV",
		"updated": "05/05/2011",
	},
	{
		"name": "QUARM",
		"latitude": "40-49-45.21 N",
		"longitude": "79-4-39.46 W",
		"state": "PENNSYLVANIA",
		"artcc": "ZOB",
		"type": "RNAV",
		"updated": "08/25/2011",
	},
	{
		"name": "QUARY",
		"latitude": "40-14-29.66 N",
		"longitude": "79-22-50.83 W",
		"state": "PENNSYLVANIA",
		"artcc": "ZOB",
		"type": "RP",
		"updated": "IHD*VORTAC*002.00/16.00",
	},
	{
		"name": "QUBEE",
		"latitude": "42-42-37.66 N",
		"longitude": "84-7-31 W",
		"state": "MICHIGAN",
		"artcc": "ZOB",
		"type": "RP",
		"updated": "JXN*VOR/DME*033.55/30.84",
	},
	{
		"name": "QUINS",
		"latitude": "41-59-6.42 N",
		"longitude": "84-56-15.27 W",
		"state": "MICHIGAN",
		"artcc": "ZOB",
		"type": "RP",
		"updated": "LFD*VOR/DME*244.02/9.00",
	},
	{
		"name": "QWERI",
		"latitude": "42-40-55 N",
		"longitude": "82-15-31 W",
		"state": "",
		"artcc": "ZOB",
		"type": "RNAV",
		"updated": "10/06/2016",
	},
	{
		"name": "QWYNN",
		"latitude": "42-9-38.82 N",
		"longitude": "83-14-17.53 W",
		"state": "MICHIGAN",
		"artcc": "ZOB",
		"type": "RNAV",
		"updated": "03/29/2018",
	},
