	{
		"name": "RAAKK",
		"latitude": "42-23-59 N",
		"longitude": "78-54-39 W",
		"state": "NEW YORK",
		"artcc": "ZOB",
		"type": "RNAV",
		"updated": "08/27/2013",
	},
	{
		"name": "RACHL",
		"latitude": "42-13-57.8 N",
		"longitude": "81-39-11.25 W",
		"state": "",
		"artcc": "ZOB",
		"type": "RNAV",
		"updated": "09/21/2007",
	},
	{
		"name": "RACOO",
		"latitude": "40-30-19.27 N",
		"longitude": "80-23-25.25 W",
		"state": "PENNSYLVANIA",
		"artcc": "ZOB",
		"type": "RP",
		"updated": "MMJ*DME*/9.05",
	},
	{
		"name": "RADPE",
		"latitude": "40-48-58.21 N",
		"longitude": "80-15-34.13 W",
		"state": "PENNSYLVANIA",
		"artcc": "ZOB",
		"type": "RNAV",
		"updated": "02/21/2017",
	},
	{
		"name": "RAMIQ",
		"latitude": "39-51-45.47 N",
		"longitude": "81-17-20.15 W",
		"state": "OHIO",
		"artcc": "ZOB",
		"type": "RNAV",
		"updated": "08/08/2017",
	},
	{
		"name": "RAMMY",
		"latitude": "42-53-1.88 N",
		"longitude": "83-45-31.83 W",
		"state": "MICHIGAN",
		"artcc": "ZOB",
		"type": "RP",
		"updated": "FNT*VORTAC*192.00/5.00",
	},
	{
		"name": "RANDE",
		"latitude": "39-29-22.1 N",
		"longitude": "80-46-24.52 W",
		"state": "WEST VIRGINIA",
		"artcc": "ZOB",
		"type": "RP",
		"updated": "EKN*VORTAC*324.84",
	},
	{
		"name": "RANDL",
		"latitude": "41-45-42.1 N",
		"longitude": "84-12-19.3 W",
		"state": "MICHIGAN",
		"artcc": "ZOB",
		"type": "RP",
		"updated": "LFD*VOR/DME*130.54/30.89",
	},
	{
		"name": "RAWLS",
		"latitude": "41-18-37.48 N",
		"longitude": "82-16-26.05 W",
		"state": "OHIO",
		"artcc": "ZOB",
		"type": "RP",
		"updated": "DJB*VOR/DME*/5.81",
	},
	{
		"name": "RAYOL",
		"latitude": "43-33-59.37 N",
		"longitude": "83-15-58.46 W",
		"state": "MICHIGAN",
		"artcc": "ZOB",
		"type": "RNAV",
		"updated": "04/21/2016",
	},
	{
		"name": "RAZES",
		"latitude": "42-6-36.09 N",
		"longitude": "80-9-12.38 W",
		"state": "PENNSYLVANIA",
		"artcc": "ZOB",
		"type": "RNAV",
		"updated": "02/21/2017",
	},
	{
		"name": "RAZIM",
		"latitude": "41-58-8.84 N",
		"longitude": "83-47-32.88 W",
		"state": "MICHIGAN",
		"artcc": "ZOB",
		"type": "RP",
		"updated": "DXO*VOR/DME*238.56/24.00",
	},
	{
		"name": "RCADE",
		"latitude": "42-40-50.25 N",
		"longitude": "82-34-7.51 W",
		"state": "MICHIGAN",
		"artcc": "ZOB",
		"type": "RP",
		"updated": "YQG*VOR/DME*030.00/28.31",
	},
	{
		"name": "READS",
		"latitude": "40-49-13.3 N",
		"longitude": "82-8-27.15 W",
		"state": "OHIO",
		"artcc": "ZOB",
		"type": "RP",
		"updated": "MFD*VORTAC*100.89/20.70",
	},
	{
		"name": "REBUT",
		"latitude": "41-3-58.54 N",
		"longitude": "83-19-2.96 W",
		"state": "OHIO",
		"artcc": "ZOB",
		"type": "RP",
		"updated": "FBC*VORTAC*073.39/21.00",
	},
	{
		"name": "RECEY",
		"latitude": "40-1-36.3 N",
		"longitude": "78-17-56.05 W",
		"state": "PENNSYLVANIA",
		"artcc": "ZOB",
		"type": "RP",
		"updated": "THS*VORTAC*296.37/17.00",
	},
	{
		"name": "REELS",
		"latitude": "41-8-1.43 N",
		"longitude": "83-3-47.09 W",
		"state": "OHIO",
		"artcc": "ZOB",
		"type": "RP",
		"updated": "FBC*VORTAC*072.99/33.23",
	},
	{
		"name": "REESE",
		"latitude": "43-27-54.49 N",
		"longitude": "83-44-27.55 W",
		"state": "MICHIGAN",
		"artcc": "ZOB",
		"type": "RP",
		"updated": "FNT*VORTAC*006.50",
	},
	{
		"name": "REFZU",
		"latitude": "41-20-11.87 N",
		"longitude": "80-53-44.78 W",
		"state": "OHIO",
		"artcc": "ZOB",
		"type": "RP",
		"updated": "YNG*VORTAC*276.87/10.00",
	},
	{
		"name": "REGGA",
		"latitude": "41-46-1.4 N",
		"longitude": "83-39-45.27 W",
		"state": "MICHIGAN",
		"artcc": "ZOB",
		"type": "RNAV",
		"updated": "08/02/2012",
	},
	{
		"name": "REGGE",
		"latitude": "42-5-47.18 N",
		"longitude": "83-27-41.91 W",
		"state": "MICHIGAN",
		"artcc": "ZOB",
		"type": "RP",
		"updated": "HJT*LD*215.68/9.04",
	},
	{
		"name": "REGSE",
		"latitude": "42-28-13.44 N",
		"longitude": "77-42-56.65 W",
		"state": "NEW YORK",
		"artcc": "ZOB",
		"type": "RNAV",
		"updated": "04/20/2012",
	},
	{
		"name": "REICH",
		"latitude": "41-38-52.72 N",
		"longitude": "80-9-45.29 W",
		"state": "PENNSYLVANIA",
		"artcc": "ZOB",
		"type": "RP",
		"updated": "YNG*VORTAC*/29.91",
	},
	{
		"name": "REJWI",
		"latitude": "43-6-7.26 N",
		"longitude": "78-35-6.98 W",
		"state": "NEW YORK",
		"artcc": "ZOB",
		"type": "WP",
		"updated": "11/02/1998",
	},
	{
		"name": "REKBE",
		"latitude": "41-12-25.46 N",
		"longitude": "80-19-20.73 W",
		"state": "PENNSYLVANIA",
		"artcc": "ZOB",
		"type": "RNAV",
		"updated": "10/02/2014",
	},
	{
		"name": "REMLE",
		"latitude": "39-0-24.85 N",
		"longitude": "83-58-37.96 W",
		"state": "OHIO",
		"artcc": "ZOB",
		"type": "RNAV",
		"updated": "10/22/2015",
	},
	{
		"name": "RENPE",
		"latitude": "41-0-23.2 N",
		"longitude": "78-47-32.38 W",
		"state": "PENNSYLVANIA",
		"artcc": "ZOB",
		"type": "RNAV",
		"updated": "12/22/2006",
	},
	{
		"name": "REPIJ",
		"latitude": "41-10-3.09 N",
		"longitude": "82-43-21.64 W",
		"state": "OHIO",
		"artcc": "ZOB",
		"type": "RNAV",
		"updated": "02/09/2018",
	},
	{
		"name": "REPTE",
		"latitude": "40-28-36.87 N",
		"longitude": "78-39-37.39 W",
		"state": "PENNSYLVANIA",
		"artcc": "ZOB",
		"type": "RNAV",
		"updated": "07/24/2012",
	},
	{
		"name": "RETKY",
		"latitude": "41-20-18.49 N",
		"longitude": "83-8-57.08 W",
		"state": "OHIO",
		"artcc": "ZOB",
		"type": "RNAV",
		"updated": "02/09/2018",
	},
	{
		"name": "RETOR",
		"latitude": "42-36-20.44 N",
		"longitude": "84-58-52.32 W",
		"state": "MICHIGAN",
		"artcc": "ZOB",
		"type": "RP",
		"updated": "LAN*VORTAC*246.99/14.23",
	},
	{
		"name": "REXXY",
		"latitude": "42-0-39.83 N",
		"longitude": "77-24-34.97 W",
		"state": "NEW YORK",
		"artcc": "ZOB",
		"type": "RNAV",
		"updated": "08/27/2013",
	},
	{
		"name": "RHIME",
		"latitude": "42-3-20.35 N",
		"longitude": "82-44-4.26 W",
		"state": "",
		"artcc": "ZOB",
		"type": "RNAV",
		"updated": "03/27/2018",
	},
	{
		"name": "RHNDA",
		"latitude": "40-48-45.22 N",
		"longitude": "81-27-35.4 W",
		"state": "OHIO",
		"artcc": "ZOB",
		"type": "RNAV",
		"updated": "03/06/2018",
	},
	{
		"name": "RIBME",
		"latitude": "42-5-21.51 N",
		"longitude": "83-25-47.83 W",
		"state": "MICHIGAN",
		"artcc": "ZOB",
		"type": "RP",
		"updated": "HUU*LD*215.71/7.10",
	},
	{
		"name": "RICKO",
		"latitude": "40-37-35.97 N",
		"longitude": "82-54-17.56 W",
		"state": "OHIO",
		"artcc": "ZOB",
		"type": "RNAV",
		"updated": "06/28/2011",
	},
	{
		"name": "RICON",
		"latitude": "40-39-35.99 N",
		"longitude": "82-57-39.43 W",
		"state": "OHIO",
		"artcc": "ZOB",
		"type": "RP",
		"updated": "AEF*LE*SW CRS/5.69",
	},
	{
		"name": "RICPO",
		"latitude": "42-13-21.12 N",
		"longitude": "82-41-37.96 W",
		"state": "",
		"artcc": "ZOB",
		"type": "RP",
		"updated": "DXO*VOR/DME*094.70/30.00",
	},
	{
		"name": "RIEKE",
		"latitude": "41-31-24.94 N",
		"longitude": "82-28-4.09 W",
		"state": "OHIO",
		"artcc": "ZOB",
		"type": "RP",
		"updated": "DJB*VOR/DME*310.83/17.00",
	},
	{
		"name": "RIGSE",
		"latitude": "42-24-10.22 N",
		"longitude": "84-40-1.77 W",
		"state": "MICHIGAN",
		"artcc": "ZOB",
		"type": "RNAV",
		"updated": "03/13/2012",
	},
	{
		"name": "RIKKE",
		"latitude": "42-26-21.9 N",
		"longitude": "82-44-25.65 W",
		"state": "",
		"artcc": "ZOB",
		"type": "RP",
		"updated": "DXO*VOR/DME*069.83/31.00",
	},
	{
		"name": "RIPEE",
		"latitude": "39-56-22.15 N",
		"longitude": "79-52-34.57 W",
		"state": "PENNSYLVANIA",
		"artcc": "ZOB",
		"type": "RNAV",
		"updated": "04/15/2008",
	},
	{
		"name": "RIPPY",
		"latitude": "42-46-47.26 N",
		"longitude": "82-47-27.83 W",
		"state": "MICHIGAN",
		"artcc": "ZOB",
		"type": "RNAV",
		"updated": "03/28/2018",
	},
	{
		"name": "RISEE",
		"latitude": "43-21-28.39 N",
		"longitude": "84-41-42.36 W",
		"state": "MICHIGAN",
		"artcc": "ZOB",
		"type": "RP",
		"updated": "MOP*VOR/DME*178.38/16.00",
	},
	{
		"name": "RITCH",
		"latitude": "42-37-58.54 N",
		"longitude": "77-14-54.43 W",
		"state": "NEW YORK",
		"artcc": "ZOB",
		"type": "RP",
		"updated": "ELZ*VORTAC*054.46/46.67",
	},
	{
		"name": "RITEE",
		"latitude": "42-40-46.09 N",
		"longitude": "78-48-28.08 W",
		"state": "NEW YORK",
		"artcc": "ZOB",
		"type": "RNAV",
		"updated": "06/01/2012",
	},
	{
		"name": "RITON",
		"latitude": "39-43-42.15 N",
		"longitude": "79-55-55.98 W",
		"state": "WEST VIRGINIA",
		"artcc": "ZOB",
		"type": "RNAV",
		"updated": "02/09/2018",
	},
	{
		"name": "RITRO",
		"latitude": "40-54-10.33 N",
		"longitude": "83-26-0.65 W",
		"state": "OHIO",
		"artcc": "ZOB",
		"type": "RP",
		"updated": "FBC*VORTAC*104.00/15.00",
	},
	{
		"name": "RITZS",
		"latitude": "41-0-18.52 N",
		"longitude": "81-44-32.66 W",
		"state": "OHIO",
		"artcc": "ZOB",
		"type": "RP",
		"updated": "BSV*VOR/DME*322.41/21.23",
	},
	{
		"name": "RIVIT",
		"latitude": "40-16-50.89 N",
		"longitude": "78-19-33.92 W",
		"state": "PENNSYLVANIA",
		"artcc": "ZOB",
		"type": "RNAV",
		"updated": "03/07/2013",
	},
	{
		"name": "RIVRZ",
		"latitude": "40-24-14.38 N",
		"longitude": "80-16-39.4 W",
		"state": "PENNSYLVANIA",
		"artcc": "ZOB",
		"type": "RNAV",
		"updated": "10/28/2009",
	},
	{
		"name": "RIYOG",
		"latitude": "42-14-54.77 N",
		"longitude": "84-57-9.96 W",
		"state": "MICHIGAN",
		"artcc": "ZOB",
		"type": "RP",
		"updated": "LFD*VOR/DME*328.18/13.95",
	},
	{
		"name": "RIYOS",
		"latitude": "41-36-15.51 N",
		"longitude": "83-45-29.28 W",
		"state": "OHIO",
		"artcc": "ZOB",
		"type": "RNAV",
		"updated": "01/21/2009",
	},
	{
		"name": "RIZXU",
		"latitude": "42-58-32.26 N",
		"longitude": "78-35-17.4 W",
		"state": "NEW YORK",
		"artcc": "ZOB",
		"type": "RNAV",
		"updated": "08/07/2013",
	},
	{
		"name": "RMONZ",
		"latitude": "41-17-34.69 N",
		"longitude": "82-2-5.33 W",
		"state": "OHIO",
		"artcc": "ZOB",
		"type": "RP",
		"updated": "CLE*LD*237.94/11.68",
	},
	{
		"name": "RNDLL",
		"latitude": "42-34-1.97 N",
		"longitude": "83-14-5.89 W",
		"state": "MICHIGAN",
		"artcc": "ZOB",
		"type": "RNAV",
		"updated": "04/18/2018",
	},
	{
		"name": "ROBBI",
		"latitude": "42-25-4.11 N",
		"longitude": "83-11-14.96 W",
		"state": "MICHIGAN",
		"artcc": "ZOB",
		"type": "RP",
		"updated": "EJR*LD*035.71/15.37",
	},
	{
		"name": "ROBPO",
		"latitude": "40-24-9.92 N",
		"longitude": "78-16-49.5 W",
		"state": "PENNSYLVANIA",
		"artcc": "ZOB",
		"type": "RNAV",
		"updated": "08/23/2012",
	},
	{
		"name": "ROCIN",
		"latitude": "42-25-30.28 N",
		"longitude": "79-22-44.18 W",
		"state": "NEW YORK",
		"artcc": "ZOB",
		"type": "RNAV",
		"updated": "03/02/2015",
	},
	{
		"name": "ROHNN",
		"latitude": "41-13-26.22 N",
		"longitude": "80-26-19.41 W",
		"state": "PENNSYLVANIA",
		"artcc": "ZOB",
		"type": "RNAV",
		"updated": "02/06/2018",
	},
	{
		"name": "ROKKZ",
		"latitude": "42-31-38.59 N",
		"longitude": "83-17-51.05 W",
		"state": "MICHIGAN",
		"artcc": "ZOB",
		"type": "RNAV",
		"updated": "04/19/2018",
	},
	{
		"name": "ROKNN",
		"latitude": "40-55-52.34 N",
		"longitude": "82-30-14.16 W",
		"state": "OHIO",
		"artcc": "ZOB",
		"type": "RNAV",
		"updated": "03/29/2018",
	},
	{
		"name": "ROLLN",
		"latitude": "40-52-53.15 N",
		"longitude": "81-44-44.34 W",
		"state": "OHIO",
		"artcc": "ZOB",
		"type": "RNAV",
		"updated": "03/29/2018",
	},
	{
		"name": "ROLRR",
		"latitude": "41-53-40.43 N",
		"longitude": "83-30-59.54 W",
		"state": "MICHIGAN",
		"artcc": "ZOB",
		"type": "RNAV",
		"updated": "10/04/2016",
	},
	{
		"name": "ROLSE",
		"latitude": "42-42-49.61 N",
		"longitude": "78-34-55.38 W",
		"state": "NEW YORK",
		"artcc": "ZOB",
		"type": "RNAV",
		"updated": "06/01/2012",
	},
	{
		"name": "RONAE",
		"latitude": "40-59-16.27 N",
		"longitude": "79-7-34.96 W",
		"state": "PENNSYLVANIA",
		"artcc": "ZOB",
		"type": "RNAV",
		"updated": "03/29/2010",
	},
	{
		"name": "ROOAD",
		"latitude": "42-17-3.52 N",
		"longitude": "83-9-10.36 W",
		"state": "MICHIGAN",
		"artcc": "ZOB",
		"type": "RNAV",
		"updated": "03/29/2018",
	},
	{
		"name": "ROOKS",
		"latitude": "42-4-40.95 N",
		"longitude": "83-16-59.52 W",
		"state": "MICHIGAN",
		"artcc": "ZOB",
		"type": "RP",
		"updated": "CRL*VOR/DME*079.96/8.00",
	},
	{
		"name": "ROOSA",
		"latitude": "40-34-42.72 N",
		"longitude": "80-5-50.86 W",
		"state": "PENNSYLVANIA",
		"artcc": "ZOB",
		"type": "RNAV",
		"updated": "10/28/2009",
	},
	{
		"name": "ROPPE",
		"latitude": "41-11-27.41 N",
		"longitude": "83-8-52.74 W",
		"state": "OHIO",
		"artcc": "ZOB",
		"type": "RNAV",
		"updated": "05/12/2010",
	},
	{
		"name": "ROSLE",
		"latitude": "41-52-27.81 N",
		"longitude": "78-54-2.83 W",
		"state": "PENNSYLVANIA",
		"artcc": "ZOB",
		"type": "RNAV",
		"updated": "08/17/2010",
	},
	{
		"name": "ROTER",
		"latitude": "41-10-56.3 N",
		"longitude": "84-25-42.27 W",
		"state": "OHIO",
		"artcc": "ZOB",
		"type": "RP",
		"updated": "DQN*VOR/DME*359.83/69.92",
	},
	{
		"name": "ROUGE",
		"latitude": "42-20-34.22 N",
		"longitude": "83-16-3.21 W",
		"state": "MICHIGAN",
		"artcc": "ZOB",
		"type": "RP",
		"updated": "DWC*LD*035.71/7.47",
	},
	{
		"name": "ROUST",
		"latitude": "39-54-16.91 N",
		"longitude": "79-46-13.91 W",
		"state": "PENNSYLVANIA",
		"artcc": "ZOB",
		"type": "RNAV",
		"updated": "05/05/2016",
	},
	{
		"name": "ROYYS",
		"latitude": "41-32-33.92 N",
		"longitude": "84-15-15.32 W",
		"state": "OHIO",
		"artcc": "ZOB",
		"type": "RNAV",
		"updated": "04/17/2012",
	},
	{
		"name": "ROYYY",
		"latitude": "42-6-22.01 N",
		"longitude": "83-16-32.58 W",
		"state": "MICHIGAN",
		"artcc": "ZOB",
		"type": "RNAV",
		"updated": "03/29/2018",
	},
	{
		"name": "ROZWL",
		"latitude": "42-52-42.96 N",
		"longitude": "78-56-59.28 W",
		"state": "",
		"artcc": "ZOB",
		"type": "RNAV",
		"updated": "07/31/2014",
	},
	{
		"name": "RPTER",
		"latitude": "41-42-43.48 N",
		"longitude": "83-15-4.71 W",
		"state": "OHIO",
		"artcc": "ZOB",
		"type": "RNAV",
		"updated": "07/31/2017",
	},
	{
		"name": "RRALF",
		"latitude": "42-31-56.23 N",
		"longitude": "84-6-52.41 W",
		"state": "MICHIGAN",
		"artcc": "ZOB",
		"type": "RNAV",
		"updated": "03/28/2018",
	},
	{
		"name": "RRONS",
		"latitude": "42-41-1.31 N",
		"longitude": "82-44-58.18 W",
		"state": "MICHIGAN",
		"artcc": "ZOB",
		"type": "RNAV",
		"updated": "08/27/2013",
	},
	{
		"name": "RROZE",
		"latitude": "42-0-58.54 N",
		"longitude": "83-40-52 W",
		"state": "MICHIGAN",
		"artcc": "ZOB",
		"type": "RNAV",
		"updated": "04/17/2018",
	},
	{
		"name": "RUBIC",
		"latitude": "39-35-57.16 N",
		"longitude": "80-1-4.93 W",
		"state": "WEST VIRGINIA",
		"artcc": "ZOB",
		"type": "RNAV",
		"updated": "04/26/2010",
	},
	{
		"name": "RUBOW",
		"latitude": "40-21-25.01 N",
		"longitude": "80-36-0.77 W",
		"state": "WEST VIRGINIA",
		"artcc": "ZOB",
		"type": "RNAV",
		"updated": "05/21/2003",
	},
	{
		"name": "RUBYY",
		"latitude": "43-1-3.79 N",
		"longitude": "84-35-16.22 W",
		"state": "MICHIGAN",
		"artcc": "ZOB",
		"type": "RNAV",
		"updated": "08/27/2013",
	},
	{
		"name": "RUCOB",
		"latitude": "41-59-41.65 N",
		"longitude": "83-33-6.46 W",
		"state": "MICHIGAN",
		"artcc": "ZOB",
		"type": "RP",
		"updated": "ALA*LD*218.21/14.34",
	},
	{
		"name": "RUDDE",
		"latitude": "42-17-14.62 N",
		"longitude": "83-42-40.61 W",
		"state": "MICHIGAN",
		"artcc": "ZOB",
		"type": "RNAV",
		"updated": "03/16/2017",
	},
	{
		"name": "RUDDS",
		"latitude": "40-14-21.51 N",
		"longitude": "80-12-3.81 W",
		"state": "PENNSYLVANIA",
		"artcc": "ZOB",
		"type": "RNAV",
		"updated": "05/05/2016",
	},
	{
		"name": "RUGKI",
		"latitude": "40-20-40.3 N",
		"longitude": "79-28-25.24 W",
		"state": "PENNSYLVANIA",
		"artcc": "ZOB",
		"type": "RNAV",
		"updated": "02/09/2018",
	},
	{
		"name": "RUHSH",
		"latitude": "41-13-35.22 N",
		"longitude": "82-8-20.78 W",
		"state": "OHIO",
		"artcc": "ZOB",
		"type": "RP",
		"updated": "CLE*LD*237.94/17.86",
	},
	{
		"name": "RUJVU",
		"latitude": "42-53-18.08 N",
		"longitude": "84-1-47.46 W",
		"state": "MICHIGAN",
		"artcc": "ZOB",
		"type": "RNAV",
		"updated": "06/04/2008",
	},
	{
		"name": "RUKLE",
		"latitude": "41-11-47.96 N",
		"longitude": "80-2-13.21 W",
		"state": "PENNSYLVANIA",
		"artcc": "ZOB",
		"type": "RNAV",
		"updated": "01/18/2018",
	},
	{
		"name": "RULAE",
		"latitude": "42-59-6.47 N",
		"longitude": "78-2-28.97 W",
		"state": "NEW YORK",
		"artcc": "ZOB",
		"type": "RNAV",
		"updated": "07/20/2012",
	},
	{
		"name": "RUMBE",
		"latitude": "41-56-9.93 N",
		"longitude": "83-41-27.19 W",
		"state": "MICHIGAN",
		"artcc": "ZOB",
		"type": "RNAV",
		"updated": "04/09/2002",
	},
	{
		"name": "RUPKE",
		"latitude": "42-54-50.24 N",
		"longitude": "78-22-42.48 W",
		"state": "NEW YORK",
		"artcc": "ZOB",
		"type": "RNAV",
		"updated": "06/01/2012",
	},
	{
		"name": "RURLE",
		"latitude": "42-22-48.15 N",
		"longitude": "79-8-33.08 W",
		"state": "NEW YORK",
		"artcc": "ZOB",
		"type": "RNAV",
		"updated": "03/02/2015",
	},
	{
		"name": "RUVRE",
		"latitude": "40-15-54.09 N",
		"longitude": "81-3-36.7 W",
		"state": "OHIO",
		"artcc": "ZOB",
		"type": "RNAV",
		"updated": "03/11/2011",
	},
	{
		"name": "RUZZL",
		"latitude": "41-52-29.8 N",
		"longitude": "83-57-18.59 W",
		"state": "MICHIGAN",
		"artcc": "ZOB",
		"type": "RP",
		"updated": "DXO*VOR/DME*238.57/33.22",
	},
	{
		"name": "RVENA",
		"latitude": "41-12-33.97 N",
		"longitude": "80-59-22.1 W",
		"state": "OHIO",
		"artcc": "ZOB",
		"type": "MR",
		"updated": "YNG*VORTAC*248.00/16.00",
	},
	{
		"name": "RYCHL",
		"latitude": "41-9-39.1 N",
		"longitude": "78-56-33.93 W",
		"state": "PENNSYLVANIA",
		"artcc": "ZOB",
		"type": "RNAV",
		"updated": "03/29/2010",
	},
	{
		"name": "RYEDR",
		"latitude": "42-34-59.69 N",
		"longitude": "82-55-23.18 W",
		"state": "MICHIGAN",
		"artcc": "ZOB",
		"type": "RNAV",
		"updated": "04/17/2018",
	},
