	{
		"name": "TAADD",
		"latitude": "41-13-44.3 N",
		"longitude": "84-42-53.7 W",
		"state": "OHIO",
		"artcc": "ZOB",
		"type": "RNAV",
		"updated": "01/12/2007",
	},
	{
		"name": "TABBU",
		"latitude": "40-38-15.08 N",
		"longitude": "79-10-43.8 W",
		"state": "PENNSYLVANIA",
		"artcc": "ZOB",
		"type": "RNAV",
		"updated": "07/26/2016",
	},
	{
		"name": "TABEY",
		"latitude": "41-34-20.01 N",
		"longitude": "81-34-6.97 W",
		"state": "OHIO",
		"artcc": "ZOB",
		"type": "RP",
		"updated": "CXR*VOR/DME*285.42/18.56",
	},
	{
		"name": "TABUY",
		"latitude": "42-10-19.87 N",
		"longitude": "83-37-23.44 W",
		"state": "MICHIGAN",
		"artcc": "ZOB",
		"type": "RP",
		"updated": "SVM*VORTAC*188.26/14.24",
	},
	{
		"name": "TACHE",
		"latitude": "40-37-37.55 N",
		"longitude": "79-42-48.88 W",
		"state": "PENNSYLVANIA",
		"artcc": "ZOB",
		"type": "RNAV",
		"updated": "05/05/2016",
	},
	{
		"name": "TAHTU",
		"latitude": "40-31-14.74 N",
		"longitude": "81-11-23.2 W",
		"state": "OHIO",
		"artcc": "ZOB",
		"type": "RNAV",
		"updated": "08/29/2012",
	},
	{
		"name": "TALKN",
		"latitude": "40-6-4.49 N",
		"longitude": "84-18-33.13 W",
		"state": "OHIO",
		"artcc": "ZOB",
		"type": "RNAV",
		"updated": "03/29/2018",
	},
	{
		"name": "TALLS",
		"latitude": "40-51-2.72 N",
		"longitude": "79-25-57.14 W",
		"state": "PENNSYLVANIA",
		"artcc": "ZOB",
		"type": "RP",
		"updated": "CIP*VOR/DME*182.26/17.76",
	},
	{
		"name": "TAMDE",
		"latitude": "41-31-0.06 N",
		"longitude": "82-9-48.02 W",
		"state": "OHIO",
		"artcc": "ZOB",
		"type": "RNAV",
		"updated": "03/29/2018",
	},
	{
		"name": "TAPAN",
		"latitude": "40-14-49.95 N",
		"longitude": "81-0-40.02 W",
		"state": "OHIO",
		"artcc": "ZOB",
		"type": "RP",
		"updated": "CTW*VOR/DME*093.96",
	},
	{
		"name": "TAPIO",
		"latitude": "41-56-23.1 N",
		"longitude": "84-0-6.79 W",
		"state": "MICHIGAN",
		"artcc": "ZOB",
		"type": "RNAV",
		"updated": "03/24/2011",
	},
	{
		"name": "TAPPS",
		"latitude": "41-8-31.9 N",
		"longitude": "80-2-18.88 W",
		"state": "PENNSYLVANIA",
		"artcc": "ZOB",
		"type": "RNAV",
		"updated": "05/14/2013",
	},
	{
		"name": "TARAH",
		"latitude": "42-28-11.67 N",
		"longitude": "83-11-9.84 W",
		"state": "MICHIGAN",
		"artcc": "ZOB",
		"type": "RP",
		"updated": "JKI*LD*035.69/16.50",
	},
	{
		"name": "TATES",
		"latitude": "40-7-35.53 N",
		"longitude": "78-23-34.49 W",
		"state": "PENNSYLVANIA",
		"artcc": "ZOB",
		"type": "RP",
		"updated": "THS*VORTAC*306.78/23.44",
	},
	{
		"name": "TAYUL",
		"latitude": "42-25-42.16 N",
		"longitude": "83-13-53.62 W",
		"state": "MICHIGAN",
		"artcc": "ZOB",
		"type": "RP",
		"updated": "BZB*LD*033.19/15.35",
	},
	{
		"name": "TAZCE",
		"latitude": "41-23-43.09 N",
		"longitude": "85-1-38.37 W",
		"state": "INDIANA",
		"artcc": "ZOB",
		"type": "RP",
		"updated": "FWA*VORTAC*022.21/26.00",
	},
	{
		"name": "TBRRD",
		"latitude": "42-13-50.08 N",
		"longitude": "83-11-5.83 W",
		"state": "MICHIGAN",
		"artcc": "ZOB",
		"type": "RNAV",
		"updated": "04/18/2018",
	},
	{
		"name": "TEDDS",
		"latitude": "39-38-18.76 N",
		"longitude": "80-16-34.08 W",
		"state": "WEST VIRGINIA",
		"artcc": "ZOB",
		"type": "RP",
		"updated": "MGW*VORTAC*289.41/19.90",
	},
	{
		"name": "TEESY",
		"latitude": "41-25-15.98 N",
		"longitude": "80-6-42.55 W",
		"state": "PENNSYLVANIA",
		"artcc": "ZOB",
		"type": "RP",
		"updated": "EWC*VOR/DME*015.18/36.02",
	},
	{
		"name": "TELRY",
		"latitude": "40-11-11.77 N",
		"longitude": "79-40-50.27 W",
		"state": "PENNSYLVANIA",
		"artcc": "ZOB",
		"type": "RNAV",
		"updated": "11/01/2017",
	},
	{
		"name": "TENIS",
		"latitude": "41-28-41.27 N",
		"longitude": "78-9-10.52 W",
		"state": "PENNSYLVANIA",
		"artcc": "ZOB",
		"type": "RP",
		"updated": "SLT*VORTAC*263.92/8.50",
	},
	{
		"name": "TENUE",
		"latitude": "41-11-13.54 N",
		"longitude": "80-3-18.32 W",
		"state": "PENNSYLVANIA",
		"artcc": "ZOB",
		"type": "RNAV",
		"updated": "01/18/2018",
	},
	{
		"name": "TERBL",
		"latitude": "40-35-6 N",
		"longitude": "80-16-42.18 W",
		"state": "PENNSYLVANIA",
		"artcc": "ZOB",
		"type": "RNAV",
		"updated": "10/28/2009",
	},
	{
		"name": "TESDE",
		"latitude": "40-36-37.67 N",
		"longitude": "78-45-49.58 W",
		"state": "PENNSYLVANIA",
		"artcc": "ZOB",
		"type": "RNAV",
		"updated": "07/24/2012",
	},
	{
		"name": "TETLE",
		"latitude": "41-33-48.23 N",
		"longitude": "83-52-42.58 W",
		"state": "OHIO",
		"artcc": "ZOB",
		"type": "RP",
		"updated": "TOL*TACAN*248.00/4.00",
	},
	{
		"name": "THATZ",
		"latitude": "41-17-34.93 N",
		"longitude": "82-38-49.02 W",
		"state": "OHIO",
		"artcc": "ZOB",
		"type": "RNAV",
		"updated": "03/29/2018",
	},
	{
		"name": "THEEE",
		"latitude": "43-9-50.38 N",
		"longitude": "83-48-46.22 W",
		"state": "MICHIGAN",
		"artcc": "ZOB",
		"type": "RNAV",
		"updated": "03/29/2018",
	},
	{
		"name": "THINK",
		"latitude": "42-13-43.44 N",
		"longitude": "77-16-49.2 W",
		"state": "NEW YORK",
		"artcc": "ZOB",
		"type": "RP",
		"updated": "ULW*VOR/DME*317.38/13.97",
	},
	{
		"name": "THRTN",
		"latitude": "41-33-19.12 N",
		"longitude": "81-37-11.68 W",
		"state": "OHIO",
		"artcc": "ZOB",
		"type": "RP",
		"updated": "HPI*LD*057.96/14.85",
	},
	{
		"name": "TIANT",
		"latitude": "41-18-53.56 N",
		"longitude": "81-49-18.39 W",
		"state": "OHIO",
		"artcc": "ZOB",
		"type": "RNAV",
		"updated": "04/18/2018",
	},
	{
		"name": "TIEZZ",
		"latitude": "41-58-23.85 N",
		"longitude": "83-37-5.42 W",
		"state": "MICHIGAN",
		"artcc": "ZOB",
		"type": "RNAV",
		"updated": "04/17/2018",
	},
	{
		"name": "TIGRZ",
		"latitude": "42-27-49.46 N",
		"longitude": "83-9-12.08 W",
		"state": "MICHIGAN",
		"artcc": "ZOB",
		"type": "RP",
		"updated": "EJR*LD*035.71/18.51",
	},
	{
		"name": "TIKKU",
		"latitude": "39-55-12.17 N",
		"longitude": "80-0-20.77 W",
		"state": "PENNSYLVANIA",
		"artcc": "ZOB",
		"type": "RNAV",
		"updated": "04/15/2008",
	},
	{
		"name": "TILTD",
		"latitude": "42-46-52.24 N",
		"longitude": "84-40-9.31 W",
		"state": "MICHIGAN",
		"artcc": "ZOB",
		"type": "RNAV",
		"updated": "03/28/2018",
	},
	{
		"name": "TIPEJ",
		"latitude": "41-8-32.17 N",
		"longitude": "83-6-58.1 W",
		"state": "OHIO",
		"artcc": "ZOB",
		"type": "RNAV",
		"updated": "04/17/2012",
	},
	{
		"name": "TMBIT",
		"latitude": "42-2-19.82 N",
		"longitude": "83-13-32.86 W",
		"state": "MICHIGAN",
		"artcc": "ZOB",
		"type": "RNAV",
		"updated": "03/29/2018",
	},
	{
		"name": "TOCAR",
		"latitude": "40-18-26.7 N",
		"longitude": "80-6-9.98 W",
		"state": "PENNSYLVANIA",
		"artcc": "ZOB",
		"type": "RNAV",
		"updated": "07/19/2017",
	},
	{
		"name": "TOFFY",
		"latitude": "42-34-40.54 N",
		"longitude": "83-0-47.34 W",
		"state": "MICHIGAN",
		"artcc": "ZOB",
		"type": "RNAV",
		"updated": "04/17/2018",
	},
	{
		"name": "TOGDE",
		"latitude": "39-57-17.66 N",
		"longitude": "82-58-8.01 W",
		"state": "OHIO",
		"artcc": "ZOB",
		"type": "RNAV",
		"updated": "09/28/2014",
	},
	{
		"name": "TOGJU",
		"latitude": "40-20-12.75 N",
		"longitude": "78-18-18.34 W",
		"state": "PENNSYLVANIA",
		"artcc": "ZOB",
		"type": "RNAV",
		"updated": "08/23/2012",
	},
	{
		"name": "TOLPE",
		"latitude": "43-37-54.72 N",
		"longitude": "83-56-28.92 W",
		"state": "MICHIGAN",
		"artcc": "ZOB",
		"type": "RP",
		"updated": "TQR*LD*052.63/9.17",
	},
	{
		"name": "TOMMS",
		"latitude": "41-16-27.59 N",
		"longitude": "83-8-52.39 W",
		"state": "OHIO",
		"artcc": "ZOB",
		"type": "RNAV",
		"updated": "05/12/2010",
	},
	{
		"name": "TOMTA",
		"latitude": "41-35-56.81 N",
		"longitude": "81-10-54.38 W",
		"state": "OHIO",
		"artcc": "ZOB",
		"type": "RP",
		"updated": "CXR*VOR/DME*355.38/5.00",
	},
	{
		"name": "TONSR",
		"latitude": "40-52-29.24 N",
		"longitude": "82-0-35.15 W",
		"state": "OHIO",
		"artcc": "ZOB",
		"type": "RNAV",
		"updated": "09/23/2009",
	},
	{
		"name": "TOOOK",
		"latitude": "40-13-25.4 N",
		"longitude": "83-25-12.91 W",
		"state": "OHIO",
		"artcc": "ZOB",
		"type": "RP",
		"updated": "APE*VORTAC*282.77",
	},
	{
		"name": "TOPAE",
		"latitude": "42-48-37.72 N",
		"longitude": "82-52-27.4 W",
		"state": "MICHIGAN",
		"artcc": "ZOB",
		"type": "MR",
		"updated": "MTC*TACAN*357.00/12.00",
	},
	{
		"name": "TOPHR",
		"latitude": "41-33-10.29 N",
		"longitude": "83-55-14.68 W",
		"state": "OHIO",
		"artcc": "ZOB",
		"type": "RP",
		"updated": "TOL*TACAN*/5.99",
	},
	{
		"name": "TOPKE",
		"latitude": "42-59-44.15 N",
		"longitude": "78-24-15.13 W",
		"state": "NEW YORK",
		"artcc": "ZOB",
		"type": "RNAV",
		"updated": "06/01/2012",
	},
	{
		"name": "TORYY",
		"latitude": "42-58-17.13 N",
		"longitude": "83-38-55.59 W",
		"state": "MICHIGAN",
		"artcc": "ZOB",
		"type": "RP",
		"updated": "FNT*VORTAC*/4.33",
	},
	{
		"name": "TOVAE",
		"latitude": "42-55-3.57 N",
		"longitude": "78-25-49.99 W",
		"state": "NEW YORK",
		"artcc": "ZOB",
		"type": "RNAV",
		"updated": "06/27/2011",
	},
	{
		"name": "TOWEL",
		"latitude": "40-35-21.29 N",
		"longitude": "80-22-56.55 W",
		"state": "PENNSYLVANIA",
		"artcc": "ZOB",
		"type": "RNAV",
		"updated": "10/28/2009",
	},
	{
		"name": "TPGUN",
		"latitude": "42-38-6.49 N",
		"longitude": "82-27-7.55 W",
		"state": "",
		"artcc": "ZOB",
		"type": "RNAV",
		"updated": "04/03/2018",
	},
	{
		"name": "TRAAD",
		"latitude": "42-15-26.01 N",
		"longitude": "77-31-14.83 W",
		"state": "NEW YORK",
		"artcc": "ZOB",
		"type": "RP",
		"updated": "ULW*VOR/DME*306.00/24.19",
	},
	{
		"name": "TRACE",
		"latitude": "42-7-18.65 N",
		"longitude": "81-2-26.96 W",
		"state": "OHIO",
		"artcc": "ZOB",
		"type": "RNAV",
		"updated": "03/29/2018",
	},
	{
		"name": "TRAML",
		"latitude": "42-21-57.83 N",
		"longitude": "83-27-22.62 W",
		"state": "MICHIGAN",
		"artcc": "ZOB",
		"type": "RP",
		"updated": "DXO*VOR/DME*342.52/10.00",
	},
	{
		"name": "TRAVA",
		"latitude": "43-5-18.36 N",
		"longitude": "78-32-5.08 W",
		"state": "NEW YORK",
		"artcc": "ZOB",
		"type": "RP",
		"updated": "GEE*VOR/DME*302.60/38.48",
	},
	{
		"name": "TRESL",
		"latitude": "42-32-30.98 N",
		"longitude": "83-35-37.28 W",
		"state": "MICHIGAN",
		"artcc": "ZOB",
		"type": "RNAV",
		"updated": "03/28/2014",
	},
	{
		"name": "TRIAC",
		"latitude": "41-10-26.23 N",
		"longitude": "80-4-15.47 W",
		"state": "PENNSYLVANIA",
		"artcc": "ZOB",
		"type": "RNAV",
		"updated": "10/02/2014",
	},
	{
		"name": "TRINY",
		"latitude": "40-25-45.88 N",
		"longitude": "80-8-30.74 W",
		"state": "PENNSYLVANIA",
		"artcc": "ZOB",
		"type": "RP",
		"updated": "HLG*VOR/DME*069.43",
	},
	{
		"name": "TRNST",
		"latitude": "41-58-20.17 N",
		"longitude": "83-38-36.36 W",
		"state": "MICHIGAN",
		"artcc": "ZOB",
		"type": "RNAV",
		"updated": "04/17/2018",
	},
	{
		"name": "TRPRS",
		"latitude": "42-11-33.99 N",
		"longitude": "83-32-14.17 W",
		"state": "MICHIGAN",
		"artcc": "ZOB",
		"type": "RNAV",
		"updated": "03/29/2018",
	},
	{
		"name": "TRUNT",
		"latitude": "42-36-24.94 N",
		"longitude": "79-5-34.67 W",
		"state": "NEW YORK",
		"artcc": "ZOB",
		"type": "RNAV",
		"updated": "03/02/2015",
	},
	{
		"name": "TUDDO",
		"latitude": "42-55-52.28 N",
		"longitude": "77-22-18.73 W",
		"state": "NEW YORK",
		"artcc": "ZOB",
		"type": "RNAV",
		"updated": "09/11/2014",
	},
	{
		"name": "TUFOR",
		"latitude": "42-33-23.33 N",
		"longitude": "83-11-40.12 W",
		"state": "MICHIGAN",
		"artcc": "ZOB",
		"type": "RNAV",
		"updated": "04/18/2018",
	},
	{
		"name": "TUGOY",
		"latitude": "39-12-26.05 N",
		"longitude": "79-57-50.26 W",
		"state": "WEST VIRGINIA",
		"artcc": "ZOB",
		"type": "RNAV",
		"updated": "03/31/2008",
	},
	{
		"name": "TUKJU",
		"latitude": "42-48-34.93 N",
		"longitude": "83-30-15.84 W",
		"state": "MICHIGAN",
		"artcc": "ZOB",
		"type": "RNAV",
		"updated": "06/04/2008",
	},
	{
		"name": "TUMAY",
		"latitude": "41-13-3.07 N",
		"longitude": "83-26-45.71 W",
		"state": "OHIO",
		"artcc": "ZOB",
		"type": "RNAV",
		"updated": "03/29/2018",
	},
	{
		"name": "TUMMY",
		"latitude": "40-45-16.87 N",
		"longitude": "83-0-0.05 W",
		"state": "OHIO",
		"artcc": "ZOB",
		"type": "RNAV",
		"updated": "03/07/2016",
	},
	{
		"name": "TUNLE",
		"latitude": "43-9-46.98 N",
		"longitude": "77-32-31.38 W",
		"state": "NEW YORK",
		"artcc": "ZOB",
		"type": "RNAV",
		"updated": "03/26/2014",
	},
	{
		"name": "TUNOY",
		"latitude": "41-3-2.45 N",
		"longitude": "81-19-47.63 W",
		"state": "OHIO",
		"artcc": "ZOB",
		"type": "RNAV",
		"updated": "11/30/2017",
	},
	{
		"name": "TUPME",
		"latitude": "41-27-33.16 N",
		"longitude": "83-36-25.37 W",
		"state": "OHIO",
		"artcc": "ZOB",
		"type": "RNAV",
		"updated": "04/16/2001",
	},
	{
		"name": "TUPOZ",
		"latitude": "41-30-2.82 N",
		"longitude": "84-23-42.02 W",
		"state": "OHIO",
		"artcc": "ZOB",
		"type": "RNAV",
		"updated": "04/17/2012",
	},
	{
		"name": "TURME",
		"latitude": "40-27-26.75 N",
		"longitude": "77-57-16.36 W",
		"state": "PENNSYLVANIA",
		"artcc": "ZOB",
		"type": "CN",
		"updated": "06/17/2008",
	},
	{
		"name": "TVTRN",
		"latitude": "40-27-28.55 N",
		"longitude": "82-7-36.96 W",
		"state": "OHIO",
		"artcc": "ZOB",
		"type": "RNAV",
		"updated": "02/27/2018",
	},
	{
		"name": "TWERP",
		"latitude": "41-9-7.38 N",
		"longitude": "84-30-57.42 W",
		"state": "OHIO",
		"artcc": "ZOB",
		"type": "RP",
		"updated": "FBC*VORTAC*291.13/36.46",
	},
	{
		"name": "TWICE",
		"latitude": "40-42-39.46 N",
		"longitude": "80-32-10.95 W",
		"state": "OHIO",
		"artcc": "ZOB",
		"type": "RP",
		"updated": "EWC*VOR/DME*253.28/16.32",
	},
	{
		"name": "TWIGS",
		"latitude": "42-48-34.1 N",
		"longitude": "82-33-10.3 W",
		"state": "MICHIGAN",
		"artcc": "ZOB",
		"type": "RNAV",
		"updated": "08/27/2013",
	},
	{
		"name": "TYGAR",
		"latitude": "39-14-53.29 N",
		"longitude": "79-58-32.67 W",
		"state": "WEST VIRGINIA",
		"artcc": "ZOB",
		"type": "RP",
		"updated": "MGW*VORTAC*201.21/19.26",
	},
	{
		"name": "TYROO",
		"latitude": "40-44-6 N",
		"longitude": "78-19-53 W",
		"state": "PENNSYLVANIA",
		"artcc": "ZOB",
		"type": "RNAV",
		"updated": "12/14/2017",
	},
	{
		"name": "TYSUN",
		"latitude": "41-9-54.44 N",
		"longitude": "80-9-22.78 W",
		"state": "PENNSYLVANIA",
		"artcc": "ZOB",
		"type": "RP",
		"updated": "DJB*VOR/DME*102.00/91.48",
	},
