[
	{
		"name": "VAIRS",
		"latitude": "42-8-47.23 N",
		"longitude": "78-37-39.9 W",
		"state": "NEW YORK",
		"artcc": "ZOB",
		"type": "RP",
		"updated": "JHW*VOR/DME*103.38/22.17"
	},
	{
		"name": "VAKTY",
		"latitude": "42-6-1.57 N",
		"longitude": "78-29-23.32 W",
		"state": "NEW YORK",
		"artcc": "ZOB",
		"type": "RNAV",
		"updated": "05/18/2006"
	},
	{
		"name": "VALLI",
		"latitude": "42-33-56.33 N",
		"longitude": "83-21-18.1 W",
		"state": "MICHIGAN",
		"artcc": "ZOB",
		"type": "RNAV",
		"updated": "03/29/2018"
	},
	{
		"name": "VAQOL",
		"latitude": "42-20-32.14 N",
		"longitude": "83-31-8.04 W",
		"state": "MICHIGAN",
		"artcc": "ZOB",
		"type": "RNAV",
		"updated": "03/01/2011"
	},
	{
		"name": "VASAR",
		"latitude": "43-25-2.88 N",
		"longitude": "83-30-11.69 W",
		"state": "MICHIGAN",
		"artcc": "ZOB",
		"type": "RP",
		"updated": "FNT*VORTAC*027.51"
	},
	{
		"name": "VASHO",
		"latitude": "41-26-25.87 N",
		"longitude": "82-57-13.91 W",
		"state": "OHIO",
		"artcc": "ZOB",
		"type": "RNAV",
		"updated": "01/26/2015"
	},
	{
		"name": "VAWYU",
		"latitude": "41-44-54.57 N",
		"longitude": "79-7-56.42 W",
		"state": "PENNSYLVANIA",
		"artcc": "ZOB",
		"type": "RNAV",
		"updated": "02/24/2009"
	},
	{
		"name": "VEBMY",
		"latitude": "41-37-37.45 N",
		"longitude": "83-37-44.58 W",
		"state": "OHIO",
		"artcc": "ZOB",
		"type": "RNAV",
		"updated": "02/06/2014"
	},
	{
		"name": "VEBUC",
		"latitude": "42-43-51.33 N",
		"longitude": "77-53-18.75 W",
		"state": "NEW YORK",
		"artcc": "ZOB",
		"type": "RNAV",
		"updated": "05/02/2005"
	},
	{
		"name": "VEELA",
		"latitude": "42-7-35.34 N",
		"longitude": "82-45-0.01 W",
		"state": "",
		"artcc": "ZOB",
		"type": "RP",
		"updated": "DXO*VOR/DME*106.49/28.00"
	},
	{
		"name": "VEFRE",
		"latitude": "42-3-23.77 N",
		"longitude": "83-57-59.28 W",
		"state": "MICHIGAN",
		"artcc": "ZOB",
		"type": "RNAV",
		"updated": "02/09/2018"
	},
	{
		"name": "VEKTE",
		"latitude": "40-50-17.64 N",
		"longitude": "80-28-45.5 W",
		"state": "PENNSYLVANIA",
		"artcc": "ZOB",
		"type": "RNAV",
		"updated": "04/28/2010"
	},
	{
		"name": "VELXE",
		"latitude": "41-44-30.93 N",
		"longitude": "83-36-28.52 W",
		"state": "OHIO",
		"artcc": "ZOB",
		"type": "RNAV",
		"updated": "12/27/2005"
	},
	{
		"name": "VERNI",
		"latitude": "39-26-23.93 N",
		"longitude": "79-33-2.1 W",
		"state": "WEST VIRGINIA",
		"artcc": "ZOB",
		"type": "RP",
		"updated": "MGW*VORTAC*120.83/16.00"
	},
	{
		"name": "VERNR",
		"latitude": "42-24-11.38 N",
		"longitude": "82-50-30.34 W",
		"state": "MICHIGAN",
		"artcc": "ZOB",
		"type": "RP",
		"updated": "DXO*VOR/DME*069.83/26.00"
	},
	{
		"name": "VETUC",
		"latitude": "42-33-59.24 N",
		"longitude": "77-42-35.18 W",
		"state": "NEW YORK",
		"artcc": "ZOB",
		"type": "RNAV",
		"updated": "05/02/2005"
	},
	{
		"name": "VICCU",
		"latitude": "42-52-2.35 N",
		"longitude": "79-4-19.9 W",
		"state": "",
		"artcc": "ZOB",
		"type": "RNAV",
		"updated": "03/29/2018"
	},
	{
		"name": "VICDA",
		"latitude": "41-27-42.59 N",
		"longitude": "82-55-50.27 W",
		"state": "OHIO",
		"artcc": "ZOB",
		"type": "RNAV",
		"updated": "02/09/2018"
	},
	{
		"name": "VIEEW",
		"latitude": "42-26-22.07 N",
		"longitude": "77-1-33.3 W",
		"state": "NEW YORK",
		"artcc": "ZOB",
		"type": "RP",
		"updated": "JHW*VOR/DME*087.13/94.48"
	},
	{
		"name": "VINSE",
		"latitude": "39-58-16.21 N",
		"longitude": "77-57-21.2 W",
		"state": "PENNSYLVANIA",
		"artcc": "ZOB",
		"type": "RP",
		"updated": "CYN*VORTAC*284.37/163.00"
	},
	{
		"name": "VIPOR",
		"latitude": "43-1-46.59 N",
		"longitude": "82-49-18.69 W",
		"state": "MICHIGAN",
		"artcc": "ZOB",
		"type": "MR",
		"updated": "MTC*TACAN*007.00/25.00"
	},
	{
		"name": "VIRGI",
		"latitude": "43-8-36.61 N",
		"longitude": "77-55-46.84 W",
		"state": "NEW YORK",
		"artcc": "ZOB",
		"type": "RP",
		"updated": "ROC*VOR/DME*286.00/11.00"
	},
	{
		"name": "VIZXO",
		"latitude": "40-58-44.61 N",
		"longitude": "82-47-12.39 W",
		"state": "OHIO",
		"artcc": "ZOB",
		"type": "RNAV",
		"updated": "03/29/2018"
	},
	{
		"name": "VLADI",
		"latitude": "42-38-33 N",
		"longitude": "82-43-31.38 W",
		"state": "MICHIGAN",
		"artcc": "ZOB",
		"type": "RP",
		"updated": "YQG*VOR/DME*017.00/24.00"
	},
	{
		"name": "VOBRY",
		"latitude": "41-12-8.06 N",
		"longitude": "82-59-45.13 W",
		"state": "OHIO",
		"artcc": "ZOB",
		"type": "RNAV",
		"updated": "05/20/2009"
	},
	{
		"name": "VOCUV",
		"latitude": "42-50-37.83 N",
		"longitude": "82-58-37.04 W",
		"state": "MICHIGAN",
		"artcc": "ZOB",
		"type": "RNAV",
		"updated": "03/25/2013"
	},
	{
		"name": "VOKHY",
		"latitude": "42-35-31.46 N",
		"longitude": "77-57-22.27 W",
		"state": "NEW YORK",
		"artcc": "ZOB",
		"type": "RNAV",
		"updated": "04/20/2012"
	},
	{
		"name": "VOLAN",
		"latitude": "41-8-3.51 N",
		"longitude": "80-8-40.31 W",
		"state": "PENNSYLVANIA",
		"artcc": "ZOB",
		"type": "RP",
		"updated": "FKL*VOR*221.61"
	},
	{
		"name": "VOLPE",
		"latitude": "42-31-9 N",
		"longitude": "80-37-0 W",
		"state": "",
		"artcc": "ZOB",
		"type": "RNAV",
		"updated": "04/03/2018"
	},
	{
		"name": "VOWER",
		"latitude": "43-26-9.58 N",
		"longitude": "83-29-1.25 W",
		"state": "MICHIGAN",
		"artcc": "ZOB",
		"type": "RNAV",
		"updated": "04/21/2016"
	},
	{
		"name": "VOYDO",
		"latitude": "41-14-59.14 N",
		"longitude": "83-8-28.09 W",
		"state": "OHIO",
		"artcc": "ZOB",
		"type": "RNAV",
		"updated": "06/06/2011"
	},
	{
		"name": "VRADO",
		"latitude": "42-21-28.82 N",
		"longitude": "83-21-27.87 W",
		"state": "MICHIGAN",
		"artcc": "ZOB",
		"type": "RP",
		"updated": "DXO*VOR/DME*008.62/8.70"
	},
	{
		"name": "VUGCO",
		"latitude": "41-37-34.76 N",
		"longitude": "83-41-17.69 W",
		"state": "OHIO",
		"artcc": "ZOB",
		"type": "RNAV",
		"updated": "01/21/2009"
	},
	{
		"name": "VUZJU",
		"latitude": "42-10-14.57 N",
		"longitude": "83-50-36.42 W",
		"state": "MICHIGAN",
		"artcc": "ZOB",
		"type": "RNAV",
		"updated": "03/01/2011"
	},
	{
		"name": "VYPRE",
		"latitude": "42-43-46.94 N",
		"longitude": "80-22-18.13 W",
		"state": "",
		"artcc": "ZOB",
		"type": "RNAV",
		"updated": "04/03/2018"
	}
]
