	{
		"name": "WAAHU",
		"latitude": "40-38-4.21 N",
		"longitude": "82-25-10.09 W",
		"state": "OHIO",
		"artcc": "ZOB",
		"type": "RP",
		"updated": "DJB*VOR/DME*200.17/44.94",
	},
	{
		"name": "WAAKE",
		"latitude": "42-20-31.65 N",
		"longitude": "78-40-51.25 W",
		"state": "NEW YORK",
		"artcc": "ZOB",
		"type": "RNAV",
		"updated": "08/25/2014",
	},
	{
		"name": "WABOR",
		"latitude": "42-4-58.9 N",
		"longitude": "79-51-14.48 W",
		"state": "PENNSYLVANIA",
		"artcc": "ZOB",
		"type": "RP",
		"updated": "TDT*VORTAC*327.74",
	},
	{
		"name": "WABUS",
		"latitude": "42-47-5.81 N",
		"longitude": "78-55-58.17 W",
		"state": "NEW YORK",
		"artcc": "ZOB",
		"type": "RNAV",
		"updated": "06/01/2012",
	},
	{
		"name": "WABVA",
		"latitude": "40-12-40.18 N",
		"longitude": "78-44-10.28 W",
		"state": "PENNSYLVANIA",
		"artcc": "ZOB",
		"type": "RP",
		"updated": "JST*VOR/DME*150.56/7.77",
	},
	{
		"name": "WADIV",
		"latitude": "41-46-1.9 N",
		"longitude": "81-37-32.28 W",
		"state": "OHIO",
		"artcc": "ZOB",
		"type": "RNAV",
		"updated": "10/16/2008",
	},
	{
		"name": "WADOD",
		"latitude": "41-28-54.09 N",
		"longitude": "81-25-35.03 W",
		"state": "OHIO",
		"artcc": "ZOB",
		"type": "RNAV",
		"updated": "02/11/2014",
	},
	{
		"name": "WADVU",
		"latitude": "42-12-5.55 N",
		"longitude": "83-12-16.87 W",
		"state": "MICHIGAN",
		"artcc": "ZOB",
		"type": "RNAV",
		"updated": "08/19/2005",
	},
	{
		"name": "WAKEL",
		"latitude": "42-39-40.11 N",
		"longitude": "83-32-49.92 W",
		"state": "MICHIGAN",
		"artcc": "ZOB",
		"type": "RP",
		"updated": "PSI*VORTAC*198.02",
	},
	{
		"name": "WAKEM",
		"latitude": "41-17-6.61 N",
		"longitude": "82-27-30.87 W",
		"state": "OHIO",
		"artcc": "ZOB",
		"type": "RP",
		"updated": "MFD*VORTAC*016.48",
	},
	{
		"name": "WAKIB",
		"latitude": "39-37-17.41 N",
		"longitude": "78-45-10.52 W",
		"state": "WEST VIRGINIA",
		"artcc": "ZOB",
		"type": "RP",
		"updated": "CBE*LE*047.50/0.86",
	},
	{
		"name": "WAKOB",
		"latitude": "40-23-23.89 N",
		"longitude": "80-13-37.39 W",
		"state": "PENNSYLVANIA",
		"artcc": "ZOB",
		"type": "RNAV",
		"updated": "07/19/2017",
	},
	{
		"name": "WALCO",
		"latitude": "43-14-21.57 N",
		"longitude": "76-52-21.19 W",
		"state": "NEW YORK",
		"artcc": "ZOB",
		"type": "RNAV",
		"updated": "06/18/2008",
	},
	{
		"name": "WALES",
		"latitude": "42-48-26.07 N",
		"longitude": "78-29-13.95 W",
		"state": "NEW YORK",
		"artcc": "ZOB",
		"type": "RNAV",
		"updated": "06/01/2012",
	},
	{
		"name": "WALGI",
		"latitude": "38-50-53.11 N",
		"longitude": "84-9-24.32 W",
		"state": "OHIO",
		"artcc": "ZOB",
		"type": "RNAV",
		"updated": "10/22/2015",
	},
	{
		"name": "WALRS",
		"latitude": "43-35-9.58 N",
		"longitude": "84-10-22.75 W",
		"state": "MICHIGAN",
		"artcc": "ZOB",
		"type": "RP",
		"updated": "MBS*VOR/DME*311.02/5.30",
	},
	{
		"name": "WAMSO",
		"latitude": "41-17-32.02 N",
		"longitude": "79-21-13.69 W",
		"state": "PENNSYLVANIA",
		"artcc": "ZOB",
		"type": "RNAV",
		"updated": "02/04/2008",
	},
	{
		"name": "WANVO",
		"latitude": "39-44-17.94 N",
		"longitude": "78-37-51.29 W",
		"state": "PENNSYLVANIA",
		"artcc": "ZOB",
		"type": "RNAV",
		"updated": "06/29/2011",
	},
	{
		"name": "WANZZ",
		"latitude": "43-1-19 N",
		"longitude": "82-43-24.25 W",
		"state": "MICHIGAN",
		"artcc": "ZOB",
		"type": "MR",
		"updated": "MTC*TACAN*017.00/25.00",
	},
	{
		"name": "WAPIS",
		"latitude": "41-30-9.49 N",
		"longitude": "81-24-52.11 W",
		"state": "OHIO",
		"artcc": "ZOB",
		"type": "RNAV",
		"updated": "01/29/2015",
	},
	{
		"name": "WAPNU",
		"latitude": "42-5-43.74 N",
		"longitude": "79-15-32.97 W",
		"state": "NEW YORK",
		"artcc": "ZOB",
		"type": "RNAV",
		"updated": "04/14/2004",
	},
	{
		"name": "WARBA",
		"latitude": "41-55-5.4 N",
		"longitude": "83-52-33.48 W",
		"state": "MICHIGAN",
		"artcc": "ZOB",
		"type": "RNAV",
		"updated": "02/23/2015",
	},
	{
		"name": "WARGO",
		"latitude": "40-32-59.3 N",
		"longitude": "83-0-13.98 W",
		"state": "OHIO",
		"artcc": "ZOB",
		"type": "RP",
		"updated": "MFD*VORTAC*227.72/26.84",
	},
	{
		"name": "WASDO",
		"latitude": "40-16-12.8 N",
		"longitude": "78-47-30.45 W",
		"state": "PENNSYLVANIA",
		"artcc": "ZOB",
		"type": "RNAV",
		"updated": "07/08/2009",
	},
	{
		"name": "WASEE",
		"latitude": "43-35-48.86 N",
		"longitude": "83-59-26.37 W",
		"state": "MICHIGAN",
		"artcc": "ZOB",
		"type": "RP",
		"updated": "TQR*LD*052.63/6.17",
	},
	{
		"name": "WASKI",
		"latitude": "43-10-52.08 N",
		"longitude": "78-39-56.37 W",
		"state": "NEW YORK",
		"artcc": "ZOB",
		"type": "RNAV",
		"updated": "06/01/2012",
	},
	{
		"name": "WASPP",
		"latitude": "42-11-13.04 N",
		"longitude": "83-14-50.7 W",
		"state": "MICHIGAN",
		"artcc": "ZOB",
		"type": "RNAV",
		"updated": "07/31/2017",
	},
	{
		"name": "WATAR",
		"latitude": "40-37-29.7 N",
		"longitude": "79-1-42.9 W",
		"state": "PENNSYLVANIA",
		"artcc": "ZOB",
		"type": "RNAV",
		"updated": "07/26/2016",
	},
	{
		"name": "WATCH",
		"latitude": "42-2-35.86 N",
		"longitude": "83-27-49.27 W",
		"state": "MICHIGAN",
		"artcc": "ZOB",
		"type": "RP",
		"updated": "HUU*LD*215.71/10.25",
	},
	{
		"name": "WAVRU",
		"latitude": "43-1-59.55 N",
		"longitude": "78-19-6.35 W",
		"state": "NEW YORK",
		"artcc": "ZOB",
		"type": "RNAV",
		"updated": "12/04/2008",
	},
	{
		"name": "WAVVO",
		"latitude": "40-7-41.67 N",
		"longitude": "80-24-45.99 W",
		"state": "PENNSYLVANIA",
		"artcc": "ZOB",
		"type": "RNAV",
		"updated": "10/02/2012",
	},
	{
		"name": "WAYLA",
		"latitude": "42-20-58.54 N",
		"longitude": "77-48-57.18 W",
		"state": "NEW YORK",
		"artcc": "ZOB",
		"type": "RNAV",
		"updated": "09/20/2014",
	},
	{
		"name": "WCARD",
		"latitude": "41-19-55.96 N",
		"longitude": "82-6-9.23 W",
		"state": "OHIO",
		"artcc": "ZOB",
		"type": "CN",
		"updated": "06/19/2002",
	},
	{
		"name": "WEBBO",
		"latitude": "42-19-26.73 N",
		"longitude": "79-4-40.3 W",
		"state": "NEW YORK",
		"artcc": "ZOB",
		"type": "RNAV",
		"updated": "03/02/2015",
	},
	{
		"name": "WEBCO",
		"latitude": "41-41-2.69 N",
		"longitude": "83-35-41.24 W",
		"state": "OHIO",
		"artcc": "ZOB",
		"type": "RNAV",
		"updated": "03/10/2015",
	},
	{
		"name": "WEBVU",
		"latitude": "40-48-22.44 N",
		"longitude": "79-49-52.02 W",
		"state": "PENNSYLVANIA",
		"artcc": "ZOB",
		"type": "RNAV",
		"updated": "05/15/2012",
	},
	{
		"name": "WEDOD",
		"latitude": "43-6-9.68 N",
		"longitude": "78-50-8.09 W",
		"state": "NEW YORK",
		"artcc": "ZOB",
		"type": "MR",
		"updated": "IAG*TACAN*106.11/5.51",
	},
	{
		"name": "WEEDA",
		"latitude": "41-42-57.39 N",
		"longitude": "83-3-51.07 W",
		"state": "OHIO",
		"artcc": "ZOB",
		"type": "RP",
		"updated": "SVM*VORTAC*153.15/47.82",
	},
	{
		"name": "WEELD",
		"latitude": "39-42-30.46 N",
		"longitude": "81-7-2.99 W",
		"state": "OHIO",
		"artcc": "ZOB",
		"type": "RP",
		"updated": "ZZV*VOR/DME*117.00",
	},
	{
		"name": "WEEVR",
		"latitude": "41-13-21.39 N",
		"longitude": "84-13-4.01 W",
		"state": "OHIO",
		"artcc": "ZOB",
		"type": "RNAV",
		"updated": "08/25/2011",
	},
	{
		"name": "WEGAN",
		"latitude": "41-50-54.83 N",
		"longitude": "80-51-6.56 W",
		"state": "OHIO",
		"artcc": "ZOB",
		"type": "RNAV",
		"updated": "01/29/2015",
	},
	{
		"name": "WEHXO",
		"latitude": "40-55-28.08 N",
		"longitude": "80-25-56.82 W",
		"state": "PENNSYLVANIA",
		"artcc": "ZOB",
		"type": "WP",
		"updated": "07/20/2007",
	},
	{
		"name": "WEIDS",
		"latitude": "41-43-16.32 N",
		"longitude": "81-6-45.25 W",
		"state": "OHIO",
		"artcc": "ZOB",
		"type": "RNAV",
		"updated": "03/29/2018",
	},
	{
		"name": "WELAL",
		"latitude": "41-21-44.99 N",
		"longitude": "82-7-32.5 W",
		"state": "OHIO",
		"artcc": "ZOB",
		"type": "RNAV",
		"updated": "04/20/2009",
	},
	{
		"name": "WELAS",
		"latitude": "42-36-20.98 N",
		"longitude": "82-57-48.36 W",
		"state": "MICHIGAN",
		"artcc": "ZOB",
		"type": "RNAV",
		"updated": "03/25/2013",
	},
	{
		"name": "WELEL",
		"latitude": "39-28-30.91 N",
		"longitude": "84-42-23.07 W",
		"state": "OHIO",
		"artcc": "ZOB",
		"type": "RNAV",
		"updated": "10/22/2015",
	},
	{
		"name": "WELLA",
		"latitude": "42-51-15.84 N",
		"longitude": "79-9-35.69 W",
		"state": "",
		"artcc": "ZOB",
		"type": "RP",
		"updated": "JHW*VOR/DME*004.56/39.97",
	},
	{
		"name": "WELMO",
		"latitude": "42-30-25.62 N",
		"longitude": "77-40-12.27 W",
		"state": "NEW YORK",
		"artcc": "ZOB",
		"type": "RNAV",
		"updated": "05/02/2005",
	},
	{
		"name": "WELRA",
		"latitude": "39-4-34.17 N",
		"longitude": "84-21-25.93 W",
		"state": "OHIO",
		"artcc": "ZOB",
		"type": "RNAV",
		"updated": "10/08/2015",
	},
	{
		"name": "WELTI",
		"latitude": "42-54-47.98 N",
		"longitude": "77-53-19.23 W",
		"state": "NEW YORK",
		"artcc": "ZOB",
		"type": "RP",
		"updated": "ROC*VOR/DME*229.82",
	},
	{
		"name": "WENNI",
		"latitude": "40-16-27.4 N",
		"longitude": "78-47-44.21 W",
		"state": "PENNSYLVANIA",
		"artcc": "ZOB",
		"type": "RP",
		"updated": "JST*VOR/DME*/3.10",
	},
	{
		"name": "WENUG",
		"latitude": "40-21-56.12 N",
		"longitude": "80-38-32.39 W",
		"state": "OHIO",
		"artcc": "ZOB",
		"type": "RNAV",
		"updated": "09/10/2015",
	},
	{
		"name": "WEPIL",
		"latitude": "42-20-13.45 N",
		"longitude": "82-38-41.41 W",
		"state": "",
		"artcc": "ZOB",
		"type": "RP",
		"updated": "DXO*VOR/DME*082.74/33.00",
	},
	{
		"name": "WEPPY",
		"latitude": "42-41-18.04 N",
		"longitude": "84-16-25.33 W",
		"state": "MICHIGAN",
		"artcc": "ZOB",
		"type": "RNAV",
		"updated": "06/01/2006",
	},
	{
		"name": "WERDO",
		"latitude": "43-23-55.29 N",
		"longitude": "84-16-6.85 W",
		"state": "MICHIGAN",
		"artcc": "ZOB",
		"type": "RNAV",
		"updated": "12/05/2017",
	},
	{
		"name": "WERIS",
		"latitude": "41-29-50.28 N",
		"longitude": "81-28-54.44 W",
		"state": "OHIO",
		"artcc": "ZOB",
		"type": "RNAV",
		"updated": "10/15/2008",
	},
	{
		"name": "WESIT",
		"latitude": "39-36-50.17 N",
		"longitude": "84-39-13.79 W",
		"state": "OHIO",
		"artcc": "ZOB",
		"type": "RNAV",
		"updated": "10/22/2015",
	},
	{
		"name": "WETAB",
		"latitude": "40-8-27.34 N",
		"longitude": "79-35-13.5 W",
		"state": "PENNSYLVANIA",
		"artcc": "ZOB",
		"type": "RNAV",
		"updated": "02/28/2017",
	},
	{
		"name": "WETOM",
		"latitude": "39-32-59.72 N",
		"longitude": "84-29-57.05 W",
		"state": "OHIO",
		"artcc": "ZOB",
		"type": "RNAV",
		"updated": "10/22/2015",
	},
	{
		"name": "WEVEL",
		"latitude": "41-15-1.16 N",
		"longitude": "78-27-29.08 W",
		"state": "PENNSYLVANIA",
		"artcc": "ZOB",
		"type": "RP",
		"updated": "ETG*VORTAC*288.56/14.43",
	},
	{
		"name": "WEVOV",
		"latitude": "40-12-22.91 N",
		"longitude": "80-14-33.68 W",
		"state": "PENNSYLVANIA",
		"artcc": "ZOB",
		"type": "RNAV",
		"updated": "05/05/2016",
	},
	{
		"name": "WEVUM",
		"latitude": "41-36-42.26 N",
		"longitude": "84-0-19.3 W",
		"state": "OHIO",
		"artcc": "ZOB",
		"type": "RNAV",
		"updated": "04/17/2012",
	},
	{
		"name": "WEXER",
		"latitude": "41-20-46.24 N",
		"longitude": "81-22-34.03 W",
		"state": "OHIO",
		"artcc": "ZOB",
		"type": "RP",
		"updated": "DJB*VOR/DME*095.89/35.52",
	},
	{
		"name": "WEXUS",
		"latitude": "42-33-55.82 N",
		"longitude": "84-18-24.17 W",
		"state": "MICHIGAN",
		"artcc": "ZOB",
		"type": "RNAV",
		"updated": "01/04/2013",
	},
	{
		"name": "WHHAT",
		"latitude": "41-13-33.15 N",
		"longitude": "82-14-43.63 W",
		"state": "OHIO",
		"artcc": "ZOB",
		"type": "RNAV",
		"updated": "03/29/2018",
	},
	{
		"name": "WHINR",
		"latitude": "41-13-33.8 N",
		"longitude": "81-0-10.76 W",
		"state": "OHIO",
		"artcc": "ZOB",
		"type": "RNAV",
		"updated": "01/31/2014",
	},
	{
		"name": "WHIZZ",
		"latitude": "40-27-6.8 N",
		"longitude": "79-59-18.97 W",
		"state": "PENNSYLVANIA",
		"artcc": "ZOB",
		"type": "RNAV",
		"updated": "04/09/2014",
	},
	{
		"name": "WHONT",
		"latitude": "41-24-22.63 N",
		"longitude": "81-36-47.94 W",
		"state": "OHIO",
		"artcc": "ZOB",
		"type": "RP",
		"updated": "PXP*LD*101.32/11.00",
	},
	{
		"name": "WHYSU",
		"latitude": "41-11-51.75 N",
		"longitude": "80-35-33.78 W",
		"state": "OHIO",
		"artcc": "ZOB",
		"type": "RNAV",
		"updated": "09/30/2011",
	},
	{
		"name": "WIDIP",
		"latitude": "40-56-28.54 N",
		"longitude": "78-7-10.22 W",
		"state": "PENNSYLVANIA",
		"artcc": "ZOB",
		"type": "RNAV",
		"updated": "04/20/2011",
	},
	{
		"name": "WIDLU",
		"latitude": "39-27-4.61 N",
		"longitude": "80-9-50.29 W",
		"state": "WEST VIRGINIA",
		"artcc": "ZOB",
		"type": "RNAV",
		"updated": "02/09/2018",
	},
	{
		"name": "WIDRE",
		"latitude": "40-13-45.55 N",
		"longitude": "79-41-5.97 W",
		"state": "PENNSYLVANIA",
		"artcc": "ZOB",
		"type": "RNAV",
		"updated": "02/09/2018",
	},
	{
		"name": "WIFES",
		"latitude": "41-2-3.49 N",
		"longitude": "84-14-34.38 W",
		"state": "OHIO",
		"artcc": "ZOB",
		"type": "RNAV",
		"updated": "07/09/2009",
	},
	{
		"name": "WIGAP",
		"latitude": "41-52-46.65 N",
		"longitude": "80-46-42.37 W",
		"state": "OHIO",
		"artcc": "ZOB",
		"type": "RNAV",
		"updated": "09/10/2015",
	},
	{
		"name": "WIGEG",
		"latitude": "42-58-56.19 N",
		"longitude": "77-54-12.23 W",
		"state": "NEW YORK",
		"artcc": "ZOB",
		"type": "RNAV",
		"updated": "03/27/2014",
	},
	{
		"name": "WIGEX",
		"latitude": "39-53-1.07 N",
		"longitude": "79-44-37.49 W",
		"state": "PENNSYLVANIA",
		"artcc": "ZOB",
		"type": "RNAV",
		"updated": "07/23/2012",
	},
	{
		"name": "WIGGY",
		"latitude": "40-37-14.94 N",
		"longitude": "79-43-25.67 W",
		"state": "PENNSYLVANIA",
		"artcc": "ZOB",
		"type": "RNAV",
		"updated": "11/15/2017",
	},
	{
		"name": "WIGRI",
		"latitude": "41-30-4.9 N",
		"longitude": "83-32-56.32 W",
		"state": "OHIO",
		"artcc": "ZOB",
		"type": "RNAV",
		"updated": "06/28/2011",
	},
	{
		"name": "WIGSA",
		"latitude": "42-46-31.98 N",
		"longitude": "84-19-4.51 W",
		"state": "MICHIGAN",
		"artcc": "ZOB",
		"type": "RP",
		"updated": "LAN*LD*095.63/12.70",
	},
	{
		"name": "WIGUK",
		"latitude": "43-4-19.21 N",
		"longitude": "82-22-6.65 W",
		"state": "",
		"artcc": "ZOB",
		"type": "RNAV",
		"updated": "07/26/2011",
	},
	{
		"name": "WIGUP",
		"latitude": "40-14-42.57 N",
		"longitude": "84-8-21.26 W",
		"state": "OHIO",
		"artcc": "ZOB",
		"type": "RP",
		"updated": "ROD*VORTAC*244.96/5.10",
	},
	{
		"name": "WIHLO",
		"latitude": "42-18-35.08 N",
		"longitude": "77-39-16.58 W",
		"state": "NEW YORK",
		"artcc": "ZOB",
		"type": "RNAV",
		"updated": "04/20/2012",
	},
	{
		"name": "WIILE",
		"latitude": "40-29-31.2 N",
		"longitude": "80-27-39.04 W",
		"state": "PENNSYLVANIA",
		"artcc": "ZOB",
		"type": "RP",
		"updated": "MMJ*DME*/12.22",
	},
	{
		"name": "WIINR",
		"latitude": "41-30-15.01 N",
		"longitude": "81-34-41.17 W",
		"state": "OHIO",
		"artcc": "ZOB",
		"type": "RNAV",
		"updated": "04/18/2018",
	},
	{
		"name": "WIKBA",
		"latitude": "40-2-12.56 N",
		"longitude": "79-35-53.34 W",
		"state": "PENNSYLVANIA",
		"artcc": "ZOB",
		"type": "RNAV",
		"updated": "02/21/2017",
	},
	{
		"name": "WIKCI",
		"latitude": "43-21-59.59 N",
		"longitude": "77-38-53.58 W",
		"state": "NEW YORK",
		"artcc": "ZOB",
		"type": "RNAV",
		"updated": "03/27/2014",
	},
	{
		"name": "WIKRU",
		"latitude": "39-59-5.11 N",
		"longitude": "82-1-30.11 W",
		"state": "OHIO",
		"artcc": "ZOB",
		"type": "RNAV",
		"updated": "12/02/2014",
	},
	{
		"name": "WILMO",
		"latitude": "40-39-0.93 N",
		"longitude": "81-39-22.13 W",
		"state": "OHIO",
		"artcc": "ZOB",
		"type": "RNAV",
		"updated": "03/30/2018",
	},
	{
		"name": "WILOO",
		"latitude": "41-53-33.59 N",
		"longitude": "83-34-25.41 W",
		"state": "MICHIGAN",
		"artcc": "ZOB",
		"type": "RP",
		"updated": "HUU*LD*215.71/20.54",
	},
	{
		"name": "WILTT",
		"latitude": "40-30-11.96 N",
		"longitude": "78-13-26.32 W",
		"state": "PENNSYLVANIA",
		"artcc": "ZOB",
		"type": "RP",
		"updated": "JST*VOR/DME*074.00/30.12",
	},
	{
		"name": "WIMEP",
		"latitude": "41-0-6.32 N",
		"longitude": "83-40-42.97 W",
		"state": "OHIO",
		"artcc": "ZOB",
		"type": "RNAV",
		"updated": "01/25/2006",
	},
	{
		"name": "WIMKO",
		"latitude": "41-5-37.53 N",
		"longitude": "78-46-17.35 W",
		"state": "PENNSYLVANIA",
		"artcc": "ZOB",
		"type": "RNAV",
		"updated": "02/21/2017",
	},
	{
		"name": "WIMLU",
		"latitude": "41-26-40.41 N",
		"longitude": "83-18-59.16 W",
		"state": "OHIO",
		"artcc": "ZOB",
		"type": "RNAV",
		"updated": "06/28/2011",
	},
	{
		"name": "WIMOS",
		"latitude": "40-51-13.68 N",
		"longitude": "82-33-13.76 W",
		"state": "OHIO",
		"artcc": "ZOB",
		"type": "RNAV",
		"updated": "04/17/2012",
	},
	{
		"name": "WIMUT",
		"latitude": "40-3-17.94 N",
		"longitude": "79-38-4.41 W",
		"state": "PENNSYLVANIA",
		"artcc": "ZOB",
		"type": "RNAV",
		"updated": "02/21/2017",
	},
	{
		"name": "WINES",
		"latitude": "40-58-10.57 N",
		"longitude": "84-28-56.42 W",
		"state": "OHIO",
		"artcc": "ZOB",
		"type": "RP",
		"updated": "FWA*VORTAC*096.78/32.08",
	},
	{
		"name": "WINGR",
		"latitude": "42-41-10.09 N",
		"longitude": "83-18-26.89 W",
		"state": "MICHIGAN",
		"artcc": "ZOB",
		"type": "RP",
		"updated": "DXO*VOR/DME*011.28",
	},
	{
		"name": "WINTO",
		"latitude": "43-21-45.96 N",
		"longitude": "83-14-2.48 W",
		"state": "MICHIGAN",
		"artcc": "ZOB",
		"type": "RNAV",
		"updated": "09/10/2014",
	},
	{
		"name": "WINUD",
		"latitude": "43-9-59.49 N",
		"longitude": "79-11-30.76 W",
		"state": "",
		"artcc": "ZOB",
		"type": "RNAV",
		"updated": "08/21/2013",
	},
	{
		"name": "WIPEM",
		"latitude": "42-53-29.59 N",
		"longitude": "83-28-48.74 W",
		"state": "MICHIGAN",
		"artcc": "ZOB",
		"type": "RNAV",
		"updated": "10/15/2008",
	},
	{
		"name": "WIPEX",
		"latitude": "41-26-9.07 N",
		"longitude": "78-34-19.6 W",
		"state": "PENNSYLVANIA",
		"artcc": "ZOB",
		"type": "RNAV",
		"updated": "10/21/2014",
	},
	{
		"name": "WIPPN",
		"latitude": "41-16-46.28 N",
		"longitude": "81-52-39.52 W",
		"state": "OHIO",
		"artcc": "ZOB",
		"type": "RNAV",
		"updated": "04/18/2018",
	},
	{
		"name": "WIQSU",
		"latitude": "42-10-25.58 N",
		"longitude": "83-5-56.76 W",
		"state": "",
		"artcc": "ZOB",
		"type": "RNAV",
		"updated": "02/20/2009",
	},
	{
		"name": "WIRAV",
		"latitude": "40-59-0.54 N",
		"longitude": "80-21-17.12 W",
		"state": "PENNSYLVANIA",
		"artcc": "ZOB",
		"type": "WP",
		"updated": "07/20/2007",
	},
	{
		"name": "WIRNO",
		"latitude": "40-44-41.58 N",
		"longitude": "81-27-2.01 W",
		"state": "OHIO",
		"artcc": "ZOB",
		"type": "RNAV",
		"updated": "12/06/2010",
	},
	{
		"name": "WISIK",
		"latitude": "41-19-18.49 N",
		"longitude": "79-43-26.71 W",
		"state": "PENNSYLVANIA",
		"artcc": "ZOB",
		"type": "RNAV",
		"updated": "02/16/2018",
	},
	{
		"name": "WISIV",
		"latitude": "42-33-59.28 N",
		"longitude": "83-3-54.02 W",
		"state": "MICHIGAN",
		"artcc": "ZOB",
		"type": "RNAV",
		"updated": "04/18/2018",
	},
	{
		"name": "WISKE",
		"latitude": "40-7-44.89 N",
		"longitude": "80-40-33.94 W",
		"state": "WEST VIRGINIA",
		"artcc": "ZOB",
		"type": "RP",
		"updated": "CTW*VOR/DME*106.00",
	},
	{
		"name": "WISNO",
		"latitude": "40-43-30.9 N",
		"longitude": "80-13-22.83 W",
		"state": "PENNSYLVANIA",
		"artcc": "ZOB",
		"type": "RP",
		"updated": "AGC*VOR/DME*351.77/28.05",
	},
	{
		"name": "WISVA",
		"latitude": "40-7-58.57 N",
		"longitude": "81-10-31.37 W",
		"state": "OHIO",
		"artcc": "ZOB",
		"type": "RP",
		"updated": "AIR*VOR/DME*299.96/17.90",
	},
	{
		"name": "WITAB",
		"latitude": "41-25-6.64 N",
		"longitude": "78-51-48.1 W",
		"state": "PENNSYLVANIA",
		"artcc": "ZOB",
		"type": "RNAV",
		"updated": "08/23/2006",
	},
	{
		"name": "WITKR",
		"latitude": "42-17-11.5 N",
		"longitude": "83-9-54.68 W",
		"state": "MICHIGAN",
		"artcc": "ZOB",
		"type": "RP",
		"updated": "DXO*VOR/DME*069.83/10.00",
	},
	{
		"name": "WITMA",
		"latitude": "42-35-52.22 N",
		"longitude": "77-43-50.79 W",
		"state": "NEW YORK",
		"artcc": "ZOB",
		"type": "RNAV",
		"updated": "05/02/2005",
	},
	{
		"name": "WITTR",
		"latitude": "42-16-15.26 N",
		"longitude": "71-32-23.04 W",
		"state": "MASSACHUSETTS",
		"artcc": "ZOB",
		"type": "RNAV",
		"updated": "07/20/2017",
	},
	{
		"name": "WITUV",
		"latitude": "39-56-12.41 N",
		"longitude": "79-47-34.25 W",
		"state": "PENNSYLVANIA",
		"artcc": "ZOB",
		"type": "RNAV",
		"updated": "07/23/2012",
	},
	{
		"name": "WIVGU",
		"latitude": "43-16-7.04 N",
		"longitude": "83-17-3.47 W",
		"state": "MICHIGAN",
		"artcc": "ZOB",
		"type": "RNAV",
		"updated": "09/03/2013",
	},
	{
		"name": "WIVRI",
		"latitude": "42-54-8.45 N",
		"longitude": "77-21-31.31 W",
		"state": "NEW YORK",
		"artcc": "ZOB",
		"type": "RP",
		"updated": "GEE*VOR/DME*085.00/17.00",
	},
	{
		"name": "WIVSU",
		"latitude": "40-40-19.7 N",
		"longitude": "80-5-9.76 W",
		"state": "PENNSYLVANIA",
		"artcc": "ZOB",
		"type": "RNAV",
		"updated": "03/11/2015",
	},
	{
		"name": "WIXAM",
		"latitude": "42-5-38.11 N",
		"longitude": "79-14-45.21 W",
		"state": "NEW YORK",
		"artcc": "ZOB",
		"type": "RNAV",
		"updated": "10/08/2015",
	},
	{
		"name": "WIXXE",
		"latitude": "40-18-43.19 N",
		"longitude": "79-23-3.39 W",
		"state": "PENNSYLVANIA",
		"artcc": "ZOB",
		"type": "RNAV",
		"updated": "09/17/2015",
	},
	{
		"name": "WLEYE",
		"latitude": "43-36-49.68 N",
		"longitude": "84-11-10.97 W",
		"state": "MICHIGAN",
		"artcc": "ZOB",
		"type": "RNAV",
		"updated": "03/29/2018",
	},
	{
		"name": "WLFMN",
		"latitude": "42-41-4.99 N",
		"longitude": "81-20-51.74 W",
		"state": "",
		"artcc": "ZOB",
		"type": "RNAV",
		"updated": "04/03/2018",
	},
	{
		"name": "WNGFT",
		"latitude": "40-58-16.22 N",
		"longitude": "81-12-15.13 W",
		"state": "OHIO",
		"artcc": "ZOB",
		"type": "RP",
		"updated": "BSV*VOR/DME*040.83",
	},
	{
		"name": "WNGNT",
		"latitude": "42-28-57.76 N",
		"longitude": "82-20-41.08 W",
		"state": "",
		"artcc": "ZOB",
		"type": "RNAV",
		"updated": "04/03/2018",
	},
	{
		"name": "WNNGS",
		"latitude": "42-55-14.02 N",
		"longitude": "78-33-53.08 W",
		"state": "NEW YORK",
		"artcc": "ZOB",
		"type": "RNAV",
		"updated": "07/25/2014",
	},
	{
		"name": "WOBIT",
		"latitude": "41-12-33.52 N",
		"longitude": "83-33-6.84 W",
		"state": "OHIO",
		"artcc": "ZOB",
		"type": "RNAV",
		"updated": "03/24/2011",
	},
	{
		"name": "WOBMI",
		"latitude": "39-8-48.39 N",
		"longitude": "84-9-48.29 W",
		"state": "OHIO",
		"artcc": "ZOB",
		"type": "RNAV",
		"updated": "10/22/2015",
	},
	{
		"name": "WOBOK",
		"latitude": "42-35-59.43 N",
		"longitude": "82-50-7.89 W",
		"state": "MICHIGAN",
		"artcc": "ZOB",
		"type": "MR",
		"updated": "MTC*TACAN*198.00/0.80",
	},
	{
		"name": "WOBUT",
		"latitude": "41-5-30.23 N",
		"longitude": "80-20-30.67 W",
		"state": "PENNSYLVANIA",
		"artcc": "ZOB",
		"type": "RNAV",
		"updated": "08/24/2007",
	},
	{
		"name": "WOBUX",
		"latitude": "40-47-11.6 N",
		"longitude": "80-40-23.18 W",
		"state": "OHIO",
		"artcc": "ZOB",
		"type": "RNAV",
		"updated": "05/05/2011",
	},
	{
		"name": "WOCDO",
		"latitude": "42-11-7.66 N",
		"longitude": "78-25-4.84 W",
		"state": "NEW YORK",
		"artcc": "ZOB",
		"type": "RNAV",
		"updated": "05/18/2006",
	},
	{
		"name": "WOCKY",
		"latitude": "41-10-24.24 N",
		"longitude": "84-27-23.61 W",
		"state": "OHIO",
		"artcc": "ZOB",
		"type": "RNAV",
		"updated": "04/10/2018",
	},
	{
		"name": "WODDS",
		"latitude": "42-34-28.04 N",
		"longitude": "84-39-23.47 W",
		"state": "MICHIGAN",
		"artcc": "ZOB",
		"type": "RNAV",
		"updated": "03/28/2014",
	},
	{
		"name": "WODUP",
		"latitude": "42-15-51.16 N",
		"longitude": "83-29-30.64 W",
		"state": "MICHIGAN",
		"artcc": "ZOB",
		"type": "RNAV",
		"updated": "10/14/2008",
	},
	{
		"name": "WOFIL",
		"latitude": "42-48-26.64 N",
		"longitude": "77-3-53.75 W",
		"state": "NEW YORK",
		"artcc": "ZOB",
		"type": "RNAV",
		"updated": "04/10/2002",
	},
	{
		"name": "WOFKO",
		"latitude": "40-0-59.37 N",
		"longitude": "78-26-51.53 W",
		"state": "PENNSYLVANIA",
		"artcc": "ZOB",
		"type": "RNAV",
		"updated": "02/09/2018",
	},
	{
		"name": "WOGUL",
		"latitude": "40-23-12.39 N",
		"longitude": "79-36-24.27 W",
		"state": "PENNSYLVANIA",
		"artcc": "ZOB",
		"type": "RNAV",
		"updated": "10/02/2014",
	},
	{
		"name": "WOLIS",
		"latitude": "42-37-37.91 N",
		"longitude": "81-34-44.89 W",
		"state": "",
		"artcc": "ZOB",
		"type": "RP",
		"updated": "YQO*VOR/DME*269.35/30.88",
	},
	{
		"name": "WOLRU",
		"latitude": "38-45-4.87 N",
		"longitude": "83-0-18.84 W",
		"state": "OHIO",
		"artcc": "ZOB",
		"type": "RNAV",
		"updated": "10/05/2001",
	},
	{
		"name": "WOLUK",
		"latitude": "43-0-41.45 N",
		"longitude": "78-46-24.92 W",
		"state": "NEW YORK",
		"artcc": "ZOB",
		"type": "RNAV",
		"updated": "08/07/2013",
	},
	{
		"name": "WOMAN",
		"latitude": "42-5-36.82 N",
		"longitude": "77-21-15.16 W",
		"state": "NEW YORK",
		"artcc": "ZOB",
		"type": "RP",
		"updated": "ULW*VOR/DME*281.97",
	},
	{
		"name": "WOMAP",
		"latitude": "41-37-54.31 N",
		"longitude": "80-8-51.18 W",
		"state": "PENNSYLVANIA",
		"artcc": "ZOB",
		"type": "RNAV",
		"updated": "10/21/2014",
	},
	{
		"name": "WOMBT",
		"latitude": "41-4-45.13 N",
		"longitude": "79-46-48.36 W",
		"state": "PENNSYLVANIA",
		"artcc": "ZOB",
		"type": "RNAV",
		"updated": "02/26/2015",
	},
	{
		"name": "WOMBU",
		"latitude": "39-36-34.57 N",
		"longitude": "83-28-35 W",
		"state": "OHIO",
		"artcc": "ZOB",
		"type": "RNAV",
		"updated": "10/30/2001",
	},
	{
		"name": "WOMDA",
		"latitude": "42-58-35.65 N",
		"longitude": "83-16-0.5 W",
		"state": "MICHIGAN",
		"artcc": "ZOB",
		"type": "RNAV",
		"updated": "09/03/2013",
	},
	{
		"name": "WOMGI",
		"latitude": "41-18-40.53 N",
		"longitude": "81-29-39.69 W",
		"state": "OHIO",
		"artcc": "ZOB",
		"type": "RNAV",
		"updated": "03/24/2015",
	},
	{
		"name": "WOMGO",
		"latitude": "41-14-20 N",
		"longitude": "81-41-58.85 W",
		"state": "OHIO",
		"artcc": "ZOB",
		"type": "RNAV",
		"updated": "03/30/2018",
	},
	{
		"name": "WOMGU",
		"latitude": "40-23-52.62 N",
		"longitude": "80-45-6.94 W",
		"state": "OHIO",
		"artcc": "ZOB",
		"type": "RNAV",
		"updated": "09/21/2016",
	},
	{
		"name": "WOMLU",
		"latitude": "41-11-24.71 N",
		"longitude": "83-38-21.09 W",
		"state": "OHIO",
		"artcc": "ZOB",
		"type": "RNAV",
		"updated": "05/14/2012",
	},
	{
		"name": "WONDR",
		"latitude": "42-20-3.63 N",
		"longitude": "83-17-38.91 W",
		"state": "MICHIGAN",
		"artcc": "ZOB",
		"type": "RP",
		"updated": "BZB*LD*033.19/9.06",
	},
	{
		"name": "WONOP",
		"latitude": "41-48-53.79 N",
		"longitude": "81-13-7.89 W",
		"state": "OHIO",
		"artcc": "ZOB",
		"type": "RNAV",
		"updated": "03/30/2018",
	},
	{
		"name": "WOOST",
		"latitude": "41-41-44.82 N",
		"longitude": "82-47-21.07 W",
		"state": "OHIO",
		"artcc": "ZOB",
		"type": "RP",
		"updated": "CRL*VOR/DME*127.97/36.66",
	},
	{
		"name": "WOPOG",
		"latitude": "40-45-54.88 N",
		"longitude": "79-59-48.72 W",
		"state": "PENNSYLVANIA",
		"artcc": "ZOB",
		"type": "RP",
		"updated": "EWC*VOR/DME*118.03",
	},
	{
		"name": "WORIS",
		"latitude": "43-2-37.39 N",
		"longitude": "77-44-26.73 W",
		"state": "NEW YORK",
		"artcc": "ZOB",
		"type": "RP",
		"updated": "ROC*VOR/DME*225.89/5.36",
	},
	{
		"name": "WOSAM",
		"latitude": "39-56-22.19 N",
		"longitude": "78-7-58.57 W",
		"state": "PENNSYLVANIA",
		"artcc": "ZOB",
		"type": "RNAV",
		"updated": "08/15/2013",
	},
	{
		"name": "WOSAP",
		"latitude": "40-42-26.19 N",
		"longitude": "80-11-7.42 W",
		"state": "PENNSYLVANIA",
		"artcc": "ZOB",
		"type": "RNAV",
		"updated": "08/24/2006",
	},
	{
		"name": "WOSNO",
		"latitude": "41-8-16.54 N",
		"longitude": "83-11-1.67 W",
		"state": "OHIO",
		"artcc": "ZOB",
		"type": "RNAV",
		"updated": "11/28/2005",
	},
	{
		"name": "WOTGU",
		"latitude": "42-57-14.28 N",
		"longitude": "79-7-43.31 W",
		"state": "",
		"artcc": "ZOB",
		"type": "RNAV",
		"updated": "11/20/2012",
	},
	{
		"name": "WOTID",
		"latitude": "40-42-53.56 N",
		"longitude": "80-11-56.33 W",
		"state": "PENNSYLVANIA",
		"artcc": "ZOB",
		"type": "RP",
		"updated": "EWC*VOR/DME*183.04/6.62",
	},
	{
		"name": "WOTIP",
		"latitude": "42-45-56.64 N",
		"longitude": "77-45-20.37 W",
		"state": "NEW YORK",
		"artcc": "ZOB",
		"type": "RNAV",
		"updated": "05/02/2005",
	},
	{
		"name": "WOVOM",
		"latitude": "40-47-7.24 N",
		"longitude": "82-33-42.08 W",
		"state": "OHIO",
		"artcc": "ZOB",
		"type": "RNAV",
		"updated": "07/30/2010",
	},
	{
		"name": "WOWYE",
		"latitude": "42-48-42.72 N",
		"longitude": "76-57-6.77 W",
		"state": "NEW YORK",
		"artcc": "ZOB",
		"type": "RNAV",
		"updated": "04/10/2002",
	},
	{
		"name": "WOXAK",
		"latitude": "41-22-56.37 N",
		"longitude": "78-39-23.75 W",
		"state": "PENNSYLVANIA",
		"artcc": "ZOB",
		"type": "RNAV",
		"updated": "08/24/2006",
	},
	{
		"name": "WOXAM",
		"latitude": "40-53-20.92 N",
		"longitude": "81-28-38.07 W",
		"state": "OHIO",
		"artcc": "ZOB",
		"type": "RP",
		"updated": "BSV*VOR/DME*351.02",
	},
	{
		"name": "WOXUB",
		"latitude": "40-11-9.33 N",
		"longitude": "78-21-41.43 W",
		"state": "PENNSYLVANIA",
		"artcc": "ZOB",
		"type": "RNAV",
		"updated": "08/23/2012",
	},
	{
		"name": "WOZEE",
		"latitude": "42-56-1.65 N",
		"longitude": "78-44-19.64 W",
		"state": "NEW YORK",
		"artcc": "ZOB",
		"type": "RNAV",
		"updated": "09/22/2014",
	},
	{
		"name": "WTEVR",
		"latitude": "42-27-46.99 N",
		"longitude": "81-43-57.04 W",
		"state": "",
		"artcc": "ZOB",
		"type": "RNAV",
		"updated": "03/28/2014",
	},
	{
		"name": "WUBMA",
		"latitude": "40-46-9.25 N",
		"longitude": "80-19-43 W",
		"state": "PENNSYLVANIA",
		"artcc": "ZOB",
		"type": "RNAV",
		"updated": "05/05/2011",
	},
	{
		"name": "WUBOG",
		"latitude": "40-9-10.53 N",
		"longitude": "79-0-26.95 W",
		"state": "PENNSYLVANIA",
		"artcc": "ZOB",
		"type": "RNAV",
		"updated": "07/24/2012",
	},
	{
		"name": "WUDAT",
		"latitude": "41-18-38.95 N",
		"longitude": "83-53-1.78 W",
		"state": "OHIO",
		"artcc": "ZOB",
		"type": "RNAV",
		"updated": "12/07/2010",
	},
	{
		"name": "WUDMO",
		"latitude": "42-3-21.86 N",
		"longitude": "78-23-42.25 W",
		"state": "NEW YORK",
		"artcc": "ZOB",
		"type": "RNAV",
		"updated": "05/18/2006",
	},
	{
		"name": "WUDUB",
		"latitude": "42-54-41.29 N",
		"longitude": "78-40-36.89 W",
		"state": "NEW YORK",
		"artcc": "ZOB",
		"type": "RP",
		"updated": "BNQ*LD*137.67/3.68",
	},
	{
		"name": "WUHCO",
		"latitude": "41-45-28.52 N",
		"longitude": "79-53-39.41 W",
		"state": "PENNSYLVANIA",
		"artcc": "ZOB",
		"type": "RP",
		"updated": "TDT*VORTAC*286.32",
	},
	{
		"name": "WUKRE",
		"latitude": "41-46-58.98 N",
		"longitude": "80-3-54.02 W",
		"state": "PENNSYLVANIA",
		"artcc": "ZOB",
		"type": "WP",
		"updated": "11/02/1998",
	},
	{
		"name": "WULMA",
		"latitude": "41-28-32.46 N",
		"longitude": "81-34-16.89 W",
		"state": "OHIO",
		"artcc": "ZOB",
		"type": "RNAV",
		"updated": "01/29/2015",
	},
	{
		"name": "WULOM",
		"latitude": "42-33-57.37 N",
		"longitude": "84-38-42.27 W",
		"state": "MICHIGAN",
		"artcc": "ZOB",
		"type": "RNAV",
		"updated": "01/04/2013",
	},
	{
		"name": "WULOR",
		"latitude": "39-24-40.47 N",
		"longitude": "84-38-9.28 W",
		"state": "OHIO",
		"artcc": "ZOB",
		"type": "RNAV",
		"updated": "10/08/2015",
	},
	{
		"name": "WUMYI",
		"latitude": "41-33-36.64 N",
		"longitude": "83-29-9.42 W",
		"state": "OHIO",
		"artcc": "ZOB",
		"type": "RP",
		"updated": "VWV*VOR/DME*048.52/9.48",
	},
	{
		"name": "WUNEP",
		"latitude": "41-21-9.02 N",
		"longitude": "79-42-24.48 W",
		"state": "PENNSYLVANIA",
		"artcc": "ZOB",
		"type": "RNAV",
		"updated": "02/16/2018",
	},
	{
		"name": "WUNIS",
		"latitude": "41-12-9.68 N",
		"longitude": "81-21-58.06 W",
		"state": "OHIO",
		"artcc": "ZOB",
		"type": "RNAV",
		"updated": "01/31/2014",
	},
	{
		"name": "WUNLA",
		"latitude": "39-2-7.83 N",
		"longitude": "83-56-39.96 W",
		"state": "OHIO",
		"artcc": "ZOB",
		"type": "RNAV",
		"updated": "10/22/2015",
	},
	{
		"name": "WUPIT",
		"latitude": "42-52-3.77 N",
		"longitude": "78-27-7.21 W",
		"state": "NEW YORK",
		"artcc": "ZOB",
		"type": "RNAV",
		"updated": "04/20/2011",
	},
	{
		"name": "WURBA",
		"latitude": "43-27-54.5 N",
		"longitude": "83-59-33.79 W",
		"state": "MICHIGAN",
		"artcc": "ZOB",
		"type": "RNAV",
		"updated": "12/05/2017",
	},
	{
		"name": "WURKU",
		"latitude": "43-24-0.13 N",
		"longitude": "83-5-1.49 W",
		"state": "MICHIGAN",
		"artcc": "ZOB",
		"type": "RNAV",
		"updated": "03/01/2011",
	},
	{
		"name": "WURSI",
		"latitude": "43-7-5.17 N",
		"longitude": "79-0-34.24 W",
		"state": "NEW YORK",
		"artcc": "ZOB",
		"type": "RNAV",
		"updated": "08/21/2013",
	},
	{
		"name": "WUSAS",
		"latitude": "40-32-16.15 N",
		"longitude": "78-23-22.3 W",
		"state": "PENNSYLVANIA",
		"artcc": "ZOB",
		"type": "RNAV",
		"updated": "10/23/2014",
	},
	{
		"name": "WUSAT",
		"latitude": "42-46-56.2 N",
		"longitude": "77-47-57.99 W",
		"state": "NEW YORK",
		"artcc": "ZOB",
		"type": "RNAV",
		"updated": "05/02/2005",
	},
	{
		"name": "WUSER",
		"latitude": "41-44-46.29 N",
		"longitude": "77-55-22.46 W",
		"state": "PENNSYLVANIA",
		"artcc": "ZOB",
		"type": "RNAV",
		"updated": "01/09/2018",
	},
	{
		"name": "WUSOL",
		"latitude": "43-0-31.92 N",
		"longitude": "78-59-13.81 W",
		"state": "NEW YORK",
		"artcc": "ZOB",
		"type": "RNAV",
		"updated": "05/15/2013",
	},
	{
		"name": "WUSUR",
		"latitude": "42-8-4.96 N",
		"longitude": "79-55-6.72 W",
		"state": "PENNSYLVANIA",
		"artcc": "ZOB",
		"type": "RNAV",
		"updated": "02/21/2017",
	},
	{
		"name": "WUTJE",
		"latitude": "42-50-27.47 N",
		"longitude": "82-35-54.43 W",
		"state": "MICHIGAN",
		"artcc": "ZOB",
		"type": "RNAV",
		"updated": "06/29/2011",
	},
	{
		"name": "WUTUR",
		"latitude": "41-40-49.45 N",
		"longitude": "81-7-38.13 W",
		"state": "OHIO",
		"artcc": "ZOB",
		"type": "RNAV",
		"updated": "10/15/2008",
	},
	{
		"name": "WUVBI",
		"latitude": "43-9-59.43 N",
		"longitude": "78-50-22.53 W",
		"state": "NEW YORK",
		"artcc": "ZOB",
		"type": "RNAV",
		"updated": "11/20/2012",
	},
	{
		"name": "WUVRU",
		"latitude": "42-16-31.54 N",
		"longitude": "83-38-44.72 W",
		"state": "MICHIGAN",
		"artcc": "ZOB",
		"type": "RNAV",
		"updated": "03/01/2011",
	},
	{
		"name": "WUVUK",
		"latitude": "39-42-40.81 N",
		"longitude": "78-39-33.64 W",
		"state": "MARYLAND",
		"artcc": "ZOB",
		"type": "RNAV",
		"updated": "11/01/2016",
	},
	{
		"name": "WUXAD",
		"latitude": "39-57-16.49 N",
		"longitude": "79-5-31.28 W",
		"state": "PENNSYLVANIA",
		"artcc": "ZOB",
		"type": "RNAV",
		"updated": "11/10/2016",
	},
	{
		"name": "WUZGO",
		"latitude": "40-7-9.69 N",
		"longitude": "80-32-34.14 W",
		"state": "WEST VIRGINIA",
		"artcc": "ZOB",
		"type": "RNAV",
		"updated": "10/02/2012",
	},
	{
		"name": "WWSHR",
		"latitude": "41-20-34.09 N",
		"longitude": "82-3-5.76 W",
		"state": "OHIO",
		"artcc": "ZOB",
		"type": "RNAV",
		"updated": "03/30/2018",
	},
	{
		"name": "WYGLE",
		"latitude": "41-12-50.94 N",
		"longitude": "81-11-25.03 W",
		"state": "OHIO",
		"artcc": "ZOB",
		"type": "RNAV",
		"updated": "01/31/2014",
	},
	{
		"name": "WYLER",
		"latitude": "40-22-19.56 N",
		"longitude": "80-4-14.31 W",
		"state": "PENNSYLVANIA",
		"artcc": "ZOB",
		"type": "RP",
		"updated": "AGC*VOR/DME*355.30/5.77",
	},
	{
		"name": "WYLLD",
		"latitude": "42-11-17.96 N",
		"longitude": "84-11-49.26 W",
		"state": "MICHIGAN",
		"artcc": "ZOB",
		"type": "RNAV",
		"updated": "09/15/2009",
	},
	{
		"name": "WYNST",
		"latitude": "41-59-56.44 N",
		"longitude": "83-21-22.71 W",
		"state": "MICHIGAN",
		"artcc": "ZOB",
		"type": "RNAV",
		"updated": "04/18/2018",
	},
