[
	{
		"name": "XACJE",
		"latitude": "40-8-16.12 N",
		"longitude": "80-37-4.71 W",
		"state": "WEST VIRGINIA",
		"artcc": "ZOB",
		"type": "RNAV",
		"updated": "06/27/2017"
	},
	{
		"name": "XADDY",
		"latitude": "43-20-1.62 N",
		"longitude": "83-34-51.73 W",
		"state": "MICHIGAN",
		"artcc": "ZOB",
		"type": "RNAV",
		"updated": "10/11/2017"
	},
	{
		"name": "XEBLY",
		"latitude": "41-4-0.54 N",
		"longitude": "80-21-3.35 W",
		"state": "PENNSYLVANIA",
		"artcc": "ZOB",
		"type": "WP",
		"updated": "07/20/2007"
	},
	{
		"name": "XEBXO",
		"latitude": "41-2-8.89 N",
		"longitude": "83-55-8.23 W",
		"state": "OHIO",
		"artcc": "ZOB",
		"type": "RNAV",
		"updated": "07/09/2009"
	},
	{
		"name": "XICBU",
		"latitude": "40-18-51.23 N",
		"longitude": "79-21-18.39 W",
		"state": "PENNSYLVANIA",
		"artcc": "ZOB",
		"type": "RNAV",
		"updated": "02/28/2017"
	},
	{
		"name": "XIJTI",
		"latitude": "40-13-33.12 N",
		"longitude": "80-36-53.37 W",
		"state": "WEST VIRGINIA",
		"artcc": "ZOB",
		"type": "RNAV",
		"updated": "07/21/2009"
	},
	{
		"name": "XODUY",
		"latitude": "43-32-17.11 N",
		"longitude": "84-5-19.01 W",
		"state": "MICHIGAN",
		"artcc": "ZOB",
		"type": "RP",
		"updated": "MBS*VOR/DME*311.02/0.63"
	},
	{
		"name": "XORSE",
		"latitude": "41-36-31.9 N",
		"longitude": "84-14-34.55 W",
		"state": "OHIO",
		"artcc": "ZOB",
		"type": "RNAV",
		"updated": "04/17/2012"
	},
	{
		"name": "XPLOR",
		"latitude": "41-12-0 N",
		"longitude": "77-49-26 W",
		"state": "PENNSYLVANIA",
		"artcc": "ZOB",
		"type": "RNAV",
		"updated": "04/13/2005"
	},
	{
		"name": "XUFIB",
		"latitude": "40-47-16.53 N",
		"longitude": "79-54-19.05 W",
		"state": "PENNSYLVANIA",
		"artcc": "ZOB",
		"type": "RNAV",
		"updated": "10/10/2017"
	},
	{
		"name": "XUFPU",
		"latitude": "41-24-49.08 N",
		"longitude": "81-46-37.41 W",
		"state": "OHIO",
		"artcc": "ZOB",
		"type": "RNAV",
		"updated": "04/18/2018"
	}
]
