[
	{
		"name": "YAARK",
		"latitude": "39-35-49.55 N",
		"longitude": "78-47-52.88 W",
		"state": "WEST VIRGINIA",
		"artcc": "ZOB",
		"type": "RP",
		"updated": "ESL*VOR/DME*027.73/23.99"
	},
	{
		"name": "YACNU",
		"latitude": "42-6-10.08 N",
		"longitude": "83-58-15.53 W",
		"state": "MICHIGAN",
		"artcc": "ZOB",
		"type": "RNAV",
		"updated": "03/01/2011"
	},
	{
		"name": "YACUT",
		"latitude": "41-39-10.67 N",
		"longitude": "81-26-0.67 W",
		"state": "OHIO",
		"artcc": "ZOB",
		"type": "RNAV",
		"updated": "10/14/2008"
	},
	{
		"name": "YALUG",
		"latitude": "42-53-6.45 N",
		"longitude": "82-58-45.52 W",
		"state": "MICHIGAN",
		"artcc": "ZOB",
		"type": "RNAV",
		"updated": "03/25/2013"
	},
	{
		"name": "YANUC",
		"latitude": "42-13-4.88 N",
		"longitude": "83-17-58.7 W",
		"state": "MICHIGAN",
		"artcc": "ZOB",
		"type": "RP",
		"updated": "DXO*VOR/DME*/3.00"
	},
	{
		"name": "YARRK",
		"latitude": "42-31-21.79 N",
		"longitude": "81-16-5.81 W",
		"state": "",
		"artcc": "ZOB",
		"type": "RNAV",
		"updated": "08/27/2013"
	},
	{
		"name": "YATKU",
		"latitude": "43-12-9.19 N",
		"longitude": "78-19-46.82 W",
		"state": "NEW YORK",
		"artcc": "ZOB",
		"type": "RNAV",
		"updated": "08/07/2013"
	},
	{
		"name": "YAVUD",
		"latitude": "42-52-22.93 N",
		"longitude": "78-11-48.74 W",
		"state": "NEW YORK",
		"artcc": "ZOB",
		"type": "RNAV",
		"updated": "12/04/2008"
	},
	{
		"name": "YEBSU",
		"latitude": "43-1-46.96 N",
		"longitude": "78-11-31.89 W",
		"state": "NEW YORK",
		"artcc": "ZOB",
		"type": "RNAV",
		"updated": "08/07/2013"
	},
	{
		"name": "YECUK",
		"latitude": "41-38-4.62 N",
		"longitude": "83-53-51.58 W",
		"state": "OHIO",
		"artcc": "ZOB",
		"type": "RNAV",
		"updated": "04/17/2012"
	},
	{
		"name": "YEDUG",
		"latitude": "39-17-16.03 N",
		"longitude": "80-13-58.36 W",
		"state": "WEST VIRGINIA",
		"artcc": "ZOB",
		"type": "RP",
		"updated": "CKB*VOR/DME*042.18/2.64"
	},
	{
		"name": "YEDUS",
		"latitude": "40-12-46.74 N",
		"longitude": "78-35-33.78 W",
		"state": "PENNSYLVANIA",
		"artcc": "ZOB",
		"type": "RP",
		"updated": "THS*VORTAC*306.78/33.99"
	},
	{
		"name": "YEGHI",
		"latitude": "42-13-9.63 N",
		"longitude": "82-55-59.02 W",
		"state": "",
		"artcc": "ZOB",
		"type": "RNAV",
		"updated": "02/20/2009"
	},
	{
		"name": "YEMRY",
		"latitude": "40-57-44.34 N",
		"longitude": "80-47-44.34 W",
		"state": "OHIO",
		"artcc": "ZOB",
		"type": "RNAV",
		"updated": "04/15/2010"
	},
	{
		"name": "YEPNU",
		"latitude": "43-7-44.55 N",
		"longitude": "78-54-3.65 W",
		"state": "NEW YORK",
		"artcc": "ZOB",
		"type": "RNAV",
		"updated": "11/20/2012"
	},
	{
		"name": "YESUG",
		"latitude": "42-52-59.09 N",
		"longitude": "82-33-24.12 W",
		"state": "MICHIGAN",
		"artcc": "ZOB",
		"type": "RNAV",
		"updated": "06/29/2011"
	},
	{
		"name": "YEVUD",
		"latitude": "42-45-38.43 N",
		"longitude": "84-59-13.29 W",
		"state": "MICHIGAN",
		"artcc": "ZOB",
		"type": "RNAV",
		"updated": "08/13/2013"
	},
	{
		"name": "YEVUN",
		"latitude": "40-53-32.18 N",
		"longitude": "83-22-8.73 W",
		"state": "OHIO",
		"artcc": "ZOB",
		"type": "RP",
		"updated": "FBC*VORTAC*104.00/18.00"
	},
	{
		"name": "YICUP",
		"latitude": "42-34-42.91 N",
		"longitude": "77-43-37.69 W",
		"state": "NEW YORK",
		"artcc": "ZOB",
		"type": "RNAV",
		"updated": "05/02/2005"
	},
	{
		"name": "YILIT",
		"latitude": "41-42-35.58 N",
		"longitude": "80-0-41.88 W",
		"state": "PENNSYLVANIA",
		"artcc": "ZOB",
		"type": "WP",
		"updated": "11/02/1998"
	},
	{
		"name": "YINZZ",
		"latitude": "40-35-57.25 N",
		"longitude": "80-36-9.42 W",
		"state": "WEST VIRGINIA",
		"artcc": "ZOB",
		"type": "RNAV",
		"updated": "10/28/2009"
	},
	{
		"name": "YIPUY",
		"latitude": "42-33-57.26 N",
		"longitude": "84-31-56.29 W",
		"state": "MICHIGAN",
		"artcc": "ZOB",
		"type": "RNAV",
		"updated": "01/04/2013"
	},
	{
		"name": "YISUP",
		"latitude": "40-50-53.52 N",
		"longitude": "81-26-40.93 W",
		"state": "OHIO",
		"artcc": "ZOB",
		"type": "RNAV",
		"updated": "12/06/2010"
	},
	{
		"name": "YITUS",
		"latitude": "39-24-45.67 N",
		"longitude": "84-35-57.84 W",
		"state": "OHIO",
		"artcc": "ZOB",
		"type": "RNAV",
		"updated": "10/08/2015"
	},
	{
		"name": "YITUV",
		"latitude": "41-9-4.38 N",
		"longitude": "81-24-51.36 W",
		"state": "OHIO",
		"artcc": "ZOB",
		"type": "RP",
		"updated": "ACO*VOR/DME*289.14/9.99"
	},
	{
		"name": "YITYU",
		"latitude": "41-27-8.63 N",
		"longitude": "81-4-0.78 W",
		"state": "OHIO",
		"artcc": "ZOB",
		"type": "RP",
		"updated": "CXR*VOR/DME*136.67/5.82"
	},
	{
		"name": "YIYUB",
		"latitude": "43-6-20.07 N",
		"longitude": "83-16-28.24 W",
		"state": "MICHIGAN",
		"artcc": "ZOB",
		"type": "RNAV",
		"updated": "09/03/2013"
	},
	{
		"name": "YIZQI",
		"latitude": "40-8-29.69 N",
		"longitude": "80-40-6.49 W",
		"state": "WEST VIRGINIA",
		"artcc": "ZOB",
		"type": "RP",
		"updated": "HLG*VOR/DME*/8.45"
	},
	{
		"name": "YNDER",
		"latitude": "42-14-57.1 N",
		"longitude": "83-29-23.11 W",
		"state": "MICHIGAN",
		"artcc": "ZOB",
		"type": "RNAV",
		"updated": "03/29/2018"
	},
	{
		"name": "YOBUK",
		"latitude": "41-50-32.58 N",
		"longitude": "79-36-37.2 W",
		"state": "PENNSYLVANIA",
		"artcc": "ZOB",
		"type": "RNAV",
		"updated": "06/09/2016"
	},
	{
		"name": "YODUK",
		"latitude": "42-40-46.2 N",
		"longitude": "77-58-38.99 W",
		"state": "NEW YORK",
		"artcc": "ZOB",
		"type": "RNAV",
		"updated": "05/02/2005"
	},
	{
		"name": "YOGGI",
		"latitude": "40-53-34.89 N",
		"longitude": "83-42-1.36 W",
		"state": "OHIO",
		"artcc": "ZOB",
		"type": "RP",
		"updated": "FBC*VORTAC*147.87/4.51"
	},
	{
		"name": "YOGUD",
		"latitude": "40-37-3.72 N",
		"longitude": "82-35-42.2 W",
		"state": "OHIO",
		"artcc": "ZOB",
		"type": "RNAV",
		"updated": "04/04/2017"
	},
	{
		"name": "YOGUS",
		"latitude": "43-24-5.37 N",
		"longitude": "83-32-27.21 W",
		"state": "MICHIGAN",
		"artcc": "ZOB",
		"type": "RNAV",
		"updated": "04/22/2016"
	},
	{
		"name": "YOHKO",
		"latitude": "41-23-25.39 N",
		"longitude": "83-30-39.65 W",
		"state": "OHIO",
		"artcc": "ZOB",
		"type": "WP",
		"updated": "01/24/2007"
	},
	{
		"name": "YOKRU",
		"latitude": "42-40-1.44 N",
		"longitude": "77-35-48.71 W",
		"state": "NEW YORK",
		"artcc": "ZOB",
		"type": "RNAV",
		"updated": "04/20/2012"
	},
	{
		"name": "YOLUN",
		"latitude": "41-28-44.3 N",
		"longitude": "84-28-4.25 W",
		"state": "OHIO",
		"artcc": "ZOB",
		"type": "RNAV",
		"updated": "04/17/2012"
	},
	{
		"name": "YOLUP",
		"latitude": "40-15-18.15 N",
		"longitude": "78-20-8.64 W",
		"state": "PENNSYLVANIA",
		"artcc": "ZOB",
		"type": "RNAV",
		"updated": "08/23/2012"
	},
	{
		"name": "YOMYU",
		"latitude": "41-9-21.42 N",
		"longitude": "79-4-45.88 W",
		"state": "PENNSYLVANIA",
		"artcc": "ZOB",
		"type": "RNAV",
		"updated": "12/15/2017"
	},
	{
		"name": "YONLE",
		"latitude": "42-19-53.95 N",
		"longitude": "78-9-40.04 W",
		"state": "NEW YORK",
		"artcc": "ZOB",
		"type": "RNAV",
		"updated": "05/18/2006"
	},
	{
		"name": "YORPU",
		"latitude": "40-57-37.24 N",
		"longitude": "80-38-56.5 W",
		"state": "OHIO",
		"artcc": "ZOB",
		"type": "RNAV",
		"updated": "05/05/2005"
	},
	{
		"name": "YOSIY",
		"latitude": "42-16-18.88 N",
		"longitude": "77-38-24.92 W",
		"state": "NEW YORK",
		"artcc": "ZOB",
		"type": "RNAV",
		"updated": "04/20/2012"
	},
	{
		"name": "YOSTE",
		"latitude": "40-59-12.11 N",
		"longitude": "81-21-10.11 W",
		"state": "OHIO",
		"artcc": "ZOB",
		"type": "RP",
		"updated": "ACO*VOR/DME*227.43/10.00"
	},
	{
		"name": "YOSUY",
		"latitude": "39-49-7.7 N",
		"longitude": "80-59-12.42 W",
		"state": "OHIO",
		"artcc": "ZOB",
		"type": "RNAV",
		"updated": "09/24/2013"
	},
	{
		"name": "YOTUG",
		"latitude": "41-17-14.44 N",
		"longitude": "83-40-39.83 W",
		"state": "OHIO",
		"artcc": "ZOB",
		"type": "RNAV",
		"updated": "03/30/2018"
	},
	{
		"name": "YOVIZ",
		"latitude": "39-55-48.82 N",
		"longitude": "80-16-28.25 W",
		"state": "PENNSYLVANIA",
		"artcc": "ZOB",
		"type": "RNAV",
		"updated": "04/16/2018"
	},
	{
		"name": "YOVUR",
		"latitude": "42-22-42.5 N",
		"longitude": "84-58-46.79 W",
		"state": "MICHIGAN",
		"artcc": "ZOB",
		"type": "RNAV",
		"updated": "03/16/2011"
	},
	{
		"name": "YOWED",
		"latitude": "40-21-38.86 N",
		"longitude": "80-19-45.16 W",
		"state": "PENNSYLVANIA",
		"artcc": "ZOB",
		"type": "RNAV",
		"updated": "07/19/2017"
	},
	{
		"name": "YOWZR",
		"latitude": "40-43-44.62 N",
		"longitude": "82-45-31.11 W",
		"state": "OHIO",
		"artcc": "ZOB",
		"type": "RNAV",
		"updated": "06/28/2011"
	},
	{
		"name": "YUDUD",
		"latitude": "42-44-16.84 N",
		"longitude": "78-54-4.18 W",
		"state": "NEW YORK",
		"artcc": "ZOB",
		"type": "RNAV",
		"updated": "06/27/2011"
	},
	{
		"name": "YUDUR",
		"latitude": "41-51-44.74 N",
		"longitude": "80-34-19.6 W",
		"state": "OHIO",
		"artcc": "ZOB",
		"type": "RP",
		"updated": "JFN*VOR/DME*057.09/10.00"
	},
	{
		"name": "YUKDI",
		"latitude": "40-46-59.85 N",
		"longitude": "79-28-25.87 W",
		"state": "PENNSYLVANIA",
		"artcc": "ZOB",
		"type": "RNAV",
		"updated": "06/29/2001"
	},
	{
		"name": "YULCU",
		"latitude": "43-0-10.09 N",
		"longitude": "78-50-38.89 W",
		"state": "NEW YORK",
		"artcc": "ZOB",
		"type": "RNAV",
		"updated": "06/06/2012"
	},
	{
		"name": "YULKU",
		"latitude": "39-43-54.7 N",
		"longitude": "79-53-56.02 W",
		"state": "PENNSYLVANIA",
		"artcc": "ZOB",
		"type": "RNAV",
		"updated": "12/18/2006"
	},
	{
		"name": "YULUC",
		"latitude": "43-2-45.69 N",
		"longitude": "79-2-11.9 W",
		"state": "",
		"artcc": "ZOB",
		"type": "RNAV",
		"updated": "11/20/2012"
	},
	{
		"name": "YUMAN",
		"latitude": "40-58-33.98 N",
		"longitude": "82-40-30.94 W",
		"state": "OHIO",
		"artcc": "ZOB",
		"type": "RP",
		"updated": "MFD*VORTAC*332.28/7.50"
	},
	{
		"name": "YUMVY",
		"latitude": "42-24-23.95 N",
		"longitude": "83-24-12.38 W",
		"state": "MICHIGAN",
		"artcc": "ZOB",
		"type": "RNAV",
		"updated": "09/25/2015"
	},
	{
		"name": "YUNUT",
		"latitude": "43-12-48.23 N",
		"longitude": "77-24-4.25 W",
		"state": "NEW YORK",
		"artcc": "ZOB",
		"type": "RNAV",
		"updated": "03/26/2014"
	},
	{
		"name": "YUUPR",
		"latitude": "43-25-22.23 N",
		"longitude": "84-2-12.8 W",
		"state": "MICHIGAN",
		"artcc": "ZOB",
		"type": "RNAV",
		"updated": "03/29/2018"
	},
	{
		"name": "YUVFA",
		"latitude": "41-1-48.5 N",
		"longitude": "80-31-20.33 W",
		"state": "OHIO",
		"artcc": "ZOB",
		"type": "RNAV",
		"updated": "05/14/2013"
	},
	{
		"name": "YUYXI",
		"latitude": "42-6-54.87 N",
		"longitude": "80-6-42.33 W",
		"state": "PENNSYLVANIA",
		"artcc": "ZOB",
		"type": "RP",
		"updated": "AWY*LD*064.49"
	},
	{
		"name": "YYEAR",
		"latitude": "41-1-20.75 N",
		"longitude": "81-17-38.68 W",
		"state": "OHIO",
		"artcc": "ZOB",
		"type": "RNAV",
		"updated": "12/28/2006"
	},
	{
		"name": "YYESS",
		"latitude": "41-23-59.55 N",
		"longitude": "81-28-28.17 W",
		"state": "OHIO",
		"artcc": "ZOB",
		"type": "RP",
		"updated": "PXP*LD*101.32/17.28"
	},
	{
		"name": "YYOUR",
		"latitude": "41-40-8.71 N",
		"longitude": "82-40-59.72 W",
		"state": "OHIO",
		"artcc": "ZOB",
		"type": "RP",
		"updated": "DJB*VOR/DME*313.62/30.00"
	},
	{
		"name": "YZEMN",
		"latitude": "43-34-35.87 N",
		"longitude": "84-34-10.95 W",
		"state": "MICHIGAN",
		"artcc": "ZOB",
		"type": "RNAV",
		"updated": "02/04/2014"
	}
]
