	{
		"name": "BABSY",
		"latitude": "38-15-13.73 N",
		"longitude": "98-51-21.23 W",
		"state": "KANSAS",
		"artcc": "ZKC",
		"type": "RP",
		"updated": "GBD*LD*171.59/6.43",
	},
	{
		"name": "BACAY",
		"latitude": "37-29-44.24 N",
		"longitude": "97-38-35.96 W",
		"state": "KANSAS",
		"artcc": "ZKC",
		"type": "RNAV",
		"updated": "08/11/2010",
	},
	{
		"name": "BACNN",
		"latitude": "40-10-24.62 N",
		"longitude": "94-17-48.63 W",
		"state": "MISSOURI",
		"artcc": "ZKC",
		"type": "RP",
		"updated": "MCI*VORTAC*015.80/57.02",
	},
	{
		"name": "BACSA",
		"latitude": "37-11-41.23 N",
		"longitude": "101-59-21.65 W",
		"state": "KANSAS",
		"artcc": "ZKC",
		"type": "RNAV",
		"updated": "03/28/2010",
	},
	{
		"name": "BACTA",
		"latitude": "37-45-13.7 N",
		"longitude": "91-55-52 W",
		"state": "MISSOURI",
		"artcc": "ZKC",
		"type": "RP",
		"updated": "VIH*VOR/DME*198.00/26.25",
	},
	{
		"name": "BADAC",
		"latitude": "37-31-37.51 N",
		"longitude": "97-12-1.75 W",
		"state": "KANSAS",
		"artcc": "ZKC",
		"type": "RNAV",
		"updated": "03/26/2010",
	},
	{
		"name": "BADIC",
		"latitude": "36-4-6.36 N",
		"longitude": "97-5-8.59 W",
		"state": "OKLAHOMA",
		"artcc": "ZKC",
		"type": "RNAV",
		"updated": "06/21/2013",
	},
	{
		"name": "BAHHI",
		"latitude": "35-37-47.54 N",
		"longitude": "97-38-43.88 W",
		"state": "OKLAHOMA",
		"artcc": "ZKC",
		"type": "RNAV",
		"updated": "05/16/2010",
	},
	{
		"name": "BAKIZ",
		"latitude": "38-39-13.14 N",
		"longitude": "90-10-4.29 W",
		"state": "ILLINOIS",
		"artcc": "ZKC",
		"type": "RNAV",
		"updated": "08/13/2012",
	},
	{
		"name": "BALLY",
		"latitude": "38-41-20.67 N",
		"longitude": "89-59-39.24 W",
		"state": "ILLINOIS",
		"artcc": "ZKC",
		"type": "RNAV",
		"updated": "06/01/2010",
	},
	{
		"name": "BAMLE",
		"latitude": "37-2-8.43 N",
		"longitude": "99-37-7.43 W",
		"state": "KANSAS",
		"artcc": "ZKC",
		"type": "RNAV",
		"updated": "11/19/2002",
	},
	{
		"name": "BAPGE",
		"latitude": "37-29-40.87 N",
		"longitude": "97-7-8.35 W",
		"state": "KANSAS",
		"artcc": "ZKC",
		"type": "CN",
		"updated": "06/11/2002",
	},
	{
		"name": "BAQFO",
		"latitude": "38-40-23.59 N",
		"longitude": "98-46-59.36 W",
		"state": "KANSAS",
		"artcc": "ZKC",
		"type": "RNAV",
		"updated": "08/08/2007",
	},
	{
		"name": "BARBQ",
		"latitude": "39-4-51.95 N",
		"longitude": "94-46-5.01 W",
		"state": "KANSAS",
		"artcc": "ZKC",
		"type": "RP",
		"updated": "PVL*LD*190.94/14.06",
	},
	{
		"name": "BARND",
		"latitude": "40-10-41.38 N",
		"longitude": "94-46-32.03 W",
		"state": "MISSOURI",
		"artcc": "ZKC",
		"type": "RNAV",
		"updated": "06/14/2011",
	},
	{
		"name": "BARNS",
		"latitude": "35-44-31.77 N",
		"longitude": "96-26-57.33 W",
		"state": "OKLAHOMA",
		"artcc": "ZKC",
		"type": "RP",
		"updated": "IRW*VORTAC*060.63/61.26",
	},
	{
		"name": "BARTI",
		"latitude": "38-21-48.41 N",
		"longitude": "92-39-3.76 W",
		"state": "MISSOURI",
		"artcc": "ZKC",
		"type": "RP",
		"updated": "SHY*VOR/DME*353.24/19.48",
	},
	{
		"name": "BASCO",
		"latitude": "39-56-14 N",
		"longitude": "88-28-4 W",
		"state": "ILLINOIS",
		"artcc": "ZKC",
		"type": "RNAV",
		"updated": "09/24/2012",
	},
	{
		"name": "BATMN",
		"latitude": "38-55-54 N",
		"longitude": "93-29-53.18 W",
		"state": "MISSOURI",
		"artcc": "ZKC",
		"type": "MR",
		"updated": "SZL*TACAN*010.78/12.00",
	},
	{
		"name": "BATYE",
		"latitude": "38-52-1.83 N",
		"longitude": "92-15-19.45 W",
		"state": "MISSOURI",
		"artcc": "ZKC",
		"type": "RP",
		"updated": "HLV*VORTAC*195.98/15.92",
	},
	{
		"name": "BAUNR",
		"latitude": "39-5-28.31 N",
		"longitude": "94-56-24.23 W",
		"state": "KANSAS",
		"artcc": "ZKC",
		"type": "RNAV",
		"updated": "01/31/2013",
	},
	{
		"name": "BAYAT",
		"latitude": "37-23-39.7 N",
		"longitude": "93-10-28.16 W",
		"state": "MISSOURI",
		"artcc": "ZKC",
		"type": "RNAV",
		"updated": "01/12/2004",
	},
	{
		"name": "BAYCO",
		"latitude": "37-44-24.6 N",
		"longitude": "97-23-52.15 W",
		"state": "KANSAS",
		"artcc": "ZKC",
		"type": "RNAV",
		"updated": "08/11/2010",
	},
	{
		"name": "BAYIZ",
		"latitude": "39-27-20.75 N",
		"longitude": "88-19-5.36 W",
		"state": "ILLINOIS",
		"artcc": "ZKC",
		"type": "RP",
		"updated": "MTO*VOR/DME*225.20/2.00",
	},
	{
		"name": "BAYLI",
		"latitude": "39-42-32.26 N",
		"longitude": "91-4-46.62 W",
		"state": "ILLINOIS",
		"artcc": "ZKC",
		"type": "RP",
		"updated": "HLV*VORTAC*047.46/60.43",
	},
	{
		"name": "BBRIK",
		"latitude": "37-22-39.66 N",
		"longitude": "97-24-44.58 W",
		"state": "KANSAS",
		"artcc": "ZKC",
		"type": "RNAV",
		"updated": "09/21/2014",
	},
	{
		"name": "BEAHM",
		"latitude": "38-12-4.01 N",
		"longitude": "97-47-26.26 W",
		"state": "KANSAS",
		"artcc": "ZKC",
		"type": "RP",
		"updated": "HUT*VOR/DME*025.01/14.00",
	},
	{
		"name": "BEAKY",
		"latitude": "36-28-0.54 N",
		"longitude": "101-32-12.87 W",
		"state": "TEXAS",
		"artcc": "ZKC",
		"type": "RNAV",
		"updated": "11/04/2011",
	},
	{
		"name": "BEART",
		"latitude": "38-45-35.04 N",
		"longitude": "90-12-39.3 W",
		"state": "MISSOURI",
		"artcc": "ZKC",
		"type": "RNAV",
		"updated": "08/03/2012",
	},
	{
		"name": "BEBAC",
		"latitude": "37-48-4.44 N",
		"longitude": "97-14-7.55 W",
		"state": "KANSAS",
		"artcc": "ZKC",
		"type": "RNAV",
		"updated": "03/30/2015",
	},
	{
		"name": "BEBRE",
		"latitude": "35-59-5.35 N",
		"longitude": "96-17-30.91 W",
		"state": "OKLAHOMA",
		"artcc": "ZKC",
		"type": "RNAV",
		"updated": "02/17/2015",
	},
	{
		"name": "BECME",
		"latitude": "39-12-2.74 N",
		"longitude": "95-47-34.54 W",
		"state": "KANSAS",
		"artcc": "ZKC",
		"type": "RP",
		"updated": "TOP*VORTAC*283.63",
	},
	{
		"name": "BECNA",
		"latitude": "37-35-31.38 N",
		"longitude": "97-1-51.69 W",
		"state": "KANSAS",
		"artcc": "ZKC",
		"type": "RNAV",
		"updated": "08/19/2003",
	},
	{
		"name": "BECTA",
		"latitude": "35-43-45.42 N",
		"longitude": "97-27-20.11 W",
		"state": "OKLAHOMA",
		"artcc": "ZKC",
		"type": "RNAV",
		"updated": "06/05/2014",
	},
	{
		"name": "BEDBE",
		"latitude": "39-16-58.63 N",
		"longitude": "98-0-54.24 W",
		"state": "KANSAS",
		"artcc": "ZKC",
		"type": "RNAV",
		"updated": "03/09/2009",
	},
	{
		"name": "BEEAN",
		"latitude": "38-31-1.22 N",
		"longitude": "93-36-0.92 W",
		"state": "MISSOURI",
		"artcc": "ZKC",
		"type": "MW",
		"updated": "10/16/2007",
	},
	{
		"name": "BEGDE",
		"latitude": "38-27-10.35 N",
		"longitude": "88-29-1.35 W",
		"state": "ILLINOIS",
		"artcc": "ZKC",
		"type": "RNAV",
		"updated": "07/20/2007",
	},
	{
		"name": "BEGLE",
		"latitude": "37-31-34.55 N",
		"longitude": "97-17-45.61 W",
		"state": "KANSAS",
		"artcc": "ZKC",
		"type": "MR",
		"updated": "IAB*TACAN*/5.88",
	},
	{
		"name": "BEGOW",
		"latitude": "39-29-48.33 N",
		"longitude": "88-14-16.81 W",
		"state": "ILLINOIS",
		"artcc": "ZKC",
		"type": "RP",
		"updated": "MTO*VOR/DME*060.26/2.50",
	},
	{
		"name": "BEJCY",
		"latitude": "38-35-44.6 N",
		"longitude": "93-50-13.33 W",
		"state": "MISSOURI",
		"artcc": "ZKC",
		"type": "RNAV",
		"updated": "03/22/2007",
	},
	{
		"name": "BELMN",
		"latitude": "36-44-47.51 N",
		"longitude": "97-9-36.55 W",
		"state": "OKLAHOMA",
		"artcc": "ZKC",
		"type": "RNAV",
		"updated": "05/27/2014",
	},
	{
		"name": "BELVE",
		"latitude": "38-58-39.51 N",
		"longitude": "96-50-41.79 W",
		"state": "KANSAS",
		"artcc": "ZKC",
		"type": "RP",
		"updated": "MHK*VOR/DME*215.36/13.00",
	},
	{
		"name": "BEMEN",
		"latitude": "39-55-20.92 N",
		"longitude": "88-29-46.47 W",
		"state": "ILLINOIS",
		"artcc": "ZKC",
		"type": "RP",
		"updated": "MTO*VOR/DME*337.00",
	},
	{
		"name": "BEPLE",
		"latitude": "35-53-47.16 N",
		"longitude": "96-55-19.32 W",
		"state": "OKLAHOMA",
		"artcc": "ZKC",
		"type": "RNAV",
		"updated": "09/26/2002",
	},
	{
		"name": "BERAA",
		"latitude": "38-32-14.75 N",
		"longitude": "90-24-47.49 W",
		"state": "MISSOURI",
		"artcc": "ZKC",
		"type": "RNAV",
		"updated": "08/03/2012",
	},
	{
		"name": "BERCH",
		"latitude": "36-19-21.92 N",
		"longitude": "98-13-35.57 W",
		"state": "OKLAHOMA",
		"artcc": "ZKC",
		"type": "MR",
		"updated": "END*VORTAC*260.00/15.00",
	},
	{
		"name": "BERGY",
		"latitude": "38-50-49.17 N",
		"longitude": "91-0-51.85 W",
		"state": "MISSOURI",
		"artcc": "ZKC",
		"type": "RNAV",
		"updated": "09/12/2012",
	},
	{
		"name": "BERIN",
		"latitude": "37-48-44 N",
		"longitude": "97-12-53.82 W",
		"state": "KANSAS",
		"artcc": "ZKC",
		"type": "MR",
		"updated": "ICT*VORTAC*070.00/18.00",
	},
	{
		"name": "BERYY",
		"latitude": "38-10-14.47 N",
		"longitude": "90-46-34.3 W",
		"state": "MISSOURI",
		"artcc": "ZKC",
		"type": "RNAV",
		"updated": "08/03/2012",
	},
	{
		"name": "BEVHI",
		"latitude": "39-51-20.54 N",
		"longitude": "93-34-0.59 W",
		"state": "MISSOURI",
		"artcc": "ZKC",
		"type": "RNAV",
		"updated": "04/22/2009",
	},
	{
		"name": "BEWOH",
		"latitude": "39-47-49.2 N",
		"longitude": "90-48-29.18 W",
		"state": "ILLINOIS",
		"artcc": "ZKC",
		"type": "RNAV",
		"updated": "04/27/2009",
	},
	{
		"name": "BEXVE",
		"latitude": "38-11-19.09 N",
		"longitude": "91-15-48.74 W",
		"state": "MISSOURI",
		"artcc": "ZKC",
		"type": "RNAV",
		"updated": "06/24/2009",
	},
	{
		"name": "BEYAN",
		"latitude": "37-59-34.08 N",
		"longitude": "94-52-30.3 W",
		"state": "KANSAS",
		"artcc": "ZKC",
		"type": "RNAV",
		"updated": "07/16/2007",
	},
	{
		"name": "BEYAV",
		"latitude": "38-58-3.08 N",
		"longitude": "94-44-58.78 W",
		"state": "KANSAS",
		"artcc": "ZKC",
		"type": "RNAV",
		"updated": "03/08/2012",
	},
	{
		"name": "BFALO",
		"latitude": "36-10-33.39 N",
		"longitude": "98-0-24.6 W",
		"state": "OKLAHOMA",
		"artcc": "ZKC",
		"type": "MR",
		"updated": "END*VORTAC*198.00/11.00",
	},
	{
		"name": "BGMAC",
		"latitude": "38-41-49.05 N",
		"longitude": "91-5-56.27 W",
		"state": "MISSOURI",
		"artcc": "ZKC",
		"type": "RNAV",
		"updated": "09/26/2012",
	},
	{
		"name": "BGOOD",
		"latitude": "38-26-23.21 N",
		"longitude": "91-7-2.46 W",
		"state": "MISSOURI",
		"artcc": "ZKC",
		"type": "RNAV",
		"updated": "08/03/2012",
	},
	{
		"name": "BHAMA",
		"latitude": "39-21-52.3 N",
		"longitude": "94-34-44.74 W",
		"state": "MISSOURI",
		"artcc": "ZKC",
		"type": "RNAV",
		"updated": "01/31/2013",
	},
	{
		"name": "BICEP",
		"latitude": "36-26-23.73 N",
		"longitude": "95-29-47.31 W",
		"state": "OKLAHOMA",
		"artcc": "ZKC",
		"type": "RP",
		"updated": "BVO*VOR/DME*125.00",
	},
	{
		"name": "BIDPY",
		"latitude": "37-22-41.44 N",
		"longitude": "94-48-15.17 W",
		"state": "KANSAS",
		"artcc": "ZKC",
		"type": "RNAV",
		"updated": "07/13/2012",
	},
	{
		"name": "BIDWL",
		"latitude": "37-50-25.45 N",
		"longitude": "89-42-51.42 W",
		"state": "ILLINOIS",
		"artcc": "ZKC",
		"type": "RNAV",
		"updated": "11/27/2012",
	},
	{
		"name": "BIHSU",
		"latitude": "36-24-16.92 N",
		"longitude": "94-50-30.13 W",
		"state": "OKLAHOMA",
		"artcc": "ZKC",
		"type": "RNAV",
		"updated": "02/25/2005",
	},
	{
		"name": "BIKCA",
		"latitude": "36-59-1.42 N",
		"longitude": "97-15-34.9 W",
		"state": "OKLAHOMA",
		"artcc": "ZKC",
		"type": "RP",
		"updated": "PER*VORTAC*335.39/15.00",
	},
	{
		"name": "BIKNL",
		"latitude": "37-46-58.22 N",
		"longitude": "94-48-19.23 W",
		"state": "KANSAS",
		"artcc": "ZKC",
		"type": "RP",
		"updated": "BUM*VORTAC*200.24/32.95",
	},
	{
		"name": "BIKPY",
		"latitude": "38-12-40.48 N",
		"longitude": "89-41-20.72 W",
		"state": "ILLINOIS",
		"artcc": "ZKC",
		"type": "CN",
		"updated": "09/13/2001",
	},
	{
		"name": "BILIE",
		"latitude": "37-2-26.29 N",
		"longitude": "93-33-37.98 W",
		"state": "MISSOURI",
		"artcc": "ZKC",
		"type": "RP",
		"updated": "DGD*VORTAC*271.00",
	},
	{
		"name": "BILLB",
		"latitude": "40-3-43.02 N",
		"longitude": "91-34-57.75 W",
		"state": "MISSOURI",
		"artcc": "ZKC",
		"type": "RP",
		"updated": "UIN*VORTAC*307.56/19.00",
	},
	{
		"name": "BILLE",
		"latitude": "40-15-40.38 N",
		"longitude": "93-35-37.09 W",
		"state": "MISSOURI",
		"artcc": "ZKC",
		"type": "RNAV",
		"updated": "05/10/2012",
	},
	{
		"name": "BILNY",
		"latitude": "38-34-51.03 N",
		"longitude": "90-4-10.46 W",
		"state": "ILLINOIS",
		"artcc": "ZKC",
		"type": "RNAV",
		"updated": "06/10/2013",
	},
	{
		"name": "BILOY",
		"latitude": "39-7-13.53 N",
		"longitude": "95-41-13.32 W",
		"state": "KANSAS",
		"artcc": "ZKC",
		"type": "RP",
		"updated": "TOP*VORTAC*256.21",
	},
	{
		"name": "BINGO",
		"latitude": "38-50-54.74 N",
		"longitude": "91-12-27.4 W",
		"state": "MISSOURI",
		"artcc": "ZKC",
		"type": "RP",
		"updated": "STL*VORTAC*268.00/34.00",
	},
	{
		"name": "BIPZE",
		"latitude": "40-0-15.13 N",
		"longitude": "91-16-32.31 W",
		"state": "ILLINOIS",
		"artcc": "ZKC",
		"type": "RNAV",
		"updated": "11/12/2008",
	},
	{
		"name": "BIRCA",
		"latitude": "37-28-49.96 N",
		"longitude": "98-9-22.49 W",
		"state": "KANSAS",
		"artcc": "ZKC",
		"type": "RNAV",
		"updated": "09/08/2003",
	},
	{
		"name": "BIRME",
		"latitude": "39-17-26.73 N",
		"longitude": "96-30-31.34 W",
		"state": "KANSAS",
		"artcc": "ZKC",
		"type": "RNAV",
		"updated": "08/19/2010",
	},
	{
		"name": "BIVEW",
		"latitude": "39-52-36.54 N",
		"longitude": "91-6-43.05 W",
		"state": "ILLINOIS",
		"artcc": "ZKC",
		"type": "RNAV",
		"updated": "11/12/2008",
	},
	{
		"name": "BIZAR",
		"latitude": "39-10-28.87 N",
		"longitude": "89-36-29.81 W",
		"state": "ILLINOIS",
		"artcc": "ZKC",
		"type": "RP",
		"updated": "STL*VORTAC*064.00/45.00",
	},
	{
		"name": "BKAAY",
		"latitude": "38-53-5.22 N",
		"longitude": "89-45-21.47 W",
		"state": "ILLINOIS",
		"artcc": "ZKC",
		"type": "RNAV",
		"updated": "09/20/2012",
	},
	{
		"name": "BLAKI",
		"latitude": "36-14-10.19 N",
		"longitude": "97-5-15.22 W",
		"state": "OKLAHOMA",
		"artcc": "ZKC",
		"type": "RP",
		"updated": "SWO*LD*N CRS/5.21",
	},
	{
		"name": "BLANY",
		"latitude": "36-15-31.89 N",
		"longitude": "96-9-36.58 W",
		"state": "OKLAHOMA",
		"artcc": "ZKC",
		"type": "RNAV",
		"updated": "01/26/2009",
	},
	{
		"name": "BLUZY",
		"latitude": "39-23-9.54 N",
		"longitude": "93-57-10.48 W",
		"state": "MISSOURI",
		"artcc": "ZKC",
		"type": "RP",
		"updated": "ANX*VORTAC*018.16",
	},
	{
		"name": "BLVIF",
		"latitude": "38-42-9.19 N",
		"longitude": "89-37-42.82 W",
		"state": "ILLINOIS",
		"artcc": "ZKC",
		"type": "RP",
		"updated": "SKE*TACAN*046.00/14.10",
	},
	{
		"name": "BLVIL",
		"latitude": "38-27-49.47 N",
		"longitude": "89-45-20.95 W",
		"state": "ILLINOIS",
		"artcc": "ZKC",
		"type": "RP",
		"updated": "SKE*TACAN*139.28/6.66",
	},
	{
		"name": "BMART",
		"latitude": "36-7-51.25 N",
		"longitude": "96-16-58.16 W",
		"state": "OKLAHOMA",
		"artcc": "ZKC",
		"type": "RNAV",
		"updated": "09/27/2016",
	},
	{
		"name": "BNANA",
		"latitude": "38-32-14.97 N",
		"longitude": "90-30-53.08 W",
		"state": "MISSOURI",
		"artcc": "ZKC",
		"type": "RNAV",
		"updated": "07/13/2009",
	},
	{
		"name": "BNTON",
		"latitude": "38-35-42.73 N",
		"longitude": "92-9-46.27 W",
		"state": "MISSOURI",
		"artcc": "ZKC",
		"type": "RP",
		"updated": "VIH*VOR/DME*315.00/34.09",
	},
	{
		"name": "BOCOS",
		"latitude": "39-10-27.85 N",
		"longitude": "91-42-42.35 W",
		"state": "MISSOURI",
		"artcc": "ZKC",
		"type": "RP",
		"updated": "HLV*VORTAC*073.24/19.78",
	},
	{
		"name": "BODYN",
		"latitude": "40-20-31.07 N",
		"longitude": "92-8-6.04 W",
		"state": "MISSOURI",
		"artcc": "ZKC",
		"type": "RP",
		"updated": "STJ*VORTAC*071.00/130.38",
	},
	{
		"name": "BOGVE",
		"latitude": "37-8-20.79 N",
		"longitude": "99-19-24.36 W",
		"state": "KANSAS",
		"artcc": "ZKC",
		"type": "RNAV",
		"updated": "06/14/2016",
	},
	{
		"name": "BOJOY",
		"latitude": "38-16-19.58 N",
		"longitude": "94-29-17.63 W",
		"state": "MISSOURI",
		"artcc": "ZKC",
		"type": "WP",
		"updated": "10/03/1995",
	},
	{
		"name": "BONIC",
		"latitude": "38-42-19.67 N",
		"longitude": "93-33-14.33 W",
		"state": "MISSOURI",
		"artcc": "ZKC",
		"type": "MR",
		"updated": "SZL*TACAN*/1.82",
	},
	{
		"name": "BOONS",
		"latitude": "37-39-30.99 N",
		"longitude": "100-47-56.42 W",
		"state": "KANSAS",
		"artcc": "ZKC",
		"type": "RP",
		"updated": "GCK*VORTAC*181.72/16.00",
	},
	{
		"name": "BOOSH",
		"latitude": "37-56-50.77 N",
		"longitude": "89-57-59.78 W",
		"state": "MISSOURI",
		"artcc": "ZKC",
		"type": "RNAV",
		"updated": "11/27/2012",
	},
	{
		"name": "BORFY",
		"latitude": "39-10-30.88 N",
		"longitude": "94-56-9.21 W",
		"state": "KANSAS",
		"artcc": "ZKC",
		"type": "RNAV",
		"updated": "01/29/2002",
	},
	{
		"name": "BORYE",
		"latitude": "37-39-3.06 N",
		"longitude": "89-50-14.58 W",
		"state": "MISSOURI",
		"artcc": "ZKC",
		"type": "RNAV",
		"updated": "05/28/2010",
	},
	{
		"name": "BOSHY",
		"latitude": "35-40-46.47 N",
		"longitude": "97-23-16.21 W",
		"state": "OKLAHOMA",
		"artcc": "ZKC",
		"type": "RNAV",
		"updated": "05/27/2014",
	},
	{
		"name": "BOSIE",
		"latitude": "38-39-44.98 N",
		"longitude": "89-3-2.23 W",
		"state": "ILLINOIS",
		"artcc": "ZKC",
		"type": "RP",
		"updated": "STL*VORTAC*098.58/68.23",
	},
	{
		"name": "BOSTN",
		"latitude": "39-53-46.57 N",
		"longitude": "88-26-18.96 W",
		"state": "ILLINOIS",
		"artcc": "ZKC",
		"type": "RNAV",
		"updated": "03/22/2009",
	},
	{
		"name": "BOTDO",
		"latitude": "37-54-30.25 N",
		"longitude": "100-10-23.98 W",
		"state": "KANSAS",
		"artcc": "ZKC",
		"type": "RNAV",
		"updated": "08/25/2005",
	},
	{
		"name": "BOTHY",
		"latitude": "37-13-41.01 N",
		"longitude": "93-16-3.94 W",
		"state": "MISSOURI",
		"artcc": "ZKC",
		"type": "RNAV",
		"updated": "11/03/2015",
	},
	{
		"name": "BOVAC",
		"latitude": "39-13-47.26 N",
		"longitude": "95-14-8.71 W",
		"state": "KANSAS",
		"artcc": "ZKC",
		"type": "RNAV",
		"updated": "09/10/2003",
	},
	{
		"name": "BOVEN",
		"latitude": "38-54-36.08 N",
		"longitude": "92-10-15.81 W",
		"state": "MISSOURI",
		"artcc": "ZKC",
		"type": "RP",
		"updated": "COU*LD*021.44/5.50",
	},
	{
		"name": "BOWLR",
		"latitude": "39-37-21.29 N",
		"longitude": "95-11-0.26 W",
		"state": "KANSAS",
		"artcc": "ZKC",
		"type": "RP",
		"updated": "MCI*VORTAC*309.41/28.97",
	},
	{
		"name": "BOXEL",
		"latitude": "37-45-38.14 N",
		"longitude": "97-4-10.9 W",
		"state": "KANSAS",
		"artcc": "ZKC",
		"type": "WP",
		"updated": "ICT*VORTAC*080.69/24.48",
	},
	{
		"name": "BOZSA",
		"latitude": "36-53-56.52 N",
		"longitude": "93-41-49.45 W",
		"state": "MISSOURI",
		"artcc": "ZKC",
		"type": "RNAV",
		"updated": "11/21/2011",
	},
	{
		"name": "BRAKK",
		"latitude": "38-58-4.99 N",
		"longitude": "91-9-44.8 W",
		"state": "MISSOURI",
		"artcc": "ZKC",
		"type": "RNAV",
		"updated": "08/03/2012",
	},
	{
		"name": "BRAKR",
		"latitude": "36-43-39.52 N",
		"longitude": "101-30-8.48 W",
		"state": "OKLAHOMA",
		"artcc": "ZKC",
		"type": "RP",
		"updated": "LBL*VORTAC*222.57/31.84",
	},
	{
		"name": "BRDWL",
		"latitude": "38-51-1.13 N",
		"longitude": "90-21-51.17 W",
		"state": "MISSOURI",
		"artcc": "ZKC",
		"type": "RNAV",
		"updated": "09/26/2012",
	},
	{
		"name": "BREEZ",
		"latitude": "38-35-43.48 N",
		"longitude": "89-34-27.12 W",
		"state": "ILLINOIS",
		"artcc": "ZKC",
		"type": "RP",
		"updated": "TOY*VORTAC*113.92/18.33",
	},
	{
		"name": "BRNTT",
		"latitude": "36-46-19.78 N",
		"longitude": "93-20-6.56 W",
		"state": "MISSOURI",
		"artcc": "ZKC",
		"type": "RNAV",
		"updated": "09/12/2012",
	},
	{
		"name": "BRSKT",
		"latitude": "39-13-57.36 N",
		"longitude": "94-36-38.02 W",
		"state": "MISSOURI",
		"artcc": "ZKC",
		"type": "RNAV",
		"updated": "01/31/2013",
	},
	{
		"name": "BRTNY",
		"latitude": "39-28-25.36 N",
		"longitude": "94-40-33.25 W",
		"state": "MISSOURI",
		"artcc": "ZKC",
		"type": "RP",
		"updated": "PAJ*LD*010.93/11.28",
	},
	{
		"name": "BSHWD",
		"latitude": "37-36-45.87 N",
		"longitude": "96-44-20.92 W",
		"state": "KANSAS",
		"artcc": "ZKC",
		"type": "RNAV",
		"updated": "07/31/2013",
	},
	{
		"name": "BUCAR",
		"latitude": "37-15-48.82 N",
		"longitude": "100-53-16.97 W",
		"state": "KANSAS",
		"artcc": "ZKC",
		"type": "RNAV",
		"updated": "11/26/2014",
	},
	{
		"name": "BUCAV",
		"latitude": "40-4-37.18 N",
		"longitude": "94-56-17.17 W",
		"state": "MISSOURI",
		"artcc": "ZKC",
		"type": "RP",
		"updated": "STJ*VORTAC*347.14/7.00",
	},
	{
		"name": "BUCJI",
		"latitude": "37-50-19.44 N",
		"longitude": "97-12-26.45 W",
		"state": "KANSAS",
		"artcc": "ZKC",
		"type": "CN",
		"updated": "04/13/2000",
	},
	{
		"name": "BUDDY",
		"latitude": "39-48-9.88 N",
		"longitude": "89-22-29.05 W",
		"state": "ILLINOIS",
		"artcc": "ZKC",
		"type": "RP",
		"updated": "VLA*VORTAC*343.00",
	},
	{
		"name": "BUDIE",
		"latitude": "39-24-5.72 N",
		"longitude": "94-38-55.49 W",
		"state": "MISSOURI",
		"artcc": "ZKC",
		"type": "RNAV",
		"updated": "01/31/2013",
	},
	{
		"name": "BUELL",
		"latitude": "38-54-9.28 N",
		"longitude": "90-27-4.16 W",
		"state": "MISSOURI",
		"artcc": "ZKC",
		"type": "RNAV",
		"updated": "09/25/2012",
	},
	{
		"name": "BUFEE",
		"latitude": "38-53-8.73 N",
		"longitude": "90-24-51.18 W",
		"state": "MISSOURI",
		"artcc": "ZKC",
		"type": "RNAV",
		"updated": "08/09/2012",
	},
	{
		"name": "BUGAC",
		"latitude": "37-37-7.64 N",
		"longitude": "98-7-52.67 W",
		"state": "KANSAS",
		"artcc": "ZKC",
		"type": "RNAV",
		"updated": "09/08/2003",
	},
	{
		"name": "BUGPY",
		"latitude": "36-28-33.25 N",
		"longitude": "97-16-39.96 W",
		"state": "OKLAHOMA",
		"artcc": "ZKC",
		"type": "RNAV",
		"updated": "05/02/2011",
	},
	{
		"name": "BUHLS",
		"latitude": "38-6-13.06 N",
		"longitude": "97-41-18.74 W",
		"state": "KANSAS",
		"artcc": "ZKC",
		"type": "RP",
		"updated": "HUT*VOR/DME*057.14/13.28",
	},
	{
		"name": "BUKBE",
		"latitude": "38-51-50.86 N",
		"longitude": "96-50-54.51 W",
		"state": "KANSAS",
		"artcc": "ZKC",
		"type": "RNAV",
		"updated": "06/11/2002",
	},
	{
		"name": "BUKDY",
		"latitude": "36-57-31.67 N",
		"longitude": "96-0-57.53 W",
		"state": "OKLAHOMA",
		"artcc": "ZKC",
		"type": "RNAV",
		"updated": "10/16/2007",
	},
	{
		"name": "BUKKS",
		"latitude": "39-27-53.47 N",
		"longitude": "94-26-16.64 W",
		"state": "MISSOURI",
		"artcc": "ZKC",
		"type": "RNAV",
		"updated": "01/31/2013",
	},
	{
		"name": "BUKVE",
		"latitude": "39-7-35.8 N",
		"longitude": "94-35-58.69 W",
		"state": "MISSOURI",
		"artcc": "ZKC",
		"type": "RNAV",
		"updated": "07/11/2007",
	},
	{
		"name": "BUKWT",
		"latitude": "38-48-11.02 N",
		"longitude": "90-34-16.01 W",
		"state": "MISSOURI",
		"artcc": "ZKC",
		"type": "RNAV",
		"updated": "08/09/2012",
	},
	{
		"name": "BUMKE",
		"latitude": "38-56-20.8 N",
		"longitude": "95-38-53.24 W",
		"state": "KANSAS",
		"artcc": "ZKC",
		"type": "MR",
		"updated": "FOE*TACAN*124.00/0.79",
	},
	{
		"name": "BUNKS",
		"latitude": "37-37-46.57 N",
		"longitude": "91-6-21.47 W",
		"state": "MISSOURI",
		"artcc": "ZKC",
		"type": "RP",
		"updated": "VIH*VOR/DME*131.58/42.45",
	},
	{
		"name": "BUNVY",
		"latitude": "39-4-38.48 N",
		"longitude": "98-43-55.99 W",
		"state": "KANSAS",
		"artcc": "ZKC",
		"type": "RNAV",
		"updated": "08/08/2007",
	},
	{
		"name": "BUPKE",
		"latitude": "36-34-24.98 N",
		"longitude": "98-2-40.53 W",
		"state": "OKLAHOMA",
		"artcc": "ZKC",
		"type": "MR",
		"updated": "END*VORTAC*331.00/15.00",
	},
	{
		"name": "BURCK",
		"latitude": "38-17-39.19 N",
		"longitude": "90-2-25.56 W",
		"state": "ILLINOIS",
		"artcc": "ZKC",
		"type": "RP",
		"updated": "STL*VORTAC*147.38/39.81",
	},
	{
		"name": "BURDN",
		"latitude": "37-24-17.47 N",
		"longitude": "96-54-42.06 W",
		"state": "KANSAS",
		"artcc": "ZKC",
		"type": "RP",
		"updated": "ICT*VORTAC*115.26/38.00",
	},
	{
		"name": "BURFA",
		"latitude": "37-1-46.75 N",
		"longitude": "95-35-2.45 W",
		"state": "KANSAS",
		"artcc": "ZKC",
		"type": "CN",
		"updated": "04/13/2000",
	},
	{
		"name": "BURND",
		"latitude": "39-10-53.9 N",
		"longitude": "94-45-8.03 W",
		"state": "MISSOURI",
		"artcc": "ZKC",
		"type": "RNAV",
		"updated": "01/31/2013",
	},
	{
		"name": "BURTO",
		"latitude": "38-2-31.09 N",
		"longitude": "97-40-13.61 W",
		"state": "KANSAS",
		"artcc": "ZKC",
		"type": "RP",
		"updated": "HUT*VOR/DME*073.73/12.79",
	},
	{
		"name": "BURWK",
		"latitude": "37-4-37.08 N",
		"longitude": "94-24-59.01 W",
		"state": "MISSOURI",
		"artcc": "ZKC",
		"type": "RP",
		"updated": "EOS*VOR/DME*356.77",
	},
	{
		"name": "BUSSO",
		"latitude": "38-34-11.56 N",
		"longitude": "90-8-49.52 W",
		"state": "ILLINOIS",
		"artcc": "ZKC",
		"type": "RNAV",
		"updated": "08/13/2012",
	},
	{
		"name": "BUTGY",
		"latitude": "39-18-56.63 N",
		"longitude": "97-8-30.92 W",
		"state": "KANSAS",
		"artcc": "ZKC",
		"type": "CN",
		"updated": "04/13/2000",
	},
	{
		"name": "BUUDD",
		"latitude": "39-14-47.16 N",
		"longitude": "89-43-25.49 W",
		"state": "ILLINOIS",
		"artcc": "ZKC",
		"type": "RNAV",
		"updated": "09/20/2012",
	},
	{
		"name": "BUVKY",
		"latitude": "36-56-13.08 N",
		"longitude": "101-51-42.08 W",
		"state": "KANSAS",
		"artcc": "ZKC",
		"type": "CN",
		"updated": "04/13/2000",
	},
	{
		"name": "BUZZR",
		"latitude": "39-18-49.13 N",
		"longitude": "94-50-12.47 W",
		"state": "MISSOURI",
		"artcc": "ZKC",
		"type": "RNAV",
		"updated": "01/31/2013",
	},
	{
		"name": "BVRLY",
		"latitude": "37-22-52.6 N",
		"longitude": "93-31-17.45 W",
		"state": "MISSOURI",
		"artcc": "ZKC",
		"type": "RP",
		"updated": "SGF*VORTAC*275.66",
	},
	{
		"name": "BYGEC",
		"latitude": "39-16-26.79 N",
		"longitude": "94-34-38.17 W",
		"state": "MISSOURI",
		"artcc": "ZKC",
		"type": "RP",
		"updated": "ANX*VORTAC*290.25/23.50",
	},
	{
		"name": "BYKER",
		"latitude": "39-17-15.55 N",
		"longitude": "94-35-39.11 W",
		"state": "MISSOURI",
		"artcc": "ZKC",
		"type": "RNAV",
		"updated": "01/31/2013",
	},
	{
		"name": "BYRNS",
		"latitude": "39-0-23.94 N",
		"longitude": "90-22-44.17 W",
		"state": "ILLINOIS",
		"artcc": "ZKC",
		"type": "RP",
		"updated": "STL*VORTAC*027.93/10.00",
	},
	{
		"name": "BYWAY",
		"latitude": "37-41-59.1 N",
		"longitude": "98-55-2.23 W",
		"state": "KANSAS",
		"artcc": "ZKC",
		"type": "RP",
		"updated": "ANY*VORTAC*305.48",
	},
