	{
		"name": "CAARP",
		"latitude": "38-37-42.27 N",
		"longitude": "93-34-22.55 W",
		"state": "MISSOURI",
		"artcc": "ZKC",
		"type": "MW",
		"updated": "10/16/2007",
	},
	{
		"name": "CABBI",
		"latitude": "37-52-12.21 N",
		"longitude": "89-14-44.69 W",
		"state": "ILLINOIS",
		"artcc": "ZKC",
		"type": "RP",
		"updated": "12/23/2009",
	},
	{
		"name": "CABIT",
		"latitude": "38-57-59.76 N",
		"longitude": "91-9-7.52 W",
		"state": "MISSOURI",
		"artcc": "ZKC",
		"type": "RP",
		"updated": "STL*VORTAC*280.65/32.00",
	},
	{
		"name": "CADAC",
		"latitude": "37-52-11.57 N",
		"longitude": "97-28-21.34 W",
		"state": "KANSAS",
		"artcc": "ZKC",
		"type": "RNAV",
		"updated": "03/30/2015",
	},
	{
		"name": "CADAP",
		"latitude": "36-40-21.72 N",
		"longitude": "98-40-14.41 W",
		"state": "OKLAHOMA",
		"artcc": "ZKC",
		"type": "RNAV",
		"updated": "07/01/2015",
	},
	{
		"name": "CADEX",
		"latitude": "38-55-27.23 N",
		"longitude": "96-45-46.41 W",
		"state": "KANSAS",
		"artcc": "ZKC",
		"type": "RNAV",
		"updated": "07/20/2010",
	},
	{
		"name": "CADLI",
		"latitude": "39-43-25.7 N",
		"longitude": "91-58-1.6 W",
		"state": "MISSOURI",
		"artcc": "ZKC",
		"type": "RNAV",
		"updated": "01/29/2002",
	},
	{
		"name": "CADPI",
		"latitude": "37-59-8.29 N",
		"longitude": "100-43-9.02 W",
		"state": "KANSAS",
		"artcc": "ZKC",
		"type": "CN",
		"updated": "04/13/2000",
	},
	{
		"name": "CADUT",
		"latitude": "35-53-46.16 N",
		"longitude": "96-49-10.08 W",
		"state": "OKLAHOMA",
		"artcc": "ZKC",
		"type": "RNAV",
		"updated": "09/26/2002",
	},
	{
		"name": "CAGDA",
		"latitude": "38-23-50.71 N",
		"longitude": "97-36-29.51 W",
		"state": "KANSAS",
		"artcc": "ZKC",
		"type": "RNAV",
		"updated": "03/05/2003",
	},
	{
		"name": "CAGIM",
		"latitude": "37-16-8.15 N",
		"longitude": "99-20-12.4 W",
		"state": "KANSAS",
		"artcc": "ZKC",
		"type": "RNAV",
		"updated": "06/14/2016",
	},
	{
		"name": "CAGUN",
		"latitude": "39-53-50.81 N",
		"longitude": "90-48-21.58 W",
		"state": "ILLINOIS",
		"artcc": "ZKC",
		"type": "RNAV",
		"updated": "04/28/2009",
	},
	{
		"name": "CAGVE",
		"latitude": "38-45-30.62 N",
		"longitude": "96-47-46.76 W",
		"state": "KANSAS",
		"artcc": "ZKC",
		"type": "CN",
		"updated": "04/13/2000",
	},
	{
		"name": "CAHEF",
		"latitude": "38-37-39.03 N",
		"longitude": "96-47-36.36 W",
		"state": "KANSAS",
		"artcc": "ZKC",
		"type": "CN",
		"updated": "04/13/2000",
	},
	{
		"name": "CAKDO",
		"latitude": "37-2-8.27 N",
		"longitude": "99-30-52.74 W",
		"state": "KANSAS",
		"artcc": "ZKC",
		"type": "RNAV",
		"updated": "11/19/2002",
	},
	{
		"name": "CAKNO",
		"latitude": "36-0-15.03 N",
		"longitude": "100-2-32.07 W",
		"state": "TEXAS",
		"artcc": "ZKC",
		"type": "RNAV",
		"updated": "10/27/2014",
	},
	{
		"name": "CALAP",
		"latitude": "37-53-23.95 N",
		"longitude": "94-46-10.22 W",
		"state": "KANSAS",
		"artcc": "ZKC",
		"type": "RNAV",
		"updated": "07/16/2007",
	},
	{
		"name": "CALDE",
		"latitude": "39-47-44 N",
		"longitude": "89-35-36.65 W",
		"state": "ILLINOIS",
		"artcc": "ZKC",
		"type": "RP",
		"updated": "SPI*VORTAC*/4.71",
	},
	{
		"name": "CALEB",
		"latitude": "38-32-10.53 N",
		"longitude": "93-34-21.53 W",
		"state": "MISSOURI",
		"artcc": "ZKC",
		"type": "MR",
		"updated": "SZL*TACAN*184.00/12.00",
	},
	{
		"name": "CALKI",
		"latitude": "35-33-10.83 N",
		"longitude": "96-49-15.9 W",
		"state": "OKLAHOMA",
		"artcc": "ZKC",
		"type": "RNAV",
		"updated": "09/26/2002",
	},
	{
		"name": "CALKO",
		"latitude": "39-14-13.54 N",
		"longitude": "96-25-35.64 W",
		"state": "KANSAS",
		"artcc": "ZKC",
		"type": "RNAV",
		"updated": "08/19/2010",
	},
	{
		"name": "CALOR",
		"latitude": "37-50-9.68 N",
		"longitude": "97-59-8.21 W",
		"state": "KANSAS",
		"artcc": "ZKC",
		"type": "RNAV",
		"updated": "09/08/2003",
	},
	{
		"name": "CALSE",
		"latitude": "37-44-24 N",
		"longitude": "97-23-52.5 W",
		"state": "KANSAS",
		"artcc": "ZKC",
		"type": "CN",
		"updated": "04/13/2000",
	},
	{
		"name": "CALVA",
		"latitude": "36-30-47.75 N",
		"longitude": "96-52-8.51 W",
		"state": "OKLAHOMA",
		"artcc": "ZKC",
		"type": "RP",
		"updated": "PER*VORTAC*128.75/19.82",
	},
	{
		"name": "CALVU",
		"latitude": "38-53-37.52 N",
		"longitude": "94-48-17.9 W",
		"state": "KANSAS",
		"artcc": "ZKC",
		"type": "RNAV",
		"updated": "07/15/2016",
	},
	{
		"name": "CAMAN",
		"latitude": "37-36-53.79 N",
		"longitude": "93-44-40.06 W",
		"state": "MISSOURI",
		"artcc": "ZKC",
		"type": "RP",
		"updated": "SGF*VORTAC*304.50/25.00",
	},
	{
		"name": "CAMAR",
		"latitude": "36-5-27.49 N",
		"longitude": "99-16-56.7 W",
		"state": "OKLAHOMA",
		"artcc": "ZKC",
		"type": "RP",
		"updated": "MMB*VORTAC*107.38/32.73",
	},
	{
		"name": "CAMDO",
		"latitude": "39-34-32.81 N",
		"longitude": "94-38-43.98 W",
		"state": "MISSOURI",
		"artcc": "ZKC",
		"type": "RP",
		"updated": "PAJ*LD*010.93/17.56",
	},
	{
		"name": "CAMEA",
		"latitude": "37-12-45.45 N",
		"longitude": "92-1-9.74 W",
		"state": "MISSOURI",
		"artcc": "ZKC",
		"type": "WP",
		"updated": "01/24/2002",
	},
	{
		"name": "CAMLA",
		"latitude": "38-51-50.68 N",
		"longitude": "96-57-18.6 W",
		"state": "KANSAS",
		"artcc": "ZKC",
		"type": "RNAV",
		"updated": "06/11/2002",
	},
	{
		"name": "CAMOB",
		"latitude": "36-29-16 N",
		"longitude": "95-28-44.97 W",
		"state": "OKLAHOMA",
		"artcc": "ZKC",
		"type": "RNAV",
		"updated": "07/09/2009",
	},
	{
		"name": "CAMOY",
		"latitude": "36-59-57.79 N",
		"longitude": "100-59-54.8 W",
		"state": "KANSAS",
		"artcc": "ZKC",
		"type": "CN",
		"updated": "05/16/2000",
	},
	{
		"name": "CAMSA",
		"latitude": "35-59-6.73 N",
		"longitude": "96-25-16.68 W",
		"state": "OKLAHOMA",
		"artcc": "ZKC",
		"type": "RNAV",
		"updated": "02/17/2015",
	},
	{
		"name": "CAPAP",
		"latitude": "36-29-19.74 N",
		"longitude": "97-54-39.32 W",
		"state": "OKLAHOMA",
		"artcc": "ZKC",
		"type": "MW",
		"updated": "06/07/2012",
	},
	{
		"name": "CAPLA",
		"latitude": "38-1-14.33 N",
		"longitude": "97-23-52.14 W",
		"state": "KANSAS",
		"artcc": "ZKC",
		"type": "RNAV",
		"updated": "03/05/2003",
	},
	{
		"name": "CAPOM",
		"latitude": "37-14-41.41 N",
		"longitude": "91-52-8.77 W",
		"state": "MISSOURI",
		"artcc": "ZKC",
		"type": "RNAV",
		"updated": "01/29/2002",
	},
	{
		"name": "CARAT",
		"latitude": "35-31-17.85 N",
		"longitude": "97-22-53.42 W",
		"state": "OKLAHOMA",
		"artcc": "ZKC",
		"type": "MR",
		"updated": "TIK*TACAN*356.00/5.10",
	},
	{
		"name": "CARBB",
		"latitude": "39-15-36.06 N",
		"longitude": "94-21-47.82 W",
		"state": "MISSOURI",
		"artcc": "ZKC",
		"type": "RP",
		"updated": "UQY*LD*094.14/17.27",
	},
	{
		"name": "CARER",
		"latitude": "36-29-16.74 N",
		"longitude": "98-1-29.29 W",
		"state": "OKLAHOMA",
		"artcc": "ZKC",
		"type": "MR",
		"updated": "END*VORTAC*324.00/10.00",
	},
	{
		"name": "CARIE",
		"latitude": "37-55-0 N",
		"longitude": "97-24-0 W",
		"state": "KANSAS",
		"artcc": "ZKC",
		"type": "RNAV",
		"updated": "02/03/2011",
	},
	{
		"name": "CARKO",
		"latitude": "37-6-56.43 N",
		"longitude": "99-25-48.68 W",
		"state": "KANSAS",
		"artcc": "ZKC",
		"type": "RP",
		"updated": "MMB*VORTAC*015.00/51.09",
	},
	{
		"name": "CAROL",
		"latitude": "38-50-21.17 N",
		"longitude": "88-58-16.22 W",
		"state": "ILLINOIS",
		"artcc": "ZKC",
		"type": "RP",
		"updated": "STL*VORTAC*089.57/70.85",
	},
	{
		"name": "CARON",
		"latitude": "36-56-42.51 N",
		"longitude": "98-37-39.3 W",
		"state": "OKLAHOMA",
		"artcc": "ZKC",
		"type": "RP",
		"updated": "ANY*VORTAC*232.86/25.41",
	},
	{
		"name": "CAROO",
		"latitude": "35-41-12.66 N",
		"longitude": "97-23-6.16 W",
		"state": "OKLAHOMA",
		"artcc": "ZKC",
		"type": "MR",
		"updated": "TIK*TACAN*356.00/15.00",
	},
	{
		"name": "CARYE",
		"latitude": "39-17-7.43 N",
		"longitude": "94-39-40.34 W",
		"state": "MISSOURI",
		"artcc": "ZKC",
		"type": "RP",
		"updated": "UQY*LD*094.14/3.30",
	},
	{
		"name": "CASAS",
		"latitude": "39-26-24.02 N",
		"longitude": "92-23-25.89 W",
		"state": "MISSOURI",
		"artcc": "ZKC",
		"type": "RNAV",
		"updated": "04/26/2011",
	},
	{
		"name": "CASHN",
		"latitude": "39-57-32 N",
		"longitude": "90-15-34 W",
		"state": "ILLINOIS",
		"artcc": "ZKC",
		"type": "RNAV",
		"updated": "08/19/2015",
	},
	{
		"name": "CASSO",
		"latitude": "38-11-55.64 N",
		"longitude": "96-57-55.12 W",
		"state": "KANSAS",
		"artcc": "ZKC",
		"type": "RP",
		"updated": "ICT*VORTAC*040.00/40.00",
	},
	{
		"name": "CASTN",
		"latitude": "35-50-11.57 N",
		"longitude": "97-35-19.41 W",
		"state": "OKLAHOMA",
		"artcc": "ZKC",
		"type": "RP",
		"updated": "IRW*VORTAC*355.00/28.65",
	},
	{
		"name": "CASUP",
		"latitude": "36-29-18.76 N",
		"longitude": "97-14-44.22 W",
		"state": "OKLAHOMA",
		"artcc": "ZKC",
		"type": "RP",
		"updated": "PER*VORTAC*188.98/16.00",
	},
	{
		"name": "CATIL",
		"latitude": "38-37-23.46 N",
		"longitude": "92-18-53.4 W",
		"state": "MISSOURI",
		"artcc": "ZKC",
		"type": "RP",
		"updated": "COU*LD*201.43/12.96",
	},
	{
		"name": "CATRU",
		"latitude": "38-58-1.38 N",
		"longitude": "94-22-19.76 W",
		"state": "MISSOURI",
		"artcc": "ZKC",
		"type": "RP",
		"updated": "ANX*VORTAC*229.00/13.73",
	},
	{
		"name": "CATTS",
		"latitude": "39-18-11.59 N",
		"longitude": "96-9-13.69 W",
		"state": "KANSAS",
		"artcc": "ZKC",
		"type": "RP",
		"updated": "MCI*VORTAC*266.38/66.00",
	},
	{
		"name": "CAULD",
		"latitude": "39-28-23.9 N",
		"longitude": "94-6-34.41 W",
		"state": "MISSOURI",
		"artcc": "ZKC",
		"type": "RNAV",
		"updated": "07/14/2015",
	},
	{
		"name": "CAVED",
		"latitude": "39-44-6.39 N",
		"longitude": "91-11-11.25 W",
		"state": "ILLINOIS",
		"artcc": "ZKC",
		"type": "RP",
		"updated": "UIN*VORTAC*142.69/8.00",
	},
	{
		"name": "CAVEM",
		"latitude": "37-36-19.54 N",
		"longitude": "94-46-8.65 W",
		"state": "KANSAS",
		"artcc": "ZKC",
		"type": "RNAV",
		"updated": "07/16/2007",
	},
	{
		"name": "CAVWU",
		"latitude": "39-12-12.09 N",
		"longitude": "96-35-29.81 W",
		"state": "KANSAS",
		"artcc": "ZKC",
		"type": "RP",
		"updated": "MHK*VOR/DME*040.00/5.00",
	},
	{
		"name": "CAWBU",
		"latitude": "37-29-25.94 N",
		"longitude": "97-16-52.58 W",
		"state": "KANSAS",
		"artcc": "ZKC",
		"type": "RP",
		"updated": "ICT*VORTAC*129.53/21.00",
	},
	{
		"name": "CAWER",
		"latitude": "38-24-54.25 N",
		"longitude": "97-41-19.49 W",
		"state": "KANSAS",
		"artcc": "ZKC",
		"type": "CN",
		"updated": "04/13/2000",
	},
	{
		"name": "CAWNU",
		"latitude": "39-33-35.65 N",
		"longitude": "94-53-33.55 W",
		"state": "MISSOURI",
		"artcc": "ZKC",
		"type": "RNAV",
		"updated": "01/29/2002",
	},
	{
		"name": "CAWXY",
		"latitude": "39-45-28.72 N",
		"longitude": "96-35-8.67 W",
		"state": "KANSAS",
		"artcc": "ZKC",
		"type": "RNAV",
		"updated": "01/30/2011",
	},
	{
		"name": "CAYAC",
		"latitude": "39-55-4.33 N",
		"longitude": "89-36-23.99 W",
		"state": "ILLINOIS",
		"artcc": "ZKC",
		"type": "RP",
		"updated": "SPI*VORTAC*036.00/5.72",
	},
	{
		"name": "CAYKO",
		"latitude": "39-45-49.35 N",
		"longitude": "94-8-11.42 W",
		"state": "MISSOURI",
		"artcc": "ZKC",
		"type": "RP",
		"updated": "MCI*VORTAC*039.00/40.00",
	},
	{
		"name": "CBLUM",
		"latitude": "38-56-2.4 N",
		"longitude": "94-44-14.4 W",
		"state": "KANSAS",
		"artcc": "ZKC",
		"type": "RNAV",
		"updated": "04/09/2009",
	},
	{
		"name": "CEBAP",
		"latitude": "39-10-41.29 N",
		"longitude": "95-16-31.37 W",
		"state": "KANSAS",
		"artcc": "ZKC",
		"type": "RP",
		"updated": "TOP*VORTAC*074.00/13.00",
	},
	{
		"name": "CEBEK",
		"latitude": "36-24-19.33 N",
		"longitude": "97-54-39.51 W",
		"state": "OKLAHOMA",
		"artcc": "ZKC",
		"type": "MW",
		"updated": "06/07/2012",
	},
	{
		"name": "CEBHY",
		"latitude": "39-43-26.93 N",
		"longitude": "89-19-49.17 W",
		"state": "ILLINOIS",
		"artcc": "ZKC",
		"type": "RNAV",
		"updated": "08/24/2005",
	},
	{
		"name": "CEBIP",
		"latitude": "36-11-39.32 N",
		"longitude": "96-1-59.9 W",
		"state": "OKLAHOMA",
		"artcc": "ZKC",
		"type": "RNAV",
		"updated": "06/21/2013",
	},
	{
		"name": "CEBIX",
		"latitude": "37-31-16.47 N",
		"longitude": "95-30-27.78 W",
		"state": "KANSAS",
		"artcc": "ZKC",
		"type": "RNAV",
		"updated": "03/07/2005",
	},
	{
		"name": "CECAS",
		"latitude": "38-47-3.31 N",
		"longitude": "95-11-22.78 W",
		"state": "KANSAS",
		"artcc": "ZKC",
		"type": "RNAV",
		"updated": "09/10/2003",
	},
	{
		"name": "CEGAS",
		"latitude": "37-8-18.65 N",
		"longitude": "95-30-16.64 W",
		"state": "KANSAS",
		"artcc": "ZKC",
		"type": "RNAV",
		"updated": "03/07/2005",
	},
	{
		"name": "CEJES",
		"latitude": "39-38-47.28 N",
		"longitude": "95-14-37.15 W",
		"state": "KANSAS",
		"artcc": "ZKC",
		"type": "RP",
		"updated": "RBA*VOR/DME*141.82/14.80",
	},
	{
		"name": "CEJLE",
		"latitude": "37-30-24.28 N",
		"longitude": "94-44-53.93 W",
		"state": "KANSAS",
		"artcc": "ZKC",
		"type": "CN",
		"updated": "04/13/2000",
	},
	{
		"name": "CEKBO",
		"latitude": "38-12-7.21 N",
		"longitude": "94-20-37.81 W",
		"state": "MISSOURI",
		"artcc": "ZKC",
		"type": "RNAV",
		"updated": "10/23/2012",
	},
	{
		"name": "CEKIS",
		"latitude": "39-1-6.73 N",
		"longitude": "96-45-12.09 W",
		"state": "KANSAS",
		"artcc": "ZKC",
		"type": "RP",
		"updated": "MHK*VOR/DME*203.49/8.75",
	},
	{
		"name": "CELUL",
		"latitude": "38-24-3.76 N",
		"longitude": "91-0-18.9 W",
		"state": "MISSOURI",
		"artcc": "ZKC",
		"type": "RNAV",
		"updated": "06/24/2009",
	},
	{
		"name": "CENEN",
		"latitude": "35-32-47.14 N",
		"longitude": "97-8-12.76 W",
		"state": "OKLAHOMA",
		"artcc": "ZKC",
		"type": "MR",
		"updated": "PWA*VOR/DME*080.00/25.00",
	},
	{
		"name": "CENIB",
		"latitude": "39-7-31.29 N",
		"longitude": "95-41-36.69 W",
		"state": "KANSAS",
		"artcc": "ZKC",
		"type": "RNAV",
		"updated": "03/26/2012",
	},
	{
		"name": "CENTO",
		"latitude": "35-59-27.51 N",
		"longitude": "96-1-49.93 W",
		"state": "OKLAHOMA",
		"artcc": "ZKC",
		"type": "RNAV",
		"updated": "01/29/2009",
	},
	{
		"name": "CEPGA",
		"latitude": "37-49-20.51 N",
		"longitude": "97-33-36.29 W",
		"state": "KANSAS",
		"artcc": "ZKC",
		"type": "RNAV",
		"updated": "03/26/2010",
	},
	{
		"name": "CEQPO",
		"latitude": "37-46-37.64 N",
		"longitude": "89-15-39.77 W",
		"state": "ILLINOIS",
		"artcc": "ZKC",
		"type": "RNAV",
		"updated": "07/25/2005",
	},
	{
		"name": "CERIV",
		"latitude": "36-35-29.06 N",
		"longitude": "94-44-18.77 W",
		"state": "OKLAHOMA",
		"artcc": "ZKC",
		"type": "RNAV",
		"updated": "02/25/2005",
	},
	{
		"name": "CERPA",
		"latitude": "36-29-4.87 N",
		"longitude": "98-10-31.32 W",
		"state": "OKLAHOMA",
		"artcc": "ZKC",
		"type": "MR",
		"updated": "END*VORTAC*299.00/15.00",
	},
	{
		"name": "CERVK",
		"latitude": "37-39-4.73 N",
		"longitude": "96-57-51.82 W",
		"state": "KANSAS",
		"artcc": "ZKC",
		"type": "RNAV",
		"updated": "07/31/2013",
	},
	{
		"name": "CESAX",
		"latitude": "36-22-5.39 N",
		"longitude": "97-54-53.4 W",
		"state": "OKLAHOMA",
		"artcc": "ZKC",
		"type": "MR",
		"updated": "END*VORTAC*002.00/1.40",
	},
	{
		"name": "CESIV",
		"latitude": "39-51-24.02 N",
		"longitude": "88-54-38.59 W",
		"state": "ILLINOIS",
		"artcc": "ZKC",
		"type": "RNAV",
		"updated": "01/13/2012",
	},
	{
		"name": "CESMO",
		"latitude": "39-9-32.4 N",
		"longitude": "95-37-15.53 W",
		"state": "KANSAS",
		"artcc": "ZKC",
		"type": "CN",
		"updated": "04/13/2000",
	},
	{
		"name": "CEVKO",
		"latitude": "39-15-48.17 N",
		"longitude": "94-24-8.38 W",
		"state": "MISSOURI",
		"artcc": "ZKC",
		"type": "RNAV",
		"updated": "03/21/2012",
	},
	{
		"name": "CEVOD",
		"latitude": "36-1-29.81 N",
		"longitude": "95-59-55.6 W",
		"state": "OKLAHOMA",
		"artcc": "ZKC",
		"type": "RP",
		"updated": "TUL*VORTAC*217.00/14.50",
	},
	{
		"name": "CEVTA",
		"latitude": "38-43-34.16 N",
		"longitude": "90-18-51.69 W",
		"state": "MISSOURI",
		"artcc": "ZKC",
		"type": "RNAV",
		"updated": "06/08/2006",
	},
	{
		"name": "CEWEJ",
		"latitude": "37-51-41.05 N",
		"longitude": "97-22-53.82 W",
		"state": "KANSAS",
		"artcc": "ZKC",
		"type": "RNAV",
		"updated": "09/09/2005",
	},
	{
		"name": "CFBCK",
		"latitude": "39-11-38.6 N",
		"longitude": "94-40-42.57 W",
		"state": "MISSOURI",
		"artcc": "ZKC",
		"type": "CN",
		"updated": "02/06/2013",
	},
	{
		"name": "CFBCM",
		"latitude": "39-11-39.28 N",
		"longitude": "94-40-41.29 W",
		"state": "MISSOURI",
		"artcc": "ZKC",
		"type": "CN",
		"updated": "01/31/2013",
	},
	{
		"name": "CFBCS",
		"latitude": "39-12-41.24 N",
		"longitude": "94-46-33.13 W",
		"state": "MISSOURI",
		"artcc": "ZKC",
		"type": "CN",
		"updated": "01/31/2013",
	},
	{
		"name": "CFBCV",
		"latitude": "39-23-10.97 N",
		"longitude": "94-45-31.96 W",
		"state": "MISSOURI",
		"artcc": "ZKC",
		"type": "CN",
		"updated": "01/31/2013",
	},
	{
		"name": "CFBDD",
		"latitude": "39-11-38.52 N",
		"longitude": "94-40-41.49 W",
		"state": "MISSOURI",
		"artcc": "ZKC",
		"type": "CN",
		"updated": "01/31/2013",
	},
	{
		"name": "CFBKQ",
		"latitude": "39-15-32.76 N",
		"longitude": "94-51-42.26 W",
		"state": "KANSAS",
		"artcc": "ZKC",
		"type": "CN",
		"updated": "01/31/2013",
	},
	{
		"name": "CFBKS",
		"latitude": "39-20-38.52 N",
		"longitude": "94-51-0.62 W",
		"state": "MISSOURI",
		"artcc": "ZKC",
		"type": "CN",
		"updated": "01/31/2013",
	},
	{
		"name": "CFBKT",
		"latitude": "39-12-13.82 N",
		"longitude": "94-41-20.64 W",
		"state": "MISSOURI",
		"artcc": "ZKC",
		"type": "CN",
		"updated": "01/31/2013",
	},
	{
		"name": "CFBKV",
		"latitude": "39-12-12.32 N",
		"longitude": "94-41-22.55 W",
		"state": "MISSOURI",
		"artcc": "ZKC",
		"type": "CN",
		"updated": "01/31/2013",
	},
	{
		"name": "CFBKW",
		"latitude": "39-11-38.67 N",
		"longitude": "94-40-41.61 W",
		"state": "MISSOURI",
		"artcc": "ZKC",
		"type": "CN",
		"updated": "01/31/2013",
	},
	{
		"name": "CFBKX",
		"latitude": "39-13-28.89 N",
		"longitude": "94-48-21.25 W",
		"state": "MISSOURI",
		"artcc": "ZKC",
		"type": "CN",
		"updated": "01/31/2013",
	},
	{
		"name": "CFBKZ",
		"latitude": "39-13-28.78 N",
		"longitude": "94-48-21.46 W",
		"state": "MISSOURI",
		"artcc": "ZKC",
		"type": "CN",
		"updated": "01/31/2013",
	},
	{
		"name": "CFBPQ",
		"latitude": "38-39-16.44 N",
		"longitude": "90-17-27.6 W",
		"state": "MISSOURI",
		"artcc": "ZKC",
		"type": "CN",
		"updated": "08/09/2012",
	},
	{
		"name": "CFBPR",
		"latitude": "38-47-4.9 N",
		"longitude": "90-32-14.67 W",
		"state": "MISSOURI",
		"artcc": "ZKC",
		"type": "CN",
		"updated": "08/10/2012",
	},
	{
		"name": "CFBPS",
		"latitude": "38-46-42.2 N",
		"longitude": "90-31-33.04 W",
		"state": "MISSOURI",
		"artcc": "ZKC",
		"type": "CN",
		"updated": "08/10/2012",
	},
	{
		"name": "CFBPT",
		"latitude": "38-50-25.94 N",
		"longitude": "90-26-52.73 W",
		"state": "MISSOURI",
		"artcc": "ZKC",
		"type": "CN",
		"updated": "08/10/2012",
	},
	{
		"name": "CFBPV",
		"latitude": "38-50-43.46 N",
		"longitude": "90-26-39.65 W",
		"state": "MISSOURI",
		"artcc": "ZKC",
		"type": "CN",
		"updated": "08/10/2012",
	},
	{
		"name": "CFBPW",
		"latitude": "38-46-2.78 N",
		"longitude": "90-30-24.6 W",
		"state": "MISSOURI",
		"artcc": "ZKC",
		"type": "CN",
		"updated": "08/10/2012",
	},
	{
		"name": "CFBPX",
		"latitude": "38-46-8.38 N",
		"longitude": "90-30-20.54 W",
		"state": "MISSOURI",
		"artcc": "ZKC",
		"type": "CN",
		"updated": "08/10/2012",
	},
	{
		"name": "CFBPZ",
		"latitude": "38-50-37.91 N",
		"longitude": "90-26-43.8 W",
		"state": "MISSOURI",
		"artcc": "ZKC",
		"type": "CN",
		"updated": "08/10/2012",
	},
	{
		"name": "CFBSQ",
		"latitude": "37-50-8.51 N",
		"longitude": "97-20-15.77 W",
		"state": "KANSAS",
		"artcc": "ZKC",
		"type": "CN",
		"updated": "09/21/2014",
	},
	{
		"name": "CFBTF",
		"latitude": "37-29-34.69 N",
		"longitude": "97-30-39.28 W",
		"state": "KANSAS",
		"artcc": "ZKC",
		"type": "CN",
		"updated": "09/21/2014",
	},
	{
		"name": "CFBTT",
		"latitude": "37-50-2.99 N",
		"longitude": "97-21-16.85 W",
		"state": "KANSAS",
		"artcc": "ZKC",
		"type": "CN",
		"updated": "09/21/2014",
	},
	{
		"name": "CFBVH",
		"latitude": "39-43-35.25 N",
		"longitude": "89-21-49.44 W",
		"state": "ILLINOIS",
		"artcc": "ZKC",
		"type": "CN",
		"updated": "01/22/2014",
	},
	{
		"name": "CFBXV",
		"latitude": "38-39-11.23 N",
		"longitude": "94-44-17.33 W",
		"state": "KANSAS",
		"artcc": "ZKC",
		"type": "CN",
		"updated": "08/21/2014",
	},
	{
		"name": "CFCDK",
		"latitude": "36-22-43.23 N",
		"longitude": "95-52-13.1 W",
		"state": "OKLAHOMA",
		"artcc": "ZKC",
		"type": "CN",
		"updated": "02/24/2016",
	},
	{
		"name": "CFCHD",
		"latitude": "37-54-2.29 N",
		"longitude": "88-56-16.22 W",
		"state": "ILLINOIS",
		"artcc": "ZKC",
		"type": "CN",
		"updated": "07/06/2017",
	},
	{
		"name": "CFCHT",
		"latitude": "39-7-35.34 N",
		"longitude": "94-35-23.99 W",
		"state": "MISSOURI",
		"artcc": "ZKC",
		"type": "CN",
		"updated": "07/14/2017",
	},
	{
		"name": "CFCJC",
		"latitude": "38-48-31.58 N",
		"longitude": "95-29-29.19 W",
		"state": "KANSAS",
		"artcc": "ZKC",
		"type": "CN",
		"updated": "12/22/2017",
	},
	{
		"name": "CFEEN",
		"latitude": "38-5-54.76 N",
		"longitude": "94-24-45.43 W",
		"state": "MISSOURI",
		"artcc": "ZKC",
		"type": "CN",
		"updated": "08/14/2000",
	},
	{
		"name": "CFEMU",
		"latitude": "37-29-43.35 N",
		"longitude": "97-27-55.96 W",
		"state": "KANSAS",
		"artcc": "ZKC",
		"type": "CN",
		"updated": "04/13/2000",
	},
	{
		"name": "CFFDL",
		"latitude": "38-3-5.32 N",
		"longitude": "97-50-43.62 W",
		"state": "KANSAS",
		"artcc": "ZKC",
		"type": "CN",
		"updated": "09/21/2017",
	},
	{
		"name": "CFIKP",
		"latitude": "37-50-18.32 N",
		"longitude": "100-31-1.45 W",
		"state": "KANSAS",
		"artcc": "ZKC",
		"type": "CN",
		"updated": "04/13/2000",
	},
	{
		"name": "CFLIW",
		"latitude": "37-46-10.06 N",
		"longitude": "100-42-30.95 W",
		"state": "KANSAS",
		"artcc": "ZKC",
		"type": "CN",
		"updated": "04/13/2000",
	},
	{
		"name": "CFMCC",
		"latitude": "39-7-3.15 N",
		"longitude": "94-35-51.77 W",
		"state": "MISSOURI",
		"artcc": "ZKC",
		"type": "CN",
		"updated": "05/10/2012",
	},
	{
		"name": "CFPLW",
		"latitude": "36-24-30.16 N",
		"longitude": "95-53-8.52 W",
		"state": "OKLAHOMA",
		"artcc": "ZKC",
		"type": "CN",
		"updated": "02/24/2016",
	},
	{
		"name": "CFPQW",
		"latitude": "39-14-23.24 N",
		"longitude": "94-37-49.55 W",
		"state": "MISSOURI",
		"artcc": "ZKC",
		"type": "CN",
		"updated": "01/31/2013",
	},
	{
		"name": "CFPQX",
		"latitude": "39-14-13.07 N",
		"longitude": "94-35-49.03 W",
		"state": "MISSOURI",
		"artcc": "ZKC",
		"type": "CN",
		"updated": "01/31/2013",
	},
	{
		"name": "CFPQZ",
		"latitude": "39-19-19.22 N",
		"longitude": "94-35-6.19 W",
		"state": "MISSOURI",
		"artcc": "ZKC",
		"type": "CN",
		"updated": "01/31/2013",
	},
	{
		"name": "CFPRB",
		"latitude": "39-21-42.32 N",
		"longitude": "94-37-43.24 W",
		"state": "MISSOURI",
		"artcc": "ZKC",
		"type": "CN",
		"updated": "01/31/2013",
	},
	{
		"name": "CFPRC",
		"latitude": "39-22-45.03 N",
		"longitude": "94-43-34.22 W",
		"state": "MISSOURI",
		"artcc": "ZKC",
		"type": "CN",
		"updated": "01/31/2013",
	},
	{
		"name": "CFPRH",
		"latitude": "38-9-13.6 N",
		"longitude": "98-51-19.84 W",
		"state": "KANSAS",
		"artcc": "ZKC",
		"type": "CN",
		"updated": "09/15/2017",
	},
	{
		"name": "CFPTF",
		"latitude": "39-23-10.9 N",
		"longitude": "94-45-31.93 W",
		"state": "MISSOURI",
		"artcc": "ZKC",
		"type": "CN",
		"updated": "01/31/2013",
	},
	{
		"name": "CFPTG",
		"latitude": "39-22-2.86 N",
		"longitude": "94-39-10 W",
		"state": "MISSOURI",
		"artcc": "ZKC",
		"type": "CN",
		"updated": "01/31/2013",
	},
	{
		"name": "CFPTH",
		"latitude": "39-21-42.33 N",
		"longitude": "94-37-43.21 W",
		"state": "MISSOURI",
		"artcc": "ZKC",
		"type": "CN",
		"updated": "01/31/2013",
	},
	{
		"name": "CFPTR",
		"latitude": "38-43-29.54 N",
		"longitude": "90-12-40.15 W",
		"state": "ILLINOIS",
		"artcc": "ZKC",
		"type": "CN",
		"updated": "08/10/2012",
	},
	{
		"name": "CFPTS",
		"latitude": "38-39-25.06 N",
		"longitude": "90-17-29.65 W",
		"state": "MISSOURI",
		"artcc": "ZKC",
		"type": "CN",
		"updated": "08/10/2012",
	},
	{
		"name": "CFPTT",
		"latitude": "38-39-7.96 N",
		"longitude": "90-17-43.41 W",
		"state": "MISSOURI",
		"artcc": "ZKC",
		"type": "CN",
		"updated": "08/10/2012",
	},
	{
		"name": "CFPTV",
		"latitude": "38-43-12.45 N",
		"longitude": "90-12-54.05 W",
		"state": "MISSOURI",
		"artcc": "ZKC",
		"type": "CN",
		"updated": "08/10/2012",
	},
	{
		"name": "CFPTW",
		"latitude": "38-43-24.12 N",
		"longitude": "90-12-44.56 W",
		"state": "MISSOURI",
		"artcc": "ZKC",
		"type": "CN",
		"updated": "08/10/2012",
	},
	{
		"name": "CFTXL",
		"latitude": "39-3-26.19 N",
		"longitude": "95-36-14.8 W",
		"state": "KANSAS",
		"artcc": "ZKC",
		"type": "CN",
		"updated": "02/21/2018",
	},
	{
		"name": "CFTXM",
		"latitude": "37-55-16.55 N",
		"longitude": "97-41-56.48 W",
		"state": "KANSAS",
		"artcc": "ZKC",
		"type": "CN",
		"updated": "09/21/2017",
	},
	{
		"name": "CFVQF",
		"latitude": "38-29-42.58 N",
		"longitude": "91-57-48.17 W",
		"state": "MISSOURI",
		"artcc": "ZKC",
		"type": "CN",
		"updated": "09/13/2017",
	},
	{
		"name": "CHADD",
		"latitude": "38-41-57.66 N",
		"longitude": "90-24-23.81 W",
		"state": "MISSOURI",
		"artcc": "ZKC",
		"type": "RNAV",
		"updated": "07/13/2009",
	},
	{
		"name": "CHALK",
		"latitude": "38-54-38.95 N",
		"longitude": "97-20-30.65 W",
		"state": "KANSAS",
		"artcc": "ZKC",
		"type": "RP",
		"updated": "SLN*VORTAC*086.67/13.12",
	},
	{
		"name": "CHATE",
		"latitude": "37-59-55.44 N",
		"longitude": "97-19-59.84 W",
		"state": "KANSAS",
		"artcc": "ZKC",
		"type": "RP",
		"updated": "ICT*VORTAC*031.00/19.30",
	},
	{
		"name": "CHEEK",
		"latitude": "36-37-25.84 N",
		"longitude": "98-25-59.89 W",
		"state": "OKLAHOMA",
		"artcc": "ZKC",
		"type": "MR",
		"updated": "END*VORTAC*299.00/30.00",
	},
	{
		"name": "CHELI",
		"latitude": "36-56-19.22 N",
		"longitude": "95-59-49.41 W",
		"state": "OKLAHOMA",
		"artcc": "ZKC",
		"type": "RP",
		"updated": "ICT*VORTAC*115.00/90.00",
	},
	{
		"name": "CHIKE",
		"latitude": "37-41-14.85 N",
		"longitude": "93-20-37 W",
		"state": "MISSOURI",
		"artcc": "ZKC",
		"type": "RNAV",
		"updated": "05/10/2007",
	},
	{
		"name": "CHIKN",
		"latitude": "38-38-50.48 N",
		"longitude": "90-21-39.39 W",
		"state": "MISSOURI",
		"artcc": "ZKC",
		"type": "RP",
		"updated": "STL*VORTAC*154.94/14.00",
	},
	{
		"name": "CHIKY",
		"latitude": "38-27-44.64 N",
		"longitude": "88-38-56.94 W",
		"state": "ILLINOIS",
		"artcc": "ZKC",
		"type": "RNAV",
		"updated": "09/10/2009",
	},
	{
		"name": "CHIMP",
		"latitude": "36-56-13.17 N",
		"longitude": "76-17-23.91 W",
		"state": "VIRGINIA",
		"artcc": "ZKC",
		"type": "RP",
		"updated": "ORF*VORTAC*309.09/5.09",
	},
	{
		"name": "CHITO",
		"latitude": "37-33-33.49 N",
		"longitude": "97-28-50.21 W",
		"state": "KANSAS",
		"artcc": "ZKC",
		"type": "RP",
		"updated": "ICT*VORTAC*149.16",
	},
	{
		"name": "CHOSE",
		"latitude": "38-50-31.3 N",
		"longitude": "93-31-13.11 W",
		"state": "MISSOURI",
		"artcc": "ZKC",
		"type": "MW",
		"updated": "06/24/2015",
	},
	{
		"name": "CHOTO",
		"latitude": "38-47-49.99 N",
		"longitude": "90-13-14.99 W",
		"state": "MISSOURI",
		"artcc": "ZKC",
		"type": "RNAV",
		"updated": "09/25/2012",
	},
	{
		"name": "CHUUC",
		"latitude": "38-5-20.86 N",
		"longitude": "90-34-3.58 W",
		"state": "MISSOURI",
		"artcc": "ZKC",
		"type": "RNAV",
		"updated": "08/03/2012",
	},
	{
		"name": "CHYRL",
		"latitude": "38-50-39.05 N",
		"longitude": "90-19-39.42 W",
		"state": "MISSOURI",
		"artcc": "ZKC",
		"type": "RP",
		"updated": "CSX*VOR/DME*015.88/5.70",
	},
	{
		"name": "CIGEM",
		"latitude": "36-14-43.84 N",
		"longitude": "95-28-47.05 W",
		"state": "OKLAHOMA",
		"artcc": "ZKC",
		"type": "RNAV",
		"updated": "11/08/2017",
	},
	{
		"name": "CIGUP",
		"latitude": "37-12-1.47 N",
		"longitude": "98-4-44.01 W",
		"state": "KANSAS",
		"artcc": "ZKC",
		"type": "WP",
		"updated": "04/04/2012",
	},
	{
		"name": "CIJAY",
		"latitude": "39-15-23.5 N",
		"longitude": "94-32-52.93 W",
		"state": "MISSOURI",
		"artcc": "ZKC",
		"type": "RNAV",
		"updated": "01/31/2013",
	},
	{
		"name": "CIKAB",
		"latitude": "37-47-40.6 N",
		"longitude": "88-35-42.34 W",
		"state": "ILLINOIS",
		"artcc": "ZKC",
		"type": "RNAV",
		"updated": "07/30/2010",
	},
	{
		"name": "CIKTA",
		"latitude": "36-47-31.05 N",
		"longitude": "93-29-14.2 W",
		"state": "MISSOURI",
		"artcc": "ZKC",
		"type": "RNAV",
		"updated": "06/09/2015",
	},
	{
		"name": "CILIX",
		"latitude": "38-28-29.72 N",
		"longitude": "90-26-36.03 W",
		"state": "MISSOURI",
		"artcc": "ZKC",
		"type": "RNAV",
		"updated": "09/22/2015",
	},
	{
		"name": "CILKU",
		"latitude": "39-2-59.89 N",
		"longitude": "94-38-30.75 W",
		"state": "MISSOURI",
		"artcc": "ZKC",
		"type": "RNAV",
		"updated": "03/21/2012",
	},
	{
		"name": "CILVO",
		"latitude": "36-10-28.56 N",
		"longitude": "97-54-40.05 W",
		"state": "OKLAHOMA",
		"artcc": "ZKC",
		"type": "MW",
		"updated": "06/07/2012",
	},
	{
		"name": "CIMBO",
		"latitude": "39-59-59.2 N",
		"longitude": "89-31-54.99 W",
		"state": "ILLINOIS",
		"artcc": "ZKC",
		"type": "RP",
		"updated": "SPI*VORTAC*036.00/11.72",
	},
	{
		"name": "CIMOD",
		"latitude": "40-18-28.63 N",
		"longitude": "91-16-37.29 W",
		"state": "ILLINOIS",
		"artcc": "ZKC",
		"type": "RNAV",
		"updated": "07/27/2006",
	},
	{
		"name": "CINOL",
		"latitude": "36-7-5.84 N",
		"longitude": "98-28-46.13 W",
		"state": "OKLAHOMA",
		"artcc": "ZKC",
		"type": "RNAV",
		"updated": "03/06/2003",
	},
	{
		"name": "CINOS",
		"latitude": "37-41-52.13 N",
		"longitude": "99-55-31.56 W",
		"state": "KANSAS",
		"artcc": "ZKC",
		"type": "RNAV",
		"updated": "10/08/2015",
	},
	{
		"name": "CIRAL",
		"latitude": "36-31-52.09 N",
		"longitude": "98-15-40.47 W",
		"state": "OKLAHOMA",
		"artcc": "ZKC",
		"type": "MR",
		"updated": "END*VORTAC*299.00/20.00",
	},
	{
		"name": "CIREH",
		"latitude": "39-25-50.17 N",
		"longitude": "94-17-37.85 W",
		"state": "MISSOURI",
		"artcc": "ZKC",
		"type": "RP",
		"updated": "CUE*LD*N CRS/6.55",
	},
	{
		"name": "CISEV",
		"latitude": "37-57-44.21 N",
		"longitude": "88-56-1.35 W",
		"state": "ILLINOIS",
		"artcc": "ZKC",
		"type": "RNAV",
		"updated": "05/04/2011",
	},
	{
		"name": "CISNO",
		"latitude": "37-28-7.87 N",
		"longitude": "93-24-27.24 W",
		"state": "MISSOURI",
		"artcc": "ZKC",
		"type": "RNAV",
		"updated": "07/01/2008",
	},
	{
		"name": "CISUV",
		"latitude": "38-59-48.73 N",
		"longitude": "97-32-22.3 W",
		"state": "KANSAS",
		"artcc": "ZKC",
		"type": "RNAV",
		"updated": "08/19/2005",
	},
	{
		"name": "CISVU",
		"latitude": "36-21-16.49 N",
		"longitude": "100-7-24.66 W",
		"state": "TEXAS",
		"artcc": "ZKC",
		"type": "RNAV",
		"updated": "03/29/2010",
	},
	{
		"name": "CITIG",
		"latitude": "39-12-56.84 N",
		"longitude": "88-44-19.78 W",
		"state": "ILLINOIS",
		"artcc": "ZKC",
		"type": "RNAV",
		"updated": "04/02/2010",
	},
	{
		"name": "CITIX",
		"latitude": "39-41-38.3 N",
		"longitude": "90-29-41.97 W",
		"state": "ILLINOIS",
		"artcc": "ZKC",
		"type": "RNAV",
		"updated": "08/24/2005",
	},
	{
		"name": "CITLU",
		"latitude": "36-26-38.63 N",
		"longitude": "97-51-49.47 W",
		"state": "OKLAHOMA",
		"artcc": "ZKC",
		"type": "MR",
		"updated": "END*VORTAC*019.00/6.50",
	},
	{
		"name": "CITPU",
		"latitude": "37-57-10.45 N",
		"longitude": "92-9-38.41 W",
		"state": "MISSOURI",
		"artcc": "ZKC",
		"type": "RNAV",
		"updated": "08/03/2015",
	},
	{
		"name": "CITSI",
		"latitude": "37-33-19.2 N",
		"longitude": "93-20-59.98 W",
		"state": "MISSOURI",
		"artcc": "ZKC",
		"type": "RNAV",
		"updated": "05/10/2007",
	},
	{
		"name": "CIVAD",
		"latitude": "36-57-26.75 N",
		"longitude": "100-57-22.35 W",
		"state": "OKLAHOMA",
		"artcc": "ZKC",
		"type": "RNAV",
		"updated": "11/28/2014",
	},
	{
		"name": "CIVAM",
		"latitude": "39-22-49.18 N",
		"longitude": "88-50-50.17 W",
		"state": "ILLINOIS",
		"artcc": "ZKC",
		"type": "RNAV",
		"updated": "04/02/2010",
	},
	{
		"name": "CIVVA",
		"latitude": "37-57-54.75 N",
		"longitude": "89-48-21.24 W",
		"state": "ILLINOIS",
		"artcc": "ZKC",
		"type": "RNAV",
		"updated": "09/09/2005",
	},
	{
		"name": "CIXUB",
		"latitude": "37-42-12.16 N",
		"longitude": "92-47-41.43 W",
		"state": "MISSOURI",
		"artcc": "ZKC",
		"type": "RNAV",
		"updated": "06/09/2015",
	},
	{
		"name": "CLEEK",
		"latitude": "39-29-17.73 N",
		"longitude": "89-26-0.1 W",
		"state": "ILLINOIS",
		"artcc": "ZKC",
		"type": "RP",
		"updated": "AXC*VORTAC*238.00",
	},
	{
		"name": "CLEPT",
		"latitude": "39-50-21.51 N",
		"longitude": "88-21-29.98 W",
		"state": "ILLINOIS",
		"artcc": "ZKC",
		"type": "RP",
		"updated": "CMI*VORTAC*195.00",
	},
	{
		"name": "CLOBE",
		"latitude": "37-54-30.41 N",
		"longitude": "97-41-4.74 W",
		"state": "KANSAS",
		"artcc": "ZKC",
		"type": "RNAV",
		"updated": "05/01/2012",
	},
	{
		"name": "CNIDA",
		"latitude": "37-40-6 N",
		"longitude": "100-2-13.73 W",
		"state": "KANSAS",
		"artcc": "ZKC",
		"type": "RNAV",
		"updated": "07/25/2017",
	},
	{
		"name": "COACT",
		"latitude": "38-49-37.69 N",
		"longitude": "92-13-44.46 W",
		"state": "MISSOURI",
		"artcc": "ZKC",
		"type": "RP",
		"updated": "COU*VOR/DME*332.75/1.10",
	},
	{
		"name": "COBAX",
		"latitude": "38-2-58.58 N",
		"longitude": "97-16-57.83 W",
		"state": "KANSAS",
		"artcc": "ZKC",
		"type": "RP",
		"updated": "ICT*VORTAC*031.00/23.18",
	},
	{
		"name": "COBLU",
		"latitude": "38-42-20.82 N",
		"longitude": "93-33-13.57 W",
		"state": "MISSOURI",
		"artcc": "ZKC",
		"type": "MR",
		"updated": "SZL*TACAN*184.00/1.80",
	},
	{
		"name": "COBOD",
		"latitude": "40-11-14.76 N",
		"longitude": "91-8-35.22 W",
		"state": "ILLINOIS",
		"artcc": "ZKC",
		"type": "RP",
		"updated": "UIN*VORTAC*012.05/21.30",
	},
	{
		"name": "COBUK",
		"latitude": "40-27-10.94 N",
		"longitude": "91-32-59.77 W",
		"state": "MISSOURI",
		"artcc": "ZKC",
		"type": "RNAV",
		"updated": "07/27/2006",
	},
	{
		"name": "COBVA",
		"latitude": "37-32-37.27 N",
		"longitude": "99-59-12.7 W",
		"state": "KANSAS",
		"artcc": "ZKC",
		"type": "RNAV",
		"updated": "10/08/2015",
	},
	{
		"name": "CODOR",
		"latitude": "38-51-44.48 N",
		"longitude": "91-57-33.76 W",
		"state": "MISSOURI",
		"artcc": "ZKC",
		"type": "RNAV",
		"updated": "02/12/2008",
	},
	{
		"name": "CODUX",
		"latitude": "37-59-56.14 N",
		"longitude": "91-55-58.39 W",
		"state": "MISSOURI",
		"artcc": "ZKC",
		"type": "RNAV",
		"updated": "08/03/2015",
	},
	{
		"name": "COFEY",
		"latitude": "38-28-46.93 N",
		"longitude": "89-32-12.44 W",
		"state": "ILLINOIS",
		"artcc": "ZKC",
		"type": "RP",
		"updated": "ENL*VORTAC*277.48/18.16",
	},
	{
		"name": "COGBI",
		"latitude": "39-9-34.96 N",
		"longitude": "93-42-23.06 W",
		"state": "MISSOURI",
		"artcc": "ZKC",
		"type": "RNAV",
		"updated": "02/28/2008",
	},
	{
		"name": "COGEB",
		"latitude": "37-23-30.16 N",
		"longitude": "93-2-51.85 W",
		"state": "MISSOURI",
		"artcc": "ZKC",
		"type": "RNAV",
		"updated": "06/09/2015",
	},
	{
		"name": "COGMU",
		"latitude": "37-35-46.28 N",
		"longitude": "97-16-38.79 W",
		"state": "KANSAS",
		"artcc": "ZKC",
		"type": "MR",
		"updated": "IAB*TACAN*192.00/1.60",
	},
	{
		"name": "COGNA",
		"latitude": "38-34-23 N",
		"longitude": "94-20-28.22 W",
		"state": "MISSOURI",
		"artcc": "ZKC",
		"type": "RNAV",
		"updated": "12/28/2007",
	},
	{
		"name": "COGUG",
		"latitude": "36-24-21.44 N",
		"longitude": "97-53-5.14 W",
		"state": "OKLAHOMA",
		"artcc": "ZKC",
		"type": "MR",
		"updated": "END*VORTAC*015.00/4.00",
	},
	{
		"name": "COHKU",
		"latitude": "38-53-44.23 N",
		"longitude": "88-40-16.76 W",
		"state": "ILLINOIS",
		"artcc": "ZKC",
		"type": "RNAV",
		"updated": "04/01/2010",
	},
	{
		"name": "COLIE",
		"latitude": "40-16-50.12 N",
		"longitude": "92-11-1.93 W",
		"state": "MISSOURI",
		"artcc": "ZKC",
		"type": "RP",
		"updated": "IRK*VORTAC*058.90/20.68",
	},
	{
		"name": "COLOS",
		"latitude": "38-58-0.75 N",
		"longitude": "90-25-49.12 W",
		"state": "ILLINOIS",
		"artcc": "ZKC",
		"type": "RNAV",
		"updated": "08/22/2005",
	},
	{
		"name": "CONOX",
		"latitude": "39-42-11.51 N",
		"longitude": "89-25-58.96 W",
		"state": "ILLINOIS",
		"artcc": "ZKC",
		"type": "RNAV",
		"updated": "08/24/2005",
	},
	{
		"name": "CONPI",
		"latitude": "38-26-39.55 N",
		"longitude": "98-51-29.33 W",
		"state": "KANSAS",
		"artcc": "ZKC",
		"type": "RNAV",
		"updated": "03/28/2010",
	},
	{
		"name": "CONRR",
		"latitude": "38-58-41.71 N",
		"longitude": "90-25-18.16 W",
		"state": "ILLINOIS",
		"artcc": "ZKC",
		"type": "RNAV",
		"updated": "08/10/2012",
	},
	{
		"name": "CONVA",
		"latitude": "37-39-41.82 N",
		"longitude": "98-44-48.88 W",
		"state": "KANSAS",
		"artcc": "ZKC",
		"type": "RNAV",
		"updated": "05/14/2008",
	},
	{
		"name": "COODY",
		"latitude": "36-40-1.92 N",
		"longitude": "95-30-0.71 W",
		"state": "OKLAHOMA",
		"artcc": "ZKC",
		"type": "RP",
		"updated": "IFI*VORTAC*057.24/132.04",
	},
	{
		"name": "COOKD",
		"latitude": "39-5-57.49 N",
		"longitude": "94-39-12.77 W",
		"state": "KANSAS",
		"artcc": "ZKC",
		"type": "RNAV",
		"updated": "01/31/2013",
	},
	{
		"name": "COOKI",
		"latitude": "37-10-33.82 N",
		"longitude": "94-56-2.85 W",
		"state": "KANSAS",
		"artcc": "ZKC",
		"type": "RP",
		"updated": "OSW*VOR/DME*077.00/13.00",
	},
	{
		"name": "COONI",
		"latitude": "39-11-26.66 N",
		"longitude": "94-46-21.4 W",
		"state": "MISSOURI",
		"artcc": "ZKC",
		"type": "RNAV",
		"updated": "01/31/2013",
	},
	{
		"name": "COORT",
		"latitude": "35-44-4.96 N",
		"longitude": "96-48-14.71 W",
		"state": "OKLAHOMA",
		"artcc": "ZKC",
		"type": "RNAV",
		"updated": "05/27/2014",
	},
	{
		"name": "COPAC",
		"latitude": "38-28-41.29 N",
		"longitude": "94-58-56.49 W",
		"state": "KANSAS",
		"artcc": "ZKC",
		"type": "RNAV",
		"updated": "07/31/2013",
	},
	{
		"name": "COPOB",
		"latitude": "36-20-1.88 N",
		"longitude": "95-19-48.04 W",
		"state": "OKLAHOMA",
		"artcc": "ZKC",
		"type": "RNAV",
		"updated": "05/06/2016",
	},
	{
		"name": "COPOL",
		"latitude": "36-5-50.22 N",
		"longitude": "95-36-56.67 W",
		"state": "OKLAHOMA",
		"artcc": "ZKC",
		"type": "RNAV",
		"updated": "04/02/2008",
	},
	{
		"name": "COQXA",
		"latitude": "36-24-37.96 N",
		"longitude": "96-0-34.64 W",
		"state": "OKLAHOMA",
		"artcc": "ZKC",
		"type": "RNAV",
		"updated": "07/08/2009",
	},
	{
		"name": "CORDL",
		"latitude": "38-55-6.39 N",
		"longitude": "90-35-58.91 W",
		"state": "ILLINOIS",
		"artcc": "ZKC",
		"type": "RNAV",
		"updated": "08/13/2012",
	},
	{
		"name": "CORIM",
		"latitude": "39-38-37.43 N",
		"longitude": "93-12-55.66 W",
		"state": "MISSOURI",
		"artcc": "ZKC",
		"type": "RP",
		"updated": "MCM*VOR/DME*263.19/33.99",
	},
	{
		"name": "CORKI",
		"latitude": "38-50-58.07 N",
		"longitude": "89-3-41.73 W",
		"state": "ILLINOIS",
		"artcc": "ZKC",
		"type": "RP",
		"updated": "ENL*VORTAC*006.06/26.14",
	},
	{
		"name": "CORKU",
		"latitude": "37-35-34.57 N",
		"longitude": "99-51-38.77 W",
		"state": "KANSAS",
		"artcc": "ZKC",
		"type": "RNAV",
		"updated": "10/08/2015",
	},
	{
		"name": "CORLO",
		"latitude": "38-46-56.2 N",
		"longitude": "100-6-18.98 W",
		"state": "KANSAS",
		"artcc": "ZKC",
		"type": "RNAV",
		"updated": "11/02/2015",
	},
	{
		"name": "CORMI",
		"latitude": "36-49-39.98 N",
		"longitude": "97-52-34.89 W",
		"state": "OKLAHOMA",
		"artcc": "ZKC",
		"type": "MR",
		"updated": "END*VORTAC*359.00/29.00",
	},
	{
		"name": "COROS",
		"latitude": "39-59-1.87 N",
		"longitude": "93-0-28.61 W",
		"state": "MISSOURI",
		"artcc": "ZKC",
		"type": "RNAV",
		"updated": "02/10/2016",
	},
	{
		"name": "CORQE",
		"latitude": "38-22-44.33 N",
		"longitude": "88-38-58.61 W",
		"state": "ILLINOIS",
		"artcc": "ZKC",
		"type": "RNAV",
		"updated": "09/09/2009",
	},
	{
		"name": "COSTU",
		"latitude": "36-25-14.77 N",
		"longitude": "97-47-20.85 W",
		"state": "OKLAHOMA",
		"artcc": "ZKC",
		"type": "MR",
		"updated": "END*VORTAC*049.00/7.73",
	},
	{
		"name": "COTAR",
		"latitude": "38-32-37.02 N",
		"longitude": "97-46-21.57 W",
		"state": "KANSAS",
		"artcc": "ZKC",
		"type": "RNAV",
		"updated": "08/08/2007",
	},
	{
		"name": "COVAC",
		"latitude": "39-41-11.63 N",
		"longitude": "89-51-33 W",
		"state": "ILLINOIS",
		"artcc": "ZKC",
		"type": "RP",
		"updated": "IJX*VOR/DME*104.93",
	},
	{
		"name": "COVEZ",
		"latitude": "36-11-58.89 N",
		"longitude": "95-28-47.44 W",
		"state": "OKLAHOMA",
		"artcc": "ZKC",
		"type": "RNAV",
		"updated": "11/08/2017",
	},
	{
		"name": "COVIT",
		"latitude": "37-12-12.72 N",
		"longitude": "94-33-31.72 W",
		"state": "MISSOURI",
		"artcc": "ZKC",
		"type": "RNAV",
		"updated": "06/20/2005",
	},
	{
		"name": "COVMO",
		"latitude": "37-31-15.52 N",
		"longitude": "92-5-11.94 W",
		"state": "MISSOURI",
		"artcc": "ZKC",
		"type": "RNAV",
		"updated": "02/06/2006",
	},
	{
		"name": "COVRI",
		"latitude": "39-20-22.75 N",
		"longitude": "94-31-48.39 W",
		"state": "MISSOURI",
		"artcc": "ZKC",
		"type": "RP",
		"updated": "ANX*VORTAC*301.17/23.76",
	},
	{
		"name": "COWBZ",
		"latitude": "36-4-7.12 N",
		"longitude": "97-5-34.1 W",
		"state": "OKLAHOMA",
		"artcc": "ZKC",
		"type": "RP",
		"updated": "SWO*VOR/DME*176.45/9.34",
	},
	{
		"name": "COWES",
		"latitude": "39-16-41.46 N",
		"longitude": "88-46-18.85 W",
		"state": "ILLINOIS",
		"artcc": "ZKC",
		"type": "RP",
		"updated": "STL*VORTAC*071.08",
	},
	{
		"name": "COWNS",
		"latitude": "39-13-16.98 N",
		"longitude": "94-36-15.24 W",
		"state": "MISSOURI",
		"artcc": "ZKC",
		"type": "RNAV",
		"updated": "01/31/2013",
	},
	{
		"name": "COXAV",
		"latitude": "36-57-33.38 N",
		"longitude": "98-4-47.6 W",
		"state": "OKLAHOMA",
		"artcc": "ZKC",
		"type": "RNAV",
		"updated": "04/04/2012",
	},
	{
		"name": "CRAMP",
		"latitude": "36-6-57.54 N",
		"longitude": "95-19-48.37 W",
		"state": "OKLAHOMA",
		"artcc": "ZME",
		"type": "RNAV",
		"updated": "05/03/2016",
	},
	{
		"name": "CRATS",
		"latitude": "38-34-28.41 N",
		"longitude": "88-42-21.99 W",
		"state": "ILLINOIS",
		"artcc": "ZKC",
		"type": "RP",
		"updated": "BIB*VORTAC*204.00/23.25",
	},
	{
		"name": "CRAVE",
		"latitude": "37-21-17.71 N",
		"longitude": "93-29-55.83 W",
		"state": "MISSOURI",
		"artcc": "ZKC",
		"type": "WP",
		"updated": "SGF*VORTAC*265.60/7.90",
	},
	{
		"name": "CRIPS",
		"latitude": "36-55-13 N",
		"longitude": "94-32-38.92 W",
		"state": "MISSOURI",
		"artcc": "ZKC",
		"type": "RP",
		"updated": "EOS*VOR/DME*304.81/7.00",
	},
	{
		"name": "CROCK",
		"latitude": "37-58-13.34 N",
		"longitude": "92-11-58.21 W",
		"state": "MISSOURI",
		"artcc": "ZKC",
		"type": "RP",
		"updated": "FAM*VORTAC*280.38",
	},
	{
		"name": "CUBES",
		"latitude": "36-25-42.88 N",
		"longitude": "97-54-52.61 W",
		"state": "OKLAHOMA",
		"artcc": "ZKC",
		"type": "MR",
		"updated": "END*VORTAC*/5.01",
	},
	{
		"name": "CUBKA",
		"latitude": "38-58-58.05 N",
		"longitude": "97-46-26.99 W",
		"state": "KANSAS",
		"artcc": "ZKC",
		"type": "RNAV",
		"updated": "09/15/2008",
	},
	{
		"name": "CUBVO",
		"latitude": "39-43-14.35 N",
		"longitude": "89-53-10.51 W",
		"state": "ILLINOIS",
		"artcc": "ZKC",
		"type": "RP",
		"updated": "IJX*VOR/DME*099.47",
	},
	{
		"name": "CUCOO",
		"latitude": "37-30-57.72 N",
		"longitude": "90-21-9.66 W",
		"state": "MISSOURI",
		"artcc": "ZKC",
		"type": "RP",
		"updated": "FAM*VORTAC*209.99/11.00",
	},
	{
		"name": "CUCTO",
		"latitude": "38-41-36.75 N",
		"longitude": "93-49-9.47 W",
		"state": "MISSOURI",
		"artcc": "ZKC",
		"type": "RNAV",
		"updated": "02/25/2015",
	},
	{
		"name": "CUDMU",
		"latitude": "36-50-2.97 N",
		"longitude": "97-20-59.62 W",
		"state": "OKLAHOMA",
		"artcc": "ZKC",
		"type": "RNAV",
		"updated": "08/15/2010",
	},
	{
		"name": "CUDUD",
		"latitude": "36-46-37.18 N",
		"longitude": "94-12-1.09 W",
		"state": "MISSOURI",
		"artcc": "ZKC",
		"type": "RP",
		"updated": "EOS*VOR/DME*102.00/12.00",
	},
	{
		"name": "CUGAC",
		"latitude": "36-7-6.97 N",
		"longitude": "97-5-10.57 W",
		"state": "OKLAHOMA",
		"artcc": "ZKC",
		"type": "RNAV",
		"updated": "06/21/2013",
	},
	{
		"name": "CUGOX",
		"latitude": "38-21-52.53 N",
		"longitude": "88-47-44.75 W",
		"state": "ILLINOIS",
		"artcc": "ZKC",
		"type": "RNAV",
		"updated": "09/09/2008",
	},
	{
		"name": "CUHFY",
		"latitude": "36-51-6.45 N",
		"longitude": "96-0-48.07 W",
		"state": "OKLAHOMA",
		"artcc": "ZKC",
		"type": "RNAV",
		"updated": "12/24/2015",
	},
	{
		"name": "CUKIT",
		"latitude": "39-33-28.41 N",
		"longitude": "93-1-3.29 W",
		"state": "MISSOURI",
		"artcc": "ZKC",
		"type": "RNAV",
		"updated": "02/10/2016",
	},
	{
		"name": "CUKNI",
		"latitude": "37-5-21.24 N",
		"longitude": "92-33-47.1 W",
		"state": "MISSOURI",
		"artcc": "ZKC",
		"type": "RNAV",
		"updated": "05/08/2014",
	},
	{
		"name": "CUKTO",
		"latitude": "37-55-12.82 N",
		"longitude": "99-5-4.25 W",
		"state": "KANSAS",
		"artcc": "ZKC",
		"type": "RP",
		"updated": "DDC*VORTAC*076.27/43.95",
	},
	{
		"name": "CUKVI",
		"latitude": "38-26-46.37 N",
		"longitude": "93-40-17.25 W",
		"state": "MISSOURI",
		"artcc": "ZKC",
		"type": "RNAV",
		"updated": "02/20/2014",
	},
	{
		"name": "CULMI",
		"latitude": "38-25-29.81 N",
		"longitude": "99-5-7.87 W",
		"state": "KANSAS",
		"artcc": "ZKC",
		"type": "RNAV",
		"updated": "01/19/2011",
	},
	{
		"name": "CULVA",
		"latitude": "37-40-26.46 N",
		"longitude": "101-44-3.23 W",
		"state": "KANSAS",
		"artcc": "ZKC",
		"type": "RNAV",
		"updated": "09/07/2010",
	},
	{
		"name": "CUMAB",
		"latitude": "38-28-52.53 N",
		"longitude": "89-47-1.38 W",
		"state": "ILLINOIS",
		"artcc": "ZKC",
		"type": "RP",
		"updated": "SKE*TACAN*138.20/5.00",
	},
	{
		"name": "CUMOL",
		"latitude": "36-23-12.64 N",
		"longitude": "95-28-45.84 W",
		"state": "OKLAHOMA",
		"artcc": "ZKC",
		"type": "RNAV",
		"updated": "11/08/2017",
	},
	{
		"name": "CUMPO",
		"latitude": "37-30-30.46 N",
		"longitude": "93-23-38.8 W",
		"state": "MISSOURI",
		"artcc": "ZKC",
		"type": "RNAV",
		"updated": "08/03/2015",
	},
	{
		"name": "CUMTA",
		"latitude": "37-28-18.63 N",
		"longitude": "95-24-35.7 W",
		"state": "KANSAS",
		"artcc": "ZKC",
		"type": "RNAV",
		"updated": "04/02/2010",
	},
	{
		"name": "CUMUM",
		"latitude": "37-49-36.1 N",
		"longitude": "97-33-47.67 W",
		"state": "KANSAS",
		"artcc": "ZKC",
		"type": "RNAV",
		"updated": "08/11/2010",
	},
	{
		"name": "CUNIM",
		"latitude": "37-0-7.41 N",
		"longitude": "91-47-7.83 W",
		"state": "MISSOURI",
		"artcc": "ZKC",
		"type": "RNAV",
		"updated": "04/23/2013",
	},
	{
		"name": "CUNON",
		"latitude": "38-21-24.16 N",
		"longitude": "94-35-25.49 W",
		"state": "MISSOURI",
		"artcc": "ZKC",
		"type": "RP",
		"updated": "BUM*VORTAC*309.47/7.00",
	},
	{
		"name": "CUNUV",
		"latitude": "37-46-8.72 N",
		"longitude": "94-13-46.72 W",
		"state": "MISSOURI",
		"artcc": "ZKC",
		"type": "RNAV",
		"updated": "03/21/2014",
	},
	{
		"name": "CUNUX",
		"latitude": "38-51-33.63 N",
		"longitude": "97-55-4.1 W",
		"state": "KANSAS",
		"artcc": "ZKC",
		"type": "RNAV",
		"updated": "09/15/2008",
	},
	{
		"name": "CUPMI",
		"latitude": "38-38-17.38 N",
		"longitude": "93-34-13.89 W",
		"state": "MISSOURI",
		"artcc": "ZKC",
		"type": "MR",
		"updated": "SZL*TACAN*/5.92",
	},
	{
		"name": "CURUM",
		"latitude": "37-26-7.76 N",
		"longitude": "97-23-14.19 W",
		"state": "KANSAS",
		"artcc": "ZKC",
		"type": "RNAV",
		"updated": "02/25/2003",
	},
	{
		"name": "CUSOK",
		"latitude": "39-40-15.98 N",
		"longitude": "94-53-54.75 W",
		"state": "MISSOURI",
		"artcc": "ZKC",
		"type": "RP",
		"updated": "STJ*VORTAC*167.93/17.40",
	},
	{
		"name": "CUTAN",
		"latitude": "39-46-26.89 N",
		"longitude": "93-30-55.91 W",
		"state": "MISSOURI",
		"artcc": "ZKC",
		"type": "RP",
		"updated": "BQS*VOR/DME*059.56/18.75",
	},
	{
		"name": "CUTEP",
		"latitude": "38-45-20.36 N",
		"longitude": "97-36-50.1 W",
		"state": "KANSAS",
		"artcc": "ZKC",
		"type": "RNAV",
		"updated": "03/25/2010",
	},
	{
		"name": "CUTIK",
		"latitude": "37-27-41.47 N",
		"longitude": "97-31-30.74 W",
		"state": "KANSAS",
		"artcc": "ZKC",
		"type": "RNAV",
		"updated": "03/30/2015",
	},
	{
		"name": "CUTKU",
		"latitude": "36-32-7.26 N",
		"longitude": "100-7-26.91 W",
		"state": "OKLAHOMA",
		"artcc": "ZKC",
		"type": "RNAV",
		"updated": "03/29/2010",
	},
	{
		"name": "CUTNI",
		"latitude": "38-39-50.78 N",
		"longitude": "98-53-20.11 W",
		"state": "KANSAS",
		"artcc": "ZKC",
		"type": "RNAV",
		"updated": "08/08/2007",
	},
	{
		"name": "CUTOV",
		"latitude": "38-16-23.67 N",
		"longitude": "95-43-29.15 W",
		"state": "KANSAS",
		"artcc": "ZKC",
		"type": "RNAV",
		"updated": "05/11/2011",
	},
	{
		"name": "CUTSU",
		"latitude": "36-21-40.44 N",
		"longitude": "97-55-22.79 W",
		"state": "OKLAHOMA",
		"artcc": "ZKC",
		"type": "MR",
		"updated": "END*VORTAC*342.00/1.00",
	},
	{
		"name": "CUTTE",
		"latitude": "38-52-4.92 N",
		"longitude": "98-53-32.33 W",
		"state": "KANSAS",
		"artcc": "ZKC",
		"type": "RP",
		"updated": "HYS*VORTAC*076.00/18.06",
	},
	{
		"name": "CUTVO",
		"latitude": "38-46-8.39 N",
		"longitude": "90-25-41.72 W",
		"state": "MISSOURI",
		"artcc": "ZKC",
		"type": "RNAV",
		"updated": "06/08/2006",
	},
	{
		"name": "CUVIB",
		"latitude": "36-30-13.4 N",
		"longitude": "100-44-59.8 W",
		"state": "OKLAHOMA",
		"artcc": "ZKC",
		"type": "RNAV",
		"updated": "06/21/2013",
	},
	{
		"name": "CUVIS",
		"latitude": "37-19-6.32 N",
		"longitude": "93-15-54.44 W",
		"state": "MISSOURI",
		"artcc": "ZKC",
		"type": "RNAV",
		"updated": "06/09/2015",
	},
	{
		"name": "CUXOP",
		"latitude": "36-25-9.56 N",
		"longitude": "97-16-38.73 W",
		"state": "OKLAHOMA",
		"artcc": "ZKC",
		"type": "RNAV",
		"updated": "05/02/2011",
	},
	{
		"name": "CYPRE",
		"latitude": "39-2-29.65 N",
		"longitude": "94-48-12.35 W",
		"state": "KANSAS",
		"artcc": "ZKC",
		"type": "RP",
		"updated": "BUM*VORTAC*335.29/48.44",
	},
	{
		"name": "CYTKA",
		"latitude": "38-14-41.28 N",
		"longitude": "91-47-59.9 W",
		"state": "MISSOURI",
		"artcc": "ZKC",
		"type": "RP",
		"updated": "VIH*VOR/DME*315.00/7.00",
	},
