	{
		"name": "EADDS",
		"latitude": "38-50-5.42 N",
		"longitude": "89-47-53.39 W",
		"state": "ILLINOIS",
		"artcc": "ZKC",
		"type": "RNAV",
		"updated": "09/24/2012",
	},
	{
		"name": "EARPP",
		"latitude": "37-52-24.72 N",
		"longitude": "99-42-44.68 W",
		"state": "KANSAS",
		"artcc": "ZKC",
		"type": "RP",
		"updated": "DDC*VORTAC*076.27/14.00",
	},
	{
		"name": "EAVES",
		"latitude": "38-40-34.51 N",
		"longitude": "90-32-50.75 W",
		"state": "MISSOURI",
		"artcc": "ZKC",
		"type": "RP",
		"updated": "STL*VORTAC*194.57",
	},
	{
		"name": "EBAXY",
		"latitude": "38-15-4.69 N",
		"longitude": "98-13-39.35 W",
		"state": "KANSAS",
		"artcc": "ZKC",
		"type": "RNAV",
		"updated": "08/11/2016",
	},
	{
		"name": "EBGIF",
		"latitude": "40-10-16.93 N",
		"longitude": "90-41-29.32 W",
		"state": "ILLINOIS",
		"artcc": "ZKC",
		"type": "RNAV",
		"updated": "04/28/2009",
	},
	{
		"name": "EBJEL",
		"latitude": "38-27-19.47 N",
		"longitude": "95-43-33.51 W",
		"state": "KANSAS",
		"artcc": "ZKC",
		"type": "RP",
		"updated": "EMP*VORTAC*055.02/21.80",
	},
	{
		"name": "EBMEW",
		"latitude": "39-47-53.89 N",
		"longitude": "90-54-58.37 W",
		"state": "ILLINOIS",
		"artcc": "ZKC",
		"type": "RNAV",
		"updated": "04/28/2009",
	},
	{
		"name": "EBOPE",
		"latitude": "38-27-31.05 N",
		"longitude": "89-55-57.79 W",
		"state": "ILLINOIS",
		"artcc": "ZKC",
		"type": "RP",
		"updated": "ENL*VORTAC*269.87",
	},
	{
		"name": "EBSER",
		"latitude": "40-28-57.04 N",
		"longitude": "91-1-20.38 W",
		"state": "ILLINOIS",
		"artcc": "ZKC",
		"type": "RP",
		"updated": "BRL*VOR/DME*192.00/15.10",
	},
	{
		"name": "ECARO",
		"latitude": "37-59-34.62 N",
		"longitude": "94-46-10.8 W",
		"state": "KANSAS",
		"artcc": "ZKC",
		"type": "RNAV",
		"updated": "07/16/2007",
	},
	{
		"name": "ECEGI",
		"latitude": "37-41-34.65 N",
		"longitude": "97-25-10.08 W",
		"state": "KANSAS",
		"artcc": "ZKC",
		"type": "RNAV",
		"updated": "03/30/2015",
	},
	{
		"name": "ECHEL",
		"latitude": "38-40-23.73 N",
		"longitude": "97-19-42.11 W",
		"state": "KANSAS",
		"artcc": "ZKC",
		"type": "RNAV",
		"updated": "08/01/2013",
	},
	{
		"name": "ECKHO",
		"latitude": "36-29-13.11 N",
		"longitude": "97-51-28 W",
		"state": "OKLAHOMA",
		"artcc": "ZKC",
		"type": "MR",
		"updated": "END*VORTAC*014.00/9.00",
	},
	{
		"name": "ECUWO",
		"latitude": "37-21-40.8 N",
		"longitude": "97-2-10.14 W",
		"state": "KANSAS",
		"artcc": "ZKC",
		"type": "RNAV",
		"updated": "09/11/2014",
	},
	{
		"name": "EDAGY",
		"latitude": "38-25-22.2 N",
		"longitude": "92-0-59.27 W",
		"state": "MISSOURI",
		"artcc": "ZKC",
		"type": "RNAV",
		"updated": "02/04/2009",
	},
	{
		"name": "EDARE",
		"latitude": "37-37-30 N",
		"longitude": "101-58-33.36 W",
		"state": "KANSAS",
		"artcc": "ZKC",
		"type": "RNAV",
		"updated": "03/14/2003",
	},
	{
		"name": "EDASY",
		"latitude": "39-48-34.84 N",
		"longitude": "93-10-20.51 W",
		"state": "MISSOURI",
		"artcc": "ZKC",
		"type": "CN",
		"updated": "08/14/2000",
	},
	{
		"name": "EDDEV",
		"latitude": "37-6-41.54 N",
		"longitude": "93-33-47.94 W",
		"state": "MISSOURI",
		"artcc": "ZKC",
		"type": "RNAV",
		"updated": "06/12/2008",
	},
	{
		"name": "EDDIL",
		"latitude": "37-48-9.98 N",
		"longitude": "91-32-56.51 W",
		"state": "MISSOURI",
		"artcc": "ZKC",
		"type": "RNAV",
		"updated": "04/30/2001",
	},
	{
		"name": "EDEWO",
		"latitude": "36-37-7.61 N",
		"longitude": "97-36-55.08 W",
		"state": "OKLAHOMA",
		"artcc": "ZKC",
		"type": "RNAV",
		"updated": "05/05/2017",
	},
	{
		"name": "EDHUJ",
		"latitude": "38-50-54.26 N",
		"longitude": "88-57-44.64 W",
		"state": "ILLINOIS",
		"artcc": "ZKC",
		"type": "RNAV",
		"updated": "03/01/2013",
	},
	{
		"name": "EDINS",
		"latitude": "39-39-35.38 N",
		"longitude": "89-33-8.24 W",
		"state": "ILLINOIS",
		"artcc": "ZKC",
		"type": "RP",
		"updated": "AXC*VORTAC*259.00",
	},
	{
		"name": "EDITE",
		"latitude": "39-4-5.81 N",
		"longitude": "98-50-18.92 W",
		"state": "KANSAS",
		"artcc": "ZKC",
		"type": "RNAV",
		"updated": "08/08/2007",
	},
	{
		"name": "EDIYE",
		"latitude": "38-23-50.2 N",
		"longitude": "97-30-7.9 W",
		"state": "KANSAS",
		"artcc": "ZKC",
		"type": "RNAV",
		"updated": "03/05/2003",
	},
	{
		"name": "EDOGY",
		"latitude": "36-54-5.86 N",
		"longitude": "94-22-3.46 W",
		"state": "MISSOURI",
		"artcc": "ZKC",
		"type": "RNAV",
		"updated": "07/20/2011",
	},
	{
		"name": "EDORE",
		"latitude": "39-38-14.36 N",
		"longitude": "91-50-30.84 W",
		"state": "MISSOURI",
		"artcc": "ZKC",
		"type": "RNAV",
		"updated": "01/29/2002",
	},
	{
		"name": "EDPAH",
		"latitude": "38-47-35.72 N",
		"longitude": "92-5-45.3 W",
		"state": "MISSOURI",
		"artcc": "ZKC",
		"type": "RNAV",
		"updated": "02/12/2008",
	},
	{
		"name": "EDPIW",
		"latitude": "38-18-19.36 N",
		"longitude": "93-44-8.26 W",
		"state": "MISSOURI",
		"artcc": "ZKC",
		"type": "CN",
		"updated": "08/14/2000",
	},
	{
		"name": "EDSOW",
		"latitude": "38-23-52.43 N",
		"longitude": "93-36-57.77 W",
		"state": "MISSOURI",
		"artcc": "ZKC",
		"type": "CN",
		"updated": "08/14/2000",
	},
	{
		"name": "EDTEB",
		"latitude": "39-46-42.16 N",
		"longitude": "91-22-20.31 W",
		"state": "MISSOURI",
		"artcc": "ZKC",
		"type": "RP",
		"updated": "UIN*VORTAC*221.05/6.00",
	},
	{
		"name": "EDUWU",
		"latitude": "39-53-57.82 N",
		"longitude": "94-17-51.87 W",
		"state": "MISSOURI",
		"artcc": "ZKC",
		"type": "RNAV",
		"updated": "02/02/2010",
	},
	{
		"name": "EEMOS",
		"latitude": "39-23-48.97 N",
		"longitude": "90-26-0.73 W",
		"state": "ILLINOIS",
		"artcc": "ZKC",
		"type": "RNAV",
		"updated": "08/09/2012",
	},
	{
		"name": "EERRR",
		"latitude": "39-4-5.51 N",
		"longitude": "90-4-43.24 W",
		"state": "ILLINOIS",
		"artcc": "ZKC",
		"type": "RNAV",
		"updated": "09/19/2012",
	},
	{
		"name": "EFAHA",
		"latitude": "39-31-11.11 N",
		"longitude": "92-30-52.04 W",
		"state": "MISSOURI",
		"artcc": "ZKC",
		"type": "RNAV",
		"updated": "04/26/2011",
	},
	{
		"name": "EFEZU",
		"latitude": "37-18-56.17 N",
		"longitude": "93-27-36.1 W",
		"state": "MISSOURI",
		"artcc": "ZKC",
		"type": "CN",
		"updated": "05/02/2001",
	},
	{
		"name": "EFFCO",
		"latitude": "36-48-44.2 N",
		"longitude": "94-0-58.05 W",
		"state": "MISSOURI",
		"artcc": "ZKC",
		"type": "RNAV",
		"updated": "09/17/2014",
	},
	{
		"name": "EFKIB",
		"latitude": "39-52-4.68 N",
		"longitude": "94-54-24.79 W",
		"state": "MISSOURI",
		"artcc": "ZKC",
		"type": "CN",
		"updated": "08/14/2000",
	},
	{
		"name": "EFOCI",
		"latitude": "35-57-11.9 N",
		"longitude": "98-25-14.72 W",
		"state": "OKLAHOMA",
		"artcc": "ZKC",
		"type": "RNAV",
		"updated": "08/31/2007",
	},
	{
		"name": "EGALE",
		"latitude": "36-48-28.88 N",
		"longitude": "93-41-58.47 W",
		"state": "MISSOURI",
		"artcc": "ZKC",
		"type": "RNAV",
		"updated": "11/22/2011",
	},
	{
		"name": "EGALY",
		"latitude": "38-48-17.48 N",
		"longitude": "93-10-8.61 W",
		"state": "MISSOURI",
		"artcc": "ZKC",
		"type": "RNAV",
		"updated": "06/19/2013",
	},
	{
		"name": "EGANE",
		"latitude": "37-29-12.7 N",
		"longitude": "99-29-11.95 W",
		"state": "KANSAS",
		"artcc": "ZKC",
		"type": "RNAV",
		"updated": "06/14/2016",
	},
	{
		"name": "EGBUW",
		"latitude": "37-46-51.27 N",
		"longitude": "89-28-16.39 W",
		"state": "ILLINOIS",
		"artcc": "ZKC",
		"type": "RNAV",
		"updated": "07/25/2005",
	},
	{
		"name": "EGEGE",
		"latitude": "38-11-36.17 N",
		"longitude": "91-41-5.47 W",
		"state": "MISSOURI",
		"artcc": "ZKC",
		"type": "RNAV",
		"updated": "08/16/2010",
	},
	{
		"name": "EGETE",
		"latitude": "39-1-54.43 N",
		"longitude": "96-50-54.51 W",
		"state": "KANSAS",
		"artcc": "ZKC",
		"type": "RNAV",
		"updated": "06/11/2002",
	},
	{
		"name": "EGIYU",
		"latitude": "37-50-19.73 N",
		"longitude": "96-44-28.74 W",
		"state": "KANSAS",
		"artcc": "ZKC",
		"type": "RNAV",
		"updated": "08/01/2013",
	},
	{
		"name": "EGNOC",
		"latitude": "38-24-54.05 N",
		"longitude": "89-39-49.22 W",
		"state": "ILLINOIS",
		"artcc": "ZKC",
		"type": "RP",
		"updated": "ENL*VORTAC*265.44/23.80",
	},
	{
		"name": "EGVOW",
		"latitude": "38-26-58.88 N",
		"longitude": "95-15-7.25 W",
		"state": "KANSAS",
		"artcc": "ZKC",
		"type": "RNAV",
		"updated": "06/28/2013",
	},
	{
		"name": "EHAXO",
		"latitude": "39-37-21.88 N",
		"longitude": "89-19-43.63 W",
		"state": "ILLINOIS",
		"artcc": "ZKC",
		"type": "RNAV",
		"updated": "07/13/2010",
	},
	{
		"name": "EHKIF",
		"latitude": "36-36-43.93 N",
		"longitude": "100-45-0.81 W",
		"state": "OKLAHOMA",
		"artcc": "ZKC",
		"type": "RNAV",
		"updated": "06/21/2013",
	},
	{
		"name": "EHLEK",
		"latitude": "37-57-42.82 N",
		"longitude": "97-16-34.99 W",
		"state": "KANSAS",
		"artcc": "ZKC",
		"type": "RNAV",
		"updated": "09/09/2005",
	},
	{
		"name": "EHUYO",
		"latitude": "38-10-8.52 N",
		"longitude": "89-31-15.97 W",
		"state": "ILLINOIS",
		"artcc": "ZKC",
		"type": "RNAV",
		"updated": "01/18/2013",
	},
	{
		"name": "EIKEL",
		"latitude": "38-26-27.53 N",
		"longitude": "89-22-1.69 W",
		"state": "ILLINOIS",
		"artcc": "ZKC",
		"type": "RNAV",
		"updated": "09/19/2012",
	},
	{
		"name": "EJAFA",
		"latitude": "38-23-40.43 N",
		"longitude": "98-51-27.7 W",
		"state": "KANSAS",
		"artcc": "ZKC",
		"type": "RNAV",
		"updated": "03/28/2010",
	},
	{
		"name": "EJULA",
		"latitude": "36-53-58.11 N",
		"longitude": "92-27-28.29 W",
		"state": "MISSOURI",
		"artcc": "ZKC",
		"type": "RNAV",
		"updated": "02/09/2018",
	},
	{
		"name": "EJUPU",
		"latitude": "36-19-33.95 N",
		"longitude": "100-44-58.14 W",
		"state": "TEXAS",
		"artcc": "ZKC",
		"type": "RNAV",
		"updated": "06/20/2013",
	},
	{
		"name": "EJYAR",
		"latitude": "36-55-36.99 N",
		"longitude": "95-35-1.43 W",
		"state": "OKLAHOMA",
		"artcc": "ZKC",
		"type": "RP",
		"updated": "OSW*VOR/DME*225.00/22.90",
	},
	{
		"name": "EKEBE",
		"latitude": "37-40-45.19 N",
		"longitude": "97-27-20.96 W",
		"state": "KANSAS",
		"artcc": "ZKC",
		"type": "RNAV",
		"updated": "08/11/2010",
	},
	{
		"name": "EKEWU",
		"latitude": "36-34-37.45 N",
		"longitude": "100-0-10.64 W",
		"state": "OKLAHOMA",
		"artcc": "ZKC",
		"type": "RP",
		"updated": "MMB*VORTAC*327.00/15.19",
	},
	{
		"name": "EKIBE",
		"latitude": "37-46-35.92 N",
		"longitude": "101-37-49.86 W",
		"state": "KANSAS",
		"artcc": "ZKC",
		"type": "RNAV",
		"updated": "09/07/2010",
	},
	{
		"name": "EKILE",
		"latitude": "37-8-16.55 N",
		"longitude": "95-36-31.82 W",
		"state": "KANSAS",
		"artcc": "ZKC",
		"type": "RNAV",
		"updated": "03/07/2005",
	},
	{
		"name": "EKUGE",
		"latitude": "36-48-34.97 N",
		"longitude": "101-46-31.71 W",
		"state": "OKLAHOMA",
		"artcc": "ZKC",
		"type": "RNAV",
		"updated": "03/28/2010",
	},
	{
		"name": "EKUKS",
		"latitude": "36-44-41.22 N",
		"longitude": "97-20-58.11 W",
		"state": "OKLAHOMA",
		"artcc": "ZKC",
		"type": "RP",
		"updated": "PER*VORTAC*263.40/9.13",
	},
	{
		"name": "ELBRT",
		"latitude": "38-45-28.01 N",
		"longitude": "90-57-51.13 W",
		"state": "MISSOURI",
		"artcc": "ZKC",
		"type": "RNAV",
		"updated": "09/25/2012",
	},
	{
		"name": "ELDBB",
		"latitude": "38-41-16.21 N",
		"longitude": "90-32-49.96 W",
		"state": "MISSOURI",
		"artcc": "ZKC",
		"type": "RNAV",
		"updated": "08/03/2012",
	},
	{
		"name": "ELDON",
		"latitude": "39-0-2.23 N",
		"longitude": "90-22-8.4 W",
		"state": "ILLINOIS",
		"artcc": "ZKC",
		"type": "RP",
		"updated": "STL*VORTAC*031.29",
	},
	{
		"name": "ELFIN",
		"latitude": "37-51-47.72 N",
		"longitude": "97-7-16.06 W",
		"state": "KANSAS",
		"artcc": "ZKC",
		"type": "RNAV",
		"updated": "12/26/2007",
	},
	{
		"name": "ELIRE",
		"latitude": "36-6-4.36 N",
		"longitude": "95-36-12.48 W",
		"state": "OKLAHOMA",
		"artcc": "ZKC",
		"type": "RNAV",
		"updated": "11/08/2017",
	},
	{
		"name": "ELLIS",
		"latitude": "35-42-58.63 N",
		"longitude": "97-9-24.28 W",
		"state": "OKLAHOMA",
		"artcc": "ZKC",
		"type": "MR",
		"updated": "TIK*TACAN*030.00/20.00",
	},
	{
		"name": "ELSTO",
		"latitude": "38-38-10.41 N",
		"longitude": "92-7-51.36 W",
		"state": "MISSOURI",
		"artcc": "ZKC",
		"type": "RP",
		"updated": "STL*VORTAC*259.65/78.54",
	},
	{
		"name": "ELTNN",
		"latitude": "39-21-58.65 N",
		"longitude": "94-55-6.02 W",
		"state": "KANSAS",
		"artcc": "ZKC",
		"type": "RNAV",
		"updated": "01/31/2013",
	},
	{
		"name": "ELUME",
		"latitude": "37-58-31.7 N",
		"longitude": "89-20-53.97 W",
		"state": "ILLINOIS",
		"artcc": "ZKC",
		"type": "RNAV",
		"updated": "02/05/2010",
	},
	{
		"name": "ELWIN",
		"latitude": "39-47-25.95 N",
		"longitude": "88-57-13.51 W",
		"state": "ILLINOIS",
		"artcc": "ZKC",
		"type": "RP",
		"updated": "AXC*VORTAC*302.24",
	},
	{
		"name": "ELYIG",
		"latitude": "38-30-49.16 N",
		"longitude": "90-31-4.81 W",
		"state": "MISSOURI",
		"artcc": "ZKC",
		"type": "RNAV",
		"updated": "10/15/2007",
	},
	{
		"name": "ELYNA",
		"latitude": "40-26-51.58 N",
		"longitude": "93-19-4.55 W",
		"state": "MISSOURI",
		"artcc": "ZKC",
		"type": "RNAV",
		"updated": "08/26/2013",
	},
	{
		"name": "EMEBE",
		"latitude": "37-27-53.21 N",
		"longitude": "91-27-19.6 W",
		"state": "MISSOURI",
		"artcc": "ZKC",
		"type": "RNAV",
		"updated": "04/30/2001",
	},
	{
		"name": "EMKAA",
		"latitude": "38-35-32.35 N",
		"longitude": "90-22-41.43 W",
		"state": "MISSOURI",
		"artcc": "ZKC",
		"type": "RP",
		"updated": "TOY*VORTAC*243.97/23.32",
	},
	{
		"name": "EMLIJ",
		"latitude": "38-26-12.46 N",
		"longitude": "88-57-57.5 W",
		"state": "ILLINOIS",
		"artcc": "ZKC",
		"type": "RNAV",
		"updated": "03/01/2013",
	},
	{
		"name": "EMMAA",
		"latitude": "38-55-29.85 N",
		"longitude": "93-28-1.18 W",
		"state": "MISSOURI",
		"artcc": "ZKC",
		"type": "MR",
		"updated": "SZL*TACAN*018.00/12.00",
	},
	{
		"name": "EMUBE",
		"latitude": "39-0-11.96 N",
		"longitude": "92-8-53.06 W",
		"state": "MISSOURI",
		"artcc": "ZKC",
		"type": "RP",
		"updated": "COU*VOR/DME*015.75/12.00",
	},
	{
		"name": "EMYIC",
		"latitude": "38-43-22.42 N",
		"longitude": "97-34-5.34 W",
		"state": "KANSAS",
		"artcc": "ZKC",
		"type": "RNAV",
		"updated": "09/15/2008",
	},
	{
		"name": "EMZEE",
		"latitude": "38-48-42.91 N",
		"longitude": "90-30-56.07 W",
		"state": "MISSOURI",
		"artcc": "ZKC",
		"type": "RNAV",
		"updated": "08/13/2012",
	},
	{
		"name": "ENBEW",
		"latitude": "37-34-57.42 N",
		"longitude": "96-52-22.22 W",
		"state": "KANSAS",
		"artcc": "ZKC",
		"type": "RNAV",
		"updated": "08/01/2013",
	},
	{
		"name": "ENCOE",
		"latitude": "38-38-47.9 N",
		"longitude": "90-37-44.11 W",
		"state": "MISSOURI",
		"artcc": "ZKC",
		"type": "RP",
		"updated": "STL*VORTAC*207.23",
	},
	{
		"name": "ENDRS",
		"latitude": "36-50-22.77 N",
		"longitude": "93-16-24.76 W",
		"state": "MISSOURI",
		"artcc": "ZKC",
		"type": "RP",
		"updated": "SGF*VORTAC*170.62/31.07",
	},
	{
		"name": "ENEZO",
		"latitude": "39-16-10.26 N",
		"longitude": "93-18-14.54 W",
		"state": "MISSOURI",
		"artcc": "ZKC",
		"type": "RNAV",
		"updated": "10/31/2005",
	},
	{
		"name": "ENGYN",
		"latitude": "38-3-41.56 N",
		"longitude": "89-47-10.84 W",
		"state": "ILLINOIS",
		"artcc": "ZKC",
		"type": "RNAV",
		"updated": "FAM*VORTAC*042.55/30.14",
	},
	{
		"name": "ENNEE",
		"latitude": "38-49-22.15 N",
		"longitude": "90-18-27.74 W",
		"state": "MISSOURI",
		"artcc": "ZKC",
		"type": "RNAV",
		"updated": "09/25/2012",
	},
	{
		"name": "ENNIL",
		"latitude": "37-51-15.65 N",
		"longitude": "99-53-19.46 W",
		"state": "KANSAS",
		"artcc": "ZKC",
		"type": "RNAV",
		"updated": "07/25/2017",
	},
	{
		"name": "ENNZO",
		"latitude": "40-21-38.2 N",
		"longitude": "91-26-11 W",
		"state": "ILLINOIS",
		"artcc": "ZKC",
		"type": "RNAV",
		"updated": "05/06/2013",
	},
	{
		"name": "ENRRN",
		"latitude": "38-29-59.66 N",
		"longitude": "89-45-56.41 W",
		"state": "ILLINOIS",
		"artcc": "ZKC",
		"type": "RNAV",
		"updated": "06/01/2010",
	},
	{
		"name": "ENUBE",
		"latitude": "39-33-18.91 N",
		"longitude": "96-55-51.89 W",
		"state": "KANSAS",
		"artcc": "ZKC",
		"type": "RP",
		"updated": "MHK*VOR/DME*329.65",
	},
	{
		"name": "ENUQU",
		"latitude": "36-18-35.34 N",
		"longitude": "96-14-57.21 W",
		"state": "OKLAHOMA",
		"artcc": "ZKC",
		"type": "RP",
		"updated": "GNP*VOR/DME*323.74/27.00",
	},
	{
		"name": "EPAKY",
		"latitude": "38-55-22.98 N",
		"longitude": "96-57-47.11 W",
		"state": "KANSAS",
		"artcc": "ZKC",
		"type": "RNAV",
		"updated": "04/30/2007",
	},
	{
		"name": "EPICI",
		"latitude": "37-57-39.58 N",
		"longitude": "100-3-13.38 W",
		"state": "KANSAS",
		"artcc": "ZKC",
		"type": "RP",
		"updated": "DDC*VORTAC*332.98/7.00",
	},
	{
		"name": "EPKEW",
		"latitude": "38-50-28.62 N",
		"longitude": "90-8-42.81 W",
		"state": "MISSOURI",
		"artcc": "ZKC",
		"type": "RNAV",
		"updated": "01/02/2002",
	},
	{
		"name": "EPMEF",
		"latitude": "38-40-7.98 N",
		"longitude": "99-13-25.68 W",
		"state": "KANSAS",
		"artcc": "ZKC",
		"type": "RP",
		"updated": "HYS*VORTAC*/11.00",
	},
	{
		"name": "EPPAB",
		"latitude": "38-14-32.83 N",
		"longitude": "96-12-55.84 W",
		"state": "KANSAS",
		"artcc": "ZKC",
		"type": "RNAV",
		"updated": "08/08/2007",
	},
	{
		"name": "EPVAW",
		"latitude": "38-51-44.78 N",
		"longitude": "95-24-35.33 W",
		"state": "KANSAS",
		"artcc": "ZKC",
		"type": "RNAV",
		"updated": "02/16/2006",
	},
	{
		"name": "EQAXO",
		"latitude": "38-45-31.42 N",
		"longitude": "91-6-0.69 W",
		"state": "MISSOURI",
		"artcc": "ZKC",
		"type": "RNAV",
		"updated": "09/07/2007",
	},
	{
		"name": "EQPOX",
		"latitude": "39-2-8.33 N",
		"longitude": "99-19-43.61 W",
		"state": "KANSAS",
		"artcc": "ZKC",
		"type": "RNAV",
		"updated": "08/12/2010",
	},
	{
		"name": "ERECI",
		"latitude": "37-51-24.91 N",
		"longitude": "95-35-12.47 W",
		"state": "KANSAS",
		"artcc": "ZKC",
		"type": "RNAV",
		"updated": "04/02/2010",
	},
	{
		"name": "ERINE",
		"latitude": "38-32-52.5 N",
		"longitude": "92-4-6.17 W",
		"state": "MISSOURI",
		"artcc": "ZKC",
		"type": "RNAV",
		"updated": "01/03/2009",
	},
	{
		"name": "ERIRE",
		"latitude": "36-16-2.15 N",
		"longitude": "95-52-39.92 W",
		"state": "OKLAHOMA",
		"artcc": "ZKC",
		"type": "RNAV",
		"updated": "04/02/2008",
	},
	{
		"name": "ERJAG",
		"latitude": "38-48-20.69 N",
		"longitude": "95-29-16.96 W",
		"state": "KANSAS",
		"artcc": "ZKC",
		"type": "RNAV",
		"updated": "02/16/2006",
	},
	{
		"name": "EROHI",
		"latitude": "36-15-10.06 N",
		"longitude": "100-7-23.4 W",
		"state": "TEXAS",
		"artcc": "ZKC",
		"type": "RNAV",
		"updated": "03/29/2010",
	},
	{
		"name": "ERONE",
		"latitude": "37-31-18.24 N",
		"longitude": "95-24-10.68 W",
		"state": "KANSAS",
		"artcc": "ZKC",
		"type": "RNAV",
		"updated": "03/07/2005",
	},
	{
		"name": "EROXY",
		"latitude": "39-12-55.29 N",
		"longitude": "88-50-45.77 W",
		"state": "ILLINOIS",
		"artcc": "ZKC",
		"type": "RNAV",
		"updated": "04/02/2010",
	},
	{
		"name": "ERURE",
		"latitude": "37-56-57.77 N",
		"longitude": "96-16-5.57 W",
		"state": "KANSAS",
		"artcc": "ZKC",
		"type": "RNAV",
		"updated": "08/27/2003",
	},
	{
		"name": "ERXAV",
		"latitude": "36-23-59.1 N",
		"longitude": "95-45-44 W",
		"state": "OKLAHOMA",
		"artcc": "ZKC",
		"type": "RNAV",
		"updated": "07/08/2009",
	},
	{
		"name": "ERXOL",
		"latitude": "38-16-56.86 N",
		"longitude": "95-8-39.24 W",
		"state": "KANSAS",
		"artcc": "ZKC",
		"type": "RP",
		"updated": "BUM*VORTAC*264.35/31.00",
	},
	{
		"name": "ESCOM",
		"latitude": "35-58-6.23 N",
		"longitude": "97-5-4.65 W",
		"state": "OKLAHOMA",
		"artcc": "ZKC",
		"type": "RNAV",
		"updated": "05/17/2005",
	},
	{
		"name": "ESIXY",
		"latitude": "38-3-32.06 N",
		"longitude": "92-1-4.28 W",
		"state": "MISSOURI",
		"artcc": "ZKC",
		"type": "RNAV",
		"updated": "08/19/2010",
	},
	{
		"name": "ESMIF",
		"latitude": "39-50-55.79 N",
		"longitude": "89-41-25.16 W",
		"state": "ILLINOIS",
		"artcc": "ZKC",
		"type": "RP",
		"updated": "SPI*VORTAC*314.15/0.80",
	},
	{
		"name": "ESSAR",
		"latitude": "38-21-27.42 N",
		"longitude": "90-11-50.27 W",
		"state": "ILLINOIS",
		"artcc": "ZKC",
		"type": "RP",
		"updated": "STL*VORTAC*154.94/33.00",
	},
	{
		"name": "ESTRE",
		"latitude": "39-5-46.73 N",
		"longitude": "95-13-20.17 W",
		"state": "KANSAS",
		"artcc": "ZKC",
		"type": "RP",
		"updated": "STJ*VORTAC*187.00",
	},
	{
		"name": "ESTUQ",
		"latitude": "38-30-29.98 N",
		"longitude": "90-56-40.98 W",
		"state": "MISSOURI",
		"artcc": "ZKC",
		"type": "RNAV",
		"updated": "09/07/2007",
	},
	{
		"name": "ETIRY",
		"latitude": "38-43-45.6 N",
		"longitude": "95-15-11.51 W",
		"state": "KANSAS",
		"artcc": "ZKC",
		"type": "RNAV",
		"updated": "06/28/2013",
	},
	{
		"name": "ETISE",
		"latitude": "37-59-54.07 N",
		"longitude": "97-55-59.16 W",
		"state": "KANSAS",
		"artcc": "ZKC",
		"type": "RNAV",
		"updated": "09/22/2017",
	},
	{
		"name": "ETUNE",
		"latitude": "37-7-48.95 N",
		"longitude": "93-3-39.98 W",
		"state": "MISSOURI",
		"artcc": "ZKC",
		"type": "RNAV",
		"updated": "11/03/2015",
	},
	{
		"name": "EUBIE",
		"latitude": "38-52-13.07 N",
		"longitude": "90-36-27.49 W",
		"state": "MISSOURI",
		"artcc": "ZKC",
		"type": "RP",
		"updated": "STL*VORTAC*274.64",
	},
	{
		"name": "EUNIK",
		"latitude": "38-12-14.82 N",
		"longitude": "93-56-24.88 W",
		"state": "MISSOURI",
		"artcc": "ZKC",
		"type": "RP",
		"updated": "BUM*VORTAC*091.77/26.22",
	},
	{
		"name": "EUREK",
		"latitude": "37-56-14.48 N",
		"longitude": "96-15-42.7 W",
		"state": "KANSAS",
		"artcc": "ZKC",
		"type": "RP",
		"updated": "EMP*VORTAC*187.49/22.00",
	},
	{
		"name": "EVACE",
		"latitude": "37-49-42.08 N",
		"longitude": "97-11-3.59 W",
		"state": "KANSAS",
		"artcc": "ZKC",
		"type": "RNAV",
		"updated": "09/21/2014",
	},
	{
		"name": "EVIYU",
		"latitude": "39-1-42.13 N",
		"longitude": "96-48-6.4 W",
		"state": "KANSAS",
		"artcc": "ZKC",
		"type": "MW",
		"updated": "04/30/2007",
	},
	{
		"name": "EVVNS",
		"latitude": "38-31-17.27 N",
		"longitude": "90-56-9.27 W",
		"state": "MISSOURI",
		"artcc": "ZKC",
		"type": "RNAV",
		"updated": "09/18/2012",
	},
	{
		"name": "EWAIT",
		"latitude": "36-56-9.44 N",
		"longitude": "97-21-0.9 W",
		"state": "OKLAHOMA",
		"artcc": "ZKC",
		"type": "RNAV",
		"updated": "08/15/2010",
	},
	{
		"name": "EWETA",
		"latitude": "37-28-49.15 N",
		"longitude": "93-53-0.6 W",
		"state": "MISSOURI",
		"artcc": "ZKC",
		"type": "RNAV",
		"updated": "12/17/2012",
	},
	{
		"name": "EWING",
		"latitude": "38-4-14.07 N",
		"longitude": "88-56-2.04 W",
		"state": "ILLINOIS",
		"artcc": "ZKC",
		"type": "RP",
		"updated": "ENL*VORTAC*149.00",
	},
	{
		"name": "EXALE",
		"latitude": "38-39-40.26 N",
		"longitude": "90-10-58.98 W",
		"state": "ILLINOIS",
		"artcc": "ZKC",
		"type": "RP",
		"updated": "TOY*VORTAC*245.47",
	},
	{
		"name": "EXCEL",
		"latitude": "39-23-41.18 N",
		"longitude": "94-5-50.08 W",
		"state": "MISSOURI",
		"artcc": "ZKC",
		"type": "RP",
		"updated": "ANX*VORTAC*357.68/18.01",
	},
	{
		"name": "EXDUW",
		"latitude": "37-27-48.84 N",
		"longitude": "92-45-50.63 W",
		"state": "MISSOURI",
		"artcc": "ZKC",
		"type": "RNAV",
		"updated": "04/24/2001",
	},
	{
		"name": "EXESS",
		"latitude": "38-37-34.03 N",
		"longitude": "90-53-46.84 W",
		"state": "MISSOURI",
		"artcc": "ZKC",
		"type": "RNAV",
		"updated": "07/13/2009",
	},
	{
		"name": "EXIBY",
		"latitude": "39-2-12.73 N",
		"longitude": "94-50-38.34 W",
		"state": "KANSAS",
		"artcc": "ZKC",
		"type": "RNAV",
		"updated": "05/16/2006",
	},
	{
		"name": "EXOFE",
		"latitude": "38-27-37.8 N",
		"longitude": "89-55-47.92 W",
		"state": "ILLINOIS",
		"artcc": "ZKC",
		"type": "RNAV",
		"updated": "05/05/2011",
	},
	{
		"name": "EXORY",
		"latitude": "37-17-23.65 N",
		"longitude": "94-53-46.42 W",
		"state": "KANSAS",
		"artcc": "ZKC",
		"type": "RNAV",
		"updated": "07/13/2012",
	},
	{
		"name": "EXPEL",
		"latitude": "38-23-1.45 N",
		"longitude": "98-15-57.66 W",
		"state": "KANSAS",
		"artcc": "ZKC",
		"type": "RP",
		"updated": "HUT*VOR/DME*322.00/28.00",
	},
	{
		"name": "EXUXY",
		"latitude": "37-24-46.26 N",
		"longitude": "101-15-21.56 W",
		"state": "KANSAS",
		"artcc": "ZKC",
		"type": "RNAV",
		"updated": "03/26/2008",
	},
	{
		"name": "EXUZU",
		"latitude": "36-26-25.02 N",
		"longitude": "97-47-43.12 W",
		"state": "OKLAHOMA",
		"artcc": "ZKC",
		"type": "CN",
		"updated": "12/04/2014",
	},
	{
		"name": "EXYIR",
		"latitude": "36-30-1.52 N",
		"longitude": "99-30-45.57 W",
		"state": "OKLAHOMA",
		"artcc": "ZKC",
		"type": "CN",
		"updated": "12/04/2014",
	},
	{
		"name": "EYAKA",
		"latitude": "38-58-20.28 N",
		"longitude": "94-24-38.87 W",
		"state": "MISSOURI",
		"artcc": "ZKC",
		"type": "RNAV",
		"updated": "07/26/2017",
	},
	{
		"name": "EYAKU",
		"latitude": "35-55-41.16 N",
		"longitude": "98-24-50.13 W",
		"state": "OKLAHOMA",
		"artcc": "ZKC",
		"type": "CN",
		"updated": "02/06/2012",
	},
	{
		"name": "EYAVI",
		"latitude": "38-8-25.23 N",
		"longitude": "92-42-35.19 W",
		"state": "MISSOURI",
		"artcc": "ZKC",
		"type": "RNAV",
		"updated": "08/07/2013",
	},
	{
		"name": "EYMUV",
		"latitude": "35-58-3.31 N",
		"longitude": "100-12-10.27 W",
		"state": "TEXAS",
		"artcc": "ZKC",
		"type": "RP",
		"updated": "MMB*VORTAC*204.93/27.46",
	},
	{
		"name": "EYUDA",
		"latitude": "37-38-31.38 N",
		"longitude": "99-44-4.24 W",
		"state": "KANSAS",
		"artcc": "ZKC",
		"type": "RNAV",
		"updated": "10/08/2015",
	},
	{
		"name": "EZKUP",
		"latitude": "36-14-27.02 N",
		"longitude": "99-48-42.37 W",
		"state": "OKLAHOMA",
		"artcc": "ZKC",
		"type": "RP",
		"updated": "MMB*VORTAC*141.71/7.00",
	},
	{
		"name": "EZTIX",
		"latitude": "38-40-23.09 N",
		"longitude": "97-8-38.62 W",
		"state": "KANSAS",
		"artcc": "ZKC",
		"type": "RNAV",
		"updated": "08/01/2013",
	},
	{
		"name": "EZZAZ",
		"latitude": "38-45-48.34 N",
		"longitude": "92-48-31.27 W",
		"state": "MISSOURI",
		"artcc": "ZKC",
		"type": "RNAV",
		"updated": "03/22/2007",
	},
