	{
		"name": "GABDY",
		"latitude": "39-42-11.63 N",
		"longitude": "90-51-43.46 W",
		"state": "ILLINOIS",
		"artcc": "ZKC",
		"type": "RNAV",
		"updated": "02/04/2002",
	},
	{
		"name": "GABIE",
		"latitude": "37-52-58.76 N",
		"longitude": "98-18-55.15 W",
		"state": "KANSAS",
		"artcc": "ZKC",
		"type": "RP",
		"updated": "ANY*VORTAC*344.01",
	},
	{
		"name": "GABYE",
		"latitude": "37-52-36.56 N",
		"longitude": "97-27-14.22 W",
		"state": "KANSAS",
		"artcc": "ZKC",
		"type": "RNAV",
		"updated": "08/11/2010",
	},
	{
		"name": "GACOP",
		"latitude": "40-1-12.65 N",
		"longitude": "90-48-12.26 W",
		"state": "ILLINOIS",
		"artcc": "ZKC",
		"type": "RNAV",
		"updated": "04/28/2009",
	},
	{
		"name": "GAFWU",
		"latitude": "36-29-15.07 N",
		"longitude": "95-21-18.53 W",
		"state": "OKLAHOMA",
		"artcc": "ZKC",
		"type": "RNAV",
		"updated": "11/08/2017",
	},
	{
		"name": "GAMWY",
		"latitude": "37-58-24.35 N",
		"longitude": "96-59-16.44 W",
		"state": "KANSAS",
		"artcc": "ZKC",
		"type": "RNAV",
		"updated": "05/14/2008",
	},
	{
		"name": "GARBR",
		"latitude": "36-25-55.86 N",
		"longitude": "97-35-3.93 W",
		"state": "OKLAHOMA",
		"artcc": "ZKC",
		"type": "MR",
		"updated": "END*VORTAC*067.00/17.00",
	},
	{
		"name": "GARFY",
		"latitude": "36-16-30.06 N",
		"longitude": "97-47-28.05 W",
		"state": "OKLAHOMA",
		"artcc": "ZKC",
		"type": "RP",
		"updated": "ODG*VOR/DME*173.41/5.92",
	},
	{
		"name": "GARGL",
		"latitude": "37-0-57.22 N",
		"longitude": "93-38-9.95 W",
		"state": "MISSOURI",
		"artcc": "ZKC",
		"type": "RP",
		"updated": "SGF*VORTAC*211.49/25.00",
	},
	{
		"name": "GASEY",
		"latitude": "39-55-38.82 N",
		"longitude": "91-22-52.3 W",
		"state": "ILLINOIS",
		"artcc": "ZKC",
		"type": "RNAV",
		"updated": "03/23/2009",
	},
	{
		"name": "GATKE",
		"latitude": "39-56-2.38 N",
		"longitude": "88-52-34.39 W",
		"state": "ILLINOIS",
		"artcc": "ZKC",
		"type": "RNAV",
		"updated": "01/12/2016",
	},
	{
		"name": "GATTY",
		"latitude": "37-59-18.05 N",
		"longitude": "94-45-35.28 W",
		"state": "KANSAS",
		"artcc": "ZKC",
		"type": "RNAV",
		"updated": "09/06/2017",
	},
	{
		"name": "GAYLY",
		"latitude": "39-33-36.7 N",
		"longitude": "94-37-34.38 W",
		"state": "MISSOURI",
		"artcc": "ZKC",
		"type": "RP",
		"updated": "MCI*VORTAC*012.33",
	},
	{
		"name": "GAYLZ",
		"latitude": "39-9-37.18 N",
		"longitude": "94-49-25.74 W",
		"state": "KANSAS",
		"artcc": "ZKC",
		"type": "RNAV",
		"updated": "01/31/2013",
	},
	{
		"name": "GBRET",
		"latitude": "39-16-56.33 N",
		"longitude": "94-37-28.24 W",
		"state": "MISSOURI",
		"artcc": "ZKC",
		"type": "RNAV",
		"updated": "01/31/2013",
	},
	{
		"name": "GEAST",
		"latitude": "35-38-46.97 N",
		"longitude": "97-12-45.45 W",
		"state": "OKLAHOMA",
		"artcc": "ZKC",
		"type": "MR",
		"updated": "TIK*TACAN*030.00/15.00",
	},
	{
		"name": "GECGE",
		"latitude": "35-40-35.84 N",
		"longitude": "96-37-17.45 W",
		"state": "OKLAHOMA",
		"artcc": "ZKC",
		"type": "RNAV",
		"updated": "04/23/2014",
	},
	{
		"name": "GECKS",
		"latitude": "37-0-31.13 N",
		"longitude": "99-18-36.28 W",
		"state": "KANSAS",
		"artcc": "ZKC",
		"type": "RNAV",
		"updated": "06/14/2016",
	},
	{
		"name": "GEDEC",
		"latitude": "39-38-40.89 N",
		"longitude": "88-45-45.09 W",
		"state": "ILLINOIS",
		"artcc": "ZKC",
		"type": "RNAV",
		"updated": "08/24/2005",
	},
	{
		"name": "GEDRE",
		"latitude": "37-30-3.41 N",
		"longitude": "101-43-54.76 W",
		"state": "KANSAS",
		"artcc": "ZKC",
		"type": "RNAV",
		"updated": "09/07/2010",
	},
	{
		"name": "GEHJY",
		"latitude": "38-40-16.45 N",
		"longitude": "90-16-24.72 W",
		"state": "MISSOURI",
		"artcc": "ZKC",
		"type": "RP",
		"updated": "STL*VORTAC*138.14/15.00",
	},
	{
		"name": "GEJAY",
		"latitude": "38-32-43.89 N",
		"longitude": "90-23-14.64 W",
		"state": "MISSOURI",
		"artcc": "ZKC",
		"type": "RNAV",
		"updated": "08/03/2012",
	},
	{
		"name": "GEJTO",
		"latitude": "38-12-4.39 N",
		"longitude": "89-2-34.82 W",
		"state": "ILLINOIS",
		"artcc": "ZKC",
		"type": "RNAV",
		"updated": "02/09/2018",
	},
	{
		"name": "GEKAY",
		"latitude": "39-22-23.36 N",
		"longitude": "94-40-54.61 W",
		"state": "MISSOURI",
		"artcc": "ZKC",
		"type": "RNAV",
		"updated": "01/31/2013",
	},
	{
		"name": "GEKKE",
		"latitude": "38-40-59.59 N",
		"longitude": "90-1-13.91 W",
		"state": "ILLINOIS",
		"artcc": "ZKC",
		"type": "RNAV",
		"updated": "03/28/2011",
	},
	{
		"name": "GELBE",
		"latitude": "39-42-39.28 N",
		"longitude": "90-19-14.62 W",
		"state": "ILLINOIS",
		"artcc": "ZKC",
		"type": "RNAV",
		"updated": "08/24/2005",
	},
	{
		"name": "GENTS",
		"latitude": "37-43-47.97 N",
		"longitude": "89-23-59.57 W",
		"state": "ILLINOIS",
		"artcc": "ZKC",
		"type": "RP",
		"updated": "CSX*VOR/DME*143.16/76.30",
	},
	{
		"name": "GEPLE",
		"latitude": "39-33-25.5 N",
		"longitude": "91-58-25.45 W",
		"state": "MISSOURI",
		"artcc": "ZKC",
		"type": "RNAV",
		"updated": "01/29/2002",
	},
	{
		"name": "GERTS",
		"latitude": "39-3-30.03 N",
		"longitude": "99-13-43.35 W",
		"state": "KANSAS",
		"artcc": "ZKC",
		"type": "WP",
		"updated": "HYS*VORTAC*000.50/12.90",
	},
	{
		"name": "GERTT",
		"latitude": "36-10-53.31 N",
		"longitude": "96-9-22.6 W",
		"state": "OKLAHOMA",
		"artcc": "ZKC",
		"type": "RP",
		"updated": "GNP*VOR/DME*323.74/18.08",
	},
	{
		"name": "GESJI",
		"latitude": "38-45-24.12 N",
		"longitude": "92-42-8.99 W",
		"state": "MISSOURI",
		"artcc": "ZKC",
		"type": "RNAV",
		"updated": "03/22/2007",
	},
	{
		"name": "GETEE",
		"latitude": "38-50-5.83 N",
		"longitude": "90-18-10.92 W",
		"state": "MISSOURI",
		"artcc": "ZKC",
		"type": "RNAV",
		"updated": "09/25/2012",
	},
	{
		"name": "GETLE",
		"latitude": "36-27-39.37 N",
		"longitude": "98-28-20.01 W",
		"state": "OKLAHOMA",
		"artcc": "ZKC",
		"type": "RNAV",
		"updated": "03/06/2003",
	},
	{
		"name": "GETUP",
		"latitude": "39-9-11.67 N",
		"longitude": "90-42-30.34 W",
		"state": "MISSOURI",
		"artcc": "ZKC",
		"type": "RNAV",
		"updated": "09/24/2012",
	},
	{
		"name": "GEYER",
		"latitude": "36-7-35.3 N",
		"longitude": "96-46-15.17 W",
		"state": "OKLAHOMA",
		"artcc": "ZKC",
		"type": "RNAV",
		"updated": "06/23/2017",
	},
	{
		"name": "GEYJA",
		"latitude": "38-39-6.97 N",
		"longitude": "99-13-8.14 W",
		"state": "KANSAS",
		"artcc": "ZKC",
		"type": "RNAV",
		"updated": "08/12/2010",
	},
	{
		"name": "GGRAF",
		"latitude": "37-58-24.25 N",
		"longitude": "97-51-24.82 W",
		"state": "KANSAS",
		"artcc": "ZKC",
		"type": "RNAV",
		"updated": "09/22/2017",
	},
	{
		"name": "GIBEE",
		"latitude": "38-41-58.77 N",
		"longitude": "90-59-25.46 W",
		"state": "MISSOURI",
		"artcc": "ZKC",
		"type": "RNAV",
		"updated": "09/25/2012",
	},
	{
		"name": "GIBSN",
		"latitude": "38-42-59.79 N",
		"longitude": "92-24-23.14 W",
		"state": "MISSOURI",
		"artcc": "ZKC",
		"type": "RP",
		"updated": "HLV*VORTAC*202.79/27.13",
	},
	{
		"name": "GIFTS",
		"latitude": "39-7-37.93 N",
		"longitude": "89-50-4.33 W",
		"state": "ILLINOIS",
		"artcc": "ZKC",
		"type": "RP",
		"updated": "STL*VORTAC*061.00",
	},
	{
		"name": "GIFYO",
		"latitude": "37-46-22.52 N",
		"longitude": "90-13-57.88 W",
		"state": "MISSOURI",
		"artcc": "ZKC",
		"type": "RNAV",
		"updated": "06/24/2013",
	},
	{
		"name": "GIJOE",
		"latitude": "37-49-19.7 N",
		"longitude": "92-12-22.5 W",
		"state": "MISSOURI",
		"artcc": "ZKC",
		"type": "RP",
		"updated": "VIH*VOR/DME*224.13/30.94",
	},
	{
		"name": "GIKRE",
		"latitude": "37-59-54.4 N",
		"longitude": "91-56-42.67 W",
		"state": "MISSOURI",
		"artcc": "ZKC",
		"type": "RNAV",
		"updated": "08/16/2010",
	},
	{
		"name": "GIMGE",
		"latitude": "40-32-36.99 N",
		"longitude": "91-7-17.1 W",
		"state": "ILLINOIS",
		"artcc": "ZKC",
		"type": "RP",
		"updated": "BRL*VOR/DME*214.71",
	},
	{
		"name": "GINIA",
		"latitude": "39-50-38.59 N",
		"longitude": "90-6-13.2 W",
		"state": "ILLINOIS",
		"artcc": "ZKC",
		"type": "RP",
		"updated": "PIA*VORTAC*192.00",
	},
	{
		"name": "GIPDI",
		"latitude": "37-47-5.24 N",
		"longitude": "91-39-6.1 W",
		"state": "MISSOURI",
		"artcc": "ZKC",
		"type": "RNAV",
		"updated": "04/30/2001",
	},
	{
		"name": "GIRDE",
		"latitude": "40-32-38.33 N",
		"longitude": "92-25-33.43 W",
		"state": "MISSOURI",
		"artcc": "ZKC",
		"type": "RNAV",
		"updated": "01/16/2002",
	},
	{
		"name": "GIRFA",
		"latitude": "39-1-4.19 N",
		"longitude": "94-26-39.54 W",
		"state": "MISSOURI",
		"artcc": "ZKC",
		"type": "RNAV",
		"updated": "09/19/2014",
	},
	{
		"name": "GISEC",
		"latitude": "37-42-26.85 N",
		"longitude": "94-46-9.21 W",
		"state": "KANSAS",
		"artcc": "ZKC",
		"type": "RNAV",
		"updated": "07/16/2007",
	},
	{
		"name": "GISVE",
		"latitude": "39-30-26.82 N",
		"longitude": "97-39-10.43 W",
		"state": "KANSAS",
		"artcc": "ZKC",
		"type": "RNAV",
		"updated": "01/30/2012",
	},
	{
		"name": "GITEY",
		"latitude": "39-14-19.57 N",
		"longitude": "93-50-37.05 W",
		"state": "MISSOURI",
		"artcc": "ZKC",
		"type": "RNAV",
		"updated": "02/28/2008",
	},
	{
		"name": "GIVMY",
		"latitude": "37-55-57.06 N",
		"longitude": "92-42-19.08 W",
		"state": "MISSOURI",
		"artcc": "ZKC",
		"type": "RNAV",
		"updated": "05/21/2013",
	},
	{
		"name": "GIWHI",
		"latitude": "36-22-19.34 N",
		"longitude": "100-44-58.54 W",
		"state": "TEXAS",
		"artcc": "ZKC",
		"type": "RNAV",
		"updated": "03/29/2010",
	},
	{
		"name": "GLASS",
		"latitude": "38-7-37.09 N",
		"longitude": "90-19-40.53 W",
		"state": "MISSOURI",
		"artcc": "ZKC",
		"type": "RP",
		"updated": "STL*VORTAC*169.56/44.58",
	},
	{
		"name": "GLEDS",
		"latitude": "38-0-54.9 N",
		"longitude": "99-53-37.05 W",
		"state": "KANSAS",
		"artcc": "ZKC",
		"type": "RNAV",
		"updated": "02/08/2017",
	},
	{
		"name": "GLEET",
		"latitude": "39-27-2.64 N",
		"longitude": "94-57-16.83 W",
		"state": "KANSAS",
		"artcc": "ZKC",
		"type": "WP",
		"updated": "06/12/2002",
	},
	{
		"name": "GLIDE",
		"latitude": "38-54-38.02 N",
		"longitude": "97-58-29.96 W",
		"state": "KANSAS",
		"artcc": "ZKC",
		"type": "RP",
		"updated": "HUT*VOR/DME*354.00",
	},
	{
		"name": "GLIMS",
		"latitude": "37-3-20.17 N",
		"longitude": "93-17-12.33 W",
		"state": "MISSOURI",
		"artcc": "ZKC",
		"type": "RNAV",
		"updated": "06/09/2015",
	},
	{
		"name": "GLOBA",
		"latitude": "40-18-2.58 N",
		"longitude": "91-40-22.06 W",
		"state": "MISSOURI",
		"artcc": "ZKC",
		"type": "RNAV",
		"updated": "07/31/2006",
	},
	{
		"name": "GMSKI",
		"latitude": "38-50-5.28 N",
		"longitude": "90-12-43.23 W",
		"state": "MISSOURI",
		"artcc": "ZKC",
		"type": "RNAV",
		"updated": "08/03/2012",
	},
	{
		"name": "GNNON",
		"latitude": "37-54-19 N",
		"longitude": "92-41-34 W",
		"state": "MISSOURI",
		"artcc": "ZKC",
		"type": "RNAV",
		"updated": "09/25/2012",
	},
	{
		"name": "GOBEY",
		"latitude": "37-24-41.47 N",
		"longitude": "92-7-15.06 W",
		"state": "MISSOURI",
		"artcc": "ZKC",
		"type": "RP",
		"updated": "VIH*VOR/DME*198.00/48.67",
	},
	{
		"name": "GOCOL",
		"latitude": "38-52-59.64 N",
		"longitude": "93-12-18.08 W",
		"state": "MISSOURI",
		"artcc": "ZKC",
		"type": "RNAV",
		"updated": "08/08/2011",
	},
	{
		"name": "GOJLU",
		"latitude": "39-2-13.74 N",
		"longitude": "92-40-23.52 W",
		"state": "MISSOURI",
		"artcc": "ZKC",
		"type": "RNAV",
		"updated": "03/22/2007",
	},
	{
		"name": "GOKLY",
		"latitude": "39-0-36.7 N",
		"longitude": "94-0-3.61 W",
		"state": "MISSOURI",
		"artcc": "ZKC",
		"type": "RNAV",
		"updated": "09/19/2014",
	},
	{
		"name": "GOKSE",
		"latitude": "36-11-49.39 N",
		"longitude": "95-39-52.42 W",
		"state": "OKLAHOMA",
		"artcc": "ZKC",
		"type": "MR",
		"updated": "TUL*VORTAC*081.51/6.00",
	},
	{
		"name": "GOLEY",
		"latitude": "38-49-17.25 N",
		"longitude": "95-5-39.31 W",
		"state": "KANSAS",
		"artcc": "ZKC",
		"type": "RNAV",
		"updated": "09/10/2003",
	},
	{
		"name": "GOLFS",
		"latitude": "35-33-31.21 N",
		"longitude": "97-35-20.67 W",
		"state": "OKLAHOMA",
		"artcc": "ZKC",
		"type": "RP",
		"updated": "PWA*VOR/DME*053.54",
	},
	{
		"name": "GOLNY",
		"latitude": "39-2-11.37 N",
		"longitude": "94-37-48.3 W",
		"state": "KANSAS",
		"artcc": "ZKC",
		"type": "RNAV",
		"updated": "05/16/2006",
	},
	{
		"name": "GOLUW",
		"latitude": "37-43-14.88 N",
		"longitude": "97-4-24.06 W",
		"state": "KANSAS",
		"artcc": "ZKC",
		"type": "RNAV",
		"updated": "12/14/2011",
	},
	{
		"name": "GONNR",
		"latitude": "39-12-18.85 N",
		"longitude": "94-43-53.43 W",
		"state": "MISSOURI",
		"artcc": "ZKC",
		"type": "RNAV",
		"updated": "01/31/2013",
	},
	{
		"name": "GOOEY",
		"latitude": "38-28-38.92 N",
		"longitude": "89-44-19.5 W",
		"state": "ILLINOIS",
		"artcc": "ZKC",
		"type": "RP",
		"updated": "ENL*VORTAC*273.44",
	},
	{
		"name": "GOOGI",
		"latitude": "38-1-30.07 N",
		"longitude": "100-33-43.53 W",
		"state": "KANSAS",
		"artcc": "ZKC",
		"type": "WP",
		"updated": "GCK*VORTAC*039.40/10.00",
	},
	{
		"name": "GOOGU",
		"latitude": "36-38-37.74 N",
		"longitude": "101-30-47.93 W",
		"state": "OKLAHOMA",
		"artcc": "ZKC",
		"type": "RNAV",
		"updated": "11/07/2011",
	},
	{
		"name": "GOPHR",
		"latitude": "37-56-5.3 N",
		"longitude": "96-53-45.13 W",
		"state": "KANSAS",
		"artcc": "ZKC",
		"type": "RNAV",
		"updated": "08/01/2013",
	},
	{
		"name": "GORDO",
		"latitude": "39-50-30.37 N",
		"longitude": "88-30-43.31 W",
		"state": "ILLINOIS",
		"artcc": "ZKC",
		"type": "RP",
		"updated": "ENL*VORTAC*015.31/90.42",
	},
	{
		"name": "GOSSL",
		"latitude": "38-26-26.8 N",
		"longitude": "97-13-34.48 W",
		"state": "KANSAS",
		"artcc": "ZKC",
		"type": "RP",
		"updated": "ICT*VORTAC*015.00/45.00",
	},
	{
		"name": "GOTPE",
		"latitude": "37-7-50.04 N",
		"longitude": "97-23-9.38 W",
		"state": "KANSAS",
		"artcc": "ZKC",
		"type": "RNAV",
		"updated": "08/08/2007",
	},
	{
		"name": "GOTPY",
		"latitude": "37-6-37.76 N",
		"longitude": "92-50-29.18 W",
		"state": "MISSOURI",
		"artcc": "ZKC",
		"type": "RNAV",
		"updated": "02/22/2013",
	},
	{
		"name": "GOTYE",
		"latitude": "36-32-5.9 N",
		"longitude": "94-44-18.46 W",
		"state": "OKLAHOMA",
		"artcc": "ZKC",
		"type": "RNAV",
		"updated": "02/25/2005",
	},
	{
		"name": "GOXJY",
		"latitude": "39-16-5.41 N",
		"longitude": "93-11-48.3 W",
		"state": "MISSOURI",
		"artcc": "ZKC",
		"type": "RNAV",
		"updated": "10/31/2005",
	},
	{
		"name": "GOYEL",
		"latitude": "39-58-23.61 N",
		"longitude": "90-7-59.99 W",
		"state": "ILLINOIS",
		"artcc": "ZKC",
		"type": "RNAV",
		"updated": "08/22/2005",
	},
	{
		"name": "GRAAL",
		"latitude": "37-47-24.69 N",
		"longitude": "99-56-24.07 W",
		"state": "KANSAS",
		"artcc": "ZKC",
		"type": "RNAV",
		"updated": "07/25/2017",
	},
	{
		"name": "GREEP",
		"latitude": "38-48-15.65 N",
		"longitude": "90-28-23.2 W",
		"state": "MISSOURI",
		"artcc": "ZKC",
		"type": "RP",
		"updated": "STL*VORTAC*171.68",
	},
	{
		"name": "GRILD",
		"latitude": "38-41-44.09 N",
		"longitude": "94-35-28.89 W",
		"state": "MISSOURI",
		"artcc": "ZKC",
		"type": "RP",
		"updated": "ANX*VORTAC*215.26",
	},
	{
		"name": "GRINN",
		"latitude": "37-39-41.82 N",
		"longitude": "89-4-57.75 W",
		"state": "ILLINOIS",
		"artcc": "ZKC",
		"type": "RP",
		"updated": "MWA*VOR/DME*207.37/6.50",
	},
	{
		"name": "GRITE",
		"latitude": "39-57-26.96 N",
		"longitude": "91-41-1.4 W",
		"state": "MISSOURI",
		"artcc": "ZKC",
		"type": "RNAV",
		"updated": "08/23/2006",
	},
	{
		"name": "GRIZY",
		"latitude": "38-25-20.49 N",
		"longitude": "96-9-59.87 W",
		"state": "KANSAS",
		"artcc": "ZKC",
		"type": "RNAV",
		"updated": "08/09/2007",
	},
	{
		"name": "GRMPY",
		"latitude": "38-54-8.39 N",
		"longitude": "92-11-6.85 W",
		"state": "MISSOURI",
		"artcc": "ZKC",
		"type": "RP",
		"updated": "COU*VOR/DME*015.75/5.70",
	},
	{
		"name": "GRNKE",
		"latitude": "39-24-27.96 N",
		"longitude": "94-38-27.85 W",
		"state": "MISSOURI",
		"artcc": "ZKC",
		"type": "RNAV",
		"updated": "01/31/2013",
	},
	{
		"name": "GROOV",
		"latitude": "39-25-52.71 N",
		"longitude": "90-34-8.7 W",
		"state": "ILLINOIS",
		"artcc": "ZKC",
		"type": "RP",
		"updated": "STL*VORTAC*352.28/34.44",
	},
	{
		"name": "GROPE",
		"latitude": "35-54-10.46 N",
		"longitude": "96-46-7.56 W",
		"state": "OKLAHOMA",
		"artcc": "ZKC",
		"type": "RNAV",
		"updated": "06/23/2017",
	},
	{
		"name": "GTYER",
		"latitude": "35-54-30.74 N",
		"longitude": "96-34-31.07 W",
		"state": "OKLAHOMA",
		"artcc": "ZKC",
		"type": "RNAV",
		"updated": "05/27/2014",
	},
	{
		"name": "GUCFY",
		"latitude": "37-26-17.32 N",
		"longitude": "90-20-31.2 W",
		"state": "MISSOURI",
		"artcc": "ZKC",
		"type": "RNAV",
		"updated": "06/27/2013",
	},
	{
		"name": "GUDRY",
		"latitude": "38-52-36.32 N",
		"longitude": "90-42-5.74 W",
		"state": "MISSOURI",
		"artcc": "ZKC",
		"type": "RNAV",
		"updated": "10/15/2007",
	},
	{
		"name": "GUFEY",
		"latitude": "39-35-44.61 N",
		"longitude": "92-31-9.03 W",
		"state": "MISSOURI",
		"artcc": "ZKC",
		"type": "RNAV",
		"updated": "02/18/2014",
	},
	{
		"name": "GUKEC",
		"latitude": "39-16-8.16 N",
		"longitude": "95-37-0.79 W",
		"state": "KANSAS",
		"artcc": "ZKC",
		"type": "RNAV",
		"updated": "08/01/2013",
	},
	{
		"name": "GULLI",
		"latitude": "36-0-43.02 N",
		"longitude": "97-8-39.63 W",
		"state": "OKLAHOMA",
		"artcc": "ZKC",
		"type": "RP",
		"updated": "IRW*VORTAC*023.00/45.26",
	},
	{
		"name": "GUPUJ",
		"latitude": "37-2-59.02 N",
		"longitude": "93-22-11.46 W",
		"state": "MISSOURI",
		"artcc": "ZKC",
		"type": "RNAV",
		"updated": "06/12/2008",
	},
	{
		"name": "GURRA",
		"latitude": "39-17-6.36 N",
		"longitude": "94-54-19.15 W",
		"state": "KANSAS",
		"artcc": "ZKC",
		"type": "RNAV",
		"updated": "01/31/2013",
	},
	{
		"name": "GUSLE",
		"latitude": "37-12-53.18 N",
		"longitude": "93-23-58.78 W",
		"state": "MISSOURI",
		"artcc": "ZKC",
		"type": "RNAV",
		"updated": "01/12/2004",
	},
	{
		"name": "GUSSI",
		"latitude": "36-46-59.87 N",
		"longitude": "97-20-58.99 W",
		"state": "OKLAHOMA",
		"artcc": "ZKC",
		"type": "RNAV",
		"updated": "08/15/2010",
	},
	{
		"name": "GUTER",
		"latitude": "38-18-33.72 N",
		"longitude": "97-44-56.9 W",
		"state": "KANSAS",
		"artcc": "ZKC",
		"type": "RP",
		"updated": "HUT*VOR/DME*021.00/20.67",
	},
	{
		"name": "GUWRA",
		"latitude": "37-26-48.56 N",
		"longitude": "91-33-27.54 W",
		"state": "MISSOURI",
		"artcc": "ZKC",
		"type": "RNAV",
		"updated": "04/30/2001",
	},
	{
		"name": "GUYCE",
		"latitude": "38-41-42.04 N",
		"longitude": "97-38-44.44 W",
		"state": "KANSAS",
		"artcc": "ZKC",
		"type": "RNAV",
		"updated": "08/19/2005",
	},
	{
		"name": "GWINN",
		"latitude": "38-14-57.32 N",
		"longitude": "97-16-34.99 W",
		"state": "KANSAS",
		"artcc": "ZKC",
		"type": "RNAV",
		"updated": "09/09/2005",
	},
