[
	{
		"name": "HABLI",
		"latitude": "39-9-47.29 N",
		"longitude": "94-27-56.98 W",
		"state": "MISSOURI",
		"artcc": "ZKC",
		"type": "RNAV",
		"updated": "07/11/2007"
	},
	{
		"name": "HABMO",
		"latitude": "37-23-55.16 N",
		"longitude": "101-50-6.29 W",
		"state": "KANSAS",
		"artcc": "ZKC",
		"type": "RNAV",
		"updated": "09/07/2010"
	},
	{
		"name": "HABOV",
		"latitude": "39-56-56.16 N",
		"longitude": "90-48-17.67 W",
		"state": "ILLINOIS",
		"artcc": "ZKC",
		"type": "RNAV",
		"updated": "04/28/2009"
	},
	{
		"name": "HADAX",
		"latitude": "39-11-25.53 N",
		"longitude": "91-8-14.72 W",
		"state": "MISSOURI",
		"artcc": "ZKC",
		"type": "RNAV",
		"updated": "01/29/2002"
	},
	{
		"name": "HADKO",
		"latitude": "36-30-56.49 N",
		"longitude": "98-6-49.1 W",
		"state": "OKLAHOMA",
		"artcc": "ZKC",
		"type": "RNAV",
		"updated": "03/04/2015"
	},
	{
		"name": "HAGDO",
		"latitude": "40-10-21.99 N",
		"longitude": "90-48-0.63 W",
		"state": "ILLINOIS",
		"artcc": "ZKC",
		"type": "RNAV",
		"updated": "04/28/2009"
	},
	{
		"name": "HAGEE",
		"latitude": "38-47-35.74 N",
		"longitude": "90-28-40.9 W",
		"state": "MISSOURI",
		"artcc": "ZKC",
		"type": "RNAV",
		"updated": "08/03/2012"
	},
	{
		"name": "HAGEK",
		"latitude": "37-36-24.46 N",
		"longitude": "97-27-32.07 W",
		"state": "KANSAS",
		"artcc": "ZKC",
		"type": "RNAV",
		"updated": "08/11/2010"
	},
	{
		"name": "HAGIL",
		"latitude": "36-11-34.87 N",
		"longitude": "96-9-31.2 W",
		"state": "OKLAHOMA",
		"artcc": "ZKC",
		"type": "RNAV",
		"updated": "08/18/2010"
	},
	{
		"name": "HAGMI",
		"latitude": "37-10-36.42 N",
		"longitude": "99-19-38.28 W",
		"state": "KANSAS",
		"artcc": "ZKC",
		"type": "RNAV",
		"updated": "06/14/2016"
	},
	{
		"name": "HAKUK",
		"latitude": "37-3-40.51 N",
		"longitude": "101-47-28.5 W",
		"state": "KANSAS",
		"artcc": "ZKC",
		"type": "RNAV",
		"updated": "03/28/2010"
	},
	{
		"name": "HAKUN",
		"latitude": "37-36-19.74 N",
		"longitude": "94-39-51.12 W",
		"state": "KANSAS",
		"artcc": "ZKC",
		"type": "RNAV",
		"updated": "07/16/2007"
	},
	{
		"name": "HALAB",
		"latitude": "36-27-34.07 N",
		"longitude": "98-22-8.16 W",
		"state": "OKLAHOMA",
		"artcc": "ZKC",
		"type": "RNAV",
		"updated": "03/06/2003"
	},
	{
		"name": "HAMMO",
		"latitude": "39-52-4.97 N",
		"longitude": "88-36-9.71 W",
		"state": "ILLINOIS",
		"artcc": "ZKC",
		"type": "RP",
		"updated": "MTO*VOR/DME*325.00"
	},
	{
		"name": "HANCE",
		"latitude": "37-45-2.64 N",
		"longitude": "97-7-17.66 W",
		"state": "KANSAS",
		"artcc": "ZKC",
		"type": "RP",
		"updated": "ICT*VORTAC*082.00/22.00"
	},
	{
		"name": "HANEL",
		"latitude": "38-44-48.59 N",
		"longitude": "88-23-33.88 W",
		"state": "ILLINOIS",
		"artcc": "ZKC",
		"type": "RNAV",
		"updated": "04/25/2012"
	},
	{
		"name": "HANER",
		"latitude": "40-32-35.32 N",
		"longitude": "92-32-6.93 W",
		"state": "MISSOURI",
		"artcc": "ZKC",
		"type": "RNAV",
		"updated": "01/17/2002"
	},
	{
		"name": "HANOT",
		"latitude": "39-44-51.38 N",
		"longitude": "94-29-7.51 W",
		"state": "MISSOURI",
		"artcc": "ZKC",
		"type": "RP",
		"updated": "MCI*VORTAC*017.78"
	},
	{
		"name": "HAPTO",
		"latitude": "39-14-13.63 N",
		"longitude": "91-35-20.71 W",
		"state": "MISSOURI",
		"artcc": "ZKC",
		"type": "RP",
		"updated": "HLV*VORTAC*067.42"
	},
	{
		"name": "HARAN",
		"latitude": "38-15-12.61 N",
		"longitude": "98-35-34.37 W",
		"state": "KANSAS",
		"artcc": "ZKC",
		"type": "RP",
		"updated": "HUT*VOR/DME*292.45/34.77"
	},
	{
		"name": "HARCE",
		"latitude": "37-47-27.88 N",
		"longitude": "88-45-20.22 W",
		"state": "ILLINOIS",
		"artcc": "ZKC",
		"type": "RP",
		"updated": "ENL*VORTAC*149.00"
	},
	{
		"name": "HARDI",
		"latitude": "39-5-26.34 N",
		"longitude": "90-39-55.82 W",
		"state": "ILLINOIS",
		"artcc": "ZKC",
		"type": "RP",
		"updated": "STL*VORTAC*327.19/16.23"
	},
	{
		"name": "HARLI",
		"latitude": "38-32-18.85 N",
		"longitude": "93-35-41.84 W",
		"state": "MISSOURI",
		"artcc": "ZKC",
		"type": "MR",
		"updated": "SZL*TACAN*189.06/12.00"
	},
	{
		"name": "HARMS",
		"latitude": "36-5-9.3 N",
		"longitude": "98-26-49.65 W",
		"state": "OKLAHOMA",
		"artcc": "ZKC",
		"type": "MR",
		"updated": "END*VORTAC*234.00/30.00"
	},
	{
		"name": "HAROK",
		"latitude": "37-7-36 N",
		"longitude": "93-4-46 W",
		"state": "MISSOURI",
		"artcc": "ZKC",
		"type": "RNAV",
		"updated": "06/09/2015"
	},
	{
		"name": "HARSO",
		"latitude": "36-17-51.22 N",
		"longitude": "95-37-3.19 W",
		"state": "OKLAHOMA",
		"artcc": "ZKC",
		"type": "RNAV",
		"updated": "04/02/2008"
	},
	{
		"name": "HASES",
		"latitude": "39-9-18.36 N",
		"longitude": "95-25-38.77 W",
		"state": "KANSAS",
		"artcc": "ZKC",
		"type": "RNAV",
		"updated": "09/10/2003"
	},
	{
		"name": "HASKL",
		"latitude": "35-57-51.94 N",
		"longitude": "95-49-26.8 W",
		"state": "OKLAHOMA",
		"artcc": "ZKC",
		"type": "RP",
		"updated": "TUL*VORTAC*179.20/14.00"
	},
	{
		"name": "HASOB",
		"latitude": "37-33-1.95 N",
		"longitude": "93-33-10.63 W",
		"state": "MISSOURI",
		"artcc": "ZKC",
		"type": "RNAV",
		"updated": "08/03/2015"
	},
	{
		"name": "HASSE",
		"latitude": "39-46-7.12 N",
		"longitude": "89-6-4.71 W",
		"state": "ILLINOIS",
		"artcc": "ZKC",
		"type": "RP",
		"updated": "AXC*VORTAC*276.43/11.49"
	},
	{
		"name": "HASUN",
		"latitude": "37-56-41.7 N",
		"longitude": "99-48-58.17 W",
		"state": "KANSAS",
		"artcc": "ZKC",
		"type": "RNAV",
		"updated": "07/25/2017"
	},
	{
		"name": "HATAN",
		"latitude": "39-3-29.99 N",
		"longitude": "96-45-34.53 W",
		"state": "KANSAS",
		"artcc": "ZKC",
		"type": "RP",
		"updated": "MHK*VOR/DME*213.13/6.73"
	},
	{
		"name": "HAUKE",
		"latitude": "37-39-37.97 N",
		"longitude": "92-4-37.63 W",
		"state": "MISSOURI",
		"artcc": "ZKC",
		"type": "RP",
		"updated": "TBN*VOR*146.00"
	},
	{
		"name": "HAVLU",
		"latitude": "40-36-38.56 N",
		"longitude": "91-35-15.55 W",
		"state": "IOWA",
		"artcc": "ZKC",
		"type": "RNAV",
		"updated": "07/27/2006"
	},
	{
		"name": "HAVOR",
		"latitude": "36-23-50.77 N",
		"longitude": "99-31-17 W",
		"state": "OKLAHOMA",
		"artcc": "ZKC",
		"type": "RNAV",
		"updated": "07/10/2009"
	},
	{
		"name": "HAWWE",
		"latitude": "38-26-3.27 N",
		"longitude": "97-40-46.49 W",
		"state": "KANSAS",
		"artcc": "ZKC",
		"type": "RNAV",
		"updated": "08/09/2007"
	},
	{
		"name": "HAXED",
		"latitude": "36-12-3.54 N",
		"longitude": "95-59-23.98 W",
		"state": "OKLAHOMA",
		"artcc": "ZKC",
		"type": "RNAV",
		"updated": "04/19/2016"
	},
	{
		"name": "HAXUR",
		"latitude": "37-7-53 N",
		"longitude": "92-0-28.3 W",
		"state": "MISSOURI",
		"artcc": "ZKC",
		"type": "RNAV",
		"updated": "07/06/2012"
	},
	{
		"name": "HEBET",
		"latitude": "39-53-6.83 N",
		"longitude": "91-26-42.39 W",
		"state": "ILLINOIS",
		"artcc": "ZKC",
		"type": "RP",
		"updated": "UIN*VORTAC*281.29/8.00"
	},
	{
		"name": "HEBKI",
		"latitude": "39-14-52.65 N",
		"longitude": "94-27-50.54 W",
		"state": "MISSOURI",
		"artcc": "ZKC",
		"type": "RNAV",
		"updated": "03/21/2012"
	},
	{
		"name": "HEBMO",
		"latitude": "37-43-15.9 N",
		"longitude": "94-30-16.71 W",
		"state": "MISSOURI",
		"artcc": "ZKC",
		"type": "RNAV",
		"updated": "08/12/2010"
	},
	{
		"name": "HEBNA",
		"latitude": "38-43-49 N",
		"longitude": "91-57-33 W",
		"state": "MISSOURI",
		"artcc": "ZKC",
		"type": "RNAV",
		"updated": "09/25/2012"
	},
	{
		"name": "HEDDY",
		"latitude": "37-9-32.49 N",
		"longitude": "96-53-30.7 W",
		"state": "KANSAS",
		"artcc": "ZKC",
		"type": "WP",
		"updated": "ICT*VORTAC*129.53/48.24"
	},
	{
		"name": "HEDES",
		"latitude": "37-54-19.31 N",
		"longitude": "100-41-26.97 W",
		"state": "KANSAS",
		"artcc": "ZKC",
		"type": "RP",
		"updated": "GCK*VORTAC*105.77/1.82"
	},
	{
		"name": "HEDIK",
		"latitude": "35-35-57.07 N",
		"longitude": "97-25-2.81 W",
		"state": "OKLAHOMA",
		"artcc": "ZKC",
		"type": "RNAV",
		"updated": "05/27/2014"
	},
	{
		"name": "HEDKO",
		"latitude": "39-12-53.38 N",
		"longitude": "88-57-11.76 W",
		"state": "ILLINOIS",
		"artcc": "ZKC",
		"type": "RNAV",
		"updated": "04/02/2010"
	},
	{
		"name": "HEDLI",
		"latitude": "38-20-4.13 N",
		"longitude": "89-48-15.81 W",
		"state": "ILLINOIS",
		"artcc": "ZKC",
		"type": "RNAV",
		"updated": "01/30/2004"
	},
	{
		"name": "HEDMU",
		"latitude": "39-54-8.79 N",
		"longitude": "89-45-52.67 W",
		"state": "ILLINOIS",
		"artcc": "ZKC",
		"type": "RP",
		"updated": "03/31/2010"
	},
	{
		"name": "HEDUV",
		"latitude": "38-54-25.69 N",
		"longitude": "90-5-24.89 W",
		"state": "ILLINOIS",
		"artcc": "ZKC",
		"type": "RNAV",
		"updated": "03/28/2011"
	},
	{
		"name": "HEFNR",
		"latitude": "38-42-6.39 N",
		"longitude": "90-16-24.55 W",
		"state": "MISSOURI",
		"artcc": "ZKC",
		"type": "RNAV",
		"updated": "08/03/2012"
	},
	{
		"name": "HEGER",
		"latitude": "37-30-45.56 N",
		"longitude": "97-3-47.65 W",
		"state": "KANSAS",
		"artcc": "ZKC",
		"type": "RNAV",
		"updated": "08/20/2003"
	},
	{
		"name": "HEGLI",
		"latitude": "36-20-17.66 N",
		"longitude": "95-28-46.25 W",
		"state": "OKLAHOMA",
		"artcc": "ZKC",
		"type": "RNAV",
		"updated": "07/10/2009"
	},
	{
		"name": "HEGUL",
		"latitude": "39-51-13.99 N",
		"longitude": "91-7-39.51 W",
		"state": "ILLINOIS",
		"artcc": "ZKC",
		"type": "RP",
		"updated": "UIN*VORTAC*082.00/7.00"
	},
	{
		"name": "HEKBO",
		"latitude": "37-46-56.59 N",
		"longitude": "95-24-45.8 W",
		"state": "KANSAS",
		"artcc": "ZKC",
		"type": "RNAV",
		"updated": "03/12/2012"
	},
	{
		"name": "HEKLO",
		"latitude": "37-22-28.65 N",
		"longitude": "97-19-2.12 W",
		"state": "KANSAS",
		"artcc": "ZKC",
		"type": "MR",
		"updated": "IAB*TACAN*185.00/15.00"
	},
	{
		"name": "HEKOL",
		"latitude": "39-51-9.17 N",
		"longitude": "89-39-57.94 W",
		"state": "ILLINOIS",
		"artcc": "ZKC",
		"type": "RP",
		"updated": "SPI*VORTAC*036.00/0.94"
	},
	{
		"name": "HEKOV",
		"latitude": "39-15-35.27 N",
		"longitude": "93-44-23.34 W",
		"state": "MISSOURI",
		"artcc": "ZKC",
		"type": "RNAV",
		"updated": "02/28/2008"
	},
	{
		"name": "HELBO",
		"latitude": "36-39-24 N",
		"longitude": "98-4-28.92 W",
		"state": "OKLAHOMA",
		"artcc": "ZKC",
		"type": "MW",
		"updated": "05/04/2009"
	},
	{
		"name": "HELGU",
		"latitude": "38-36-57.88 N",
		"longitude": "89-56-22.47 W",
		"state": "ILLINOIS",
		"artcc": "ZKC",
		"type": "RP",
		"updated": "SKE*TACAN*/5.92"
	},
	{
		"name": "HELIS",
		"latitude": "39-44-40.93 N",
		"longitude": "88-52-20.81 W",
		"state": "ILLINOIS",
		"artcc": "ZKC",
		"type": "RNAV",
		"updated": "01/12/2016"
	},
	{
		"name": "HELUM",
		"latitude": "37-41-17.72 N",
		"longitude": "97-24-19.57 W",
		"state": "KANSAS",
		"artcc": "ZKC",
		"type": "RNAV",
		"updated": "08/11/2010"
	},
	{
		"name": "HELUR",
		"latitude": "37-7-32.82 N",
		"longitude": "93-41-26.88 W",
		"state": "MISSOURI",
		"artcc": "ZKC",
		"type": "RNAV",
		"updated": "11/29/2011"
	},
	{
		"name": "HEMGA",
		"latitude": "40-15-36.32 N",
		"longitude": "93-42-8.93 W",
		"state": "MISSOURI",
		"artcc": "ZKC",
		"type": "RNAV",
		"updated": "05/10/2012"
	},
	{
		"name": "HEMPA",
		"latitude": "37-58-25.48 N",
		"longitude": "89-14-34.64 W",
		"state": "ILLINOIS",
		"artcc": "ZKC",
		"type": "RP",
		"updated": "ENL*VORTAC*184.47"
	},
	{
		"name": "HEMTU",
		"latitude": "38-55-15.92 N",
		"longitude": "97-50-45.77 W",
		"state": "KANSAS",
		"artcc": "ZKC",
		"type": "RNAV",
		"updated": "09/15/2008"
	},
	{
		"name": "HENAN",
		"latitude": "37-35-1.39 N",
		"longitude": "89-8-54.81 W",
		"state": "ILLINOIS",
		"artcc": "ZKC",
		"type": "RNAV",
		"updated": "12/09/2009"
	},
	{
		"name": "HENEV",
		"latitude": "37-55-30.85 N",
		"longitude": "97-5-17.07 W",
		"state": "KANSAS",
		"artcc": "ZKC",
		"type": "RNAV",
		"updated": "12/20/2005"
	},
	{
		"name": "HENIN",
		"latitude": "36-2-15.53 N",
		"longitude": "96-46-12.15 W",
		"state": "OKLAHOMA",
		"artcc": "ZKC",
		"type": "RNAV",
		"updated": "06/23/2017"
	},
	{
		"name": "HENPI",
		"latitude": "36-57-45.81 N",
		"longitude": "101-12-42.9 W",
		"state": "OKLAHOMA",
		"artcc": "ZKC",
		"type": "RNAV",
		"updated": "07/05/2007"
	},
	{
		"name": "HEPDU",
		"latitude": "37-31-22.67 N",
		"longitude": "97-17-16.28 W",
		"state": "KANSAS",
		"artcc": "ZKC",
		"type": "MR",
		"updated": "IAB*TACAN*182.00/6.00"
	},
	{
		"name": "HEPOG",
		"latitude": "39-15-59.24 N",
		"longitude": "95-30-34.82 W",
		"state": "KANSAS",
		"artcc": "ZKC",
		"type": "RNAV",
		"updated": "08/01/2013"
	},
	{
		"name": "HEPTO",
		"latitude": "38-58-8.95 N",
		"longitude": "94-44-14.04 W",
		"state": "KANSAS",
		"artcc": "ZKC",
		"type": "RP",
		"updated": "GQR*LD*215.29/11.81"
	},
	{
		"name": "HEPVA",
		"latitude": "37-51-53.53 N",
		"longitude": "100-9-6.65 W",
		"state": "KANSAS",
		"artcc": "ZKC",
		"type": "RP",
		"updated": "DDC*VORTAC*269.07/7.00"
	},
	{
		"name": "HERBB",
		"latitude": "38-45-11.35 N",
		"longitude": "94-44-16.29 W",
		"state": "KANSAS",
		"artcc": "ZKC",
		"type": "RP",
		"updated": "PKX*LO*176.13"
	},
	{
		"name": "HESMA",
		"latitude": "38-8-54.13 N",
		"longitude": "98-51-19.67 W",
		"state": "KANSAS",
		"artcc": "ZKC",
		"type": "RNAV",
		"updated": "10/06/2008"
	},
	{
		"name": "HESPU",
		"latitude": "37-55-52.42 N",
		"longitude": "94-15-18.51 W",
		"state": "MISSOURI",
		"artcc": "ZKC",
		"type": "RNAV",
		"updated": "08/12/2010"
	},
	{
		"name": "HESTN",
		"latitude": "38-1-29 N",
		"longitude": "91-0-13 W",
		"state": "MISSOURI",
		"artcc": "ZKC",
		"type": "RNAV",
		"updated": "11/26/2002"
	},
	{
		"name": "HESUL",
		"latitude": "37-55-6.94 N",
		"longitude": "97-49-29.01 W",
		"state": "KANSAS",
		"artcc": "ZKC",
		"type": "RP",
		"updated": "HUT*VOR/DME*128.08/7.00"
	},
	{
		"name": "HESUR",
		"latitude": "38-17-32.61 N",
		"longitude": "88-54-18.94 W",
		"state": "ILLINOIS",
		"artcc": "ZKC",
		"type": "RNAV",
		"updated": "09/09/2008"
	},
	{
		"name": "HETAB",
		"latitude": "38-55-8.85 N",
		"longitude": "97-46-14.36 W",
		"state": "KANSAS",
		"artcc": "ZKC",
		"type": "RP",
		"updated": "SLN*VORTAC*260.09/7.00"
	},
	{
		"name": "HETOV",
		"latitude": "37-8-1.09 N",
		"longitude": "95-20-47.31 W",
		"state": "KANSAS",
		"artcc": "ZKC",
		"type": "RP",
		"updated": "OSW*VOR/DME*250.25/7.00"
	},
	{
		"name": "HETSU",
		"latitude": "38-40-38.02 N",
		"longitude": "89-58-47.51 W",
		"state": "ILLINOIS",
		"artcc": "ZKC",
		"type": "RP",
		"updated": "BTC*LD*318.55/11.81"
	},
	{
		"name": "HETUM",
		"latitude": "39-50-18.83 N",
		"longitude": "90-9-18.96 W",
		"state": "ILLINOIS",
		"artcc": "ZKC",
		"type": "RNAV",
		"updated": "08/24/2005"
	},
	{
		"name": "HEVAL",
		"latitude": "37-12-50.24 N",
		"longitude": "93-24-0.27 W",
		"state": "MISSOURI",
		"artcc": "ZKC",
		"type": "RP",
		"updated": "SGF*LD*198.79/2.71"
	},
	{
		"name": "HEVTI",
		"latitude": "38-35-22.48 N",
		"longitude": "97-45-5.83 W",
		"state": "KANSAS",
		"artcc": "ZKC",
		"type": "RNAV",
		"updated": "08/19/2005"
	},
	{
		"name": "HEXER",
		"latitude": "36-33-13.2 N",
		"longitude": "94-16-57.99 W",
		"state": "MISSOURI",
		"artcc": "ZKC",
		"type": "RP",
		"updated": "RZC*VORTAC*333.04/20.00"
	},
	{
		"name": "HEYDN",
		"latitude": "38-41-48.67 N",
		"longitude": "96-22-35.32 W",
		"state": "KANSAS",
		"artcc": "ZKC",
		"type": "RP",
		"updated": "EMP*VORTAC*327.29/26.78"
	},
	{
		"name": "HIBGE",
		"latitude": "39-43-2.7 N",
		"longitude": "94-54-24.88 W",
		"state": "MISSOURI",
		"artcc": "ZKC",
		"type": "RNAV",
		"updated": "10/31/2013"
	},
	{
		"name": "HIBUX",
		"latitude": "37-31-2.72 N",
		"longitude": "94-39-30.48 W",
		"state": "KANSAS",
		"artcc": "ZKC",
		"type": "RNAV",
		"updated": "07/13/2012"
	},
	{
		"name": "HIDNN",
		"latitude": "38-43-52.48 N",
		"longitude": "93-15-8.25 W",
		"state": "MISSOURI",
		"artcc": "ZKC",
		"type": "MR",
		"updated": "SZL*TACAN*090.00/14.00"
	},
	{
		"name": "HIGIY",
		"latitude": "36-18-33.02 N",
		"longitude": "97-16-36.34 W",
		"state": "OKLAHOMA",
		"artcc": "ZKC",
		"type": "RNAV",
		"updated": "05/02/2011"
	},
	{
		"name": "HIKIT",
		"latitude": "35-33-7.97 N",
		"longitude": "96-50-27.44 W",
		"state": "OKLAHOMA",
		"artcc": "ZKC",
		"type": "RNAV",
		"updated": "08/17/2010"
	},
	{
		"name": "HILNA",
		"latitude": "39-1-34.29 N",
		"longitude": "88-31-14.37 W",
		"state": "ILLINOIS",
		"artcc": "ZKC",
		"type": "RP",
		"updated": "BIB*VORTAC*341.02/6.60"
	},
	{
		"name": "HILPI",
		"latitude": "38-51-47.42 N",
		"longitude": "90-37-12.54 W",
		"state": "MISSOURI",
		"artcc": "ZKC",
		"type": "RNAV",
		"updated": "05/01/2006"
	},
	{
		"name": "HILTS",
		"latitude": "38-7-45.42 N",
		"longitude": "88-19-30.79 W",
		"state": "ILLINOIS",
		"artcc": "ZKC",
		"type": "RP",
		"updated": "PXV*VORTAC*291.47/29.28"
	},
	{
		"name": "HIMNI",
		"latitude": "39-37-42.46 N",
		"longitude": "91-30-18.59 W",
		"state": "MISSOURI",
		"artcc": "ZKC",
		"type": "RP",
		"updated": "UIN*VORTAC*213.60/16.82"
	},
	{
		"name": "HINEN",
		"latitude": "36-35-21.32 N",
		"longitude": "98-40-15.19 W",
		"state": "OKLAHOMA",
		"artcc": "ZKC",
		"type": "RNAV",
		"updated": "07/01/2015"
	},
	{
		"name": "HINGU",
		"latitude": "37-40-38.21 N",
		"longitude": "97-25-35.94 W",
		"state": "KANSAS",
		"artcc": "ZKC",
		"type": "RNAV",
		"updated": "03/30/2015"
	},
	{
		"name": "HINIL",
		"latitude": "37-52-57.55 N",
		"longitude": "92-1-3.56 W",
		"state": "MISSOURI",
		"artcc": "ZKC",
		"type": "RNAV",
		"updated": "06/09/2015"
	},
	{
		"name": "HIPES",
		"latitude": "35-29-49.35 N",
		"longitude": "97-26-9.16 W",
		"state": "OKLAHOMA",
		"artcc": "ZKC",
		"type": "RNAV",
		"updated": "07/08/2011"
	},
	{
		"name": "HIPLO",
		"latitude": "39-53-53.68 N",
		"longitude": "89-46-22.41 W",
		"state": "ILLINOIS",
		"artcc": "ZKC",
		"type": "RNAV",
		"updated": "03/31/2010"
	},
	{
		"name": "HIPPY",
		"latitude": "36-11-40.02 N",
		"longitude": "99-58-20.24 W",
		"state": "OKLAHOMA",
		"artcc": "ZKC",
		"type": "RP",
		"updated": "MMB*VORTAC*196.59/10.00"
	},
	{
		"name": "HIRAS",
		"latitude": "36-39-10.66 N",
		"longitude": "100-31-9.04 W",
		"state": "OKLAHOMA",
		"artcc": "ZKC",
		"type": "RP",
		"updated": "LBL*VORTAC*126.00/32.00"
	},
	{
		"name": "HIRIV",
		"latitude": "38-30-6.31 N",
		"longitude": "89-38-47.97 W",
		"state": "ILLINOIS",
		"artcc": "ZKC",
		"type": "RP",
		"updated": "SKE*TACAN*107.09/10.00"
	},
	{
		"name": "HIRLA",
		"latitude": "36-41-49.65 N",
		"longitude": "93-57-30.51 W",
		"state": "MISSOURI",
		"artcc": "ZKC",
		"type": "RNAV",
		"updated": "06/21/2013"
	},
	{
		"name": "HIRPA",
		"latitude": "39-54-54.68 N",
		"longitude": "90-25-13.44 W",
		"state": "ILLINOIS",
		"artcc": "ZKC",
		"type": "RNAV",
		"updated": "08/24/2005"
	},
	{
		"name": "HIRPO",
		"latitude": "36-17-31.37 N",
		"longitude": "97-16-36.04 W",
		"state": "OKLAHOMA",
		"artcc": "ZKC",
		"type": "RNAV",
		"updated": "05/12/2017"
	},
	{
		"name": "HISBU",
		"latitude": "37-7-9.27 N",
		"longitude": "93-25-54.73 W",
		"state": "MISSOURI",
		"artcc": "ZKC",
		"type": "RNAV",
		"updated": "06/09/2015"
	},
	{
		"name": "HISIX",
		"latitude": "38-35-33.56 N",
		"longitude": "97-32-39.05 W",
		"state": "KANSAS",
		"artcc": "ZKC",
		"type": "RNAV",
		"updated": "09/15/2008"
	},
	{
		"name": "HISTU",
		"latitude": "39-54-42.92 N",
		"longitude": "93-35-16.08 W",
		"state": "MISSOURI",
		"artcc": "ZKC",
		"type": "RNAV",
		"updated": "05/11/2012"
	},
	{
		"name": "HISZY",
		"latitude": "38-32-48.86 N",
		"longitude": "90-58-6.94 W",
		"state": "MISSOURI",
		"artcc": "ZKC",
		"type": "RNAV",
		"updated": "08/24/2009"
	},
	{
		"name": "HITES",
		"latitude": "39-37-55.5 N",
		"longitude": "91-15-6.57 W",
		"state": "MISSOURI",
		"artcc": "ZKC",
		"type": "RP",
		"updated": "UIN*VORTAC*169.47/13.00"
	},
	{
		"name": "HIVGA",
		"latitude": "36-44-1.15 N",
		"longitude": "93-22-12.9 W",
		"state": "MISSOURI",
		"artcc": "ZKC",
		"type": "RNAV",
		"updated": "09/13/2012"
	},
	{
		"name": "HIXAN",
		"latitude": "39-47-17.05 N",
		"longitude": "88-57-32.57 W",
		"state": "ILLINOIS",
		"artcc": "ZKC",
		"type": "RNAV",
		"updated": "08/22/2005"
	},
	{
		"name": "HIXOB",
		"latitude": "38-50-12.34 N",
		"longitude": "90-33-58.37 W",
		"state": "MISSOURI",
		"artcc": "ZKC",
		"type": "RP",
		"updated": "STL*VORTAC*248.98"
	},
	{
		"name": "HIXOM",
		"latitude": "38-37-17.77 N",
		"longitude": "90-6-11.95 W",
		"state": "ILLINOIS",
		"artcc": "ZKC",
		"type": "RP",
		"updated": "TOY*VORTAC*226.99"
	},
	{
		"name": "HIXZA",
		"latitude": "38-51-9.37 N",
		"longitude": "97-44-59.06 W",
		"state": "KANSAS",
		"artcc": "ZKC",
		"type": "RNAV",
		"updated": "09/15/2008"
	},
	{
		"name": "HMFRZ",
		"latitude": "39-12-25.03 N",
		"longitude": "90-48-26.7 W",
		"state": "MISSOURI",
		"artcc": "ZKC",
		"type": "RNAV",
		"updated": "09/25/2012"
	},
	{
		"name": "HMMEL",
		"latitude": "39-4-40.66 N",
		"longitude": "96-31-51.89 W",
		"state": "KANSAS",
		"artcc": "ZKC",
		"type": "RNAV",
		"updated": "06/27/2012"
	},
	{
		"name": "HNGER",
		"latitude": "36-21-12 N",
		"longitude": "97-12-41 W",
		"state": "OKLAHOMA",
		"artcc": "ZKC",
		"type": "RNAV",
		"updated": "05/27/2014"
	},
	{
		"name": "HNZLY",
		"latitude": "39-24-8.09 N",
		"longitude": "94-41-49.55 W",
		"state": "MISSOURI",
		"artcc": "ZKC",
		"type": "RP",
		"updated": "PAJ*LD*010.93/6.88"
	},
	{
		"name": "HOBEK",
		"latitude": "36-42-56.48 N",
		"longitude": "96-0-36.05 W",
		"state": "OKLAHOMA",
		"artcc": "ZKC",
		"type": "RNAV",
		"updated": "12/24/2015"
	},
	{
		"name": "HOBVO",
		"latitude": "39-22-23.19 N",
		"longitude": "94-18-11.21 W",
		"state": "MISSOURI",
		"artcc": "ZKC",
		"type": "RP",
		"updated": "CUE*LD*N CRS/3.07"
	},
	{
		"name": "HOCJO",
		"latitude": "38-7-35.65 N",
		"longitude": "95-34-44.3 W",
		"state": "KANSAS",
		"artcc": "ZKC",
		"type": "RP",
		"updated": "CNU*VOR/DME*356.31/30.00"
	},
	{
		"name": "HODAM",
		"latitude": "35-40-7.97 N",
		"longitude": "97-21-20.67 W",
		"state": "OKLAHOMA",
		"artcc": "ZKC",
		"type": "RNAV",
		"updated": "06/13/2008"
	},
	{
		"name": "HODAN",
		"latitude": "38-39-41.32 N",
		"longitude": "89-22-31.37 W",
		"state": "ILLINOIS",
		"artcc": "ZKC",
		"type": "RNAV",
		"updated": "05/04/2016"
	},
	{
		"name": "HODEN",
		"latitude": "38-49-51.81 N",
		"longitude": "94-0-19.43 W",
		"state": "MISSOURI",
		"artcc": "ZKC",
		"type": "RP",
		"updated": "ANX*VORTAC*152.93/16.87"
	},
	{
		"name": "HODGS",
		"latitude": "38-35-19.72 N",
		"longitude": "91-53-46.55 W",
		"state": "MISSOURI",
		"artcc": "ZKC",
		"type": "RP",
		"updated": "VIH*VOR/DME*335.12/27.55"
	},
	{
		"name": "HODOX",
		"latitude": "37-32-48.22 N",
		"longitude": "90-25-57.69 W",
		"state": "MISSOURI",
		"artcc": "ZKC",
		"type": "RNAV",
		"updated": "08/11/2010"
	},
	{
		"name": "HOEME",
		"latitude": "38-17-12.82 N",
		"longitude": "100-59-16.8 W",
		"state": "KANSAS",
		"artcc": "ZKC",
		"type": "RNAV",
		"updated": "08/04/2006"
	},
	{
		"name": "HOFMN",
		"latitude": "37-11-5.71 N",
		"longitude": "94-48-8.64 W",
		"state": "KANSAS",
		"artcc": "ZKC",
		"type": "RP",
		"updated": "OSW*VOR/DME*077.00/19.31"
	},
	{
		"name": "HOGAS",
		"latitude": "38-4-7.03 N",
		"longitude": "99-53-32.63 W",
		"state": "KANSAS",
		"artcc": "ZKC",
		"type": "RNAV",
		"updated": "02/08/2017"
	},
	{
		"name": "HOGTU",
		"latitude": "38-34-21.47 N",
		"longitude": "88-18-40.64 W",
		"state": "ILLINOIS",
		"artcc": "ZKC",
		"type": "RNAV",
		"updated": "02/05/2010"
	},
	{
		"name": "HOKDO",
		"latitude": "37-57-53.61 N",
		"longitude": "89-42-1.88 W",
		"state": "ILLINOIS",
		"artcc": "ZKC",
		"type": "RNAV",
		"updated": "09/09/2005"
	},
	{
		"name": "HOKET",
		"latitude": "37-22-39.56 N",
		"longitude": "97-20-13.7 W",
		"state": "KANSAS",
		"artcc": "ZKC",
		"type": "MR",
		"updated": "IAB*TACAN*/15.00"
	},
	{
		"name": "HOKOB",
		"latitude": "37-48-12.18 N",
		"longitude": "92-41-1.73 W",
		"state": "MISSOURI",
		"artcc": "ZKC",
		"type": "RNAV",
		"updated": "08/03/2015"
	},
	{
		"name": "HOLLT",
		"latitude": "38-22-28.42 N",
		"longitude": "89-59-39.36 W",
		"state": "ILLINOIS",
		"artcc": "ZKC",
		"type": "RNAV",
		"updated": "09/19/2012"
	},
	{
		"name": "HOLMS",
		"latitude": "39-24-26.5 N",
		"longitude": "94-39-59.79 W",
		"state": "MISSOURI",
		"artcc": "ZKC",
		"type": "RNAV",
		"updated": "01/31/2013"
	},
	{
		"name": "HOLUS",
		"latitude": "37-36-49.17 N",
		"longitude": "97-24-29.59 W",
		"state": "KANSAS",
		"artcc": "ZKC",
		"type": "RNAV",
		"updated": "03/26/2010"
	},
	{
		"name": "HOMAX",
		"latitude": "39-23-3.16 N",
		"longitude": "88-29-24.77 W",
		"state": "ILLINOIS",
		"artcc": "ZKC",
		"type": "RNAV",
		"updated": "01/22/2016"
	},
	{
		"name": "HOMIN",
		"latitude": "36-22-40.85 N",
		"longitude": "96-14-5.36 W",
		"state": "OKLAHOMA",
		"artcc": "ZKC",
		"type": "RP",
		"updated": "BVO*VOR/DME*192.99/29.27"
	},
	{
		"name": "HOMLA",
		"latitude": "39-49-11.69 N",
		"longitude": "89-42-45.12 W",
		"state": "ILLINOIS",
		"artcc": "ZKC",
		"type": "RP",
		"updated": "SPI*VORTAC*234.56/2.00"
	},
	{
		"name": "HONBO",
		"latitude": "38-39-44.75 N",
		"longitude": "89-43-15.94 W",
		"state": "ILLINOIS",
		"artcc": "ZKC",
		"type": "RNAV",
		"updated": "03/01/2013"
	},
	{
		"name": "HONKK",
		"latitude": "39-16-23.84 N",
		"longitude": "88-58-14.87 W",
		"state": "ILLINOIS",
		"artcc": "ZKC",
		"type": "RNAV",
		"updated": "09/24/2012"
	},
	{
		"name": "HONKS",
		"latitude": "36-35-26.7 N",
		"longitude": "101-31-13.45 W",
		"state": "OKLAHOMA",
		"artcc": "ZKC",
		"type": "RNAV",
		"updated": "11/07/2011"
	},
	{
		"name": "HOOOT",
		"latitude": "38-40-24.03 N",
		"longitude": "90-26-31.38 W",
		"state": "MISSOURI",
		"artcc": "ZKC",
		"type": "RNAV",
		"updated": "09/25/2012"
	},
	{
		"name": "HOOZE",
		"latitude": "38-53-42.28 N",
		"longitude": "95-17-39.85 W",
		"state": "KANSAS",
		"artcc": "ZKC",
		"type": "RP",
		"updated": "MCI*VORTAC*223.24/35.00"
	},
	{
		"name": "HOPWD",
		"latitude": "38-47-2.63 N",
		"longitude": "90-26-25.47 W",
		"state": "MISSOURI",
		"artcc": "ZKC",
		"type": "RNAV",
		"updated": "08/13/2012"
	},
	{
		"name": "HORAP",
		"latitude": "36-59-23.28 N",
		"longitude": "94-30-4.13 W",
		"state": "MISSOURI",
		"artcc": "ZKC",
		"type": "RNAV",
		"updated": "11/18/2016"
	},
	{
		"name": "HOROK",
		"latitude": "39-53-14.18 N",
		"longitude": "92-32-47.65 W",
		"state": "MISSOURI",
		"artcc": "ZKC",
		"type": "RP",
		"updated": "IRK*LD*S CRS/12.97"
	},
	{
		"name": "HORRO",
		"latitude": "38-41-2.97 N",
		"longitude": "95-14-51.5 W",
		"state": "KANSAS",
		"artcc": "ZKC",
		"type": "MR",
		"updated": "FOE*TACAN*124.00/25.00"
	},
	{
		"name": "HORUS",
		"latitude": "38-42-32.14 N",
		"longitude": "90-20-53.39 W",
		"state": "MISSOURI",
		"artcc": "ZKC",
		"type": "RP",
		"updated": "STL*VORTAC*144.27"
	},
	{
		"name": "HOSKI",
		"latitude": "36-49-43.37 N",
		"longitude": "93-19-40.37 W",
		"state": "MISSOURI",
		"artcc": "ZKC",
		"type": "RNAV",
		"updated": "06/09/2015"
	},
	{
		"name": "HOSKO",
		"latitude": "37-14-34.01 N",
		"longitude": "93-22-35.63 W",
		"state": "MISSOURI",
		"artcc": "ZKC",
		"type": "RNAV",
		"updated": "11/03/2015"
	},
	{
		"name": "HOSKU",
		"latitude": "39-8-5.8 N",
		"longitude": "97-19-41.67 W",
		"state": "KANSAS",
		"artcc": "ZKC",
		"type": "RNAV",
		"updated": "08/02/2013"
	},
	{
		"name": "HOSNI",
		"latitude": "38-58-8.27 N",
		"longitude": "99-5-12.53 W",
		"state": "KANSAS",
		"artcc": "ZKC",
		"type": "RNAV",
		"updated": "08/12/2010"
	},
	{
		"name": "HOSNO",
		"latitude": "39-45-4.97 N",
		"longitude": "91-11-46.52 W",
		"state": "ILLINOIS",
		"artcc": "ZKC",
		"type": "RNAV",
		"updated": "11/17/2008"
	},
	{
		"name": "HOSOB",
		"latitude": "36-39-40.67 N",
		"longitude": "97-53-27.23 W",
		"state": "OKLAHOMA",
		"artcc": "ZKC",
		"type": "MR",
		"updated": "END*VORTAC*359.00/19.00"
	},
	{
		"name": "HOTAP",
		"latitude": "37-29-24.62 N",
		"longitude": "95-36-44.25 W",
		"state": "KANSAS",
		"artcc": "ZKC",
		"type": "RP",
		"updated": "CNU*VOR/DME*181.30/8.20"
	},
	{
		"name": "HOTBI",
		"latitude": "39-14-56.18 N",
		"longitude": "94-43-6.98 W",
		"state": "MISSOURI",
		"artcc": "ZKC",
		"type": "RP",
		"updated": "PVL*LD*190.94/3.74"
	},
	{
		"name": "HOTCH",
		"latitude": "37-19-6.3 N",
		"longitude": "94-41-19.11 W",
		"state": "KANSAS",
		"artcc": "ZKC",
		"type": "RP",
		"updated": "OSW*VOR/DME*060.50/26.49"
	},
	{
		"name": "HOTHU",
		"latitude": "37-54-25.08 N",
		"longitude": "101-46-5.82 W",
		"state": "KANSAS",
		"artcc": "ZKC",
		"type": "RNAV",
		"updated": "07/22/2010"
	},
	{
		"name": "HOTUT",
		"latitude": "36-48-20.51 N",
		"longitude": "94-50-33.5 W",
		"state": "OKLAHOMA",
		"artcc": "ZKC",
		"type": "RNAV",
		"updated": "02/25/2005"
	},
	{
		"name": "HOTVA",
		"latitude": "39-3-28.62 N",
		"longitude": "94-41-1.1 W",
		"state": "KANSAS",
		"artcc": "ZKC",
		"type": "RNAV",
		"updated": "01/06/2006"
	},
	{
		"name": "HOVEB",
		"latitude": "37-7-55.62 N",
		"longitude": "97-2-9.96 W",
		"state": "KANSAS",
		"artcc": "ZKC",
		"type": "RNAV",
		"updated": "09/11/2014"
	},
	{
		"name": "HOVER",
		"latitude": "37-44-15.29 N",
		"longitude": "97-23-56.42 W",
		"state": "KANSAS",
		"artcc": "ZKC",
		"type": "RP",
		"updated": "ICT*VORTAC*085.94"
	},
	{
		"name": "HOVIL",
		"latitude": "37-0-8.48 N",
		"longitude": "94-19-57.86 W",
		"state": "MISSOURI",
		"artcc": "ZKC",
		"type": "RP",
		"updated": "OSW*VOR/DME*094.27/42.83"
	},
	{
		"name": "HOVIZ",
		"latitude": "38-25-6.53 N",
		"longitude": "89-15-54.05 W",
		"state": "ILLINOIS",
		"artcc": "ZKC",
		"type": "RNAV",
		"updated": "09/19/2012"
	},
	{
		"name": "HOVNO",
		"latitude": "37-47-35.7 N",
		"longitude": "98-44-50.02 W",
		"state": "KANSAS",
		"artcc": "ZKC",
		"type": "RNAV",
		"updated": "05/14/2008"
	},
	{
		"name": "HOVRI",
		"latitude": "37-27-0.43 N",
		"longitude": "94-18-16.51 W",
		"state": "MISSOURI",
		"artcc": "ZKC",
		"type": "RNAV",
		"updated": "03/21/2014"
	},
	{
		"name": "HOVUR",
		"latitude": "38-55-20.79 N",
		"longitude": "95-41-32.21 W",
		"state": "KANSAS",
		"artcc": "ZKC",
		"type": "RNAV",
		"updated": "08/02/2013"
	},
	{
		"name": "HOWIF",
		"latitude": "38-25-5.11 N",
		"longitude": "94-19-52.94 W",
		"state": "MISSOURI",
		"artcc": "ZKC",
		"type": "RNAV",
		"updated": "12/28/2007"
	},
	{
		"name": "HOWIL",
		"latitude": "39-21-7.56 N",
		"longitude": "94-34-30.02 W",
		"state": "MISSOURI",
		"artcc": "ZKC",
		"type": "RNAV",
		"updated": "01/31/2013"
	},
	{
		"name": "HOWIS",
		"latitude": "38-8-16.5 N",
		"longitude": "97-56-34.97 W",
		"state": "KANSAS",
		"artcc": "ZKC",
		"type": "RNAV",
		"updated": "09/22/2017"
	},
	{
		"name": "HOXAR",
		"latitude": "38-35-28.91 N",
		"longitude": "90-26-12.63 W",
		"state": "MISSOURI",
		"artcc": "ZKC",
		"type": "RNAV",
		"updated": "09/22/2015"
	},
	{
		"name": "HOXER",
		"latitude": "36-58-56.11 N",
		"longitude": "94-36-33.22 W",
		"state": "MISSOURI",
		"artcc": "ZKC",
		"type": "RNAV",
		"updated": "06/20/2005"
	},
	{
		"name": "HRBEE",
		"latitude": "38-51-41.27 N",
		"longitude": "90-21-39.73 W",
		"state": "MISSOURI",
		"artcc": "ZKC",
		"type": "RNAV",
		"updated": "08/13/2012"
	},
	{
		"name": "HRTSO",
		"latitude": "38-16-37.45 N",
		"longitude": "90-5-7.76 W",
		"state": "ILLINOIS",
		"artcc": "ZKC",
		"type": "RNAV",
		"updated": "11/27/2012"
	},
	{
		"name": "HUBBN",
		"latitude": "37-48-48.32 N",
		"longitude": "96-50-11.88 W",
		"state": "KANSAS",
		"artcc": "ZKC",
		"type": "RNAV",
		"updated": "08/02/2013"
	},
	{
		"name": "HUBDO",
		"latitude": "40-10-22.89 N",
		"longitude": "77-17-55.05 W",
		"state": "PENNSYLVANIA",
		"artcc": "ZKC",
		"type": "RNAV",
		"updated": "09/26/2017"
	},
	{
		"name": "HUCRI",
		"latitude": "37-55-9.39 N",
		"longitude": "89-50-32.25 W",
		"state": "ILLINOIS",
		"artcc": "ZKC",
		"type": "RNAV",
		"updated": "06/01/2010"
	},
	{
		"name": "HUDCU",
		"latitude": "36-44-48.89 N",
		"longitude": "97-54-17.51 W",
		"state": "OKLAHOMA",
		"artcc": "ZKC",
		"type": "RNAV",
		"updated": "04/23/2009"
	},
	{
		"name": "HUDVO",
		"latitude": "38-44-56.41 N",
		"longitude": "95-33-58.14 W",
		"state": "KANSAS",
		"artcc": "ZKC",
		"type": "RNAV",
		"updated": "02/16/2006"
	},
	{
		"name": "HUFYY",
		"latitude": "36-51-51.54 N",
		"longitude": "94-0-51.34 W",
		"state": "MISSOURI",
		"artcc": "ZKC",
		"type": "RNAV",
		"updated": "05/11/2009"
	},
	{
		"name": "HUGBA",
		"latitude": "38-38-30.01 N",
		"longitude": "90-10-13.93 W",
		"state": "ILLINOIS",
		"artcc": "ZKC",
		"type": "RP",
		"updated": "TOY*VORTAC*239.80"
	},
	{
		"name": "HUGEP",
		"latitude": "37-56-24.94 N",
		"longitude": "92-40-16.8 W",
		"state": "MISSOURI",
		"artcc": "ZKC",
		"type": "RNAV",
		"updated": "06/17/2013"
	},
	{
		"name": "HUGGE",
		"latitude": "38-40-42.69 N",
		"longitude": "90-32-1.02 W",
		"state": "MISSOURI",
		"artcc": "ZKC",
		"type": "RNAV",
		"updated": "07/13/2009"
	},
	{
		"name": "HUGGY",
		"latitude": "39-18-4.24 N",
		"longitude": "94-51-4.39 W",
		"state": "MISSOURI",
		"artcc": "ZKC",
		"type": "RP",
		"updated": "RBA*VOR/DME*136.98/42.30"
	},
	{
		"name": "HUGIN",
		"latitude": "39-42-18.35 N",
		"longitude": "93-3-38.62 W",
		"state": "MISSOURI",
		"artcc": "ZKC",
		"type": "RP",
		"updated": "BQS*VOR/DME*079.99/38.00"
	},
	{
		"name": "HUGOM",
		"latitude": "35-50-54.57 N",
		"longitude": "98-18-24.25 W",
		"state": "OKLAHOMA",
		"artcc": "ZKC",
		"type": "RP",
		"updated": "IFI*VORTAC*271.03/15.00"
	},
	{
		"name": "HUKAM",
		"latitude": "37-56-7.04 N",
		"longitude": "97-11-33.4 W",
		"state": "KANSAS",
		"artcc": "ZKC",
		"type": "RP",
		"updated": "ICT*VORTAC*051.39"
	},
	{
		"name": "HUKDO",
		"latitude": "36-11-45.22 N",
		"longitude": "95-50-22.51 W",
		"state": "OKLAHOMA",
		"artcc": "ZKC",
		"type": "RP",
		"updated": "TUL*VORTAC*261.51/2.50"
	},
	{
		"name": "HULDA",
		"latitude": "37-0-4.06 N",
		"longitude": "96-1-1.28 W",
		"state": "OKLAHOMA",
		"artcc": "ZKC",
		"type": "RP",
		"updated": "OSW*VOR/DME*248.75"
	},
	{
		"name": "HULMI",
		"latitude": "38-29-19.65 N",
		"longitude": "96-37-2.94 W",
		"state": "KANSAS",
		"artcc": "ZKC",
		"type": "RNAV",
		"updated": "08/02/2013"
	},
	{
		"name": "HULSO",
		"latitude": "38-47-55.01 N",
		"longitude": "90-41-48.77 W",
		"state": "MISSOURI",
		"artcc": "ZKC",
		"type": "RP",
		"updated": "CSX*VOR/DME*280.00/16.00"
	},
	{
		"name": "HULSU",
		"latitude": "38-11-59.34 N",
		"longitude": "91-34-14.29 W",
		"state": "MISSOURI",
		"artcc": "ZKC",
		"type": "RP",
		"updated": "VIH*VOR/DME*060.90/7.00"
	},
	{
		"name": "HULTI",
		"latitude": "38-4-47.64 N",
		"longitude": "91-47-56.36 W",
		"state": "MISSOURI",
		"artcc": "ZKC",
		"type": "RNAV",
		"updated": "08/03/2015"
	},
	{
		"name": "HUMTI",
		"latitude": "36-28-57.39 N",
		"longitude": "94-37-13.75 W",
		"state": "OKLAHOMA",
		"artcc": "ZKC",
		"type": "RNAV",
		"updated": "03/07/2005"
	},
	{
		"name": "HUMUN",
		"latitude": "37-24-58.61 N",
		"longitude": "97-23-22.18 W",
		"state": "KANSAS",
		"artcc": "ZKC",
		"type": "RNAV",
		"updated": "08/09/2007"
	},
	{
		"name": "HUNON",
		"latitude": "39-10-1.12 N",
		"longitude": "95-37-14.58 W",
		"state": "KANSAS",
		"artcc": "ZKC",
		"type": "RNAV",
		"updated": "08/02/2013"
	},
	{
		"name": "HUPLO",
		"latitude": "36-32-19.46 N",
		"longitude": "96-59-41.37 W",
		"state": "OKLAHOMA",
		"artcc": "ZKC",
		"type": "RNAV",
		"updated": "11/24/2003"
	},
	{
		"name": "HUPRO",
		"latitude": "37-4-33.63 N",
		"longitude": "94-24-55.15 W",
		"state": "MISSOURI",
		"artcc": "ZKC",
		"type": "RNAV",
		"updated": "07/01/2013"
	},
	{
		"name": "HUPUD",
		"latitude": "38-18-15.88 N",
		"longitude": "92-34-26.23 W",
		"state": "MISSOURI",
		"artcc": "ZKC",
		"type": "RNAV",
		"updated": "05/23/2012"
	},
	{
		"name": "HURAP",
		"latitude": "39-45-8.35 N",
		"longitude": "91-5-17.57 W",
		"state": "ILLINOIS",
		"artcc": "ZKC",
		"type": "RNAV",
		"updated": "11/17/2008"
	},
	{
		"name": "HURDO",
		"latitude": "39-37-52.87 N",
		"longitude": "96-50-47.49 W",
		"state": "KANSAS",
		"artcc": "ZKC",
		"type": "RP",
		"updated": "SLN*VORTAC*033.21/55.64"
	},
	{
		"name": "HUROS",
		"latitude": "37-11-47.97 N",
		"longitude": "94-23-39.48 W",
		"state": "MISSOURI",
		"artcc": "ZKC",
		"type": "RNAV",
		"updated": "03/21/2014"
	},
	{
		"name": "HUROV",
		"latitude": "39-41-44.17 N",
		"longitude": "94-49-17.12 W",
		"state": "MISSOURI",
		"artcc": "ZKC",
		"type": "RNAV",
		"updated": "10/31/2013"
	},
	{
		"name": "HUSKA",
		"latitude": "37-12-15.18 N",
		"longitude": "97-5-35.99 W",
		"state": "KANSAS",
		"artcc": "ZKC",
		"type": "RP",
		"updated": "ICT*VORTAC*137.00/40.00"
	},
	{
		"name": "HUSKK",
		"latitude": "39-46-23.28 N",
		"longitude": "89-45-35.57 W",
		"state": "ILLINOIS",
		"artcc": "ZKC",
		"type": "RP",
		"updated": "SPI*VORTAC*224.60/5.51"
	},
	{
		"name": "HUTAM",
		"latitude": "38-14-47.14 N",
		"longitude": "99-5-6.59 W",
		"state": "KANSAS",
		"artcc": "ZKC",
		"type": "RNAV",
		"updated": "01/19/2011"
	},
	{
		"name": "HUTIR",
		"latitude": "38-48-50.94 N",
		"longitude": "99-18-29.93 W",
		"state": "KANSAS",
		"artcc": "ZKC",
		"type": "RNAV",
		"updated": "08/12/2010"
	},
	{
		"name": "HUTUS",
		"latitude": "38-58-29.3 N",
		"longitude": "95-11-31.34 W",
		"state": "KANSAS",
		"artcc": "ZKC",
		"type": "RNAV",
		"updated": "04/20/2009"
	},
	{
		"name": "HUTWI",
		"latitude": "38-43-9.31 N",
		"longitude": "89-5-19.29 W",
		"state": "ILLINOIS",
		"artcc": "ZKC",
		"type": "RNAV",
		"updated": "04/25/2012"
	},
	{
		"name": "HUVLA",
		"latitude": "35-49-25.07 N",
		"longitude": "98-43-51.66 W",
		"state": "OKLAHOMA",
		"artcc": "ZKC",
		"type": "RNAV",
		"updated": "02/09/2015"
	},
	{
		"name": "HUVOR",
		"latitude": "37-38-47.33 N",
		"longitude": "97-15-45.29 W",
		"state": "KANSAS",
		"artcc": "ZKC",
		"type": "MR",
		"updated": "IAB*TACAN*/1.50"
	},
	{
		"name": "HUVSO",
		"latitude": "37-4-26.81 N",
		"longitude": "98-4-45.9 W",
		"state": "KANSAS",
		"artcc": "ZKC",
		"type": "RNAV",
		"updated": "04/04/2012"
	},
	{
		"name": "HYHOE",
		"latitude": "38-15-43.99 N",
		"longitude": "91-35-32.71 W",
		"state": "MISSOURI",
		"artcc": "ZKC",
		"type": "RNAV",
		"updated": "09/01/2010"
	},
	{
		"name": "HYMAK",
		"latitude": "37-3-10.97 N",
		"longitude": "98-13-56.37 W",
		"state": "KANSAS",
		"artcc": "ZKC",
		"type": "RP",
		"updated": "ANY*VORTAC*198.00/7.00"
	}
]
