[
	{
		"name": "IBAAH",
		"latitude": "36-3-45.98 N",
		"longitude": "96-47-36.74 W",
		"state": "OKLAHOMA",
		"artcc": "ZKC",
		"type": "RP",
		"updated": "SWO*VOR/DME*117.60/17.00"
	},
	{
		"name": "IBKAQ",
		"latitude": "38-9-58.31 N",
		"longitude": "89-21-18.11 W",
		"state": "ILLINOIS",
		"artcc": "ZKC",
		"type": "RNAV",
		"updated": "07/25/2005"
	},
	{
		"name": "IBKOJ",
		"latitude": "37-50-23.99 N",
		"longitude": "93-44-59.7 W",
		"state": "MISSOURI",
		"artcc": "ZKC",
		"type": "RNAV",
		"updated": "12/17/2012"
	},
	{
		"name": "IBOSE",
		"latitude": "39-51-32.14 N",
		"longitude": "90-59-52.34 W",
		"state": "ILLINOIS",
		"artcc": "ZKC",
		"type": "RP",
		"updated": "UIN*VORTAC*082.00/13.00"
	},
	{
		"name": "IBOZI",
		"latitude": "40-4-20.61 N",
		"longitude": "90-48-8.29 W",
		"state": "ILLINOIS",
		"artcc": "ZKC",
		"type": "RNAV",
		"updated": "04/28/2009"
	},
	{
		"name": "IBQUP",
		"latitude": "38-58-25.48 N",
		"longitude": "99-33-53.35 W",
		"state": "KANSAS",
		"artcc": "ZKC",
		"type": "RP",
		"updated": "HYS*VORTAC*289.35/15.46"
	},
	{
		"name": "IBUYI",
		"latitude": "38-38-35.12 N",
		"longitude": "92-15-31.2 W",
		"state": "MISSOURI",
		"artcc": "ZKC",
		"type": "RNAV",
		"updated": "09/28/2007"
	},
	{
		"name": "ICALA",
		"latitude": "36-32-25.67 N",
		"longitude": "97-58-19.83 W",
		"state": "OKLAHOMA",
		"artcc": "ZKC",
		"type": "RNAV",
		"updated": "06/25/2015"
	},
	{
		"name": "ICEBA",
		"latitude": "38-29-26.42 N",
		"longitude": "93-30-49.39 W",
		"state": "MISSOURI",
		"artcc": "ZKC",
		"type": "RNAV",
		"updated": "04/19/2013"
	},
	{
		"name": "ICECE",
		"latitude": "36-0-50.46 N",
		"longitude": "95-53-40.39 W",
		"state": "OKLAHOMA",
		"artcc": "ZKC",
		"type": "RNAV",
		"updated": "04/02/2008"
	},
	{
		"name": "IDACA",
		"latitude": "39-2-10.6 N",
		"longitude": "96-47-22.72 W",
		"state": "KANSAS",
		"artcc": "ZKC",
		"type": "RNAV",
		"updated": "01/25/2006"
	},
	{
		"name": "IDEZY",
		"latitude": "38-8-37.96 N",
		"longitude": "98-3-26.69 W",
		"state": "KANSAS",
		"artcc": "ZKC",
		"type": "RNAV",
		"updated": "06/21/2016"
	},
	{
		"name": "IDICU",
		"latitude": "36-56-31.57 N",
		"longitude": "99-25-47.07 W",
		"state": "OKLAHOMA",
		"artcc": "ZKC",
		"type": "RNAV",
		"updated": "06/14/2016"
	},
	{
		"name": "IDIXE",
		"latitude": "40-33-9.06 N",
		"longitude": "92-26-54.49 W",
		"state": "MISSOURI",
		"artcc": "ZKC",
		"type": "RNAV",
		"updated": "12/03/2014"
	},
	{
		"name": "IDJOP",
		"latitude": "38-47-13.74 N",
		"longitude": "95-50-10.51 W",
		"state": "KANSAS",
		"artcc": "ZKC",
		"type": "RNAV",
		"updated": "08/02/2013"
	},
	{
		"name": "IDLOC",
		"latitude": "38-47-38.15 N",
		"longitude": "90-27-6.81 W",
		"state": "MISSOURI",
		"artcc": "ZKC",
		"type": "RNAV",
		"updated": "01/02/2002"
	},
	{
		"name": "IDLUY",
		"latitude": "36-42-51.12 N",
		"longitude": "96-36-32.58 W",
		"state": "OKLAHOMA",
		"artcc": "ZKC",
		"type": "RP",
		"updated": "BVO*VOR/DME*247.99/29.37"
	},
	{
		"name": "IDOCE",
		"latitude": "39-26-27.24 N",
		"longitude": "88-10-0.27 W",
		"state": "ILLINOIS",
		"artcc": "ZKC",
		"type": "RNAV",
		"updated": "01/22/2016"
	},
	{
		"name": "IDUBY",
		"latitude": "38-40-46.11 N",
		"longitude": "90-32-52.18 W",
		"state": "MISSOURI",
		"artcc": "ZKC",
		"type": "RNAV",
		"updated": "10/02/2015"
	},
	{
		"name": "IDVUF",
		"latitude": "38-32-27.45 N",
		"longitude": "96-14-34.41 W",
		"state": "KANSAS",
		"artcc": "ZKC",
		"type": "RNAV",
		"updated": "08/09/2007"
	},
	{
		"name": "IFAPY",
		"latitude": "37-42-15.32 N",
		"longitude": "95-28-53.02 W",
		"state": "KANSAS",
		"artcc": "ZKC",
		"type": "RNAV",
		"updated": "04/03/2010"
	},
	{
		"name": "IFEWO",
		"latitude": "37-46-44.62 N",
		"longitude": "89-21-58.07 W",
		"state": "ILLINOIS",
		"artcc": "ZKC",
		"type": "RNAV",
		"updated": "07/25/2005"
	},
	{
		"name": "IFFUJ",
		"latitude": "37-52-52.82 N",
		"longitude": "89-21-47.56 W",
		"state": "ILLINOIS",
		"artcc": "ZKC",
		"type": "RNAV",
		"updated": "07/25/2005"
	},
	{
		"name": "IFGAK",
		"latitude": "37-38-33.7 N",
		"longitude": "96-38-28.46 W",
		"state": "KANSAS",
		"artcc": "ZKC",
		"type": "RNAV",
		"updated": "01/30/2011"
	},
	{
		"name": "IFOKY",
		"latitude": "38-15-0.11 N",
		"longitude": "91-16-42.11 W",
		"state": "MISSOURI",
		"artcc": "ZKC",
		"type": "RNAV",
		"updated": "11/15/2010"
	},
	{
		"name": "IFONA",
		"latitude": "38-53-41.44 N",
		"longitude": "95-34-41.61 W",
		"state": "KANSAS",
		"artcc": "ZKC",
		"type": "MR",
		"updated": "FOE*TACAN*124.00/5.00"
	},
	{
		"name": "IGEXE",
		"latitude": "38-51-13.75 N",
		"longitude": "99-2-32 W",
		"state": "KANSAS",
		"artcc": "ZKC",
		"type": "RP",
		"updated": "HYS*VORTAC*078.00/11.00"
	},
	{
		"name": "IGITE",
		"latitude": "39-32-48.82 N",
		"longitude": "94-21-44.22 W",
		"state": "MISSOURI",
		"artcc": "ZKC",
		"type": "RNAV",
		"updated": "02/02/2010"
	},
	{
		"name": "IGZEG",
		"latitude": "36-13-25.19 N",
		"longitude": "100-44-57.04 W",
		"state": "TEXAS",
		"artcc": "ZKC",
		"type": "RNAV",
		"updated": "03/29/2010"
	},
	{
		"name": "IHIJA",
		"latitude": "37-32-31.46 N",
		"longitude": "101-17-14.4 W",
		"state": "KANSAS",
		"artcc": "ZKC",
		"type": "RNAV",
		"updated": "03/26/2008"
	},
	{
		"name": "IHJAK",
		"latitude": "38-45-28.7 N",
		"longitude": "92-8-9.04 W",
		"state": "MISSOURI",
		"artcc": "ZKC",
		"type": "RNAV",
		"updated": "07/26/2017"
	},
	{
		"name": "IHOME",
		"latitude": "39-30-53.13 N",
		"longitude": "90-37-4.85 W",
		"state": "ILLINOIS",
		"artcc": "ZKC",
		"type": "RNAV",
		"updated": "02/04/2002"
	},
	{
		"name": "IJAXO",
		"latitude": "38-14-45.39 N",
		"longitude": "92-48-47.6 W",
		"state": "MISSOURI",
		"artcc": "ZKC",
		"type": "RNAV",
		"updated": "08/07/2013"
	},
	{
		"name": "IJEDY",
		"latitude": "37-0-11.65 N",
		"longitude": "94-53-11.76 W",
		"state": "KANSAS",
		"artcc": "ZKC",
		"type": "RNAV",
		"updated": "03/27/2018"
	},
	{
		"name": "IJUBO",
		"latitude": "39-14-38.41 N",
		"longitude": "94-19-25.92 W",
		"state": "MISSOURI",
		"artcc": "ZKC",
		"type": "RNAV",
		"updated": "07/14/2008"
	},
	{
		"name": "IKAHU",
		"latitude": "38-40-12.26 N",
		"longitude": "99-6-54.3 W",
		"state": "KANSAS",
		"artcc": "ZKC",
		"type": "RNAV",
		"updated": "08/12/2010"
	},
	{
		"name": "IKBAH",
		"latitude": "38-8-10.84 N",
		"longitude": "97-36-37.47 W",
		"state": "KANSAS",
		"artcc": "ZKC",
		"type": "RNAV",
		"updated": "08/09/2007"
	},
	{
		"name": "IKBUF",
		"latitude": "39-1-31.56 N",
		"longitude": "95-44-58.4 W",
		"state": "KANSAS",
		"artcc": "ZKC",
		"type": "RNAV",
		"updated": "02/16/2006"
	},
	{
		"name": "IKDEW",
		"latitude": "39-15-49.56 N",
		"longitude": "97-51-52.5 W",
		"state": "KANSAS",
		"artcc": "ZKC",
		"type": "RP",
		"updated": "SLN*VORTAC*323.84/23.26"
	},
	{
		"name": "IKEGY",
		"latitude": "37-25-1.5 N",
		"longitude": "101-22-19.22 W",
		"state": "KANSAS",
		"artcc": "ZKC",
		"type": "RNAV",
		"updated": "06/22/2005"
	},
	{
		"name": "IKEHU",
		"latitude": "38-48-32.76 N",
		"longitude": "97-14-9.6 W",
		"state": "KANSAS",
		"artcc": "ZKC",
		"type": "RNAV",
		"updated": "08/02/2013"
	},
	{
		"name": "IKPIF",
		"latitude": "37-7-8.86 N",
		"longitude": "94-29-57.58 W",
		"state": "MISSOURI",
		"artcc": "ZKC",
		"type": "RNAV",
		"updated": "06/20/2005"
	},
	{
		"name": "ILEMY",
		"latitude": "38-49-44.2 N",
		"longitude": "95-18-20.67 W",
		"state": "KANSAS",
		"artcc": "ZKC",
		"type": "RP",
		"updated": "EMP*VORTAC*042.29/50.73"
	},
	{
		"name": "ILETE",
		"latitude": "38-27-30.95 N",
		"longitude": "89-55-57.1 W",
		"state": "ILLINOIS",
		"artcc": "ZKC",
		"type": "RNAV",
		"updated": "05/05/2011"
	},
	{
		"name": "ILIBE",
		"latitude": "37-54-7.19 N",
		"longitude": "96-58-46.23 W",
		"state": "KANSAS",
		"artcc": "ZKC",
		"type": "RNAV",
		"updated": "06/14/2013"
	},
	{
		"name": "ILKEW",
		"latitude": "39-52-26.21 N",
		"longitude": "89-43-30.4 W",
		"state": "ILLINOIS",
		"artcc": "ZKC",
		"type": "RP",
		"updated": "SPI*VORTAC*314.15/3.00"
	},
	{
		"name": "ILLIV",
		"latitude": "38-37-45.25 N",
		"longitude": "95-15-9.98 W",
		"state": "KANSAS",
		"artcc": "ZKC",
		"type": "RNAV",
		"updated": "06/28/2013"
	},
	{
		"name": "ILLOW",
		"latitude": "39-2-12.23 N",
		"longitude": "94-44-13.32 W",
		"state": "KANSAS",
		"artcc": "ZKC",
		"type": "RNAV",
		"updated": "05/16/2006"
	},
	{
		"name": "ILLSO",
		"latitude": "38-3-53.6 N",
		"longitude": "97-16-34.98 W",
		"state": "KANSAS",
		"artcc": "ZKC",
		"type": "RNAV",
		"updated": "ICT*VORTAC*030.22/24.09"
	},
	{
		"name": "ILSCA",
		"latitude": "38-46-41.88 N",
		"longitude": "89-48-35.37 W",
		"state": "ILLINOIS",
		"artcc": "ZKC",
		"type": "RP",
		"updated": "SKE*TACAN*010.00/14.10"
	},
	{
		"name": "ILWIM",
		"latitude": "35-41-34.35 N",
		"longitude": "97-42-36.41 W",
		"state": "OKLAHOMA",
		"artcc": "ZKC",
		"type": "RNAV",
		"updated": "06/15/2011"
	},
	{
		"name": "IMCAR",
		"latitude": "37-52-39.62 N",
		"longitude": "100-37-18.1 W",
		"state": "KANSAS",
		"artcc": "ZKC",
		"type": "RP",
		"updated": "GCK*VORTAC*105.77/5.50"
	},
	{
		"name": "IMETY",
		"latitude": "38-9-31.45 N",
		"longitude": "96-20-46.32 W",
		"state": "KANSAS",
		"artcc": "ZKC",
		"type": "RNAV",
		"updated": "08/09/2007"
	},
	{
		"name": "IMGIZ",
		"latitude": "37-51-9.27 N",
		"longitude": "100-43-3.9 W",
		"state": "KANSAS",
		"artcc": "ZKC",
		"type": "RP",
		"updated": "GCK*VORTAC*164.01/4.00"
	},
	{
		"name": "IMKAW",
		"latitude": "40-10-39.1 N",
		"longitude": "93-35-32 W",
		"state": "MISSOURI",
		"artcc": "ZKC",
		"type": "RNAV",
		"updated": "05/11/2012"
	},
	{
		"name": "IMMAK",
		"latitude": "38-16-6.99 N",
		"longitude": "97-42-0.6 W",
		"state": "KANSAS",
		"artcc": "ZKC",
		"type": "RNAV",
		"updated": "08/09/2007"
	},
	{
		"name": "IMPER",
		"latitude": "38-27-8.11 N",
		"longitude": "90-23-45.62 W",
		"state": "MISSOURI",
		"artcc": "ZKC",
		"type": "RP",
		"updated": "STL*VORTAC*169.56/24.82"
	},
	{
		"name": "IMUSE",
		"latitude": "37-36-19.01 N",
		"longitude": "94-52-26.18 W",
		"state": "KANSAS",
		"artcc": "ZKC",
		"type": "RNAV",
		"updated": "07/16/2007"
	},
	{
		"name": "IMWEX",
		"latitude": "36-57-8.05 N",
		"longitude": "99-37-7.43 W",
		"state": "OKLAHOMA",
		"artcc": "ZKC",
		"type": "RNAV",
		"updated": "11/19/2002"
	},
	{
		"name": "IMYIF",
		"latitude": "39-3-13.92 N",
		"longitude": "99-13-27.84 W",
		"state": "KANSAS",
		"artcc": "ZKC",
		"type": "RNAV",
		"updated": "08/12/2010"
	},
	{
		"name": "INACE",
		"latitude": "36-58-37.02 N",
		"longitude": "97-44-54.08 W",
		"state": "OKLAHOMA",
		"artcc": "ZKC",
		"type": "RNAV",
		"updated": "02/19/2003"
	},
	{
		"name": "INAGE",
		"latitude": "36-41-48.81 N",
		"longitude": "94-0-10.84 W",
		"state": "MISSOURI",
		"artcc": "ZKC",
		"type": "RNAV",
		"updated": "06/24/2013"
	},
	{
		"name": "INDIC",
		"latitude": "37-55-36.78 N",
		"longitude": "97-6-37.23 W",
		"state": "KANSAS",
		"artcc": "ZKC",
		"type": "RP",
		"updated": "ICT*VORTAC*057.04/25.00"
	},
	{
		"name": "INDOW",
		"latitude": "37-27-3.25 N",
		"longitude": "100-22-10.57 W",
		"state": "KANSAS",
		"artcc": "ZKC",
		"type": "RNAV",
		"updated": "12/09/2010"
	},
	{
		"name": "INERE",
		"latitude": "36-36-13.97 N",
		"longitude": "97-44-58.74 W",
		"state": "OKLAHOMA",
		"artcc": "ZKC",
		"type": "RNAV",
		"updated": "02/19/2003"
	},
	{
		"name": "INMOM",
		"latitude": "38-32-7.89 N",
		"longitude": "97-40-1.01 W",
		"state": "KANSAS",
		"artcc": "ZKC",
		"type": "RNAV",
		"updated": "08/09/2007"
	},
	{
		"name": "INNEE",
		"latitude": "39-22-30.37 N",
		"longitude": "94-42-18.45 W",
		"state": "MISSOURI",
		"artcc": "ZKC",
		"type": "RNAV",
		"updated": "01/31/2013"
	},
	{
		"name": "INNUS",
		"latitude": "37-53-44.72 N",
		"longitude": "94-16-38.94 W",
		"state": "MISSOURI",
		"artcc": "ZKC",
		"type": "RNAV",
		"updated": "08/12/2010"
	},
	{
		"name": "INOLA",
		"latitude": "36-12-33.75 N",
		"longitude": "95-25-9.21 W",
		"state": "OKLAHOMA",
		"artcc": "ZKC",
		"type": "RP",
		"updated": "OKM*VOR/DME*027.00"
	},
	{
		"name": "INOYU",
		"latitude": "37-25-53.99 N",
		"longitude": "93-17-27.49 W",
		"state": "MISSOURI",
		"artcc": "ZKC",
		"type": "RNAV",
		"updated": "06/12/2008"
	},
	{
		"name": "INRAM",
		"latitude": "38-38-55.91 N",
		"longitude": "94-19-29.49 W",
		"state": "MISSOURI",
		"artcc": "ZKC",
		"type": "RP",
		"updated": "BUM*VORTAC*011.78/23.86"
	},
	{
		"name": "INUZA",
		"latitude": "37-45-55.48 N",
		"longitude": "90-48-6.48 W",
		"state": "MISSOURI",
		"artcc": "ZKC",
		"type": "RNAV",
		"updated": "01/19/2011"
	},
	{
		"name": "IOLLA",
		"latitude": "36-33-29.91 N",
		"longitude": "97-20-56.18 W",
		"state": "OKLAHOMA",
		"artcc": "ZKC",
		"type": "RNAV",
		"updated": "08/15/2010"
	},
	{
		"name": "IPAVE",
		"latitude": "38-48-23.17 N",
		"longitude": "94-11-22.92 W",
		"state": "MISSOURI",
		"artcc": "ZKC",
		"type": "RNAV",
		"updated": "07/11/2007"
	},
	{
		"name": "IPIKE",
		"latitude": "36-17-40.47 N",
		"longitude": "97-51-51.29 W",
		"state": "OKLAHOMA",
		"artcc": "ZKC",
		"type": "MR",
		"updated": "END*VORTAC*134.00/4.00"
	},
	{
		"name": "IPIWO",
		"latitude": "38-23-18.29 N",
		"longitude": "93-40-25.61 W",
		"state": "MISSOURI",
		"artcc": "ZKC",
		"type": "RNAV",
		"updated": "02/21/2014"
	},
	{
		"name": "IQIHY",
		"latitude": "36-44-4.57 N",
		"longitude": "101-30-4.21 W",
		"state": "OKLAHOMA",
		"artcc": "ZKC",
		"type": "RNAV",
		"updated": "10/11/2011"
	},
	{
		"name": "IRACE",
		"latitude": "38-39-15.05 N",
		"longitude": "97-28-20.54 W",
		"state": "KANSAS",
		"artcc": "ZKC",
		"type": "RNAV",
		"updated": "09/15/2008"
	},
	{
		"name": "IRFOR",
		"latitude": "39-59-36.8 N",
		"longitude": "93-35-20.86 W",
		"state": "MISSOURI",
		"artcc": "ZKC",
		"type": "RNAV",
		"updated": "05/11/2012"
	},
	{
		"name": "IRICO",
		"latitude": "35-51-0.47 N",
		"longitude": "96-46-5.77 W",
		"state": "OKLAHOMA",
		"artcc": "ZKC",
		"type": "RNAV",
		"updated": "06/23/2017"
	},
	{
		"name": "IRIME",
		"latitude": "36-49-40.47 N",
		"longitude": "100-51-7.56 W",
		"state": "OKLAHOMA",
		"artcc": "ZKC",
		"type": "RNAV",
		"updated": "07/05/2007"
	},
	{
		"name": "IRIXE",
		"latitude": "36-10-6.21 N",
		"longitude": "95-19-48.29 W",
		"state": "OKLAHOMA",
		"artcc": "ZME",
		"type": "RNAV",
		"updated": "05/03/2016"
	},
	{
		"name": "IRODE",
		"latitude": "38-49-46.37 N",
		"longitude": "93-30-32.82 W",
		"state": "MISSOURI",
		"artcc": "ZKC",
		"type": "MR",
		"updated": "SZL*TACAN*018.00/5.95"
	},
	{
		"name": "IRUHU",
		"latitude": "36-18-9.06 N",
		"longitude": "95-52-31.45 W",
		"state": "OKLAHOMA",
		"artcc": "ZKC",
		"type": "RNAV",
		"updated": "04/02/2008"
	},
	{
		"name": "ISEVE",
		"latitude": "39-20-40.88 N",
		"longitude": "97-9-30.54 W",
		"state": "KANSAS",
		"artcc": "ZKC",
		"type": "RNAV",
		"updated": "12/10/2010"
	},
	{
		"name": "ISJOJ",
		"latitude": "37-47-33.1 N",
		"longitude": "101-41-10.72 W",
		"state": "KANSAS",
		"artcc": "ZKC",
		"type": "RNAV",
		"updated": "08/17/2010"
	},
	{
		"name": "ISONE",
		"latitude": "37-1-1.45 N",
		"longitude": "94-30-39.22 W",
		"state": "MISSOURI",
		"artcc": "ZKC",
		"type": "RNAV",
		"updated": "11/18/2016"
	},
	{
		"name": "ITALE",
		"latitude": "35-51-6.98 N",
		"longitude": "96-25-18.43 W",
		"state": "OKLAHOMA",
		"artcc": "ZKC",
		"type": "RNAV",
		"updated": "02/17/2015"
	},
	{
		"name": "ITESE",
		"latitude": "36-41-29.68 N",
		"longitude": "100-40-4.24 W",
		"state": "OKLAHOMA",
		"artcc": "ZKC",
		"type": "RNAV",
		"updated": "06/21/2013"
	},
	{
		"name": "ITEXE",
		"latitude": "36-52-38.18 N",
		"longitude": "95-49-3.6 W",
		"state": "OKLAHOMA",
		"artcc": "ZKC",
		"type": "RP",
		"updated": "BVO*VOR/DME*067.00/10.00"
	},
	{
		"name": "ITOCI",
		"latitude": "40-18-17.48 N",
		"longitude": "92-39-3.21 W",
		"state": "MISSOURI",
		"artcc": "ZKC",
		"type": "RNAV",
		"updated": "05/08/2007"
	},
	{
		"name": "ITROY",
		"latitude": "35-32-13.81 N",
		"longitude": "97-35-20.61 W",
		"state": "OKLAHOMA",
		"artcc": "ZKC",
		"type": "RP",
		"updated": "PWA*VOR/DME*076.90"
	},
	{
		"name": "IVBAF",
		"latitude": "35-40-38.5 N",
		"longitude": "96-48-49.44 W",
		"state": "OKLAHOMA",
		"artcc": "ZKC",
		"type": "RNAV",
		"updated": "04/23/2014"
	},
	{
		"name": "IVYIX",
		"latitude": "36-56-49.37 N",
		"longitude": "97-2-9.82 W",
		"state": "OKLAHOMA",
		"artcc": "ZKC",
		"type": "RNAV",
		"updated": "09/03/2014"
	},
	{
		"name": "IVZOT",
		"latitude": "38-46-17.72 N",
		"longitude": "99-31-41.8 W",
		"state": "KANSAS",
		"artcc": "ZKC",
		"type": "RNAV",
		"updated": "08/12/2010"
	},
	{
		"name": "IWATI",
		"latitude": "37-0-12.5 N",
		"longitude": "95-34-26.46 W",
		"state": "KANSAS",
		"artcc": "ZKC",
		"type": "RNAV",
		"updated": "04/12/2010"
	},
	{
		"name": "IWUZI",
		"latitude": "38-9-8.61 N",
		"longitude": "91-44-23.14 W",
		"state": "MISSOURI",
		"artcc": "ZKC",
		"type": "RNAV",
		"updated": "08/16/2010"
	},
	{
		"name": "IXIPY",
		"latitude": "38-5-37.15 N",
		"longitude": "88-56-8.87 W",
		"state": "ILLINOIS",
		"artcc": "ZKC",
		"type": "RNAV",
		"updated": "05/05/2011"
	},
	{
		"name": "IXTAT",
		"latitude": "39-8-30.02 N",
		"longitude": "89-21-13.67 W",
		"state": "ILLINOIS",
		"artcc": "ZKC",
		"type": "WP",
		"updated": "11/02/1998"
	},
	{
		"name": "IYBEP",
		"latitude": "38-47-42.97 N",
		"longitude": "91-0-15.83 W",
		"state": "MISSOURI",
		"artcc": "ZKC",
		"type": "RNAV",
		"updated": "09/07/2007"
	},
	{
		"name": "IYEKE",
		"latitude": "38-1-21.9 N",
		"longitude": "92-37-10.02 W",
		"state": "MISSOURI",
		"artcc": "ZKC",
		"type": "RNAV",
		"updated": "05/21/2013"
	},
	{
		"name": "IYITI",
		"latitude": "35-59-50.81 N",
		"longitude": "96-46-10.78 W",
		"state": "OKLAHOMA",
		"artcc": "ZKC",
		"type": "RNAV",
		"updated": "06/23/2017"
	},
	{
		"name": "IYOCO",
		"latitude": "39-1-0.69 N",
		"longitude": "94-19-3.3 W",
		"state": "MISSOURI",
		"artcc": "ZKC",
		"type": "RP",
		"updated": "ANX*VORTAC*234.96/10.00"
	},
	{
		"name": "IYTIK",
		"latitude": "38-53-41.5 N",
		"longitude": "96-48-26.79 W",
		"state": "KANSAS",
		"artcc": "ZKC",
		"type": "RNAV",
		"updated": "08/02/2013"
	},
	{
		"name": "IZAGI",
		"latitude": "37-54-32.08 N",
		"longitude": "98-2-9.7 W",
		"state": "KANSAS",
		"artcc": "ZKC",
		"type": "RNAV",
		"updated": "12/10/2010"
	},
	{
		"name": "IZONU",
		"latitude": "38-38-17.39 N",
		"longitude": "90-27-58.88 W",
		"state": "MISSOURI",
		"artcc": "ZKC",
		"type": "RNAV",
		"updated": "10/15/2007"
	}
]
