[
	{
		"name": "JAAKK",
		"latitude": "38-51-52.87 N",
		"longitude": "90-0-38.95 W",
		"state": "ILLINOIS",
		"artcc": "ZKC",
		"type": "RNAV",
		"updated": "09/24/2012"
	},
	{
		"name": "JAAVE",
		"latitude": "39-50-25.89 N",
		"longitude": "88-15-17 W",
		"state": "ILLINOIS",
		"artcc": "ZKC",
		"type": "RNAV",
		"updated": "01/12/2015"
	},
	{
		"name": "JABOP",
		"latitude": "40-7-48.13 N",
		"longitude": "93-35-29.12 W",
		"state": "MISSOURI",
		"artcc": "ZKC",
		"type": "RNAV",
		"updated": "05/11/2012"
	},
	{
		"name": "JABUR",
		"latitude": "37-59-49.03 N",
		"longitude": "88-53-12.51 W",
		"state": "ILLINOIS",
		"artcc": "ZKC",
		"type": "RP",
		"updated": "ENL*VORTAC*149.00/28.44"
	},
	{
		"name": "JABVI",
		"latitude": "35-59-21.64 N",
		"longitude": "95-53-46.44 W",
		"state": "OKLAHOMA",
		"artcc": "ZKC",
		"type": "RNAV",
		"updated": "07/08/2009"
	},
	{
		"name": "JACCK",
		"latitude": "37-23-12.34 N",
		"longitude": "93-42-30.26 W",
		"state": "MISSOURI",
		"artcc": "ZKC",
		"type": "RP",
		"updated": "SGF*VORTAC*272.00/18.00"
	},
	{
		"name": "JACEY",
		"latitude": "39-13-44.23 N",
		"longitude": "94-51-37.93 W",
		"state": "KANSAS",
		"artcc": "ZKC",
		"type": "RNAV",
		"updated": "01/31/2013"
	},
	{
		"name": "JACOB",
		"latitude": "38-46-11.33 N",
		"longitude": "89-41-8.23 W",
		"state": "ILLINOIS",
		"artcc": "ZKC",
		"type": "RP",
		"updated": "ENL*VORTAC*306.41"
	},
	{
		"name": "JACOX",
		"latitude": "36-15-53.3 N",
		"longitude": "98-49-12.78 W",
		"state": "OKLAHOMA",
		"artcc": "ZKC",
		"type": "MR",
		"updated": "END*VORTAC*259.00/44.00"
	},
	{
		"name": "JACSN",
		"latitude": "38-55-19.88 N",
		"longitude": "90-43-21.32 W",
		"state": "MISSOURI",
		"artcc": "ZKC",
		"type": "RNAV",
		"updated": "08/13/2012"
	},
	{
		"name": "JADEX",
		"latitude": "36-56-56.04 N",
		"longitude": "76-17-42.97 W",
		"state": "VIRGINIA",
		"artcc": "ZKC",
		"type": "RNAV",
		"updated": "09/12/2017"
	},
	{
		"name": "JADLU",
		"latitude": "38-41-47.04 N",
		"longitude": "89-45-44.15 W",
		"state": "ILLINOIS",
		"artcc": "ZKC",
		"type": "RNAV",
		"updated": "03/01/2013"
	},
	{
		"name": "JAGAX",
		"latitude": "36-4-55.12 N",
		"longitude": "95-45-29.46 W",
		"state": "OKLAHOMA",
		"artcc": "ZKC",
		"type": "MR",
		"updated": "TUL*VORTAC*160.00/7.00"
	},
	{
		"name": "JAGGI",
		"latitude": "39-5-10.21 N",
		"longitude": "91-56-30.96 W",
		"state": "MISSOURI",
		"artcc": "ZKC",
		"type": "RP",
		"updated": "HLV*VORTAC*094.62/8.86"
	},
	{
		"name": "JAGGS",
		"latitude": "36-21-3.35 N",
		"longitude": "97-25-23.71 W",
		"state": "OKLAHOMA",
		"artcc": "ZKC",
		"type": "MR",
		"updated": "END*VORTAC*084.00/24.00"
	},
	{
		"name": "JAGUV",
		"latitude": "38-48-24.73 N",
		"longitude": "92-15-53.49 W",
		"state": "MISSOURI",
		"artcc": "ZKC",
		"type": "RNAV",
		"updated": "02/12/2008"
	},
	{
		"name": "JAHNY",
		"latitude": "38-17-45.71 N",
		"longitude": "90-58-58.96 W",
		"state": "MISSOURI",
		"artcc": "ZKC",
		"type": "RNAV",
		"updated": "08/03/2012"
	},
	{
		"name": "JAKBO",
		"latitude": "38-41-51.52 N",
		"longitude": "92-22-5.7 W",
		"state": "MISSOURI",
		"artcc": "ZKC",
		"type": "RNAV",
		"updated": "09/28/2007"
	},
	{
		"name": "JALIP",
		"latitude": "35-59-15.13 N",
		"longitude": "96-0-4.11 W",
		"state": "OKLAHOMA",
		"artcc": "ZKC",
		"type": "RNAV",
		"updated": "01/24/2017"
	},
	{
		"name": "JALMU",
		"latitude": "40-32-40.98 N",
		"longitude": "92-18-59.92 W",
		"state": "MISSOURI",
		"artcc": "ZKC",
		"type": "RNAV",
		"updated": "01/17/2002"
	},
	{
		"name": "JAMEY",
		"latitude": "37-17-59.05 N",
		"longitude": "97-23-36.06 W",
		"state": "KANSAS",
		"artcc": "ZKC",
		"type": "RP",
		"updated": "ANY*VORTAC*070.01"
	},
	{
		"name": "JAMIK",
		"latitude": "37-24-1.66 N",
		"longitude": "101-37-33.35 W",
		"state": "KANSAS",
		"artcc": "ZKC",
		"type": "RNAV",
		"updated": "09/07/2010"
	},
	{
		"name": "JANAX",
		"latitude": "36-57-31.08 N",
		"longitude": "99-10-42.55 W",
		"state": "OKLAHOMA",
		"artcc": "ZKC",
		"type": "RNAV",
		"updated": "06/14/2016"
	},
	{
		"name": "JANGI",
		"latitude": "39-38-6.49 N",
		"longitude": "90-25-6.63 W",
		"state": "ILLINOIS",
		"artcc": "ZKC",
		"type": "RNAV",
		"updated": "08/24/2005"
	},
	{
		"name": "JANLI",
		"latitude": "40-39-44.05 N",
		"longitude": "91-30-5.71 W",
		"state": "IOWA",
		"artcc": "ZKC",
		"type": "RNAV",
		"updated": "07/27/2006"
	},
	{
		"name": "JANSA",
		"latitude": "39-33-39.41 N",
		"longitude": "93-7-30.84 W",
		"state": "MISSOURI",
		"artcc": "ZKC",
		"type": "RNAV",
		"updated": "09/29/2009"
	},
	{
		"name": "JAPES",
		"latitude": "38-52-12.55 N",
		"longitude": "94-22-50.75 W",
		"state": "MISSOURI",
		"artcc": "ZKC",
		"type": "RNAV",
		"updated": "11/15/2017"
	},
	{
		"name": "JAPRU",
		"latitude": "38-8-51.81 N",
		"longitude": "98-57-39.97 W",
		"state": "KANSAS",
		"artcc": "ZKC",
		"type": "RNAV",
		"updated": "10/06/2008"
	},
	{
		"name": "JARDI",
		"latitude": "39-41-11.84 N",
		"longitude": "91-27-59.94 W",
		"state": "MISSOURI",
		"artcc": "ZKC",
		"type": "RP",
		"updated": "UIN*VORTAC*217.00/13.00"
	},
	{
		"name": "JARKA",
		"latitude": "39-38-0.5 N",
		"longitude": "90-3-25.96 W",
		"state": "ILLINOIS",
		"artcc": "ZKC",
		"type": "RNAV",
		"updated": "08/24/2005"
	},
	{
		"name": "JASAB",
		"latitude": "36-36-46.09 N",
		"longitude": "94-7-38 W",
		"state": "MISSOURI",
		"artcc": "ZKC",
		"type": "RNAV",
		"updated": "03/26/2010"
	},
	{
		"name": "JASIG",
		"latitude": "38-2-55.92 N",
		"longitude": "98-3-59 W",
		"state": "KANSAS",
		"artcc": "ZKC",
		"type": "RP",
		"updated": "HUT*VOR/DME*292.45/7.00"
	},
	{
		"name": "JASKA",
		"latitude": "35-50-54.07 N",
		"longitude": "97-19-29.43 W",
		"state": "OKLAHOMA",
		"artcc": "ZKC",
		"type": "RNAV",
		"updated": "05/27/2014"
	},
	{
		"name": "JASPS",
		"latitude": "38-2-44.38 N",
		"longitude": "97-16-35 W",
		"state": "KANSAS",
		"artcc": "ZKC",
		"type": "RNAV",
		"updated": "ICT*VORTAC*031.95/23.18"
	},
	{
		"name": "JATAG",
		"latitude": "38-2-35.78 N",
		"longitude": "90-24-40.41 W",
		"state": "MISSOURI",
		"artcc": "ZKC",
		"type": "RNAV",
		"updated": "08/31/2015"
	},
	{
		"name": "JATRI",
		"latitude": "36-18-46.8 N",
		"longitude": "98-17-15.07 W",
		"state": "OKLAHOMA",
		"artcc": "ZKC",
		"type": "MR",
		"updated": "END*VORTAC*259.00/18.00"
	},
	{
		"name": "JATUS",
		"latitude": "37-43-24.38 N",
		"longitude": "88-46-16.12 W",
		"state": "ILLINOIS",
		"artcc": "ZKC",
		"type": "RNAV",
		"updated": "02/29/2008"
	},
	{
		"name": "JAVAN",
		"latitude": "37-6-46.93 N",
		"longitude": "95-28-7.83 W",
		"state": "KANSAS",
		"artcc": "ZKC",
		"type": "RP",
		"updated": "OSW*VOR/DME*250.25/13.00"
	},
	{
		"name": "JAVOV",
		"latitude": "37-49-9.91 N",
		"longitude": "89-52-53.15 W",
		"state": "MISSOURI",
		"artcc": "ZKC",
		"type": "RNAV",
		"updated": "06/14/2010"
	},
	{
		"name": "JAWED",
		"latitude": "40-1-59.43 N",
		"longitude": "94-1-44.01 W",
		"state": "MISSOURI",
		"artcc": "ZKC",
		"type": "RP",
		"updated": "STJ*VORTAC*075.70/41.56"
	},
	{
		"name": "JAXER",
		"latitude": "38-24-50.06 N",
		"longitude": "94-26-14.17 W",
		"state": "MISSOURI",
		"artcc": "ZKC",
		"type": "RNAV",
		"updated": "12/28/2007"
	},
	{
		"name": "JAXIP",
		"latitude": "38-15-36.21 N",
		"longitude": "91-24-16.85 W",
		"state": "MISSOURI",
		"artcc": "ZKC",
		"type": "RNAV",
		"updated": "11/15/2010"
	},
	{
		"name": "JAXSU",
		"latitude": "37-52-6.63 N",
		"longitude": "97-19-21.14 W",
		"state": "KANSAS",
		"artcc": "ZKC",
		"type": "RNAV",
		"updated": "09/21/2014"
	},
	{
		"name": "JAYBA",
		"latitude": "39-17-57.69 N",
		"longitude": "94-49-44.9 W",
		"state": "MISSOURI",
		"artcc": "ZKC",
		"type": "RP",
		"updated": "RNI*LD*274.12/6.54"
	},
	{
		"name": "JAYUK",
		"latitude": "37-55-13.49 N",
		"longitude": "97-41-52.83 W",
		"state": "KANSAS",
		"artcc": "ZKC",
		"type": "RNAV",
		"updated": "09/15/2008"
	},
	{
		"name": "JAZZE",
		"latitude": "39-22-16.9 N",
		"longitude": "94-40-56.54 W",
		"state": "MISSOURI",
		"artcc": "ZKC",
		"type": "RNAV",
		"updated": "01/31/2013"
	},
	{
		"name": "JBUCK",
		"latitude": "38-45-1.25 N",
		"longitude": "90-34-21.9 W",
		"state": "MISSOURI",
		"artcc": "ZKC",
		"type": "RNAV",
		"updated": "11/27/2012"
	},
	{
		"name": "JDOGG",
		"latitude": "39-56-59.8 N",
		"longitude": "94-39-41.43 W",
		"state": "MISSOURI",
		"artcc": "ZKC",
		"type": "RP",
		"updated": "MCI*VORTAC*360.00/40.00"
	},
	{
		"name": "JDUNN",
		"latitude": "38-22-4.07 N",
		"longitude": "88-16-16 W",
		"state": "ILLINOIS",
		"artcc": "ZKC",
		"type": "RNAV",
		"updated": "04/29/2014"
	},
	{
		"name": "JEBIK",
		"latitude": "39-15-54.95 N",
		"longitude": "95-37-1.44 W",
		"state": "KANSAS",
		"artcc": "ZKC",
		"type": "RNAV",
		"updated": "10/23/2003"
	},
	{
		"name": "JEBLA",
		"latitude": "36-27-44.35 N",
		"longitude": "98-34-31.86 W",
		"state": "OKLAHOMA",
		"artcc": "ZKC",
		"type": "RNAV",
		"updated": "03/06/2003"
	},
	{
		"name": "JEBNU",
		"latitude": "35-33-7.34 N",
		"longitude": "97-2-42.76 W",
		"state": "OKLAHOMA",
		"artcc": "ZKC",
		"type": "RNAV",
		"updated": "08/17/2010"
	},
	{
		"name": "JEDGA",
		"latitude": "39-12-27.32 N",
		"longitude": "88-14-21.08 W",
		"state": "ILLINOIS",
		"artcc": "ZKC",
		"type": "RNAV",
		"updated": "06/28/2010"
	},
	{
		"name": "JEDLI",
		"latitude": "36-48-31.52 N",
		"longitude": "101-52-45.27 W",
		"state": "OKLAHOMA",
		"artcc": "ZKC",
		"type": "RNAV",
		"updated": "03/28/2010"
	},
	{
		"name": "JEDOS",
		"latitude": "36-8-52.42 N",
		"longitude": "98-5-52.62 W",
		"state": "OKLAHOMA",
		"artcc": "ZKC",
		"type": "RNAV",
		"updated": "03/04/2015"
	},
	{
		"name": "JEFFE",
		"latitude": "37-3-56.97 N",
		"longitude": "95-46-37.85 W",
		"state": "KANSAS",
		"artcc": "ZKC",
		"type": "RP",
		"updated": "IDP*LD*178.29/6.09"
	},
	{
		"name": "JEFRI",
		"latitude": "39-25-19.53 N",
		"longitude": "94-43-39.39 W",
		"state": "MISSOURI",
		"artcc": "ZKC",
		"type": "RNAV",
		"updated": "01/31/2013"
	},
	{
		"name": "JEGUS",
		"latitude": "38-40-30.67 N",
		"longitude": "88-57-50.07 W",
		"state": "ILLINOIS",
		"artcc": "ZKC",
		"type": "RNAV",
		"updated": "03/01/2013"
	},
	{
		"name": "JEKDU",
		"latitude": "37-37-57.67 N",
		"longitude": "101-25-28.71 W",
		"state": "KANSAS",
		"artcc": "ZKC",
		"type": "RNAV",
		"updated": "07/18/2016"
	},
	{
		"name": "JEKIT",
		"latitude": "36-11-42.05 N",
		"longitude": "97-16-34.01 W",
		"state": "OKLAHOMA",
		"artcc": "ZKC",
		"type": "RNAV",
		"updated": "05/12/2017"
	},
	{
		"name": "JEKIV",
		"latitude": "38-3-20.25 N",
		"longitude": "92-35-17.1 W",
		"state": "MISSOURI",
		"artcc": "ZKC",
		"type": "RNAV",
		"updated": "05/21/2013"
	},
	{
		"name": "JEKUB",
		"latitude": "39-39-0.53 N",
		"longitude": "97-2-52.85 W",
		"state": "KANSAS",
		"artcc": "ZKC",
		"type": "RNAV",
		"updated": "06/09/2014"
	},
	{
		"name": "JELNA",
		"latitude": "38-4-4.11 N",
		"longitude": "91-36-25.63 W",
		"state": "MISSOURI",
		"artcc": "ZKC",
		"type": "RP",
		"updated": "VIH*VOR/DME*131.58/7.00"
	},
	{
		"name": "JELOK",
		"latitude": "39-38-53.03 N",
		"longitude": "96-32-8.53 W",
		"state": "KANSAS",
		"artcc": "ZKC",
		"type": "RNAV",
		"updated": "01/30/2011"
	},
	{
		"name": "JEMLO",
		"latitude": "36-58-46.05 N",
		"longitude": "94-30-19.01 W",
		"state": "MISSOURI",
		"artcc": "ZKC",
		"type": "RNAV",
		"updated": "06/20/2005"
	},
	{
		"name": "JEMOR",
		"latitude": "37-47-25.29 N",
		"longitude": "99-53-55.57 W",
		"state": "KANSAS",
		"artcc": "ZKC",
		"type": "RNAV",
		"updated": "02/08/2017"
	},
	{
		"name": "JENKY",
		"latitude": "36-47-28.9 N",
		"longitude": "93-44-16.65 W",
		"state": "MISSOURI",
		"artcc": "ZKC",
		"type": "RP",
		"updated": "EOS*VOR/DME*087.99"
	},
	{
		"name": "JENUL",
		"latitude": "39-1-52.25 N",
		"longitude": "99-9-28.84 W",
		"state": "KANSAS",
		"artcc": "ZKC",
		"type": "RNAV",
		"updated": "08/12/2010"
	},
	{
		"name": "JEPEV",
		"latitude": "38-33-8.26 N",
		"longitude": "89-51-41.05 W",
		"state": "ILLINOIS",
		"artcc": "ZKC",
		"type": "RP",
		"updated": "SKE*TACAN*314.13/0.62"
	},
	{
		"name": "JEPOD",
		"latitude": "38-53-54.52 N",
		"longitude": "90-16-28.14 W",
		"state": "MISSOURI",
		"artcc": "ZKC",
		"type": "RP",
		"updated": "STL*VORTAC*075.84/10.00"
	},
	{
		"name": "JEPUB",
		"latitude": "39-26-30.86 N",
		"longitude": "89-19-33.81 W",
		"state": "ILLINOIS",
		"artcc": "ZKC",
		"type": "RNAV",
		"updated": "08/22/2005"
	},
	{
		"name": "JERAG",
		"latitude": "36-32-15.58 N",
		"longitude": "97-12-5.9 W",
		"state": "OKLAHOMA",
		"artcc": "ZKC",
		"type": "RNAV",
		"updated": "11/24/2003"
	},
	{
		"name": "JERLD",
		"latitude": "39-10-10.36 N",
		"longitude": "94-44-12.41 W",
		"state": "KANSAS",
		"artcc": "ZKC",
		"type": "RNAV",
		"updated": "02/14/2013"
	},
	{
		"name": "JERMS",
		"latitude": "37-13-7.78 N",
		"longitude": "92-1-31.46 W",
		"state": "MISSOURI",
		"artcc": "ZKC",
		"type": "RP",
		"updated": "MAP*VORTAC*201.00/25.00"
	},
	{
		"name": "JEROB",
		"latitude": "39-9-39.63 N",
		"longitude": "91-32-42.85 W",
		"state": "MISSOURI",
		"artcc": "ZKC",
		"type": "RNAV",
		"updated": "12/22/2003"
	},
	{
		"name": "JERUP",
		"latitude": "37-14-8.27 N",
		"longitude": "93-27-33.24 W",
		"state": "MISSOURI",
		"artcc": "ZKC",
		"type": "RNAV",
		"updated": "11/03/2015"
	},
	{
		"name": "JERZE",
		"latitude": "39-12-55 N",
		"longitude": "94-45-8.49 W",
		"state": "MISSOURI",
		"artcc": "ZKC",
		"type": "RP",
		"updated": "DOT*LD*190.93/6.76"
	},
	{
		"name": "JESHE",
		"latitude": "37-35-14.18 N",
		"longitude": "89-21-29.49 W",
		"state": "ILLINOIS",
		"artcc": "ZKC",
		"type": "RNAV",
		"updated": "12/09/2009"
	},
	{
		"name": "JESIR",
		"latitude": "37-50-50.35 N",
		"longitude": "90-22-50.23 W",
		"state": "MISSOURI",
		"artcc": "ZKC",
		"type": "RNAV",
		"updated": "08/11/2010"
	},
	{
		"name": "JESIV",
		"latitude": "35-30-33.92 N",
		"longitude": "97-35-35.14 W",
		"state": "OKLAHOMA",
		"artcc": "ZKC",
		"type": "MR",
		"updated": "PWA*VOR/DME*110.00/3.00"
	},
	{
		"name": "JESON",
		"latitude": "36-11-50.73 N",
		"longitude": "95-36-59.93 W",
		"state": "OKLAHOMA",
		"artcc": "ZKC",
		"type": "RNAV",
		"updated": "11/05/2001"
	},
	{
		"name": "JETBU",
		"latitude": "37-27-58.55 N",
		"longitude": "97-15-9.25 W",
		"state": "KANSAS",
		"artcc": "ZKC",
		"type": "RP",
		"updated": "ICT*VORTAC*129.53/23.00"
	},
	{
		"name": "JETEX",
		"latitude": "36-11-52.81 N",
		"longitude": "95-28-45.26 W",
		"state": "OKLAHOMA",
		"artcc": "ZKC",
		"type": "MR",
		"updated": "TUL*VORTAC*081.51/15.00"
	},
	{
		"name": "JETIK",
		"latitude": "39-5-40.12 N",
		"longitude": "90-4-54.69 W",
		"state": "ILLINOIS",
		"artcc": "ZKC",
		"type": "RNAV",
		"updated": "03/28/2011"
	},
	{
		"name": "JETIP",
		"latitude": "37-11-19.58 N",
		"longitude": "94-44-39.59 W",
		"state": "KANSAS",
		"artcc": "ZKC",
		"type": "RP",
		"updated": "OSW*VOR/DME*077.00/22.10"
	},
	{
		"name": "JETON",
		"latitude": "38-26-57.59 N",
		"longitude": "88-41-46.17 W",
		"state": "ILLINOIS",
		"artcc": "ZKC",
		"type": "RP",
		"updated": "ENL*VORTAC*081.25/21.89"
	},
	{
		"name": "JETRO",
		"latitude": "36-11-46.02 N",
		"longitude": "95-48-44.15 W",
		"state": "OKLAHOMA",
		"artcc": "ZKC",
		"type": "RNAV",
		"updated": "04/02/2008"
	},
	{
		"name": "JETUX",
		"latitude": "37-33-20.24 N",
		"longitude": "97-28-56.26 W",
		"state": "KANSAS",
		"artcc": "ZKC",
		"type": "RNAV",
		"updated": "08/11/2010"
	},
	{
		"name": "JEVEL",
		"latitude": "39-1-38.21 N",
		"longitude": "95-44-18.25 W",
		"state": "KANSAS",
		"artcc": "ZKC",
		"type": "MR",
		"updated": "FOE*TACAN*318.00/6.00"
	},
	{
		"name": "JEVSI",
		"latitude": "39-28-38.88 N",
		"longitude": "96-56-59.77 W",
		"state": "KANSAS",
		"artcc": "ZKC",
		"type": "RNAV",
		"updated": "06/09/2014"
	},
	{
		"name": "JEVUX",
		"latitude": "37-11-34.96 N",
		"longitude": "100-52-35.4 W",
		"state": "KANSAS",
		"artcc": "ZKC",
		"type": "RP",
		"updated": "07/02/2007"
	},
	{
		"name": "JEXAR",
		"latitude": "38-48-36.08 N",
		"longitude": "90-30-42.13 W",
		"state": "MISSOURI",
		"artcc": "ZKC",
		"type": "RP",
		"updated": "STL*VORTAC*203.37"
	},
	{
		"name": "JEXAS",
		"latitude": "39-50-22.5 N",
		"longitude": "90-19-21.01 W",
		"state": "ILLINOIS",
		"artcc": "ZKC",
		"type": "RNAV",
		"updated": "08/22/2005"
	},
	{
		"name": "JEXAV",
		"latitude": "38-21-51.27 N",
		"longitude": "91-50-6.74 W",
		"state": "MISSOURI",
		"artcc": "ZKC",
		"type": "RNAV",
		"updated": "09/25/2012"
	},
	{
		"name": "JFOUR",
		"latitude": "36-53-39.19 N",
		"longitude": "94-7-51.32 W",
		"state": "MISSOURI",
		"artcc": "ZKC",
		"type": "RP",
		"updated": "EOS*VOR/DME*071.00/15.00"
	},
	{
		"name": "JFOXX",
		"latitude": "36-59-38.05 N",
		"longitude": "94-0-34.6 W",
		"state": "MISSOURI",
		"artcc": "ZKC",
		"type": "RNAV",
		"updated": "09/17/2014"
	},
	{
		"name": "JHART",
		"latitude": "38-47-32.8 N",
		"longitude": "89-30-39.12 W",
		"state": "ILLINOIS",
		"artcc": "ZKC",
		"type": "RNAV",
		"updated": "08/09/2012"
	},
	{
		"name": "JHAUN",
		"latitude": "38-8-20.94 N",
		"longitude": "89-47-45.02 W",
		"state": "ILLINOIS",
		"artcc": "ZKC",
		"type": "RP",
		"updated": "STL*VORTAC*142.00/54.00"
	},
	{
		"name": "JHAWK",
		"latitude": "38-48-19.85 N",
		"longitude": "95-25-15.38 W",
		"state": "KANSAS",
		"artcc": "ZKC",
		"type": "RP",
		"updated": "MCI*VORTAC*223.24/43.00"
	},
	{
		"name": "JIBED",
		"latitude": "39-25-58.54 N",
		"longitude": "97-9-21.04 W",
		"state": "KANSAS",
		"artcc": "ZKC",
		"type": "RNAV",
		"updated": "12/10/2010"
	},
	{
		"name": "JIBNO",
		"latitude": "38-17-37.61 N",
		"longitude": "97-57-11.62 W",
		"state": "KANSAS",
		"artcc": "ZKC",
		"type": "RNAV",
		"updated": "09/22/2017"
	},
	{
		"name": "JIBOG",
		"latitude": "37-47-9.25 N",
		"longitude": "93-14-1.1 W",
		"state": "MISSOURI",
		"artcc": "ZKC",
		"type": "RNAV",
		"updated": "05/10/2007"
	},
	{
		"name": "JICDA",
		"latitude": "38-31-2.78 N",
		"longitude": "92-32-40.83 W",
		"state": "MISSOURI",
		"artcc": "ZKC",
		"type": "RP",
		"updated": "HLV*VORTAC*202.79/40.72"
	},
	{
		"name": "JIDIR",
		"latitude": "38-52-41.4 N",
		"longitude": "93-47-8.46 W",
		"state": "MISSOURI",
		"artcc": "ZKC",
		"type": "RNAV",
		"updated": "02/25/2015"
	},
	{
		"name": "JIDRO",
		"latitude": "36-7-15.35 N",
		"longitude": "97-49-56.38 W",
		"state": "OKLAHOMA",
		"artcc": "ZKC",
		"type": "MW",
		"updated": "02/25/2010"
	},
	{
		"name": "JIFIE",
		"latitude": "39-0-47.63 N",
		"longitude": "94-17-5.42 W",
		"state": "MISSOURI",
		"artcc": "ZKC",
		"type": "RP",
		"updated": "ANX*VORTAC*229.00/8.80"
	},
	{
		"name": "JIGIM",
		"latitude": "38-40-5.2 N",
		"longitude": "90-13-25.99 W",
		"state": "MISSOURI",
		"artcc": "ZKC",
		"type": "RP",
		"updated": "TOY*VORTAC*249.56"
	},
	{
		"name": "JIGLO",
		"latitude": "38-48-27.39 N",
		"longitude": "90-25-50.38 W",
		"state": "MISSOURI",
		"artcc": "ZKC",
		"type": "RP",
		"updated": "STL*VORTAC*141.68/4.00"
	},
	{
		"name": "JIGSY",
		"latitude": "38-50-32.01 N",
		"longitude": "89-7-11.01 W",
		"state": "ILLINOIS",
		"artcc": "ZKC",
		"type": "RP",
		"updated": "STL*VORTAC*089.57/63.88"
	},
	{
		"name": "JIKAK",
		"latitude": "37-42-35.61 N",
		"longitude": "96-53-41.57 W",
		"state": "KANSAS",
		"artcc": "ZKC",
		"type": "RNAV",
		"updated": "08/01/2013"
	},
	{
		"name": "JIKIP",
		"latitude": "38-22-29.01 N",
		"longitude": "96-10-46.54 W",
		"state": "KANSAS",
		"artcc": "ZKC",
		"type": "RNAV",
		"updated": "08/09/2007"
	},
	{
		"name": "JIKLA",
		"latitude": "38-44-12.48 N",
		"longitude": "94-53-29.97 W",
		"state": "KANSAS",
		"artcc": "ZKC",
		"type": "RNAV",
		"updated": "02/11/2005"
	},
	{
		"name": "JIKMO",
		"latitude": "38-41-14.56 N",
		"longitude": "89-44-17.42 W",
		"state": "ILLINOIS",
		"artcc": "ZKC",
		"type": "RNAV",
		"updated": "06/01/2010"
	},
	{
		"name": "JIKOK",
		"latitude": "38-59-47.58 N",
		"longitude": "97-45-11.92 W",
		"state": "KANSAS",
		"artcc": "ZKC",
		"type": "RNAV",
		"updated": "08/19/2005"
	},
	{
		"name": "JIKOT",
		"latitude": "38-54-4.15 N",
		"longitude": "99-11-2.51 W",
		"state": "KANSAS",
		"artcc": "ZKC",
		"type": "RNAV",
		"updated": "08/12/2010"
	},
	{
		"name": "JILEN",
		"latitude": "37-6-38.73 N",
		"longitude": "100-52-52.69 W",
		"state": "KANSAS",
		"artcc": "ZKC",
		"type": "RNAV",
		"updated": "11/26/2014"
	},
	{
		"name": "JILOR",
		"latitude": "37-22-52.38 N",
		"longitude": "97-21-16.74 W",
		"state": "KANSAS",
		"artcc": "ZKC",
		"type": "MR",
		"updated": "IAB*TACAN*192.00/15.00"
	},
	{
		"name": "JIMDA",
		"latitude": "38-15-13.11 N",
		"longitude": "89-0-47.37 W",
		"state": "ILLINOIS",
		"artcc": "ZKC",
		"type": "RNAV",
		"updated": "05/05/2011"
	},
	{
		"name": "JIMHU",
		"latitude": "36-22-39 N",
		"longitude": "98-28-26.37 W",
		"state": "OKLAHOMA",
		"artcc": "ZKC",
		"type": "RNAV",
		"updated": "03/06/2003"
	},
	{
		"name": "JIMIT",
		"latitude": "37-35-57.39 N",
		"longitude": "97-16-32.61 W",
		"state": "KANSAS",
		"artcc": "ZKC",
		"type": "MR",
		"updated": "IAB*TACAN*/1.40"
	},
	{
		"name": "JIMOK",
		"latitude": "37-25-38.18 N",
		"longitude": "97-6-7.98 W",
		"state": "KANSAS",
		"artcc": "ZKC",
		"type": "RNAV",
		"updated": "06/14/2013"
	},
	{
		"name": "JIMPI",
		"latitude": "39-25-48.66 N",
		"longitude": "91-27-7.65 W",
		"state": "MISSOURI",
		"artcc": "ZKC",
		"type": "RNAV",
		"updated": "01/29/2002"
	},
	{
		"name": "JINAM",
		"latitude": "38-2-5.28 N",
		"longitude": "91-51-41.38 W",
		"state": "MISSOURI",
		"artcc": "ZKC",
		"type": "RNAV",
		"updated": "08/03/2015"
	},
	{
		"name": "JINRI",
		"latitude": "37-49-43.15 N",
		"longitude": "100-29-58.84 W",
		"state": "KANSAS",
		"artcc": "ZKC",
		"type": "RP",
		"updated": "GCK*VORTAC*105.77/12.00"
	},
	{
		"name": "JINUX",
		"latitude": "37-50-40.57 N",
		"longitude": "90-46-4.23 W",
		"state": "MISSOURI",
		"artcc": "ZKC",
		"type": "RNAV",
		"updated": "01/19/2011"
	},
	{
		"name": "JINVO",
		"latitude": "39-14-40.46 N",
		"longitude": "89-40-22.09 W",
		"state": "ILLINOIS",
		"artcc": "ZKC",
		"type": "RNAV",
		"updated": "02/23/2007"
	},
	{
		"name": "JIPEP",
		"latitude": "37-16-10.48 N",
		"longitude": "93-12-28.35 W",
		"state": "MISSOURI",
		"artcc": "ZKC",
		"type": "RNAV",
		"updated": "06/09/2015"
	},
	{
		"name": "JIPKU",
		"latitude": "38-32-43.45 N",
		"longitude": "98-57-55.05 W",
		"state": "KANSAS",
		"artcc": "ZKC",
		"type": "RNAV",
		"updated": "03/28/2010"
	},
	{
		"name": "JIPLO",
		"latitude": "38-54-59.03 N",
		"longitude": "99-53-33.39 W",
		"state": "KANSAS",
		"artcc": "ZKC",
		"type": "RNAV",
		"updated": "11/03/2015"
	},
	{
		"name": "JIPMA",
		"latitude": "36-47-37.33 N",
		"longitude": "96-13-10.76 W",
		"state": "OKLAHOMA",
		"artcc": "ZKC",
		"type": "RP",
		"updated": "BVO*VOR/DME*248.00/10.00"
	},
	{
		"name": "JIPYO",
		"latitude": "35-55-25.6 N",
		"longitude": "98-43-53.6 W",
		"state": "OKLAHOMA",
		"artcc": "ZKC",
		"type": "RNAV",
		"updated": "02/09/2015"
	},
	{
		"name": "JIREX",
		"latitude": "38-2-10.48 N",
		"longitude": "91-59-10.22 W",
		"state": "MISSOURI",
		"artcc": "ZKC",
		"type": "RP",
		"updated": "VIH*VOR/DME*236.00/15.00"
	},
	{
		"name": "JIRUB",
		"latitude": "38-31-11.65 N",
		"longitude": "89-47-23.09 W",
		"state": "ILLINOIS",
		"artcc": "ZKC",
		"type": "RNAV",
		"updated": "06/01/2010"
	},
	{
		"name": "JISAX",
		"latitude": "36-43-3.91 N",
		"longitude": "96-0-26.86 W",
		"state": "OKLAHOMA",
		"artcc": "ZKC",
		"type": "RP",
		"updated": "BVO*VOR/DME*167.71/7.00"
	},
	{
		"name": "JISDU",
		"latitude": "39-53-16.57 N",
		"longitude": "92-39-17.38 W",
		"state": "MISSOURI",
		"artcc": "ZKC",
		"type": "RNAV",
		"updated": "05/08/2009"
	},
	{
		"name": "JISID",
		"latitude": "38-29-39.7 N",
		"longitude": "88-34-32.6 W",
		"state": "ILLINOIS",
		"artcc": "ZKC",
		"type": "RNAV",
		"updated": "04/25/2012"
	},
	{
		"name": "JISIN",
		"latitude": "39-1-59.19 N",
		"longitude": "95-22-43.25 W",
		"state": "KANSAS",
		"artcc": "ZKC",
		"type": "RNAV",
		"updated": "08/05/2013"
	},
	{
		"name": "JISNA",
		"latitude": "39-48-20.46 N",
		"longitude": "91-20-34.69 W",
		"state": "ILLINOIS",
		"artcc": "ZKC",
		"type": "RNAV",
		"updated": "11/18/2008"
	},
	{
		"name": "JISNU",
		"latitude": "37-54-46.24 N",
		"longitude": "92-5-34.83 W",
		"state": "MISSOURI",
		"artcc": "ZKC",
		"type": "RNAV",
		"updated": "06/09/2015"
	},
	{
		"name": "JISOK",
		"latitude": "39-33-54.01 N",
		"longitude": "88-49-15.88 W",
		"state": "ILLINOIS",
		"artcc": "ZKC",
		"type": "RP",
		"updated": "MTO*VOR/DME*279.03"
	},
	{
		"name": "JITER",
		"latitude": "38-54-42.08 N",
		"longitude": "95-9-6.24 W",
		"state": "KANSAS",
		"artcc": "ZKC",
		"type": "RNAV",
		"updated": "04/20/2009"
	},
	{
		"name": "JITMI",
		"latitude": "36-15-10.74 N",
		"longitude": "100-1-12.49 W",
		"state": "TEXAS",
		"artcc": "ZKC",
		"type": "RNAV",
		"updated": "03/29/2010"
	},
	{
		"name": "JITPA",
		"latitude": "37-52-42.14 N",
		"longitude": "97-55-43.39 W",
		"state": "KANSAS",
		"artcc": "ZKC",
		"type": "RNAV",
		"updated": "02/09/2018"
	},
	{
		"name": "JIVAT",
		"latitude": "38-59-4.2 N",
		"longitude": "96-52-8.59 W",
		"state": "KANSAS",
		"artcc": "ZKC",
		"type": "RNAV",
		"updated": "01/25/2006"
	},
	{
		"name": "JIVSO",
		"latitude": "37-53-51.91 N",
		"longitude": "88-20-17.47 W",
		"state": "ILLINOIS",
		"artcc": "ZKC",
		"type": "RNAV",
		"updated": "02/29/2008"
	},
	{
		"name": "JIXAB",
		"latitude": "38-33-50.81 N",
		"longitude": "90-7-28.05 W",
		"state": "ILLINOIS",
		"artcc": "ZKC",
		"type": "RNAV",
		"updated": "09/09/2005"
	},
	{
		"name": "JIXIT",
		"latitude": "38-18-29.61 N",
		"longitude": "99-5-7.03 W",
		"state": "KANSAS",
		"artcc": "ZKC",
		"type": "RNAV",
		"updated": "01/19/2011"
	},
	{
		"name": "JNMYR",
		"latitude": "37-14-8.63 N",
		"longitude": "93-23-22.17 W",
		"state": "MISSOURI",
		"artcc": "ZKC",
		"type": "RP",
		"updated": "SGF*VORTAC*196.24/7.68"
	},
	{
		"name": "JOBAD",
		"latitude": "38-54-50.05 N",
		"longitude": "94-22-38.83 W",
		"state": "MISSOURI",
		"artcc": "ZKC",
		"type": "RNAV",
		"updated": "11/15/2017"
	},
	{
		"name": "JOBAX",
		"latitude": "36-59-27.8 N",
		"longitude": "92-45-15.07 W",
		"state": "MISSOURI",
		"artcc": "ZKC",
		"type": "RP",
		"updated": "DGD*VORTAC*107.19/6.21"
	},
	{
		"name": "JOBEM",
		"latitude": "40-23-28.7 N",
		"longitude": "91-9-49.38 W",
		"state": "ILLINOIS",
		"artcc": "ZKC",
		"type": "RNAV",
		"updated": "07/27/2006"
	},
	{
		"name": "JOBRK",
		"latitude": "38-36-57.76 N",
		"longitude": "90-54-33.89 W",
		"state": "MISSOURI",
		"artcc": "ZKC",
		"type": "RP",
		"updated": "STL*VORTAC*232.95"
	},
	{
		"name": "JOBUV",
		"latitude": "36-48-17.12 N",
		"longitude": "93-24-20.16 W",
		"state": "MISSOURI",
		"artcc": "ZKC",
		"type": "RNAV",
		"updated": "06/09/2015"
	},
	{
		"name": "JODAD",
		"latitude": "37-6-8.13 N",
		"longitude": "95-1-8.38 W",
		"state": "KANSAS",
		"artcc": "ZKC",
		"type": "RNAV",
		"updated": "03/27/2018"
	},
	{
		"name": "JODIN",
		"latitude": "35-48-39.78 N",
		"longitude": "97-24-9.94 W",
		"state": "OKLAHOMA",
		"artcc": "ZKC",
		"type": "RNAV",
		"updated": "06/13/2008"
	},
	{
		"name": "JODIV",
		"latitude": "40-30-19.69 N",
		"longitude": "92-48-34.03 W",
		"state": "MISSOURI",
		"artcc": "ZKC",
		"type": "RNAV",
		"updated": "04/04/2010"
	},
	{
		"name": "JODPU",
		"latitude": "38-11-43.52 N",
		"longitude": "88-56-14.7 W",
		"state": "ILLINOIS",
		"artcc": "ZKC",
		"type": "RNAV",
		"updated": "05/05/2011"
	},
	{
		"name": "JOFFE",
		"latitude": "37-58-29.29 N",
		"longitude": "92-32-54.14 W",
		"state": "MISSOURI",
		"artcc": "ZKC",
		"type": "RNAV",
		"updated": "08/07/2013"
	},
	{
		"name": "JOFWO",
		"latitude": "39-5-55.12 N",
		"longitude": "95-50-14.01 W",
		"state": "KANSAS",
		"artcc": "ZKC",
		"type": "RNAV",
		"updated": "02/16/2006"
	},
	{
		"name": "JOGPU",
		"latitude": "37-24-52.6 N",
		"longitude": "93-33-28.65 W",
		"state": "MISSOURI",
		"artcc": "ZKC",
		"type": "RNAV",
		"updated": "05/02/2011"
	},
	{
		"name": "JOHTI",
		"latitude": "38-53-40.04 N",
		"longitude": "96-38-11.98 W",
		"state": "KANSAS",
		"artcc": "ZKC",
		"type": "RNAV",
		"updated": "08/05/2013"
	},
	{
		"name": "JOICE",
		"latitude": "38-39-11.83 N",
		"longitude": "90-10-32.77 W",
		"state": "ILLINOIS",
		"artcc": "ZKC",
		"type": "RP",
		"updated": "STL*VORTAC*129.73/19.02"
	},
	{
		"name": "JOINS",
		"latitude": "37-1-36.1 N",
		"longitude": "94-30-51.61 W",
		"state": "MISSOURI",
		"artcc": "ZKC",
		"type": "RNAV",
		"updated": "11/18/2016"
	},
	{
		"name": "JOJTY",
		"latitude": "37-37-43.11 N",
		"longitude": "97-25-8.74 W",
		"state": "KANSAS",
		"artcc": "ZKC",
		"type": "RNAV",
		"updated": "08/11/2010"
	},
	{
		"name": "JOKAS",
		"latitude": "40-23-56.16 N",
		"longitude": "92-7-32.89 W",
		"state": "MISSOURI",
		"artcc": "ZKC",
		"type": "RNAV",
		"updated": "12/03/2014"
	},
	{
		"name": "JOKEK",
		"latitude": "37-57-25.3 N",
		"longitude": "100-45-56.97 W",
		"state": "KANSAS",
		"artcc": "ZKC",
		"type": "RNAV",
		"updated": "05/07/2007"
	},
	{
		"name": "JOLAB",
		"latitude": "40-31-55.31 N",
		"longitude": "91-30-23.65 W",
		"state": "IOWA",
		"artcc": "ZKC",
		"type": "RNAV",
		"updated": "07/27/2006"
	},
	{
		"name": "JOLAG",
		"latitude": "37-36-49.86 N",
		"longitude": "90-37-28.72 W",
		"state": "MISSOURI",
		"artcc": "ZKC",
		"type": "RNAV",
		"updated": "08/11/2010"
	},
	{
		"name": "JOLEL",
		"latitude": "37-45-6.86 N",
		"longitude": "96-59-43.26 W",
		"state": "KANSAS",
		"artcc": "ZKC",
		"type": "RNAV",
		"updated": "12/15/2004"
	},
	{
		"name": "JOMTA",
		"latitude": "36-35-38.18 N",
		"longitude": "97-53-9.25 W",
		"state": "OKLAHOMA",
		"artcc": "ZKC",
		"type": "MR",
		"updated": "END*VORTAC*001.00/15.00"
	},
	{
		"name": "JONAB",
		"latitude": "36-27-10.61 N",
		"longitude": "95-0-51 W",
		"state": "OKLAHOMA",
		"artcc": "ZKC",
		"type": "RNAV",
		"updated": "06/06/2016"
	},
	{
		"name": "JONAG",
		"latitude": "35-56-57.8 N",
		"longitude": "95-24-57.26 W",
		"state": "OKLAHOMA",
		"artcc": "ZME",
		"type": "RNAV",
		"updated": "05/03/2016"
	},
	{
		"name": "JONNY",
		"latitude": "37-50-20.49 N",
		"longitude": "88-58-13.2 W",
		"state": "ILLINOIS",
		"artcc": "ZKC",
		"type": "RP",
		"updated": "MWA*VOR/DME*/5.45"
	},
	{
		"name": "JONUL",
		"latitude": "38-46-17.34 N",
		"longitude": "95-11-28.28 W",
		"state": "KANSAS",
		"artcc": "ZKC",
		"type": "RNAV",
		"updated": "07/15/2016"
	},
	{
		"name": "JOOEE",
		"latitude": "39-18-5.64 N",
		"longitude": "94-51-21.45 W",
		"state": "MISSOURI",
		"artcc": "ZKC",
		"type": "RP",
		"updated": "RNI*LD*274.12/7.80"
	},
	{
		"name": "JOPLO",
		"latitude": "36-27-59.05 N",
		"longitude": "97-47-31.62 W",
		"state": "OKLAHOMA",
		"artcc": "ZKC",
		"type": "MR",
		"updated": "END*VORTAC*035.00/9.50"
	},
	{
		"name": "JOPOD",
		"latitude": "39-57-34.29 N",
		"longitude": "89-52-49.51 W",
		"state": "ILLINOIS",
		"artcc": "ZKC",
		"type": "RNAV",
		"updated": "08/24/2005"
	},
	{
		"name": "JORDO",
		"latitude": "36-16-15.85 N",
		"longitude": "95-33-31.62 W",
		"state": "OKLAHOMA",
		"artcc": "ZKC",
		"type": "RP",
		"updated": "TUL*VORTAC*060.00/12.00"
	},
	{
		"name": "JOROB",
		"latitude": "37-52-24.09 N",
		"longitude": "89-14-44.37 W",
		"state": "ILLINOIS",
		"artcc": "ZKC",
		"type": "RNAV",
		"updated": "02/05/2010"
	},
	{
		"name": "JORUS",
		"latitude": "38-20-22.89 N",
		"longitude": "93-42-20.04 W",
		"state": "MISSOURI",
		"artcc": "ZKC",
		"type": "RNAV",
		"updated": "04/22/2013"
	},
	{
		"name": "JOSMU",
		"latitude": "37-20-59.78 N",
		"longitude": "94-25-23.63 W",
		"state": "MISSOURI",
		"artcc": "ZKC",
		"type": "RNAV",
		"updated": "03/21/2014"
	},
	{
		"name": "JOSNO",
		"latitude": "36-35-40.93 N",
		"longitude": "97-53-48.11 W",
		"state": "OKLAHOMA",
		"artcc": "ZKC",
		"type": "MR",
		"updated": "END*VORTAC*359.00/15.00"
	},
	{
		"name": "JOSOL",
		"latitude": "39-0-22.79 N",
		"longitude": "96-50-8.15 W",
		"state": "KANSAS",
		"artcc": "ZKC",
		"type": "RNAV",
		"updated": "01/25/2006"
	},
	{
		"name": "JOTIN",
		"latitude": "38-50-59.62 N",
		"longitude": "97-38-15.01 W",
		"state": "KANSAS",
		"artcc": "ZKC",
		"type": "RP",
		"updated": "SLN*VORTAC*182.52/4.57"
	},
	{
		"name": "JOTUD",
		"latitude": "38-45-23.5 N",
		"longitude": "91-56-23.98 W",
		"state": "MISSOURI",
		"artcc": "ZKC",
		"type": "RNAV",
		"updated": "07/26/2017"
	},
	{
		"name": "JOVAR",
		"latitude": "38-59-47.62 N",
		"longitude": "88-12-37.06 W",
		"state": "ILLINOIS",
		"artcc": "ZKC",
		"type": "RP",
		"updated": "BIB*VORTAC*067.14/13.50"
	},
	{
		"name": "JOXEV",
		"latitude": "36-41-52.27 N",
		"longitude": "93-47-27.67 W",
		"state": "MISSOURI",
		"artcc": "ZKC",
		"type": "RNAV",
		"updated": "06/24/2013"
	},
	{
		"name": "JOZRA",
		"latitude": "38-14-57.15 N",
		"longitude": "97-10-14.16 W",
		"state": "KANSAS",
		"artcc": "ZKC",
		"type": "RNAV",
		"updated": "09/09/2005"
	},
	{
		"name": "JPANL",
		"latitude": "35-45-56.1 N",
		"longitude": "97-23-15.73 W",
		"state": "OKLAHOMA",
		"artcc": "ZKC",
		"type": "RNAV",
		"updated": "06/13/2008"
	},
	{
		"name": "JSTCE",
		"latitude": "36-5-17.66 N",
		"longitude": "96-35-50.19 W",
		"state": "OKLAHOMA",
		"artcc": "ZKC",
		"type": "RNAV",
		"updated": "05/27/2014"
	},
	{
		"name": "JTHRO",
		"latitude": "40-0-6.23 N",
		"longitude": "93-49-59.2 W",
		"state": "MISSOURI",
		"artcc": "ZKC",
		"type": "RP",
		"updated": "MCI*VORTAC*039.00/60.00"
	},
	{
		"name": "JTSEN",
		"latitude": "37-32-48.98 N",
		"longitude": "101-43-57.01 W",
		"state": "KANSAS",
		"artcc": "ZKC",
		"type": "RNAV",
		"updated": "09/07/2010"
	},
	{
		"name": "JTUNE",
		"latitude": "36-21-36.67 N",
		"longitude": "96-24-55.35 W",
		"state": "OKLAHOMA",
		"artcc": "ZKC",
		"type": "RNAV",
		"updated": "09/27/2016"
	},
	{
		"name": "JUBAX",
		"latitude": "38-47-8.06 N",
		"longitude": "92-10-13.91 W",
		"state": "MISSOURI",
		"artcc": "ZKC",
		"type": "RNAV",
		"updated": "07/27/2017"
	},
	{
		"name": "JUBVO",
		"latitude": "38-2-46.3 N",
		"longitude": "97-38-43.85 W",
		"state": "KANSAS",
		"artcc": "ZKC",
		"type": "RP",
		"updated": "HUT*VOR/DME*073.73/14.00"
	},
	{
		"name": "JUDAA",
		"latitude": "39-41-18.83 N",
		"longitude": "95-15-10.74 W",
		"state": "KANSAS",
		"artcc": "ZKC",
		"type": "RP",
		"updated": "RBA*VOR/DME*136.98/12.51"
	},
	{
		"name": "JUDDG",
		"latitude": "35-53-16.43 N",
		"longitude": "97-16-52.88 W",
		"state": "OKLAHOMA",
		"artcc": "ZKC",
		"type": "RNAV",
		"updated": "05/20/2014"
	},
	{
		"name": "JUDEL",
		"latitude": "37-39-5.15 N",
		"longitude": "97-15-41.87 W",
		"state": "KANSAS",
		"artcc": "ZKC",
		"type": "MR",
		"updated": "IAB*TACAN*006.00/1.80"
	},
	{
		"name": "JUDER",
		"latitude": "39-37-39.78 N",
		"longitude": "91-24-4.57 W",
		"state": "MISSOURI",
		"artcc": "ZKC",
		"type": "RNAV",
		"updated": "09/25/2012"
	},
	{
		"name": "JUDGE",
		"latitude": "39-1-11.21 N",
		"longitude": "96-55-7.82 W",
		"state": "KANSAS",
		"artcc": "ZKC",
		"type": "RP",
		"updated": "ICT*VORTAC*015.12/82.58"
	},
	{
		"name": "JUGAT",
		"latitude": "38-47-53.08 N",
		"longitude": "94-27-44.11 W",
		"state": "MISSOURI",
		"artcc": "ZKC",
		"type": "RNAV",
		"updated": "12/28/2007"
	},
	{
		"name": "JUGEG",
		"latitude": "38-35-33.09 N",
		"longitude": "89-52-38.48 W",
		"state": "ILLINOIS",
		"artcc": "ZKC",
		"type": "RP",
		"updated": "BTC*LD*318.55/4.81"
	},
	{
		"name": "JUGOV",
		"latitude": "37-41-45.59 N",
		"longitude": "97-29-56.61 W",
		"state": "KANSAS",
		"artcc": "ZKC",
		"type": "RP",
		"updated": "ICT*VORTAC*119.16/5.00"
	},
	{
		"name": "JULMA",
		"latitude": "38-10-20.99 N",
		"longitude": "90-43-23.33 W",
		"state": "MISSOURI",
		"artcc": "ZKC",
		"type": "RNAV",
		"updated": "01/21/2011"
	},
	{
		"name": "JULYA",
		"latitude": "38-58-33.31 N",
		"longitude": "89-57-39.26 W",
		"state": "ILLINOIS",
		"artcc": "ZKC",
		"type": "RNAV",
		"updated": "09/19/2012"
	},
	{
		"name": "JUMRA",
		"latitude": "38-46-41.09 N",
		"longitude": "96-48-27.92 W",
		"state": "KANSAS",
		"artcc": "ZKC",
		"type": "RNAV",
		"updated": "08/05/2013"
	},
	{
		"name": "JUMUG",
		"latitude": "37-31-5 N",
		"longitude": "97-17-9.49 W",
		"state": "KANSAS",
		"artcc": "ZKC",
		"type": "RNAV",
		"updated": "08/09/2007"
	},
	{
		"name": "JUNEP",
		"latitude": "39-2-26.16 N",
		"longitude": "95-45-4.69 W",
		"state": "KANSAS",
		"artcc": "ZKC",
		"type": "RP",
		"updated": "FOE*TACAN*318.00/7.00"
	},
	{
		"name": "JUNKE",
		"latitude": "38-51-36.04 N",
		"longitude": "98-47-25.29 W",
		"state": "KANSAS",
		"artcc": "ZKC",
		"type": "WP",
		"updated": "HYS*VORTAC*077.90/22.80"
	},
	{
		"name": "JUNLI",
		"latitude": "37-33-38.97 N",
		"longitude": "97-14-57.35 W",
		"state": "KANSAS",
		"artcc": "ZKC",
		"type": "RNAV",
		"updated": "06/03/2010"
	},
	{
		"name": "JUNPI",
		"latitude": "39-52-47.27 N",
		"longitude": "94-54-24.88 W",
		"state": "MISSOURI",
		"artcc": "ZKC",
		"type": "RNAV",
		"updated": "10/31/2013"
	},
	{
		"name": "JUPAR",
		"latitude": "36-24-10.87 N",
		"longitude": "101-11-5.17 W",
		"state": "TEXAS",
		"artcc": "ZKC",
		"type": "RNAV",
		"updated": "10/20/2011"
	},
	{
		"name": "JUPIM",
		"latitude": "40-8-17.19 N",
		"longitude": "91-12-7.98 W",
		"state": "ILLINOIS",
		"artcc": "ZKC",
		"type": "RNAV",
		"updated": "11/18/2008"
	},
	{
		"name": "JUPIS",
		"latitude": "38-36-2.53 N",
		"longitude": "90-16-28.84 W",
		"state": "MISSOURI",
		"artcc": "ZKC",
		"type": "RNAV",
		"updated": "09/09/2005"
	},
	{
		"name": "JUPMI",
		"latitude": "36-15-48.27 N",
		"longitude": "97-47-28.07 W",
		"state": "OKLAHOMA",
		"artcc": "ZKC",
		"type": "RNAV",
		"updated": "10/08/2015"
	},
	{
		"name": "JUPNO",
		"latitude": "37-30-8.51 N",
		"longitude": "100-3-41.67 W",
		"state": "KANSAS",
		"artcc": "ZKC",
		"type": "RNAV",
		"updated": "07/25/2017"
	},
	{
		"name": "JURIX",
		"latitude": "40-14-30.34 N",
		"longitude": "92-17-48.05 W",
		"state": "MISSOURI",
		"artcc": "ZKC",
		"type": "RP",
		"updated": "IRK*VORTAC*058.65/15.00"
	},
	{
		"name": "JURKI",
		"latitude": "39-36-23.21 N",
		"longitude": "89-57-13 W",
		"state": "ILLINOIS",
		"artcc": "ZKC",
		"type": "RP",
		"updated": "IJX*VOR/DME*125.57"
	},
	{
		"name": "JURLI",
		"latitude": "38-51-55.12 N",
		"longitude": "92-11-36.81 W",
		"state": "MISSOURI",
		"artcc": "ZKC",
		"type": "RP",
		"updated": "COU*LD*201.44/2.62"
	},
	{
		"name": "JUROB",
		"latitude": "37-16-56.03 N",
		"longitude": "95-30-20.82 W",
		"state": "KANSAS",
		"artcc": "ZKC",
		"type": "RNAV",
		"updated": "07/03/2008"
	},
	{
		"name": "JUTAG",
		"latitude": "36-14-48.2 N",
		"longitude": "97-48-46.64 W",
		"state": "OKLAHOMA",
		"artcc": "ZKC",
		"type": "MR",
		"updated": "END*VORTAC*134.00/7.80"
	},
	{
		"name": "JUTAT",
		"latitude": "37-9-6.44 N",
		"longitude": "92-3-30.54 W",
		"state": "MISSOURI",
		"artcc": "ZKC",
		"type": "RNAV",
		"updated": "05/08/2014"
	},
	{
		"name": "JUTMA",
		"latitude": "38-34-11.97 N",
		"longitude": "98-21-3.19 W",
		"state": "KANSAS",
		"artcc": "ZKC",
		"type": "RNAV",
		"updated": "06/21/2016"
	},
	{
		"name": "JUTNI",
		"latitude": "38-44-0.47 N",
		"longitude": "90-21-22.04 W",
		"state": "MISSOURI",
		"artcc": "ZKC",
		"type": "RP",
		"updated": "RQN*LD*123.18/3.15"
	},
	{
		"name": "JUTSA",
		"latitude": "38-17-22.26 N",
		"longitude": "96-12-9.89 W",
		"state": "KANSAS",
		"artcc": "ZKC",
		"type": "RNAV",
		"updated": "08/09/2007"
	},
	{
		"name": "JUVLI",
		"latitude": "40-8-10.7 N",
		"longitude": "91-17-35.61 W",
		"state": "ILLINOIS",
		"artcc": "ZKC",
		"type": "RNAV",
		"updated": "11/12/2008"
	},
	{
		"name": "JUVRI",
		"latitude": "39-41-57.06 N",
		"longitude": "92-28-15.61 W",
		"state": "MISSOURI",
		"artcc": "ZKC",
		"type": "RNAV",
		"updated": "02/18/2014"
	},
	{
		"name": "JUXAD",
		"latitude": "37-28-53.62 N",
		"longitude": "92-0-3.02 W",
		"state": "MISSOURI",
		"artcc": "ZKC",
		"type": "RP",
		"updated": "MAP*VORTAC*231.20/12.06"
	},
	{
		"name": "JUXAG",
		"latitude": "38-18-9.14 N",
		"longitude": "93-45-9.31 W",
		"state": "MISSOURI",
		"artcc": "ZKC",
		"type": "RNAV",
		"updated": "04/22/2013"
	},
	{
		"name": "JUXAK",
		"latitude": "39-59-37.84 N",
		"longitude": "91-11-59.95 W",
		"state": "ILLINOIS",
		"artcc": "ZKC",
		"type": "RNAV",
		"updated": "11/18/2008"
	},
	{
		"name": "JUXON",
		"latitude": "38-57-10.76 N",
		"longitude": "96-47-48.94 W",
		"state": "KANSAS",
		"artcc": "ZKC",
		"type": "RP",
		"updated": "MHK*VOR/DME*203.49/13.00"
	},
	{
		"name": "JUZRO",
		"latitude": "38-6-3.81 N",
		"longitude": "95-43-25.05 W",
		"state": "KANSAS",
		"artcc": "ZKC",
		"type": "RNAV",
		"updated": "05/08/2011"
	},
	{
		"name": "JVEEE",
		"latitude": "38-34-28.77 N",
		"longitude": "90-2-8.64 W",
		"state": "ILLINOIS",
		"artcc": "ZKC",
		"type": "RNAV",
		"updated": "08/13/2012"
	},
	{
		"name": "JYAAR",
		"latitude": "38-47-14.04 N",
		"longitude": "90-14-10.33 W",
		"state": "MISSOURI",
		"artcc": "ZKC",
		"type": "RNAV",
		"updated": "08/13/2012"
	}
]
