[
	{
		"name": "KAACE",
		"latitude": "38-35-3.7 N",
		"longitude": "90-2-13.34 W",
		"state": "ILLINOIS",
		"artcc": "ZKC",
		"type": "RNAV",
		"updated": "08/13/2012"
	},
	{
		"name": "KAALA",
		"latitude": "39-11-5.08 N",
		"longitude": "94-29-53.8 W",
		"state": "MISSOURI",
		"artcc": "ZKC",
		"type": "RNAV",
		"updated": "01/31/2013"
	},
	{
		"name": "KABIF",
		"latitude": "39-53-51.87 N",
		"longitude": "91-35-39.6 W",
		"state": "MISSOURI",
		"artcc": "ZKC",
		"type": "RNAV",
		"updated": "03/16/2009"
	},
	{
		"name": "KABNE",
		"latitude": "37-54-57.76 N",
		"longitude": "97-24-54.92 W",
		"state": "KANSAS",
		"artcc": "ZKC",
		"type": "RP",
		"updated": "ICT*VORTAC*031.00/13.00"
	},
	{
		"name": "KACED",
		"latitude": "38-0-5.27 N",
		"longitude": "95-34-57.38 W",
		"state": "KANSAS",
		"artcc": "ZKC",
		"type": "RP",
		"updated": "CNU*VOR/DME*356.31/22.50"
	},
	{
		"name": "KADKE",
		"latitude": "37-6-5.44 N",
		"longitude": "94-53-8.37 W",
		"state": "KANSAS",
		"artcc": "ZKC",
		"type": "RNAV",
		"updated": "06/16/2003"
	},
	{
		"name": "KAEHN",
		"latitude": "38-40-48.84 N",
		"longitude": "90-50-58.62 W",
		"state": "MISSOURI",
		"artcc": "ZKC",
		"type": "RP",
		"updated": "STL*VORTAC*237.00"
	},
	{
		"name": "KAENE",
		"latitude": "39-20-55.7 N",
		"longitude": "94-26-2.17 W",
		"state": "MISSOURI",
		"artcc": "ZKC",
		"type": "RNAV",
		"updated": "01/31/2013"
	},
	{
		"name": "KAEYE",
		"latitude": "38-53-23.93 N",
		"longitude": "90-13-43.89 W",
		"state": "MISSOURI",
		"artcc": "ZKC",
		"type": "RNAV",
		"updated": "08/03/2012"
	},
	{
		"name": "KAHHO",
		"latitude": "38-3-56.22 N",
		"longitude": "91-19-21.93 W",
		"state": "MISSOURI",
		"artcc": "ZKC",
		"type": "RNAV",
		"updated": "06/24/2009"
	},
	{
		"name": "KAKEL",
		"latitude": "38-49-54.7 N",
		"longitude": "96-52-37.91 W",
		"state": "KANSAS",
		"artcc": "ZKC",
		"type": "RP",
		"updated": "MHK*VOR/DME*203.49/21.18"
	},
	{
		"name": "KALES",
		"latitude": "38-43-32.37 N",
		"longitude": "95-20-16.9 W",
		"state": "KANSAS",
		"artcc": "ZKC",
		"type": "RP",
		"updated": "CNU*VOR/DME*005.31/67.00"
	},
	{
		"name": "KAMIW",
		"latitude": "40-22-22.66 N",
		"longitude": "91-4-6.22 W",
		"state": "ILLINOIS",
		"artcc": "ZKC",
		"type": "RP",
		"updated": "BRL*VOR/DME*192.28/22.00"
	},
	{
		"name": "KAMLY",
		"latitude": "36-40-48.08 N",
		"longitude": "94-1-15.05 W",
		"state": "MISSOURI",
		"artcc": "ZKC",
		"type": "RNAV",
		"updated": "09/17/2014"
	},
	{
		"name": "KANEY",
		"latitude": "37-40-27.5 N",
		"longitude": "96-19-57.9 W",
		"state": "KANSAS",
		"artcc": "ZKC",
		"type": "RNAV",
		"updated": "08/27/2003"
	},
	{
		"name": "KARRE",
		"latitude": "39-33-40.53 N",
		"longitude": "94-53-18.52 W",
		"state": "MISSOURI",
		"artcc": "ZKC",
		"type": "RP",
		"updated": "STJ*VORTAC*167.93/24.00"
	},
	{
		"name": "KARRP",
		"latitude": "38-48-27.79 N",
		"longitude": "90-45-45.94 W",
		"state": "MISSOURI",
		"artcc": "ZKC",
		"type": "RNAV",
		"updated": "08/13/2012"
	},
	{
		"name": "KARYE",
		"latitude": "38-42-24.8 N",
		"longitude": "89-55-0.66 W",
		"state": "ILLINOIS",
		"artcc": "ZKC",
		"type": "RNAV",
		"updated": "08/24/2005"
	},
	{
		"name": "KASBE",
		"latitude": "37-27-36.72 N",
		"longitude": "100-28-29.69 W",
		"state": "KANSAS",
		"artcc": "ZKC",
		"type": "RP",
		"updated": "GCK*VORTAC*145.50/29.97"
	},
	{
		"name": "KAWNY",
		"latitude": "39-51-11.82 N",
		"longitude": "93-33-52.26 W",
		"state": "MISSOURI",
		"artcc": "ZKC",
		"type": "WP",
		"updated": "10/04/1995"
	},
	{
		"name": "KAYEE",
		"latitude": "37-36-14.31 N",
		"longitude": "96-57-15.69 W",
		"state": "KANSAS",
		"artcc": "ZKC",
		"type": "MR",
		"updated": "IAB*TACAN*090.00/15.00"
	},
	{
		"name": "KAYLA",
		"latitude": "38-41-38.85 N",
		"longitude": "91-12-19.5 W",
		"state": "MISSOURI",
		"artcc": "ZKC",
		"type": "RP",
		"updated": "FTZ*VORTAC*265.01/11.00"
	},
	{
		"name": "KAYOS",
		"latitude": "35-59-40.82 N",
		"longitude": "97-41-27.11 W",
		"state": "OKLAHOMA",
		"artcc": "ZKC",
		"type": "RNAV",
		"updated": "05/27/2014"
	},
	{
		"name": "KBROK",
		"latitude": "37-21-33.54 N",
		"longitude": "94-42-36.02 W",
		"state": "KANSAS",
		"artcc": "ZKC",
		"type": "RNAV",
		"updated": "07/13/2012"
	},
	{
		"name": "KECHI",
		"latitude": "37-44-29.9 N",
		"longitude": "97-22-51.35 W",
		"state": "KANSAS",
		"artcc": "ZKC",
		"type": "RP",
		"updated": "ICT*VORTAC*084.22"
	},
	{
		"name": "KEELS",
		"latitude": "38-55-50.98 N",
		"longitude": "90-9-38.31 W",
		"state": "ILLINOIS",
		"artcc": "ZKC",
		"type": "RP",
		"updated": "STL*VORTAC*073.31"
	},
	{
		"name": "KEGBE",
		"latitude": "38-42-1.33 N",
		"longitude": "90-17-20.73 W",
		"state": "MISSOURI",
		"artcc": "ZKC",
		"type": "RP",
		"updated": "TOY*VORTAC*258.51"
	},
	{
		"name": "KEKLE",
		"latitude": "36-17-42.76 N",
		"longitude": "95-29-3.83 W",
		"state": "OKLAHOMA",
		"artcc": "ZKC",
		"type": "RP",
		"updated": "TUL*VORTAC*060.00/15.89"
	},
	{
		"name": "KELEC",
		"latitude": "38-54-18.82 N",
		"longitude": "97-14-10.45 W",
		"state": "KANSAS",
		"artcc": "ZKC",
		"type": "RP",
		"updated": "SLN*VORTAC*086.67/18.08"
	},
	{
		"name": "KEMMY",
		"latitude": "40-0-56.83 N",
		"longitude": "92-32-42.46 W",
		"state": "MISSOURI",
		"artcc": "ZKC",
		"type": "RP",
		"updated": "IRK*LD*S CRS/5.20"
	},
	{
		"name": "KENBE",
		"latitude": "38-36-12.62 N",
		"longitude": "88-54-44.56 W",
		"state": "ILLINOIS",
		"artcc": "ZKC",
		"type": "RP",
		"updated": "ENL*VORTAC*042.49/16.00"
	},
	{
		"name": "KENEC",
		"latitude": "39-13-48.1 N",
		"longitude": "95-49-53.75 W",
		"state": "KANSAS",
		"artcc": "ZKC",
		"type": "RP",
		"updated": "TOP*VORTAC*288.00/14.31"
	},
	{
		"name": "KENTN",
		"latitude": "39-8-47.99 N",
		"longitude": "95-56-46.86 W",
		"state": "KANSAS",
		"artcc": "ZKC",
		"type": "RP",
		"updated": "MCI*VORTAC*257.00/57.00"
	},
	{
		"name": "KEOKK",
		"latitude": "40-33-12.25 N",
		"longitude": "91-24-13.2 W",
		"state": "IOWA",
		"artcc": "ZKC",
		"type": "RP",
		"updated": "IRK*VORTAC*058.90/60.00"
	},
	{
		"name": "KESVL",
		"latitude": "39-16-0.2 N",
		"longitude": "93-5-22.07 W",
		"state": "MISSOURI",
		"artcc": "ZKC",
		"type": "RNAV",
		"updated": "10/31/2005"
	},
	{
		"name": "KEVIL",
		"latitude": "36-1-21.76 N",
		"longitude": "96-15-55.26 W",
		"state": "OKLAHOMA",
		"artcc": "ZKC",
		"type": "RP",
		"updated": "OKM*VOR/DME*307.51"
	},
	{
		"name": "KEYLE",
		"latitude": "37-36-0.9 N",
		"longitude": "99-53-19.66 W",
		"state": "KANSAS",
		"artcc": "ZKC",
		"type": "RP",
		"updated": "DDC*VORTAC*151.62/16.00"
	},
	{
		"name": "KEZNU",
		"latitude": "38-55-14.05 N",
		"longitude": "94-53-29.39 W",
		"state": "KANSAS",
		"artcc": "ZKC",
		"type": "RNAV",
		"updated": "02/14/2005"
	},
	{
		"name": "KICRE",
		"latitude": "38-22-12.7 N",
		"longitude": "96-1-44.31 W",
		"state": "KANSAS",
		"artcc": "ZKC",
		"type": "RP",
		"updated": "EMP*VORTAC*039.37/7.00"
	},
	{
		"name": "KIDER",
		"latitude": "39-46-53.94 N",
		"longitude": "94-10-42.03 W",
		"state": "MISSOURI",
		"artcc": "ZKC",
		"type": "RP",
		"updated": "IRK*VORTAC*248.37/76.20"
	},
	{
		"name": "KIDEY",
		"latitude": "35-43-37.5 N",
		"longitude": "96-46-1.6 W",
		"state": "OKLAHOMA",
		"artcc": "ZKC",
		"type": "RNAV",
		"updated": "06/23/2017"
	},
	{
		"name": "KIDME",
		"latitude": "37-6-19.34 N",
		"longitude": "100-41-25.85 W",
		"state": "KANSAS",
		"artcc": "ZKC",
		"type": "RNAV",
		"updated": "11/26/2014"
	},
	{
		"name": "KIDYE",
		"latitude": "38-3-54.01 N",
		"longitude": "89-41-59.9 W",
		"state": "ILLINOIS",
		"artcc": "ZKC",
		"type": "RNAV",
		"updated": "09/09/2005"
	},
	{
		"name": "KIFGE",
		"latitude": "37-41-2.08 N",
		"longitude": "94-24-37.44 W",
		"state": "MISSOURI",
		"artcc": "ZKC",
		"type": "RNAV",
		"updated": "08/12/2010"
	},
	{
		"name": "KIGEC",
		"latitude": "36-43-16.81 N",
		"longitude": "94-24-55.33 W",
		"state": "MISSOURI",
		"artcc": "ZKC",
		"type": "RNAV",
		"updated": "06/14/2011"
	},
	{
		"name": "KIHLY",
		"latitude": "36-44-47.55 N",
		"longitude": "96-0-38.74 W",
		"state": "OKLAHOMA",
		"artcc": "ZKC",
		"type": "WP",
		"updated": "11/02/1998"
	},
	{
		"name": "KILDE",
		"latitude": "38-37-16.98 N",
		"longitude": "88-23-51.15 W",
		"state": "ILLINOIS",
		"artcc": "ZKC",
		"type": "RNAV",
		"updated": "02/05/2010"
	},
	{
		"name": "KIRKA",
		"latitude": "38-48-21.05 N",
		"longitude": "90-28-34.08 W",
		"state": "MISSOURI",
		"artcc": "ZKC",
		"type": "RNAV",
		"updated": "08/13/2012"
	},
	{
		"name": "KIRKE",
		"latitude": "38-5-23.11 N",
		"longitude": "98-24-5.34 W",
		"state": "KANSAS",
		"artcc": "ZKC",
		"type": "RP",
		"updated": "GCK*VORTAC*072.98/110.66"
	},
	{
		"name": "KIRTT",
		"latitude": "39-46-9.48 N",
		"longitude": "91-5-17.18 W",
		"state": "ILLINOIS",
		"artcc": "ZKC",
		"type": "RP",
		"updated": "UIN*VORTAC*113.06/10.00"
	},
	{
		"name": "KISNE",
		"latitude": "39-2-56.11 N",
		"longitude": "94-22-1.92 W",
		"state": "MISSOURI",
		"artcc": "ZKC",
		"type": "RNAV",
		"updated": "11/15/2017"
	},
	{
		"name": "KIVDE",
		"latitude": "40-1-21.25 N",
		"longitude": "92-52-57.55 W",
		"state": "MISSOURI",
		"artcc": "ZKC",
		"type": "RP",
		"updated": "IRK*VORTAC*237.38/15.00"
	},
	{
		"name": "KIXLE",
		"latitude": "37-54-24.18 N",
		"longitude": "90-13-56.57 W",
		"state": "MISSOURI",
		"artcc": "ZKC",
		"type": "RNAV",
		"updated": "08/11/2010"
	},
	{
		"name": "KIZMA",
		"latitude": "36-39-36.4 N",
		"longitude": "97-20-57.45 W",
		"state": "OKLAHOMA",
		"artcc": "ZKC",
		"type": "RNAV",
		"updated": "08/15/2010"
	},
	{
		"name": "KJACK",
		"latitude": "36-6-29.23 N",
		"longitude": "97-47-28.1 W",
		"state": "OKLAHOMA",
		"artcc": "ZKC",
		"type": "RP",
		"updated": "IFI*VORTAC*020.67/20.90"
	},
	{
		"name": "KK36A",
		"latitude": "36-0-0 N",
		"longitude": "100-0-0 W",
		"state": "OKLAHOMA",
		"artcc": "ZKC",
		"type": "NRS",
		"updated": "04/06/2004"
	},
	{
		"name": "KK36C",
		"latitude": "36-0-0 N",
		"longitude": "98-0-0 W",
		"state": "OKLAHOMA",
		"artcc": "ZKC",
		"type": "NRS",
		"updated": "04/06/2004"
	},
	{
		"name": "KK36E",
		"latitude": "36-0-0 N",
		"longitude": "96-0-0 W",
		"state": "OKLAHOMA",
		"artcc": "ZKC",
		"type": "NRS",
		"updated": "04/06/2004"
	},
	{
		"name": "KK39A",
		"latitude": "36-30-0 N",
		"longitude": "100-0-0 W",
		"state": "OKLAHOMA",
		"artcc": "ZKC",
		"type": "NRS",
		"updated": "04/06/2004"
	},
	{
		"name": "KK39C",
		"latitude": "36-30-0 N",
		"longitude": "98-0-0 W",
		"state": "OKLAHOMA",
		"artcc": "ZKC",
		"type": "NRS",
		"updated": "04/06/2004"
	},
	{
		"name": "KK39E",
		"latitude": "36-30-0 N",
		"longitude": "96-0-0 W",
		"state": "OKLAHOMA",
		"artcc": "ZKC",
		"type": "NRS",
		"updated": "04/06/2004"
	},
	{
		"name": "KK42A",
		"latitude": "37-0-0 N",
		"longitude": "100-0-0 W",
		"state": "OKLAHOMA",
		"artcc": "ZKC",
		"type": "NRS",
		"updated": "04/06/2004"
	},
	{
		"name": "KK42C",
		"latitude": "37-0-0 N",
		"longitude": "98-0-0 W",
		"state": "KANSAS",
		"artcc": "ZKC",
		"type": "NRS",
		"updated": "04/06/2004"
	},
	{
		"name": "KK42E",
		"latitude": "37-0-0 N",
		"longitude": "96-0-0 W",
		"state": "KANSAS",
		"artcc": "ZKC",
		"type": "NRS",
		"updated": "04/06/2004"
	},
	{
		"name": "KK42G",
		"latitude": "37-0-0 N",
		"longitude": "94-0-0 W",
		"state": "MISSOURI",
		"artcc": "ZKC",
		"type": "NRS",
		"updated": "04/06/2004"
	},
	{
		"name": "KK42I",
		"latitude": "37-0-0 N",
		"longitude": "92-0-0 W",
		"state": "MISSOURI",
		"artcc": "ZKC",
		"type": "NRS",
		"updated": "04/06/2004"
	},
	{
		"name": "KK42Y",
		"latitude": "37-0-0 N",
		"longitude": "102-0-0 W",
		"state": "KANSAS",
		"artcc": "ZKC",
		"type": "NRS",
		"updated": "04/06/2004"
	},
	{
		"name": "KK45A",
		"latitude": "37-30-0 N",
		"longitude": "100-0-0 W",
		"state": "KANSAS",
		"artcc": "ZKC",
		"type": "NRS",
		"updated": "04/06/2004"
	},
	{
		"name": "KK45C",
		"latitude": "37-30-0 N",
		"longitude": "98-0-0 W",
		"state": "KANSAS",
		"artcc": "ZKC",
		"type": "NRS",
		"updated": "04/06/2004"
	},
	{
		"name": "KK45E",
		"latitude": "37-30-0 N",
		"longitude": "96-0-0 W",
		"state": "KANSAS",
		"artcc": "ZKC",
		"type": "NRS",
		"updated": "04/06/2004"
	},
	{
		"name": "KK45G",
		"latitude": "37-30-0 N",
		"longitude": "94-0-0 W",
		"state": "MISSOURI",
		"artcc": "ZKC",
		"type": "NRS",
		"updated": "04/06/2004"
	},
	{
		"name": "KK45I",
		"latitude": "37-30-0 N",
		"longitude": "92-0-0 W",
		"state": "MISSOURI",
		"artcc": "ZKC",
		"type": "NRS",
		"updated": "04/06/2004"
	},
	{
		"name": "KK45K",
		"latitude": "37-30-0 N",
		"longitude": "90-0-0 W",
		"state": "MISSOURI",
		"artcc": "ZKC",
		"type": "NRS",
		"updated": "04/06/2004"
	},
	{
		"name": "KK45Y",
		"latitude": "37-30-0 N",
		"longitude": "102-0-0 W",
		"state": "KANSAS",
		"artcc": "ZKC",
		"type": "NRS",
		"updated": "04/06/2004"
	},
	{
		"name": "KK48A",
		"latitude": "38-0-0 N",
		"longitude": "100-0-0 W",
		"state": "KANSAS",
		"artcc": "ZKC",
		"type": "NRS",
		"updated": "04/06/2004"
	},
	{
		"name": "KK48C",
		"latitude": "38-0-0 N",
		"longitude": "98-0-0 W",
		"state": "KANSAS",
		"artcc": "ZKC",
		"type": "NRS",
		"updated": "04/06/2004"
	},
	{
		"name": "KK48E",
		"latitude": "38-0-0 N",
		"longitude": "96-0-0 W",
		"state": "KANSAS",
		"artcc": "ZKC",
		"type": "NRS",
		"updated": "04/06/2004"
	},
	{
		"name": "KK48G",
		"latitude": "38-0-0 N",
		"longitude": "94-0-0 W",
		"state": "MISSOURI",
		"artcc": "ZKC",
		"type": "NRS",
		"updated": "04/06/2004"
	},
	{
		"name": "KK48I",
		"latitude": "38-0-0 N",
		"longitude": "92-0-0 W",
		"state": "MISSOURI",
		"artcc": "ZKC",
		"type": "NRS",
		"updated": "04/06/2004"
	},
	{
		"name": "KK48K",
		"latitude": "38-0-0 N",
		"longitude": "90-0-0 W",
		"state": "ILLINOIS",
		"artcc": "ZKC",
		"type": "NRS",
		"updated": "04/06/2004"
	},
	{
		"name": "KK51A",
		"latitude": "38-30-0 N",
		"longitude": "100-0-0 W",
		"state": "KANSAS",
		"artcc": "ZKC",
		"type": "NRS",
		"updated": "04/06/2004"
	},
	{
		"name": "KK51C",
		"latitude": "38-30-0 N",
		"longitude": "98-0-0 W",
		"state": "KANSAS",
		"artcc": "ZKC",
		"type": "NRS",
		"updated": "04/06/2004"
	},
	{
		"name": "KK51E",
		"latitude": "38-30-0 N",
		"longitude": "96-0-0 W",
		"state": "KANSAS",
		"artcc": "ZKC",
		"type": "NRS",
		"updated": "04/06/2004"
	},
	{
		"name": "KK51G",
		"latitude": "38-30-0 N",
		"longitude": "94-0-0 W",
		"state": "MISSOURI",
		"artcc": "ZKC",
		"type": "NRS",
		"updated": "04/06/2004"
	},
	{
		"name": "KK51I",
		"latitude": "38-30-0 N",
		"longitude": "92-0-0 W",
		"state": "MISSOURI",
		"artcc": "ZKC",
		"type": "NRS",
		"updated": "04/06/2004"
	},
	{
		"name": "KK51K",
		"latitude": "38-30-0 N",
		"longitude": "90-0-0 W",
		"state": "ILLINOIS",
		"artcc": "ZKC",
		"type": "NRS",
		"updated": "04/06/2004"
	},
	{
		"name": "KK54C",
		"latitude": "39-0-0 N",
		"longitude": "98-0-0 W",
		"state": "KANSAS",
		"artcc": "ZKC",
		"type": "NRS",
		"updated": "04/06/2004"
	},
	{
		"name": "KK54E",
		"latitude": "39-0-0 N",
		"longitude": "96-0-0 W",
		"state": "KANSAS",
		"artcc": "ZKC",
		"type": "NRS",
		"updated": "04/06/2004"
	},
	{
		"name": "KK54G",
		"latitude": "39-0-0 N",
		"longitude": "94-0-0 W",
		"state": "MISSOURI",
		"artcc": "ZKC",
		"type": "NRS",
		"updated": "04/06/2004"
	},
	{
		"name": "KK54I",
		"latitude": "39-0-0 N",
		"longitude": "92-0-0 W",
		"state": "MISSOURI",
		"artcc": "ZKC",
		"type": "NRS",
		"updated": "04/06/2004"
	},
	{
		"name": "KK54K",
		"latitude": "39-0-0 N",
		"longitude": "90-0-0 W",
		"state": "ILLINOIS",
		"artcc": "ZKC",
		"type": "NRS",
		"updated": "04/06/2004"
	},
	{
		"name": "KK57C",
		"latitude": "39-30-0 N",
		"longitude": "98-0-0 W",
		"state": "KANSAS",
		"artcc": "ZKC",
		"type": "NRS",
		"updated": "04/06/2004"
	},
	{
		"name": "KK57E",
		"latitude": "39-30-0 N",
		"longitude": "96-0-0 W",
		"state": "KANSAS",
		"artcc": "ZKC",
		"type": "NRS",
		"updated": "04/06/2004"
	},
	{
		"name": "KK57G",
		"latitude": "39-30-0 N",
		"longitude": "94-0-0 W",
		"state": "MISSOURI",
		"artcc": "ZKC",
		"type": "NRS",
		"updated": "04/06/2004"
	},
	{
		"name": "KK57I",
		"latitude": "39-30-0 N",
		"longitude": "92-0-0 W",
		"state": "MISSOURI",
		"artcc": "ZKC",
		"type": "NRS",
		"updated": "04/06/2004"
	},
	{
		"name": "KK57K",
		"latitude": "39-30-0 N",
		"longitude": "90-0-0 W",
		"state": "ILLINOIS",
		"artcc": "ZKC",
		"type": "NRS",
		"updated": "04/06/2004"
	},
	{
		"name": "KK60E",
		"latitude": "40-0-0 N",
		"longitude": "96-0-0 W",
		"state": "KANSAS",
		"artcc": "ZKC",
		"type": "NRS",
		"updated": "04/06/2004"
	},
	{
		"name": "KK60G",
		"latitude": "40-0-0 N",
		"longitude": "94-0-0 W",
		"state": "MISSOURI",
		"artcc": "ZKC",
		"type": "NRS",
		"updated": "04/06/2004"
	},
	{
		"name": "KK60I",
		"latitude": "40-0-0 N",
		"longitude": "92-0-0 W",
		"state": "MISSOURI",
		"artcc": "ZKC",
		"type": "NRS",
		"updated": "04/06/2004"
	},
	{
		"name": "KK60K",
		"latitude": "40-0-0 N",
		"longitude": "90-0-0 W",
		"state": "ILLINOIS",
		"artcc": "ZKC",
		"type": "NRS",
		"updated": "04/06/2004"
	},
	{
		"name": "KK63I",
		"latitude": "40-30-0 N",
		"longitude": "92-0-0 W",
		"state": "MISSOURI",
		"artcc": "ZKC",
		"type": "NRS",
		"updated": "04/06/2004"
	},
	{
		"name": "KLAIR",
		"latitude": "38-24-40.35 N",
		"longitude": "91-9-36.76 W",
		"state": "MISSOURI",
		"artcc": "ZKC",
		"type": "RP",
		"updated": "STL*VORTAC*229.00/41.73"
	},
	{
		"name": "KLISH",
		"latitude": "38-48-10.03 N",
		"longitude": "90-28-42.55 W",
		"state": "MISSOURI",
		"artcc": "ZKC",
		"type": "RNAV",
		"updated": "08/13/2012"
	},
	{
		"name": "KLUVR",
		"latitude": "39-10-59.08 N",
		"longitude": "94-49-5.6 W",
		"state": "KANSAS",
		"artcc": "ZKC",
		"type": "RNAV",
		"updated": "01/31/2013"
	},
	{
		"name": "KNEWT",
		"latitude": "36-15-34.44 N",
		"longitude": "96-42-35.42 W",
		"state": "OKLAHOMA",
		"artcc": "ZKC",
		"type": "RNAV",
		"updated": "05/27/2014"
	},
	{
		"name": "KNOXX",
		"latitude": "36-56-47.18 N",
		"longitude": "94-0-40.74 W",
		"state": "MISSOURI",
		"artcc": "ZKC",
		"type": "RNAV",
		"updated": "05/11/2009"
	},
	{
		"name": "KOBGE",
		"latitude": "38-22-32.9 N",
		"longitude": "93-39-35.22 W",
		"state": "MISSOURI",
		"artcc": "ZKC",
		"type": "RNAV",
		"updated": "04/22/2013"
	},
	{
		"name": "KOCEV",
		"latitude": "38-40-36.2 N",
		"longitude": "93-10-25.97 W",
		"state": "MISSOURI",
		"artcc": "ZKC",
		"type": "RNAV",
		"updated": "06/20/2013"
	},
	{
		"name": "KODLE",
		"latitude": "37-30-34.43 N",
		"longitude": "98-51-4.6 W",
		"state": "KANSAS",
		"artcc": "ZKC",
		"type": "RNAV",
		"updated": "05/14/2008"
	},
	{
		"name": "KODME",
		"latitude": "36-15-28.98 N",
		"longitude": "97-54-39.85 W",
		"state": "OKLAHOMA",
		"artcc": "ZKC",
		"type": "MW",
		"updated": "06/07/2012"
	},
	{
		"name": "KOHHO",
		"latitude": "38-25-19.82 N",
		"longitude": "94-13-31.67 W",
		"state": "MISSOURI",
		"artcc": "ZKC",
		"type": "RNAV",
		"updated": "12/28/2007"
	},
	{
		"name": "KOMGE",
		"latitude": "38-16-11.82 N",
		"longitude": "91-31-51.71 W",
		"state": "MISSOURI",
		"artcc": "ZKC",
		"type": "RNAV",
		"updated": "11/22/2010"
	},
	{
		"name": "KONGG",
		"latitude": "35-30-2.34 N",
		"longitude": "97-33-22.03 W",
		"state": "OKLAHOMA",
		"artcc": "ZKC",
		"type": "RP",
		"updated": "IRW*VORTAC*010.00/8.90"
	},
	{
		"name": "KONYA",
		"latitude": "37-44-25.93 N",
		"longitude": "97-22-53.17 W",
		"state": "KANSAS",
		"artcc": "ZKC",
		"type": "RNAV",
		"updated": "08/11/2010"
	},
	{
		"name": "KOOOP",
		"latitude": "38-41-30.86 N",
		"longitude": "91-44-33.29 W",
		"state": "MISSOURI",
		"artcc": "ZKC",
		"type": "RP",
		"updated": "STL*VORTAC*259.69"
	},
	{
		"name": "KOPNE",
		"latitude": "37-25-57.84 N",
		"longitude": "97-26-12.19 W",
		"state": "KANSAS",
		"artcc": "ZKC",
		"type": "RP",
		"updated": "ICT*VORTAC*152.42/20.00"
	},
	{
		"name": "KORLE",
		"latitude": "37-5-38.44 N",
		"longitude": "101-53-0.67 W",
		"state": "KANSAS",
		"artcc": "ZKC",
		"type": "RNAV",
		"updated": "03/28/2010"
	},
	{
		"name": "KORNN",
		"latitude": "38-42-16.65 N",
		"longitude": "90-25-19.17 W",
		"state": "MISSOURI",
		"artcc": "ZKC",
		"type": "RNAV",
		"updated": "07/13/2009"
	},
	{
		"name": "KORSE",
		"latitude": "39-31-49.87 N",
		"longitude": "94-59-36.51 W",
		"state": "MISSOURI",
		"artcc": "ZKC",
		"type": "WP",
		"updated": "06/12/2002"
	},
	{
		"name": "KOSAC",
		"latitude": "37-36-44.72 N",
		"longitude": "97-6-2.86 W",
		"state": "KANSAS",
		"artcc": "ZKC",
		"type": "MR",
		"updated": "IAB*TACAN*090.00/8.00"
	},
	{
		"name": "KOSKE",
		"latitude": "37-29-32.48 N",
		"longitude": "98-15-35.62 W",
		"state": "KANSAS",
		"artcc": "ZKC",
		"type": "RNAV",
		"updated": "12/29/2008"
	},
	{
		"name": "KOSVE",
		"latitude": "38-54-58.74 N",
		"longitude": "92-41-9.06 W",
		"state": "MISSOURI",
		"artcc": "ZKC",
		"type": "RNAV",
		"updated": "03/22/2007"
	},
	{
		"name": "KOWDU",
		"latitude": "38-59-48.33 N",
		"longitude": "97-38-47.11 W",
		"state": "KANSAS",
		"artcc": "ZKC",
		"type": "RNAV",
		"updated": "08/19/2005"
	},
	{
		"name": "KOYXE",
		"latitude": "37-3-9.88 N",
		"longitude": "95-16-5.3 W",
		"state": "KANSAS",
		"artcc": "ZKC",
		"type": "RP",
		"updated": "OSW*VOR/DME*198.27/7.00"
	},
	{
		"name": "KRAZO",
		"latitude": "38-7-5.91 N",
		"longitude": "93-45-39.06 W",
		"state": "MISSOURI",
		"artcc": "ZKC",
		"type": "RP",
		"updated": "BUM*VORTAC*097.77"
	},
	{
		"name": "KREWE",
		"latitude": "36-17-14.4 N",
		"longitude": "95-19-48.12 W",
		"state": "OKLAHOMA",
		"artcc": "ZKC",
		"type": "RNAV",
		"updated": "05/03/2016"
	},
	{
		"name": "KRIER",
		"latitude": "37-25-13.54 N",
		"longitude": "99-48-38.46 W",
		"state": "KANSAS",
		"artcc": "ZKC",
		"type": "RP",
		"updated": "LBL*VORTAC*056.59/60.00"
	},
	{
		"name": "KRIKT",
		"latitude": "39-9-8.38 N",
		"longitude": "94-41-26.45 W",
		"state": "KANSAS",
		"artcc": "ZKC",
		"type": "RNAV",
		"updated": "01/31/2013"
	},
	{
		"name": "KRIYA",
		"latitude": "38-57-37.6 N",
		"longitude": "89-42-28.93 W",
		"state": "ILLINOIS",
		"artcc": "ZKC",
		"type": "RNAV",
		"updated": "09/24/2012"
	},
	{
		"name": "KRMLN",
		"latitude": "36-33-30.1 N",
		"longitude": "97-48-1.94 W",
		"state": "OKLAHOMA",
		"artcc": "ZKC",
		"type": "MR",
		"updated": "END*VORTAC*019.00/14.00"
	},
	{
		"name": "KROAK",
		"latitude": "36-18-25.96 N",
		"longitude": "95-53-32.8 W",
		"state": "OKLAHOMA",
		"artcc": "ZKC",
		"type": "RP",
		"updated": "TUL*VORTAC*314.73"
	},
	{
		"name": "KRUPE",
		"latitude": "38-56-33.74 N",
		"longitude": "91-47-59.44 W",
		"state": "MISSOURI",
		"artcc": "ZKC",
		"type": "RNAV",
		"updated": "02/12/2008"
	},
	{
		"name": "KSANG",
		"latitude": "38-2-28 N",
		"longitude": "95-52-36 W",
		"state": "KANSAS",
		"artcc": "ZKC",
		"type": "RNAV",
		"updated": "11/26/2002"
	},
	{
		"name": "KSHEE",
		"latitude": "39-21-32.99 N",
		"longitude": "90-32-58.37 W",
		"state": "ILLINOIS",
		"artcc": "ZKC",
		"type": "RNAV",
		"updated": "08/09/2012"
	},
	{
		"name": "KTHRN",
		"latitude": "40-2-9.32 N",
		"longitude": "93-35-23.42 W",
		"state": "MISSOURI",
		"artcc": "ZKC",
		"type": "RNAV",
		"updated": "05/11/2012"
	},
	{
		"name": "KUBKY",
		"latitude": "37-15-17.79 N",
		"longitude": "95-17-3.09 W",
		"state": "KANSAS",
		"artcc": "ZKC",
		"type": "RP",
		"updated": "OSW*VOR/DME*318.55/7.00"
	},
	{
		"name": "KUDDO",
		"latitude": "37-59-1.34 N",
		"longitude": "99-42-48.72 W",
		"state": "KANSAS",
		"artcc": "ZKC",
		"type": "RP",
		"updated": "DDC*VORTAC*052.00/16.00"
	},
	{
		"name": "KUDIC",
		"latitude": "37-52-57.52 N",
		"longitude": "100-20-23.86 W",
		"state": "KANSAS",
		"artcc": "ZKC",
		"type": "RP",
		"updated": "DDC*VORTAC*269.07/16.00"
	},
	{
		"name": "KUDPY",
		"latitude": "37-51-42.24 N",
		"longitude": "97-16-51.85 W",
		"state": "KANSAS",
		"artcc": "ZKC",
		"type": "RP",
		"updated": "ICT*VORTAC*057.04/16.00"
	},
	{
		"name": "KUDWE",
		"latitude": "39-1-10.97 N",
		"longitude": "95-35-17.94 W",
		"state": "KANSAS",
		"artcc": "ZKC",
		"type": "RNAV",
		"updated": "08/05/2013"
	},
	{
		"name": "KUHCU",
		"latitude": "37-40-56.76 N",
		"longitude": "97-54-37.66 W",
		"state": "KANSAS",
		"artcc": "ZKC",
		"type": "RP",
		"updated": "ICT*VORTAC*249.49/16.00"
	},
	{
		"name": "KUHJI",
		"latitude": "38-21-58.22 N",
		"longitude": "96-1-27.99 W",
		"state": "KANSAS",
		"artcc": "ZKC",
		"type": "CN",
		"updated": "04/13/2000"
	},
	{
		"name": "KUJEF",
		"latitude": "38-16-7.61 N",
		"longitude": "96-17-0.6 W",
		"state": "KANSAS",
		"artcc": "ZKC",
		"type": "CN",
		"updated": "04/13/2000"
	},
	{
		"name": "KUMVE",
		"latitude": "38-44-36.64 N",
		"longitude": "93-10-16.94 W",
		"state": "MISSOURI",
		"artcc": "ZKC",
		"type": "RNAV",
		"updated": "06/20/2013"
	},
	{
		"name": "KUPIW",
		"latitude": "37-34-19.35 N",
		"longitude": "92-39-19.05 W",
		"state": "MISSOURI",
		"artcc": "ZKC",
		"type": "RNAV",
		"updated": "04/24/2001"
	},
	{
		"name": "KURNE",
		"latitude": "39-17-3.02 N",
		"longitude": "94-52-26.31 W",
		"state": "MISSOURI",
		"artcc": "ZKC",
		"type": "WP",
		"updated": "06/12/2002"
	},
	{
		"name": "KUSPY",
		"latitude": "39-23-34.45 N",
		"longitude": "97-9-25.35 W",
		"state": "KANSAS",
		"artcc": "ZKC",
		"type": "WP",
		"updated": "09/18/1995"
	},
	{
		"name": "KUTLE",
		"latitude": "39-41-31.75 N",
		"longitude": "89-58-49.91 W",
		"state": "ILLINOIS",
		"artcc": "ZKC",
		"type": "RNAV",
		"updated": "08/24/2005"
	},
	{
		"name": "KUVEY",
		"latitude": "38-23-10.39 N",
		"longitude": "95-4-25.34 W",
		"state": "KANSAS",
		"artcc": "ZKC",
		"type": "RNAV",
		"updated": "08/05/2013"
	},
	{
		"name": "KUVME",
		"latitude": "37-16-59.9 N",
		"longitude": "94-22-47.57 W",
		"state": "MISSOURI",
		"artcc": "ZKC",
		"type": "RNAV",
		"updated": "03/21/2014"
	},
	{
		"name": "KUVPE",
		"latitude": "37-34-56.15 N",
		"longitude": "95-17-1.4 W",
		"state": "KANSAS",
		"artcc": "ZKC",
		"type": "RP",
		"updated": "CNU*VOR/DME*095.00/15.00"
	},
	{
		"name": "KUVVU",
		"latitude": "38-2-47.56 N",
		"longitude": "100-31-48.03 W",
		"state": "KANSAS",
		"artcc": "ZKC",
		"type": "RP",
		"updated": "GCK*VORTAC*039.39/12.00"
	},
	{
		"name": "KUYEK",
		"latitude": "36-7-54.33 N",
		"longitude": "97-57-19.05 W",
		"state": "OKLAHOMA",
		"artcc": "ZKC",
		"type": "RNAV",
		"updated": "03/04/2015"
	},
	{
		"name": "KUYLE",
		"latitude": "39-20-48.25 N",
		"longitude": "89-40-24.07 W",
		"state": "ILLINOIS",
		"artcc": "ZKC",
		"type": "RP",
		"updated": "02/23/2007"
	},
	{
		"name": "KYLER",
		"latitude": "37-48-7.11 N",
		"longitude": "98-27-20.16 W",
		"state": "KANSAS",
		"artcc": "ZKC",
		"type": "RP",
		"updated": "ICT*VORTAC*267.95/41.61"
	}
]
