	{
		"name": "NABYY",
		"latitude": "38-6-31.96 N",
		"longitude": "94-35-40.39 W",
		"state": "MISSOURI",
		"artcc": "ZKC",
		"type": "RP",
		"updated": "BUM*VORTAC*200.24/11.00",
	},
	{
		"name": "NAHWI",
		"latitude": "39-2-20.48 N",
		"longitude": "92-17-45.36 W",
		"state": "MISSOURI",
		"artcc": "ZKC",
		"type": "RNAV",
		"updated": "07/28/2017",
	},
	{
		"name": "NAIRN",
		"latitude": "38-50-49.92 N",
		"longitude": "90-34-8.68 W",
		"state": "MISSOURI",
		"artcc": "ZKC",
		"type": "RP",
		"updated": "STL*VORTAC*257.78",
	},
	{
		"name": "NAKME",
		"latitude": "37-30-35.58 N",
		"longitude": "98-38-30.52 W",
		"state": "KANSAS",
		"artcc": "ZKC",
		"type": "RNAV",
		"updated": "05/14/2008",
	},
	{
		"name": "NALLY",
		"latitude": "37-32-9.57 N",
		"longitude": "94-57-48.32 W",
		"state": "KANSAS",
		"artcc": "ZKC",
		"type": "RP",
		"updated": "OSW*VOR/DME*018.80/25.43",
	},
	{
		"name": "NAMEZ",
		"latitude": "37-39-19.91 N",
		"longitude": "94-46-35.85 W",
		"state": "KANSAS",
		"artcc": "ZKC",
		"type": "RNAV",
		"updated": "07/16/2012",
	},
	{
		"name": "NAMVE",
		"latitude": "39-5-4.76 N",
		"longitude": "88-34-29.34 W",
		"state": "ILLINOIS",
		"artcc": "ZKC",
		"type": "RNAV",
		"updated": "06/06/2016",
	},
	{
		"name": "NANIC",
		"latitude": "37-3-58.12 N",
		"longitude": "101-37-37.66 W",
		"state": "KANSAS",
		"artcc": "ZKC",
		"type": "RNAV",
		"updated": "03/28/2010",
	},
	{
		"name": "NAPVY",
		"latitude": "38-38-11.68 N",
		"longitude": "94-47-7.43 W",
		"state": "KANSAS",
		"artcc": "ZKC",
		"type": "RNAV",
		"updated": "02/11/2005",
	},
	{
		"name": "NARAH",
		"latitude": "36-24-37.83 N",
		"longitude": "99-37-29.41 W",
		"state": "OKLAHOMA",
		"artcc": "ZKC",
		"type": "RP",
		"updated": "MMB*VORTAC*062.00/13.00",
	},
	{
		"name": "NARCI",
		"latitude": "36-52-34.09 N",
		"longitude": "94-58-3.25 W",
		"state": "OKLAHOMA",
		"artcc": "ZKC",
		"type": "RP",
		"updated": "OSW*VOR/DME*138.00",
	},
	{
		"name": "NARFU",
		"latitude": "38-12-36.93 N",
		"longitude": "91-25-41.04 W",
		"state": "MISSOURI",
		"artcc": "ZKC",
		"type": "RNAV",
		"updated": "06/24/2009",
	},
	{
		"name": "NASBY",
		"latitude": "39-9-54.24 N",
		"longitude": "91-44-54.09 W",
		"state": "MISSOURI",
		"artcc": "ZKC",
		"type": "RP",
		"updated": "HLV*VORTAC*074.00/18.00",
	},
	{
		"name": "NASHE",
		"latitude": "37-27-40.01 N",
		"longitude": "94-27-29.44 W",
		"state": "MISSOURI",
		"artcc": "ZKC",
		"type": "RP",
		"updated": "EOS*VOR/DME*351.34/37.09",
	},
	{
		"name": "NASLE",
		"latitude": "37-55-2.61 N",
		"longitude": "100-43-15.27 W",
		"state": "KANSAS",
		"artcc": "ZKC",
		"type": "RP",
		"updated": "GCK*VORTAC*105.77/0.22",
	},
	{
		"name": "NASSH",
		"latitude": "36-38-47.37 N",
		"longitude": "98-2-23.78 W",
		"state": "OKLAHOMA",
		"artcc": "ZKC",
		"type": "MR",
		"updated": "END*VORTAC*337.00/19.00",
	},
	{
		"name": "NASSI",
		"latitude": "39-8-23.07 N",
		"longitude": "93-11-58.26 W",
		"state": "MISSOURI",
		"artcc": "ZKC",
		"type": "RNAV",
		"updated": "06/24/2008",
	},
	{
		"name": "NATCA",
		"latitude": "39-20-4.75 N",
		"longitude": "89-59-52.83 W",
		"state": "ILLINOIS",
		"artcc": "ZKC",
		"type": "RNAV",
		"updated": "08/09/2012",
	},
	{
		"name": "NATEM",
		"latitude": "38-41-36.34 N",
		"longitude": "91-25-6.28 W",
		"state": "MISSOURI",
		"artcc": "ZKC",
		"type": "RNAV",
		"updated": "09/25/2012",
	},
	{
		"name": "NATPE",
		"latitude": "36-39-22.66 N",
		"longitude": "99-5-25.09 W",
		"state": "OKLAHOMA",
		"artcc": "ZKC",
		"type": "RNAV",
		"updated": "09/20/2002",
	},
	{
		"name": "NAYLU",
		"latitude": "38-57-46.12 N",
		"longitude": "92-23-39.23 W",
		"state": "MISSOURI",
		"artcc": "ZKC",
		"type": "RNAV",
		"updated": "07/28/2017",
	},
	{
		"name": "NAZMU",
		"latitude": "37-30-52.21 N",
		"longitude": "97-29-5.62 W",
		"state": "KANSAS",
		"artcc": "ZKC",
		"type": "RP",
		"updated": "ICT*VORTAC*154.14",
	},
	{
		"name": "NEBBI",
		"latitude": "35-45-33.21 N",
		"longitude": "96-52-10.72 W",
		"state": "OKLAHOMA",
		"artcc": "ZKC",
		"type": "RNAV",
		"updated": "06/10/2003",
	},
	{
		"name": "NEBUC",
		"latitude": "39-31-24 N",
		"longitude": "91-30-22.5 W",
		"state": "MISSOURI",
		"artcc": "ZKC",
		"type": "RNAV",
		"updated": "03/16/2009",
	},
	{
		"name": "NECIY",
		"latitude": "39-20-49.33 N",
		"longitude": "89-33-57.35 W",
		"state": "ILLINOIS",
		"artcc": "ZKC",
		"type": "RNAV",
		"updated": "02/23/2007",
	},
	{
		"name": "NEDBE",
		"latitude": "39-5-0.22 N",
		"longitude": "94-37-55.26 W",
		"state": "KANSAS",
		"artcc": "ZKC",
		"type": "RNAV",
		"updated": "03/08/2012",
	},
	{
		"name": "NEDGE",
		"latitude": "38-44-33.75 N",
		"longitude": "88-23-44.68 W",
		"state": "ILLINOIS",
		"artcc": "ZKC",
		"type": "RP",
		"updated": "RTT*LE*N CRS/5.99",
	},
	{
		"name": "NEDLE",
		"latitude": "39-15-42.53 N",
		"longitude": "90-48-9.88 W",
		"state": "ILLINOIS",
		"artcc": "ZKC",
		"type": "RP",
		"updated": "STL*VORTAC*327.19/28.33",
	},
	{
		"name": "NEDME",
		"latitude": "37-43-13.61 N",
		"longitude": "97-14-46.7 W",
		"state": "KANSAS",
		"artcc": "ZKC",
		"type": "MR",
		"updated": "IAB*TACAN*006.00/6.00",
	},
	{
		"name": "NEENS",
		"latitude": "40-14-53.5 N",
		"longitude": "90-31-53.8 W",
		"state": "ILLINOIS",
		"artcc": "ZKC",
		"type": "RP",
		"updated": "CSX*VOR/DME*355.00/90.00",
	},
	{
		"name": "NEIGH",
		"latitude": "36-54-11.57 N",
		"longitude": "95-34-25.12 W",
		"state": "OKLAHOMA",
		"artcc": "ZKC",
		"type": "RNAV",
		"updated": "04/07/2010",
	},
	{
		"name": "NELTS",
		"latitude": "37-52-5.98 N",
		"longitude": "97-12-48.12 W",
		"state": "KANSAS",
		"artcc": "ZKC",
		"type": "MR",
		"updated": "IAB*TACAN*006.00/15.00",
	},
	{
		"name": "NEMLE",
		"latitude": "40-32-8.43 N",
		"longitude": "92-42-27.36 W",
		"state": "MISSOURI",
		"artcc": "ZKC",
		"type": "RNAV",
		"updated": "04/04/2010",
	},
	{
		"name": "NENUJ",
		"latitude": "38-26-9 N",
		"longitude": "88-48-24.79 W",
		"state": "ILLINOIS",
		"artcc": "ZKC",
		"type": "RNAV",
		"updated": "03/01/2013",
	},
	{
		"name": "NERNE",
		"latitude": "36-59-58.39 N",
		"longitude": "94-48-58.73 W",
		"state": "OKLAHOMA",
		"artcc": "ZKC",
		"type": "RP",
		"updated": "EOS*VOR/DME*290.32",
	},
	{
		"name": "NESDE",
		"latitude": "37-25-38.28 N",
		"longitude": "97-24-25.9 W",
		"state": "KANSAS",
		"artcc": "ZKC",
		"type": "RNAV",
		"updated": "08/11/2010",
	},
	{
		"name": "NETTE",
		"latitude": "38-46-9.44 N",
		"longitude": "99-15-6.26 W",
		"state": "KANSAS",
		"artcc": "ZKC",
		"type": "RP",
		"updated": "HYS*VORTAC*/4.84",
	},
	{
		"name": "NEUKS",
		"latitude": "38-46-26.96 N",
		"longitude": "92-14-21.48 W",
		"state": "MISSOURI",
		"artcc": "ZKC",
		"type": "RP",
		"updated": "COU*LD*201.43/3.25",
	},
	{
		"name": "NEWAT",
		"latitude": "38-16-7.07 N",
		"longitude": "89-46-11.46 W",
		"state": "ILLINOIS",
		"artcc": "ZKC",
		"type": "RP",
		"updated": "ENL*VORTAC*248.72/30.23",
	},
	{
		"name": "NEWBN",
		"latitude": "38-54-49.72 N",
		"longitude": "95-9-17.52 W",
		"state": "KANSAS",
		"artcc": "ZKC",
		"type": "RP",
		"updated": "JZM*LS*SE CRS",
	},
	{
		"name": "NIDME",
		"latitude": "36-34-8.02 N",
		"longitude": "97-47-27.59 W",
		"state": "OKLAHOMA",
		"artcc": "ZKC",
		"type": "RNAV",
		"updated": "04/23/2009",
	},
	{
		"name": "NIKEL",
		"latitude": "37-58-44.98 N",
		"longitude": "89-47-53.38 W",
		"state": "ILLINOIS",
		"artcc": "ZKC",
		"type": "RP",
		"updated": "FAM*VORTAC*047.38/27.66",
	},
	{
		"name": "NIVNE",
		"latitude": "38-9-31.63 N",
		"longitude": "91-25-3 W",
		"state": "MISSOURI",
		"artcc": "ZKC",
		"type": "RNAV",
		"updated": "11/15/2010",
	},
	{
		"name": "NIYIC",
		"latitude": "37-44-59.01 N",
		"longitude": "97-13-11.17 W",
		"state": "KANSAS",
		"artcc": "ZKC",
		"type": "RNAV",
		"updated": "12/15/2004",
	},
	{
		"name": "NMANN",
		"latitude": "37-29-28.4 N",
		"longitude": "89-23-28.88 W",
		"state": "ILLINOIS",
		"artcc": "ZKC",
		"type": "RNAV",
		"updated": "06/19/2012",
	},
	{
		"name": "NMBRS",
		"latitude": "37-32-37.69 N",
		"longitude": "94-45-5.17 W",
		"state": "KANSAS",
		"artcc": "ZKC",
		"type": "RNAV",
		"updated": "11/30/2017",
	},
	{
		"name": "NOAHS",
		"latitude": "39-10-26.66 N",
		"longitude": "94-53-48.95 W",
		"state": "KANSAS",
		"artcc": "ZKC",
		"type": "RP",
		"updated": "MCI*VORTAC*223.24/10.00",
	},
	{
		"name": "NOBME",
		"latitude": "36-1-57.1 N",
		"longitude": "95-19-48.5 W",
		"state": "OKLAHOMA",
		"artcc": "ZME",
		"type": "RNAV",
		"updated": "05/03/2016",
	},
	{
		"name": "NOBOE",
		"latitude": "36-57-23.92 N",
		"longitude": "94-57-13.2 W",
		"state": "OKLAHOMA",
		"artcc": "ZKC",
		"type": "RP",
		"updated": "OSW*VOR/DME*127.00/17.00",
	},
	{
		"name": "NOCNY",
		"latitude": "39-33-10.34 N",
		"longitude": "91-17-39.2 W",
		"state": "MISSOURI",
		"artcc": "ZKC",
		"type": "RNAV",
		"updated": "03/16/2009",
	},
	{
		"name": "NOFSU",
		"latitude": "38-53-5.21 N",
		"longitude": "88-33-55.79 W",
		"state": "ILLINOIS",
		"artcc": "ZKC",
		"type": "RNAV",
		"updated": "04/01/2010",
	},
	{
		"name": "NOGVE",
		"latitude": "37-8-6.91 N",
		"longitude": "100-57-23.88 W",
		"state": "KANSAS",
		"artcc": "ZKC",
		"type": "RNAV",
		"updated": "07/02/2007",
	},
	{
		"name": "NOLIE",
		"latitude": "39-56-14.89 N",
		"longitude": "93-38-46.15 W",
		"state": "MISSOURI",
		"artcc": "ZKC",
		"type": "RNAV",
		"updated": "04/22/2009",
	},
	{
		"name": "NOMEE",
		"latitude": "39-13-12.64 N",
		"longitude": "94-58-9.59 W",
		"state": "KANSAS",
		"artcc": "ZKC",
		"type": "RNAV",
		"updated": "01/31/2013",
	},
	{
		"name": "NOPYI",
		"latitude": "37-59-18.04 N",
		"longitude": "100-48-17.51 W",
		"state": "KANSAS",
		"artcc": "ZKC",
		"type": "RNAV",
		"updated": "05/07/2007",
	},
	{
		"name": "NOSCE",
		"latitude": "38-15-34.53 N",
		"longitude": "92-23-33.69 W",
		"state": "MISSOURI",
		"artcc": "ZKC",
		"type": "RNAV",
		"updated": "05/21/2013",
	},
	{
		"name": "NOVEL",
		"latitude": "36-36-35.93 N",
		"longitude": "95-32-18.81 W",
		"state": "OKLAHOMA",
		"artcc": "ZKC",
		"type": "RP",
		"updated": "BVO*VOR/DME*112.00",
	},
	{
		"name": "NOZFA",
		"latitude": "38-5-55.34 N",
		"longitude": "94-24-43.35 W",
		"state": "MISSOURI",
		"artcc": "ZKC",
		"type": "RP",
		"updated": "BUM*VORTAC*153.85/11.00",
	},
	{
		"name": "NUBRE",
		"latitude": "38-10-55.88 N",
		"longitude": "97-43-16.51 W",
		"state": "KANSAS",
		"artcc": "ZKC",
		"type": "RP",
		"updated": "HUT*VOR/DME*038.18/15.00",
	},
	{
		"name": "NUBTE",
		"latitude": "38-52-40.38 N",
		"longitude": "89-22-36.05 W",
		"state": "ILLINOIS",
		"artcc": "ZKC",
		"type": "RNAV",
		"updated": "05/04/2016",
	},
	{
		"name": "NUCBI",
		"latitude": "38-48-23.15 N",
		"longitude": "94-14-57.55 W",
		"state": "MISSOURI",
		"artcc": "ZKC",
		"type": "RNAV",
		"updated": "12/28/2007",
	},
	{
		"name": "NUCIK",
		"latitude": "37-25-0.17 N",
		"longitude": "95-31-48.13 W",
		"state": "KANSAS",
		"artcc": "ZKC",
		"type": "RP",
		"updated": "CNU*VOR/DME*161.42/12.91",
	},
	{
		"name": "NUDAE",
		"latitude": "36-23-38.18 N",
		"longitude": "97-54-52.69 W",
		"state": "OKLAHOMA",
		"artcc": "ZKC",
		"type": "MW",
		"updated": "06/07/2012",
	},
	{
		"name": "NUKEE",
		"latitude": "38-49-50.93 N",
		"longitude": "93-31-23.04 W",
		"state": "MISSOURI",
		"artcc": "ZKC",
		"type": "MR",
		"updated": "SZL*TACAN*/5.84",
	},
	{
		"name": "NUKNE",
		"latitude": "36-19-0.32 N",
		"longitude": "97-54-52.88 W",
		"state": "OKLAHOMA",
		"artcc": "ZKC",
		"type": "MR",
		"updated": "END*VORTAC*169.00/1.70",
	},
	{
		"name": "NULEE",
		"latitude": "37-11-4.23 N",
		"longitude": "100-47-21.04 W",
		"state": "KANSAS",
		"artcc": "ZKC",
		"type": "RNAV",
		"updated": "07/05/2007",
	},
	{
		"name": "NULIC",
		"latitude": "37-23-58.58 N",
		"longitude": "101-43-49.82 W",
		"state": "KANSAS",
		"artcc": "ZKC",
		"type": "RNAV",
		"updated": "09/07/2010",
	},
	{
		"name": "NULLI",
		"latitude": "38-54-14.87 N",
		"longitude": "93-30-40.62 W",
		"state": "MISSOURI",
		"artcc": "ZKC",
		"type": "RNAV",
		"updated": "02/28/2008",
	},
	{
		"name": "NUMAE",
		"latitude": "37-40-55.14 N",
		"longitude": "97-24-29.92 W",
		"state": "KANSAS",
		"artcc": "ZKC",
		"type": "RP",
		"updated": "MVP*LD*016.02/2.74",
	},
	{
		"name": "NUPDE",
		"latitude": "38-57-30.58 N",
		"longitude": "90-24-47.22 W",
		"state": "MISSOURI",
		"artcc": "ZKC",
		"type": "RP",
		"updated": "STL*VORTAC*027.93/6.70",
	},
	{
		"name": "NUPXA",
		"latitude": "36-25-29.2 N",
		"longitude": "95-59-28.73 W",
		"state": "OKLAHOMA",
		"artcc": "ZKC",
		"type": "RNAV",
		"updated": "04/02/2008",
	},
	{
		"name": "NURIC",
		"latitude": "36-56-30.02 N",
		"longitude": "94-29-2.24 W",
		"state": "MISSOURI",
		"artcc": "ZKC",
		"type": "RNAV",
		"updated": "11/18/2016",
	},
	{
		"name": "NUTME",
		"latitude": "37-43-51.42 N",
		"longitude": "97-18-40.61 W",
		"state": "KANSAS",
		"artcc": "ZKC",
		"type": "RP",
		"updated": "ICT*VORTAC*086.70/13.00",
	},
	{
		"name": "NUVSE",
		"latitude": "38-15-25.24 N",
		"longitude": "93-21-5.64 W",
		"state": "MISSOURI",
		"artcc": "ZKC",
		"type": "RNAV",
		"updated": "02/25/2014",
	},
	{
		"name": "NUYXE",
		"latitude": "38-20-10.46 N",
		"longitude": "98-13-29.06 W",
		"state": "KANSAS",
		"artcc": "ZKC",
		"type": "RP",
		"updated": "HUT*VOR/DME*322.00/24.55",
	},
