	{
		"name": "OBACO",
		"latitude": "39-57-15.84 N",
		"longitude": "89-24-22.29 W",
		"state": "ILLINOIS",
		"artcc": "ZKC",
		"type": "RP",
		"updated": "SPI*VORTAC*062.18/14.30",
	},
	{
		"name": "OBCUJ",
		"latitude": "38-39-13.96 N",
		"longitude": "88-14-11.67 W",
		"state": "ILLINOIS",
		"artcc": "ZKC",
		"type": "RNAV",
		"updated": "02/05/2010",
	},
	{
		"name": "OBDAW",
		"latitude": "37-41-13.95 N",
		"longitude": "96-32-36.56 W",
		"state": "KANSAS",
		"artcc": "ZKC",
		"type": "RP",
		"updated": "EMP*VORTAC*200.10/40.99",
	},
	{
		"name": "OBDIW",
		"latitude": "38-33-12.88 N",
		"longitude": "88-57-53.86 W",
		"state": "ILLINOIS",
		"artcc": "ZKC",
		"type": "RNAV",
		"updated": "03/01/2013",
	},
	{
		"name": "OBEBE",
		"latitude": "38-49-3.81 N",
		"longitude": "92-2-51.49 W",
		"state": "MISSOURI",
		"artcc": "ZKC",
		"type": "RNAV",
		"updated": "02/12/2008",
	},
	{
		"name": "OBEDE",
		"latitude": "39-46-19.71 N",
		"longitude": "91-27-17.41 W",
		"state": "MISSOURI",
		"artcc": "ZKC",
		"type": "RNAV",
		"updated": "03/16/2009",
	},
	{
		"name": "OBLIO",
		"latitude": "38-48-2.79 N",
		"longitude": "90-28-27.82 W",
		"state": "MISSOURI",
		"artcc": "ZKC",
		"type": "RP",
		"updated": "STL*VORTAC*173.06",
	},
	{
		"name": "OBORE",
		"latitude": "37-4-29.52 N",
		"longitude": "95-6-1.97 W",
		"state": "KANSAS",
		"artcc": "ZKC",
		"type": "RP",
		"updated": "OSW*VOR/DME*127.00/7.00",
	},
	{
		"name": "OBYOT",
		"latitude": "36-26-7.8 N",
		"longitude": "99-31-43.01 W",
		"state": "OKLAHOMA",
		"artcc": "ZKC",
		"type": "RP",
		"updated": "MMB*VORTAC*062.00/17.89",
	},
	{
		"name": "OCALU",
		"latitude": "40-33-32.84 N",
		"longitude": "91-40-24.91 W",
		"state": "IOWA",
		"artcc": "ZKC",
		"type": "RNAV",
		"updated": "07/27/2006",
	},
	{
		"name": "OCAVA",
		"latitude": "39-2-47.34 N",
		"longitude": "93-12-5.48 W",
		"state": "MISSOURI",
		"artcc": "ZKC",
		"type": "RNAV",
		"updated": "08/08/2011",
	},
	{
		"name": "OCENA",
		"latitude": "36-54-37.71 N",
		"longitude": "101-52-50.75 W",
		"state": "OKLAHOMA",
		"artcc": "ZKC",
		"type": "RNAV",
		"updated": "03/28/2010",
	},
	{
		"name": "OCISE",
		"latitude": "38-8-34.28 N",
		"longitude": "98-13-35.13 W",
		"state": "KANSAS",
		"artcc": "ZKC",
		"type": "RNAV",
		"updated": "08/10/2016",
	},
	{
		"name": "OCLEG",
		"latitude": "38-44-20.09 N",
		"longitude": "93-48-21.62 W",
		"state": "MISSOURI",
		"artcc": "ZKC",
		"type": "MR",
		"updated": "SZL*TACAN*270.00/12.00",
	},
	{
		"name": "OCTAM",
		"latitude": "39-4-26.08 N",
		"longitude": "93-47-33.69 W",
		"state": "MISSOURI",
		"artcc": "ZKC",
		"type": "RP",
		"updated": "ANX*VORTAC*087.59/15.76",
	},
	{
		"name": "OCUDE",
		"latitude": "38-39-30.96 N",
		"longitude": "94-50-40.26 W",
		"state": "KANSAS",
		"artcc": "ZKC",
		"type": "RNAV",
		"updated": "05/16/2006",
	},
	{
		"name": "OCUXU",
		"latitude": "36-13-17.7 N",
		"longitude": "96-11-7.03 W",
		"state": "OKLAHOMA",
		"artcc": "ZKC",
		"type": "RP",
		"updated": "GNP*VOR/DME*323.74/20.87",
	},
	{
		"name": "OCZOD",
		"latitude": "38-30-21.44 N",
		"longitude": "96-2-6.87 W",
		"state": "KANSAS",
		"artcc": "ZKC",
		"type": "RNAV",
		"updated": "08/09/2007",
	},
	{
		"name": "ODDER",
		"latitude": "37-52-12.59 N",
		"longitude": "92-7-35.09 W",
		"state": "MISSOURI",
		"artcc": "ZKC",
		"type": "RNAV",
		"updated": "06/09/2015",
	},
	{
		"name": "ODDLY",
		"latitude": "39-1-59.44 N",
		"longitude": "89-47-25.48 W",
		"state": "ILLINOIS",
		"artcc": "ZKC",
		"type": "RP",
		"updated": "STL*VORTAC*071.08/34.00",
	},
	{
		"name": "ODECU",
		"latitude": "36-35-27.77 N",
		"longitude": "96-0-25.21 W",
		"state": "OKLAHOMA",
		"artcc": "ZKC",
		"type": "RNAV",
		"updated": "10/15/2007",
	},
	{
		"name": "ODERE",
		"latitude": "36-11-42.25 N",
		"longitude": "95-56-33.13 W",
		"state": "OKLAHOMA",
		"artcc": "ZKC",
		"type": "RNAV",
		"updated": "TUL*VORTAC*261.50/7.50",
	},
	{
		"name": "ODGOC",
		"latitude": "38-53-34.79 N",
		"longitude": "97-38-46.19 W",
		"state": "KANSAS",
		"artcc": "ZKC",
		"type": "RNAV",
		"updated": "08/19/2005",
	},
	{
		"name": "ODIHE",
		"latitude": "37-33-23.03 N",
		"longitude": "97-21-59.94 W",
		"state": "KANSAS",
		"artcc": "ZKC",
		"type": "RNAV",
		"updated": "08/11/2010",
	},
	{
		"name": "ODITY",
		"latitude": "38-39-48.52 N",
		"longitude": "90-11-15.56 W",
		"state": "MISSOURI",
		"artcc": "ZKC",
		"type": "RNAV",
		"updated": "05/01/2006",
	},
	{
		"name": "ODIVE",
		"latitude": "40-7-14.13 N",
		"longitude": "95-37-29.66 W",
		"state": "NEBRASKA",
		"artcc": "ZKC",
		"type": "RNAV",
		"updated": "11/06/2014",
	},
	{
		"name": "ODIXE",
		"latitude": "36-58-30.6 N",
		"longitude": "91-54-2.89 W",
		"state": "MISSOURI",
		"artcc": "ZKC",
		"type": "RNAV",
		"updated": "11/16/2010",
	},
	{
		"name": "ODKUW",
		"latitude": "37-32-27.98 N",
		"longitude": "101-7-19.37 W",
		"state": "KANSAS",
		"artcc": "ZKC",
		"type": "RNAV",
		"updated": "03/26/2008",
	},
	{
		"name": "ODPIE",
		"latitude": "35-50-50.26 N",
		"longitude": "97-22-15.97 W",
		"state": "OKLAHOMA",
		"artcc": "ZKC",
		"type": "RNAV",
		"updated": "05/20/2014",
	},
	{
		"name": "ODPOE",
		"latitude": "38-7-32.66 N",
		"longitude": "90-33-0.04 W",
		"state": "MISSOURI",
		"artcc": "ZKC",
		"type": "RNAV",
		"updated": "01/21/2011",
	},
	{
		"name": "ODUJY",
		"latitude": "38-32-39.32 N",
		"longitude": "90-25-9.16 W",
		"state": "MISSOURI",
		"artcc": "ZKC",
		"type": "RNAV",
		"updated": "10/15/2007",
	},
	{
		"name": "OFAFY",
		"latitude": "38-36-58.82 N",
		"longitude": "89-54-22.11 W",
		"state": "ILLINOIS",
		"artcc": "ZKC",
		"type": "RNAV",
		"updated": "06/01/2010",
	},
	{
		"name": "OFAGI",
		"latitude": "39-32-31.69 N",
		"longitude": "97-2-54.78 W",
		"state": "KANSAS",
		"artcc": "ZKC",
		"type": "RNAV",
		"updated": "06/09/2014",
	},
	{
		"name": "OFAYS",
		"latitude": "38-10-43.39 N",
		"longitude": "99-53-23.51 W",
		"state": "KANSAS",
		"artcc": "ZKC",
		"type": "RNAV",
		"updated": "02/08/2017",
	},
	{
		"name": "OFBEP",
		"latitude": "39-10-1.76 N",
		"longitude": "89-55-10.58 W",
		"state": "ILLINOIS",
		"artcc": "ZKC",
		"type": "RNAV",
		"updated": "08/24/2005",
	},
	{
		"name": "OFEND",
		"latitude": "38-29-52.15 N",
		"longitude": "88-35-33.41 W",
		"state": "ILLINOIS",
		"artcc": "ZKC",
		"type": "RP",
		"updated": "BIB*VORTAC*188.65/25.86",
	},
	{
		"name": "OFILO",
		"latitude": "38-2-12.09 N",
		"longitude": "89-41-8.29 W",
		"state": "ILLINOIS",
		"artcc": "ZKC",
		"type": "RNAV",
		"updated": "05/17/2010",
	},
	{
		"name": "OFIPO",
		"latitude": "38-24-52.56 N",
		"longitude": "89-41-48.2 W",
		"state": "ILLINOIS",
		"artcc": "ZKC",
		"type": "WP",
		"updated": "11/02/1998",
	},
	{
		"name": "OFKEL",
		"latitude": "39-38-32.8 N",
		"longitude": "97-39-14.38 W",
		"state": "KANSAS",
		"artcc": "ZKC",
		"type": "RNAV",
		"updated": "01/30/2012",
	},
	{
		"name": "OFQUB",
		"latitude": "37-24-59.13 N",
		"longitude": "101-28-35.79 W",
		"state": "KANSAS",
		"artcc": "ZKC",
		"type": "RNAV",
		"updated": "06/22/2005",
	},
	{
		"name": "OGASY",
		"latitude": "39-5-32.18 N",
		"longitude": "95-39-0.04 W",
		"state": "KANSAS",
		"artcc": "ZKC",
		"type": "RP",
		"updated": "TOP*VORTAC*235.33",
	},
	{
		"name": "OGGOR",
		"latitude": "38-8-53.97 N",
		"longitude": "97-16-34.99 W",
		"state": "KANSAS",
		"artcc": "ZKC",
		"type": "RNAV",
		"updated": "09/09/2005",
	},
	{
		"name": "OGIKY",
		"latitude": "37-44-26.99 N",
		"longitude": "93-47-12.77 W",
		"state": "MISSOURI",
		"artcc": "ZKC",
		"type": "RNAV",
		"updated": "12/18/2012",
	},
	{
		"name": "OGMOE",
		"latitude": "36-6-15.43 N",
		"longitude": "98-0-12.2 W",
		"state": "OKLAHOMA",
		"artcc": "ZKC",
		"type": "MR",
		"updated": "END*VORTAC*191.00/15.00",
	},
	{
		"name": "OGOVE",
		"latitude": "38-47-45.27 N",
		"longitude": "90-2-14.07 W",
		"state": "ILLINOIS",
		"artcc": "ZKC",
		"type": "RNAV",
		"updated": "03/28/2011",
	},
	{
		"name": "OGSAE",
		"latitude": "36-50-37.28 N",
		"longitude": "98-22-11.72 W",
		"state": "OKLAHOMA",
		"artcc": "ZKC",
		"type": "MR",
		"updated": "END*VORTAC*319.00/37.00",
	},
	{
		"name": "OGUCO",
		"latitude": "39-1-14.5 N",
		"longitude": "94-59-54.01 W",
		"state": "KANSAS",
		"artcc": "ZKC",
		"type": "RNAV",
		"updated": "02/11/2005",
	},
	{
		"name": "OGULE",
		"latitude": "39-1-8.31 N",
		"longitude": "92-5-10.19 W",
		"state": "MISSOURI",
		"artcc": "ZKC",
		"type": "RNAV",
		"updated": "06/10/2011",
	},
	{
		"name": "OHFEB",
		"latitude": "36-37-43.8 N",
		"longitude": "99-31-8.71 W",
		"state": "OKLAHOMA",
		"artcc": "ZKC",
		"type": "RNAV",
		"updated": "07/10/2009",
	},
	{
		"name": "OHROB",
		"latitude": "38-46-58.68 N",
		"longitude": "90-25-46.66 W",
		"state": "MISSOURI",
		"artcc": "ZKC",
		"type": "RNAV",
		"updated": "08/13/2012",
	},
	{
		"name": "OILLR",
		"latitude": "36-5-50.65 N",
		"longitude": "95-53-20.63 W",
		"state": "OKLAHOMA",
		"artcc": "ZKC",
		"type": "RP",
		"updated": "TUL*LD*180.09/7.16",
	},
	{
		"name": "OJAMO",
		"latitude": "38-23-58.11 N",
		"longitude": "89-38-42.17 W",
		"state": "ILLINOIS",
		"artcc": "ZKC",
		"type": "RNAV",
		"updated": "06/01/2010",
	},
	{
		"name": "OJAYE",
		"latitude": "36-40-26.66 N",
		"longitude": "94-39-0.01 W",
		"state": "OKLAHOMA",
		"artcc": "ZKC",
		"type": "RP",
		"updated": "EOS*VOR/DME*218.75/14.44",
	},
	{
		"name": "OJEFY",
		"latitude": "36-24-17.45 N",
		"longitude": "94-44-17.75 W",
		"state": "OKLAHOMA",
		"artcc": "ZME",
		"type": "RNAV",
		"updated": "02/25/2005",
	},
	{
		"name": "OJEQY",
		"latitude": "38-27-9.84 N",
		"longitude": "90-47-32.87 W",
		"state": "MISSOURI",
		"artcc": "ZKC",
		"type": "RNAV",
		"updated": "09/10/2007",
	},
	{
		"name": "OJILE",
		"latitude": "38-18-0.81 N",
		"longitude": "97-58-7.66 W",
		"state": "KANSAS",
		"artcc": "ZKC",
		"type": "RNAV",
		"updated": "09/22/2017",
	},
	{
		"name": "OKADY",
		"latitude": "38-59-55.95 N",
		"longitude": "97-14-8.54 W",
		"state": "KANSAS",
		"artcc": "ZKC",
		"type": "RNAV",
		"updated": "08/05/2013",
	},
	{
		"name": "OKETE",
		"latitude": "38-46-39.2 N",
		"longitude": "95-46-28.92 W",
		"state": "KANSAS",
		"artcc": "ZKC",
		"type": "RP",
		"updated": "TOP*VORTAC*201.17/24.00",
	},
	{
		"name": "OKEVE",
		"latitude": "39-38-36.41 N",
		"longitude": "88-52-13.42 W",
		"state": "ILLINOIS",
		"artcc": "ZKC",
		"type": "RNAV",
		"updated": "08/24/2005",
	},
	{
		"name": "OKOLY",
		"latitude": "37-58-55.83 N",
		"longitude": "99-59-3.62 W",
		"state": "KANSAS",
		"artcc": "ZKC",
		"type": "RNAV",
		"updated": "08/25/2005",
	},
	{
		"name": "OKOPY",
		"latitude": "39-42-42.51 N",
		"longitude": "91-30-4.62 W",
		"state": "MISSOURI",
		"artcc": "ZKC",
		"type": "WP",
		"updated": "01/24/2002",
	},
	{
		"name": "OKOSE",
		"latitude": "36-45-23.29 N",
		"longitude": "93-23-18.17 W",
		"state": "MISSOURI",
		"artcc": "ZKC",
		"type": "RNAV",
		"updated": "06/09/2015",
	},
	{
		"name": "OKSEE",
		"latitude": "37-12-45.99 N",
		"longitude": "93-15-7.62 W",
		"state": "MISSOURI",
		"artcc": "ZKC",
		"type": "RNAV",
		"updated": "09/22/2015",
	},
	{
		"name": "OKTAE",
		"latitude": "36-49-39.12 N",
		"longitude": "97-6-1.98 W",
		"state": "OKLAHOMA",
		"artcc": "ZKC",
		"type": "RP",
		"updated": "PNC*LD*N CRS/6.49",
	},
	{
		"name": "OKTUE",
		"latitude": "39-11-0.87 N",
		"longitude": "94-30-42.93 W",
		"state": "MISSOURI",
		"artcc": "ZKC",
		"type": "RNAV",
		"updated": "01/06/2006",
	},
	{
		"name": "OKUMY",
		"latitude": "38-19-42.76 N",
		"longitude": "90-57-10.22 W",
		"state": "MISSOURI",
		"artcc": "ZKC",
		"type": "RNAV",
		"updated": "06/24/2009",
	},
	{
		"name": "OKUXE",
		"latitude": "38-51-42.18 N",
		"longitude": "95-57-4.11 W",
		"state": "KANSAS",
		"artcc": "ZKC",
		"type": "RNAV",
		"updated": "08/05/2013",
	},
	{
		"name": "OKZUC",
		"latitude": "38-6-2.41 N",
		"longitude": "98-11-55.72 W",
		"state": "KANSAS",
		"artcc": "ZKC",
		"type": "RP",
		"updated": "HUT*VOR/DME*292.45/14.00",
	},
	{
		"name": "OLATH",
		"latitude": "38-53-31.67 N",
		"longitude": "94-48-33.7 W",
		"state": "KANSAS",
		"artcc": "ZKC",
		"type": "RP",
		"updated": "GQR*LD*215.30/17.52",
	},
	{
		"name": "OLDOH",
		"latitude": "39-22-15.74 N",
		"longitude": "89-19-29.96 W",
		"state": "ILLINOIS",
		"artcc": "ZKC",
		"type": "WP",
		"updated": "11/02/1998",
	},
	{
		"name": "OLIVA",
		"latitude": "37-38-26.74 N",
		"longitude": "93-27-41.19 W",
		"state": "MISSOURI",
		"artcc": "ZKC",
		"type": "RP",
		"updated": "EOS*VOR/DME*037.00",
	},
	{
		"name": "OLLII",
		"latitude": "37-47-41.63 N",
		"longitude": "93-31-51.08 W",
		"state": "MISSOURI",
		"artcc": "ZKC",
		"type": "RP",
		"updated": "SGF*VORTAC*336.42/27.93",
	},
	{
		"name": "OLOVE",
		"latitude": "38-36-54.71 N",
		"longitude": "93-10-34.25 W",
		"state": "MISSOURI",
		"artcc": "ZKC",
		"type": "RNAV",
		"updated": "06/20/2013",
	},
	{
		"name": "OLUYE",
		"latitude": "36-57-27.91 N",
		"longitude": "94-24-50.38 W",
		"state": "MISSOURI",
		"artcc": "ZKC",
		"type": "RNAV",
		"updated": "11/18/2016",
	},
	{
		"name": "OMBAE",
		"latitude": "36-21-10.12 N",
		"longitude": "95-0-53.48 W",
		"state": "OKLAHOMA",
		"artcc": "ZKC",
		"type": "RNAV",
		"updated": "06/06/2016",
	},
	{
		"name": "OMGUE",
		"latitude": "39-53-11.43 N",
		"longitude": "92-26-17.93 W",
		"state": "MISSOURI",
		"artcc": "ZKC",
		"type": "RNAV",
		"updated": "05/08/2009",
	},
	{
		"name": "OMKAE",
		"latitude": "38-36-21.76 N",
		"longitude": "96-48-29.58 W",
		"state": "KANSAS",
		"artcc": "ZKC",
		"type": "RNAV",
		"updated": "08/05/2013",
	},
	{
		"name": "OMPIY",
		"latitude": "39-10-2.23 N",
		"longitude": "89-34-1.62 W",
		"state": "ILLINOIS",
		"artcc": "ZKC",
		"type": "RNAV",
		"updated": "08/24/2005",
	},
	{
		"name": "OMUTE",
		"latitude": "38-46-38.66 N",
		"longitude": "94-29-40.27 W",
		"state": "MISSOURI",
		"artcc": "ZKC",
		"type": "RNAV",
		"updated": "07/11/2007",
	},
	{
		"name": "OMVEE",
		"latitude": "37-22-27.7 N",
		"longitude": "94-36-39.99 W",
		"state": "MISSOURI",
		"artcc": "ZKC",
		"type": "RNAV",
		"updated": "06/20/2005",
	},
	{
		"name": "OMVUE",
		"latitude": "36-49-40.06 N",
		"longitude": "100-57-21.23 W",
		"state": "OKLAHOMA",
		"artcc": "ZKC",
		"type": "RP",
		"updated": "LBL*VORTAC*165.65/13.00",
	},
	{
		"name": "ONEEL",
		"latitude": "39-15-52.33 N",
		"longitude": "94-50-57.03 W",
		"state": "KANSAS",
		"artcc": "ZKC",
		"type": "RNAV",
		"updated": "01/31/2013",
	},
	{
		"name": "ONFRE",
		"latitude": "37-8-9.26 N",
		"longitude": "92-4-52.25 W",
		"state": "MISSOURI",
		"artcc": "ZKC",
		"type": "WP",
		"updated": "10/03/1995",
	},
	{
		"name": "ONILE",
		"latitude": "41-48-47.95 N",
		"longitude": "80-27-34.83 W",
		"state": "PENNSYLVANIA",
		"artcc": "ZKC",
		"type": "RNAV",
		"updated": "07/19/2017",
	},
	{
		"name": "ONIPE",
		"latitude": "37-53-51.49 N",
		"longitude": "100-29-41.97 W",
		"state": "KANSAS",
		"artcc": "ZKC",
		"type": "RP",
		"updated": "GCK*VORTAC*085.63/11.00",
	},
	{
		"name": "ONOKE",
		"latitude": "35-53-54.28 N",
		"longitude": "96-25-17.82 W",
		"state": "OKLAHOMA",
		"artcc": "ZKC",
		"type": "RNAV",
		"updated": "02/17/2015",
	},
	{
		"name": "ONOPE",
		"latitude": "39-9-57.69 N",
		"longitude": "94-34-49.81 W",
		"state": "MISSOURI",
		"artcc": "ZKC",
		"type": "RP",
		"updated": "MKC*LD*011.69/3.19",
	},
	{
		"name": "ONUDE",
		"latitude": "38-6-11.35 N",
		"longitude": "92-32-33.62 W",
		"state": "MISSOURI",
		"artcc": "ZKC",
		"type": "WP",
		"updated": "11/02/1998",
	},
	{
		"name": "OOJAY",
		"latitude": "38-16-22.27 N",
		"longitude": "90-8-59.09 W",
		"state": "ILLINOIS",
		"artcc": "ZKC",
		"type": "RNAV",
		"updated": "11/27/2012",
	},
	{
		"name": "OPANE",
		"latitude": "37-24-12.81 N",
		"longitude": "93-32-49.21 W",
		"state": "MISSOURI",
		"artcc": "ZKC",
		"type": "RNAV",
		"updated": "01/20/2004",
	},
	{
		"name": "OPATE",
		"latitude": "40-20-35.26 N",
		"longitude": "92-0-33.84 W",
		"state": "MISSOURI",
		"artcc": "ZKC",
		"type": "RNAV",
		"updated": "12/03/2014",
	},
	{
		"name": "OPNEJ",
		"latitude": "38-53-11.46 N",
		"longitude": "92-29-34.36 W",
		"state": "MISSOURI",
		"artcc": "ZKC",
		"type": "RNAV",
		"updated": "07/28/2017",
	},
	{
		"name": "OPUHY",
		"latitude": "39-12-37.77 N",
		"longitude": "89-9-19.66 W",
		"state": "ILLINOIS",
		"artcc": "ZKC",
		"type": "RP",
		"updated": "VLA*VORTAC*358.59/7.00",
	},
	{
		"name": "OPUPE",
		"latitude": "37-7-46.89 N",
		"longitude": "97-29-24.51 W",
		"state": "KANSAS",
		"artcc": "ZKC",
		"type": "RNAV",
		"updated": "08/09/2007",
	},
	{
		"name": "OPVOE",
		"latitude": "37-3-18.67 N",
		"longitude": "100-45-48.36 W",
		"state": "KANSAS",
		"artcc": "ZKC",
		"type": "RP",
		"updated": "LBL*VORTAC*075.23/10.00",
	},
	{
		"name": "OQOSE",
		"latitude": "39-2-1.03 N",
		"longitude": "88-25-14.62 W",
		"state": "ILLINOIS",
		"artcc": "ZKC",
		"type": "RNAV",
		"updated": "07/30/2013",
	},
	{
		"name": "OQTAX",
		"latitude": "38-44-6.18 N",
		"longitude": "90-19-56.64 W",
		"state": "MISSOURI",
		"artcc": "ZKC",
		"type": "RNAV",
		"updated": "06/19/2000",
	},
	{
		"name": "ORAVE",
		"latitude": "38-46-16.08 N",
		"longitude": "94-58-23.86 W",
		"state": "KANSAS",
		"artcc": "ZKC",
		"type": "RNAV",
		"updated": "07/15/2016",
	},
	{
		"name": "ORECA",
		"latitude": "37-47-7.18 N",
		"longitude": "100-33-9.55 W",
		"state": "KANSAS",
		"artcc": "ZKC",
		"type": "RNAV",
		"updated": "05/07/2007",
	},
	{
		"name": "OREPE",
		"latitude": "38-58-29.91 N",
		"longitude": "89-40-16.87 W",
		"state": "ILLINOIS",
		"artcc": "ZKC",
		"type": "RP",
		"updated": "TOY*VORTAC*035.27/18.28",
	},
	{
		"name": "ORFUN",
		"latitude": "39-0-20.31 N",
		"longitude": "95-12-42.34 W",
		"state": "KANSAS",
		"artcc": "ZKC",
		"type": "WP",
		"updated": "TOP*VORTAC*111.46/17.62",
	},
	{
		"name": "ORIXY",
		"latitude": "36-49-2.4 N",
		"longitude": "95-2-21.6 W",
		"state": "OKLAHOMA",
		"artcc": "ZKC",
		"type": "CN",
		"updated": "10/31/2002",
	},
	{
		"name": "ORJIG",
		"latitude": "37-44-15.51 N",
		"longitude": "90-6-40.4 W",
		"state": "MISSOURI",
		"artcc": "ZKC",
		"type": "RP",
		"updated": "06/14/2010",
	},
	{
		"name": "ORKUC",
		"latitude": "36-25-9.94 N",
		"longitude": "95-52-3.31 W",
		"state": "OKLAHOMA",
		"artcc": "ZKC",
		"type": "RNAV",
		"updated": "04/02/2008",
	},
	{
		"name": "ORLAN",
		"latitude": "37-59-56.19 N",
		"longitude": "92-12-49.84 W",
		"state": "MISSOURI",
		"artcc": "ZKC",
		"type": "RP",
		"updated": "VIH*VOR/DME*243.00",
	},
	{
		"name": "ORLIE",
		"latitude": "37-53-37.09 N",
		"longitude": "98-44-50.9 W",
		"state": "KANSAS",
		"artcc": "ZKC",
		"type": "RNAV",
		"updated": "05/14/2008",
	},
	{
		"name": "ORRIL",
		"latitude": "37-32-6.22 N",
		"longitude": "93-28-16.31 W",
		"state": "MISSOURI",
		"artcc": "ZKC",
		"type": "RNAV",
		"updated": "08/03/2015",
	},
	{
		"name": "ORWOR",
		"latitude": "37-51-24.19 N",
		"longitude": "96-51-27.86 W",
		"state": "KANSAS",
		"artcc": "ZKC",
		"type": "RNAV",
		"updated": "08/05/2013",
	},
	{
		"name": "OSAME",
		"latitude": "37-17-24.55 N",
		"longitude": "91-57-24.33 W",
		"state": "MISSOURI",
		"artcc": "ZKC",
		"type": "RNAV",
		"updated": "01/29/2002",
	},
	{
		"name": "OSCEO",
		"latitude": "38-29-59.74 N",
		"longitude": "95-15-8.01 W",
		"state": "KANSAS",
		"artcc": "ZKC",
		"type": "RNAV",
		"updated": "06/28/2013",
	},
	{
		"name": "OSCUF",
		"latitude": "38-47-41.42 N",
		"longitude": "90-15-40.51 W",
		"state": "MISSOURI",
		"artcc": "ZKC",
		"type": "RNAV",
		"updated": "05/10/2011",
	},
	{
		"name": "OSDAE",
		"latitude": "38-8-11.1 N",
		"longitude": "92-30-39 W",
		"state": "MISSOURI",
		"artcc": "ZKC",
		"type": "RP",
		"updated": "SHY*VOR/DME*/7.20",
	},
	{
		"name": "OSECA",
		"latitude": "37-57-41.25 N",
		"longitude": "92-11-40.28 W",
		"state": "MISSOURI",
		"artcc": "ZKC",
		"type": "RNAV",
		"updated": "02/06/2006",
	},
	{
		"name": "OSERE",
		"latitude": "38-51-17.37 N",
		"longitude": "89-56-7.56 W",
		"state": "ILLINOIS",
		"artcc": "ZKC",
		"type": "RP",
		"updated": "TOY*VORTAC*349.52",
	},
	{
		"name": "OSHIE",
		"latitude": "38-45-46.47 N",
		"longitude": "89-53-19.66 W",
		"state": "ILLINOIS",
		"artcc": "ZKC",
		"type": "RNAV",
		"updated": "09/24/2012",
	},
	{
		"name": "OSIVE",
		"latitude": "40-18-15.91 N",
		"longitude": "93-5-19.49 W",
		"state": "MISSOURI",
		"artcc": "ZKC",
		"type": "RP",
		"updated": "IRK*VORTAC*288.13/25.00",
	},
	{
		"name": "OSNIE",
		"latitude": "38-14-37.32 N",
		"longitude": "98-3-46.68 W",
		"state": "KANSAS",
		"artcc": "ZKC",
		"type": "RP",
		"updated": "HUT*VOR/DME*333.63/16.00",
	},
	{
		"name": "OSOYE",
		"latitude": "37-47-21 N",
		"longitude": "93-20-19.26 W",
		"state": "MISSOURI",
		"artcc": "ZKC",
		"type": "RNAV",
		"updated": "05/10/2007",
	},
	{
		"name": "OSRAF",
		"latitude": "39-31-52.26 N",
		"longitude": "94-16-39.36 W",
		"state": "MISSOURI",
		"artcc": "ZKC",
		"type": "RP",
		"updated": "ANX*VORTAC*338.19/27.03",
	},
	{
		"name": "OSUYA",
		"latitude": "36-32-32.13 N",
		"longitude": "94-32-53.5 W",
		"state": "MISSOURI",
		"artcc": "ZKC",
		"type": "RNAV",
		"updated": "03/07/2005",
	},
	{
		"name": "OSUYU",
		"latitude": "36-14-14.48 N",
		"longitude": "97-5-15.26 W",
		"state": "OKLAHOMA",
		"artcc": "ZKC",
		"type": "RNAV",
		"updated": "05/17/2005",
	},
	{
		"name": "OTEEN",
		"latitude": "37-48-19.78 N",
		"longitude": "92-35-31.73 W",
		"state": "MISSOURI",
		"artcc": "ZKC",
		"type": "RNAV",
		"updated": "06/17/2013",
	},
	{
		"name": "OTEGE",
		"latitude": "38-10-35.38 N",
		"longitude": "99-5-6.09 W",
		"state": "KANSAS",
		"artcc": "ZKC",
		"type": "RNAV",
		"updated": "01/19/2011",
	},
	{
		"name": "OUTTA",
		"latitude": "38-9-19.55 N",
		"longitude": "93-21-30.45 W",
		"state": "MISSOURI",
		"artcc": "ZKC",
		"type": "RNAV",
		"updated": "02/25/2014",
	},
	{
		"name": "OVAME",
		"latitude": "36-58-24.6 N",
		"longitude": "101-28-43.11 W",
		"state": "OKLAHOMA",
		"artcc": "ZKC",
		"type": "RNAV",
		"updated": "05/08/2007",
	},
	{
		"name": "OVAYE",
		"latitude": "35-32-53.21 N",
		"longitude": "97-28-31.06 W",
		"state": "OKLAHOMA",
		"artcc": "ZKC",
		"type": "RP",
		"updated": "IRW*VORTAC*023.00/13.11",
	},
	{
		"name": "OVEGE",
		"latitude": "39-54-51.98 N",
		"longitude": "95-5-54.04 W",
		"state": "MISSOURI",
		"artcc": "ZKC",
		"type": "RNAV",
		"updated": "10/31/2013",
	},
	{
		"name": "OVEKE",
		"latitude": "36-34-43.09 N",
		"longitude": "98-1-46.51 W",
		"state": "OKLAHOMA",
		"artcc": "ZKC",
		"type": "MR",
		"updated": "END*VORTAC*334.00/15.00",
	},
	{
		"name": "OVEVE",
		"latitude": "39-49-0.2 N",
		"longitude": "88-33-44.2 W",
		"state": "ILLINOIS",
		"artcc": "ZKC",
		"type": "RNAV",
		"updated": "01/04/2012",
	},
	{
		"name": "OVOCI",
		"latitude": "39-28-41 N",
		"longitude": "97-8-52.09 W",
		"state": "KANSAS",
		"artcc": "ZKC",
		"type": "RNAV",
		"updated": "06/09/2014",
	},
	{
		"name": "OVVOD",
		"latitude": "38-8-28.92 N",
		"longitude": "96-14-34.34 W",
		"state": "KANSAS",
		"artcc": "ZKC",
		"type": "RNAV",
		"updated": "08/09/2007",
	},
	{
		"name": "OWASO",
		"latitude": "36-18-43.29 N",
		"longitude": "95-52-29.17 W",
		"state": "OKLAHOMA",
		"artcc": "ZKC",
		"type": "RP",
		"updated": "DWE*LD*N CRS/7.70",
	},
	{
		"name": "OWENJ",
		"latitude": "38-1-1.31 N",
		"longitude": "99-59-27.34 W",
		"state": "KANSAS",
		"artcc": "ZKC",
		"type": "RP",
		"updated": "GCK*VORTAC*069.21",
	},
	{
		"name": "OWETA",
		"latitude": "36-4-4.16 N",
		"longitude": "95-32-32.81 W",
		"state": "OKLAHOMA",
		"artcc": "ZME",
		"type": "RP",
		"updated": "OKM*VOR/DME*027.00",
	},
	{
		"name": "OWIZI",
		"latitude": "38-29-21.34 N",
		"longitude": "96-48-30.7 W",
		"state": "KANSAS",
		"artcc": "ZKC",
		"type": "RNAV",
		"updated": "08/05/2013",
	},
	{
		"name": "OWMUQ",
		"latitude": "38-19-10.78 N",
		"longitude": "93-40-35.54 W",
		"state": "MISSOURI",
		"artcc": "ZKC",
		"type": "RNAV",
		"updated": "02/21/2014",
	},
	{
		"name": "OWWOM",
		"latitude": "37-33-50.57 N",
		"longitude": "90-17-7.66 W",
		"state": "MISSOURI",
		"artcc": "ZKC",
		"type": "RP",
		"updated": "12/06/2011",
	},
	{
		"name": "OWXEM",
		"latitude": "37-36-53.9 N",
		"longitude": "90-6-24.74 W",
		"state": "MISSOURI",
		"artcc": "ZKC",
		"type": "RP",
		"updated": "FAM*VORTAC*119.00/7.00",
	},
	{
		"name": "OWZEP",
		"latitude": "40-34-54.24 N",
		"longitude": "91-13-52.27 W",
		"state": "ILLINOIS",
		"artcc": "ZKC",
		"type": "RNAV",
		"updated": "03/22/2009",
	},
	{
		"name": "OXAGY",
		"latitude": "37-45-3.54 N",
		"longitude": "90-7-26.7 W",
		"state": "MISSOURI",
		"artcc": "ZKC",
		"type": "RP",
		"updated": "FAM*VORTAC*047.38/7.00",
	},
	{
		"name": "OXETY",
		"latitude": "39-19-14.45 N",
		"longitude": "97-27-5.75 W",
		"state": "KANSAS",
		"artcc": "ZKC",
		"type": "RP",
		"updated": "SLN*VORTAC*011.43/25.00",
	},
	{
		"name": "OXIBE",
		"latitude": "39-38-16.55 N",
		"longitude": "94-15-54.99 W",
		"state": "MISSOURI",
		"artcc": "ZKC",
		"type": "RNAV",
		"updated": "02/02/2010",
	},
	{
		"name": "OXOSE",
		"latitude": "36-38-22.96 N",
		"longitude": "95-0-46.34 W",
		"state": "OKLAHOMA",
		"artcc": "ZKC",
		"type": "RNAV",
		"updated": "06/06/2016",
	},
	{
		"name": "OYATI",
		"latitude": "38-35-23.63 N",
		"longitude": "97-32-21.19 W",
		"state": "KANSAS",
		"artcc": "ZKC",
		"type": "RNAV",
		"updated": "08/19/2005",
	},
	{
		"name": "OYAVY",
		"latitude": "36-18-1.07 N",
		"longitude": "95-53-34.46 W",
		"state": "OKLAHOMA",
		"artcc": "ZKC",
		"type": "RNAV",
		"updated": "07/09/2009",
	},
	{
		"name": "OYAXO",
		"latitude": "36-0-47.06 N",
		"longitude": "97-34-34.81 W",
		"state": "OKLAHOMA",
		"artcc": "ZKC",
		"type": "RNAV",
		"updated": "06/13/2008",
	},
	{
		"name": "OYEHE",
		"latitude": "35-33-54.13 N",
		"longitude": "96-43-5.78 W",
		"state": "OKLAHOMA",
		"artcc": "ZKC",
		"type": "RNAV",
		"updated": "04/23/2014",
	},
	{
		"name": "OYIKI",
		"latitude": "36-28-5.62 N",
		"longitude": "97-47-27.77 W",
		"state": "OKLAHOMA",
		"artcc": "ZKC",
		"type": "RNAV",
		"updated": "05/05/2017",
	},
	{
		"name": "OYLUC",
		"latitude": "38-48-27.9 N",
		"longitude": "99-15-48.22 W",
		"state": "KANSAS",
		"artcc": "ZKC",
		"type": "RNAV",
		"updated": "08/12/2010",
	},
	{
		"name": "OYOFY",
		"latitude": "37-43-12.43 N",
		"longitude": "90-20-9.27 W",
		"state": "MISSOURI",
		"artcc": "ZKC",
		"type": "RP",
		"updated": "FAM*VORTAC*299.00/5.60",
	},
	{
		"name": "OYUPU",
		"latitude": "39-1-35.76 N",
		"longitude": "95-37-33.49 W",
		"state": "KANSAS",
		"artcc": "ZKC",
		"type": "RNAV",
		"updated": "08/05/2013",
	},
	{
		"name": "OZAKI",
		"latitude": "39-17-42.97 N",
		"longitude": "95-21-34.12 W",
		"state": "KANSAS",
		"artcc": "ZKC",
		"type": "RP",
		"updated": "MCI*VORTAC*266.38/29.00",
	},
	{
		"name": "OZARK",
		"latitude": "37-23-38.38 N",
		"longitude": "93-46-5.67 W",
		"state": "MISSOURI",
		"artcc": "ZKC",
		"type": "RP",
		"updated": "EOS*VOR/DME*036.90",
	},
	{
		"name": "OZELE",
		"latitude": "38-12-5.42 N",
		"longitude": "91-31-11.6 W",
		"state": "MISSOURI",
		"artcc": "ZKC",
		"type": "RNAV",
		"updated": "08/16/2010",
	},
	{
		"name": "OZORA",
		"latitude": "37-48-39.08 N",
		"longitude": "89-58-14.16 W",
		"state": "MISSOURI",
		"artcc": "ZKC",
		"type": "RP",
		"updated": "FAM*VORTAC*055.62/15.00",
	},
	{
		"name": "OZUMO",
		"latitude": "37-37-28.64 N",
		"longitude": "101-44-0.81 W",
		"state": "KANSAS",
		"artcc": "ZKC",
		"type": "RNAV",
		"updated": "09/07/2010",
	},
	{
		"name": "OZZEE",
		"latitude": "38-42-21.07 N",
		"longitude": "90-43-19 W",
		"state": "MISSOURI",
		"artcc": "ZKC",
		"type": "RNAV",
		"updated": "09/25/2012",
	},
	{
		"name": "OZZZZ",
		"latitude": "35-40-56.18 N",
		"longitude": "97-22-54.58 W",
		"state": "OKLAHOMA",
		"artcc": "ZKC",
		"type": "RNAV",
		"updated": "01/10/2013",
	},
