[
	{
		"name": "PAAAM",
		"latitude": "38-57-12.09 N",
		"longitude": "88-13-10.16 W",
		"state": "ILLINOIS",
		"artcc": "ZKC",
		"type": "RNAV",
		"updated": "01/12/2015"
	},
	{
		"name": "PAAUL",
		"latitude": "36-29-36.05 N",
		"longitude": "96-30-48.97 W",
		"state": "OKLAHOMA",
		"artcc": "ZKC",
		"type": "RNAV",
		"updated": "05/28/2014"
	},
	{
		"name": "PABKE",
		"latitude": "37-34-57.8 N",
		"longitude": "93-27-4.64 W",
		"state": "MISSOURI",
		"artcc": "ZKC",
		"type": "RNAV",
		"updated": "08/03/2015"
	},
	{
		"name": "PABXO",
		"latitude": "37-53-13.59 N",
		"longitude": "91-34-43.05 W",
		"state": "MISSOURI",
		"artcc": "ZKC",
		"type": "RNAV",
		"updated": "11/15/2010"
	},
	{
		"name": "PADIC",
		"latitude": "37-59-38.23 N",
		"longitude": "100-43-6.4 W",
		"state": "KANSAS",
		"artcc": "ZKC",
		"type": "RP",
		"updated": "GCK*VORTAC*353.00/4.50"
	},
	{
		"name": "PAFNA",
		"latitude": "38-7-33.73 N",
		"longitude": "97-47-7.76 W",
		"state": "KANSAS",
		"artcc": "ZKC",
		"type": "RNAV",
		"updated": "09/25/2017"
	},
	{
		"name": "PAGES",
		"latitude": "39-2-24.03 N",
		"longitude": "99-19-49.37 W",
		"state": "KANSAS",
		"artcc": "ZKC",
		"type": "WP",
		"updated": "HYS*VORTAC*337.60/11.80"
	},
	{
		"name": "PAGEZ",
		"latitude": "37-15-43.12 N",
		"longitude": "94-41-17.62 W",
		"state": "KANSAS",
		"artcc": "ZKC",
		"type": "RNAV",
		"updated": "07/17/2012"
	},
	{
		"name": "PAKIY",
		"latitude": "36-52-36.56 N",
		"longitude": "97-44-55.33 W",
		"state": "OKLAHOMA",
		"artcc": "ZKC",
		"type": "RNAV",
		"updated": "02/19/2003"
	},
	{
		"name": "PAKLY",
		"latitude": "39-12-16.49 N",
		"longitude": "94-50-8 W",
		"state": "KANSAS",
		"artcc": "ZKC",
		"type": "WP",
		"updated": "06/12/2002"
	},
	{
		"name": "PALIY",
		"latitude": "36-15-31.26 N",
		"longitude": "95-52-41.96 W",
		"state": "OKLAHOMA",
		"artcc": "ZKC",
		"type": "RP",
		"updated": "DWE*LD*000.09/4.50"
	},
	{
		"name": "PALOC",
		"latitude": "36-42-14.45 N",
		"longitude": "97-44-57.49 W",
		"state": "OKLAHOMA",
		"artcc": "ZKC",
		"type": "RNAV",
		"updated": "02/19/2003"
	},
	{
		"name": "PAMMM",
		"latitude": "38-48-18.91 N",
		"longitude": "89-55-49.44 W",
		"state": "ILLINOIS",
		"artcc": "ZKC",
		"type": "RNAV",
		"updated": "09/19/2012"
	},
	{
		"name": "PANAE",
		"latitude": "39-29-12.36 N",
		"longitude": "89-7-37.17 W",
		"state": "ILLINOIS",
		"artcc": "ZKC",
		"type": "RP",
		"updated": "AXC*VORTAC*216.94/19.58"
	},
	{
		"name": "PANCK",
		"latitude": "36-57-52.4 N",
		"longitude": "100-57-22.41 W",
		"state": "OKLAHOMA",
		"artcc": "ZKC",
		"type": "RNAV",
		"updated": "03/13/2015"
	},
	{
		"name": "PANIY",
		"latitude": "35-52-36.19 N",
		"longitude": "98-47-3.27 W",
		"state": "OKLAHOMA",
		"artcc": "ZKC",
		"type": "RP",
		"updated": "MMB*VORTAC*107.38/60.18"
	},
	{
		"name": "PAPDY",
		"latitude": "38-32-11.84 N",
		"longitude": "98-13-50.53 W",
		"state": "KANSAS",
		"artcc": "ZKC",
		"type": "RNAV",
		"updated": "08/10/2016"
	},
	{
		"name": "PAPSY",
		"latitude": "38-16-41.38 N",
		"longitude": "91-3-54.27 W",
		"state": "MISSOURI",
		"artcc": "ZKC",
		"type": "RNAV",
		"updated": "06/24/2009"
	},
	{
		"name": "PARCK",
		"latitude": "39-32-17.34 N",
		"longitude": "91-24-0.93 W",
		"state": "MISSOURI",
		"artcc": "ZKC",
		"type": "RNAV",
		"updated": "03/16/2009"
	},
	{
		"name": "PAROS",
		"latitude": "36-15-28.83 N",
		"longitude": "97-54-53.01 W",
		"state": "OKLAHOMA",
		"artcc": "ZKC",
		"type": "MR",
		"updated": "END*VORTAC*/5.21"
	},
	{
		"name": "PASIE",
		"latitude": "36-6-15.29 N",
		"longitude": "95-54-21.36 W",
		"state": "OKLAHOMA",
		"artcc": "ZKC",
		"type": "RNAV",
		"updated": "11/05/2001"
	},
	{
		"name": "PATEY",
		"latitude": "38-30-29.92 N",
		"longitude": "90-22-28.45 W",
		"state": "MISSOURI",
		"artcc": "ZKC",
		"type": "RNAV",
		"updated": "09/14/2012"
	},
	{
		"name": "PATTN",
		"latitude": "40-0-58.7 N",
		"longitude": "94-14-44.22 W",
		"state": "MISSOURI",
		"artcc": "ZKC",
		"type": "RP",
		"updated": "MCI*VORTAC*012.00/47.00"
	},
	{
		"name": "PAULY",
		"latitude": "38-53-40.04 N",
		"longitude": "90-39-56.56 W",
		"state": "MISSOURI",
		"artcc": "ZKC",
		"type": "RP",
		"updated": "FTZ*VORTAC*044.97"
	},
	{
		"name": "PAWNS",
		"latitude": "38-43-9.56 N",
		"longitude": "90-26-57.15 W",
		"state": "MISSOURI",
		"artcc": "ZKC",
		"type": "RP",
		"updated": "STL*VORTAC*168.59/8.62"
	},
	{
		"name": "PAWRU",
		"latitude": "38-59-44.59 N",
		"longitude": "89-14-38.28 W",
		"state": "ILLINOIS",
		"artcc": "ZKC",
		"type": "RP",
		"updated": "VLA*VORTAC*209.00/7.00"
	},
	{
		"name": "PAYCI",
		"latitude": "36-55-31.99 N",
		"longitude": "94-33-14 W",
		"state": "MISSOURI",
		"artcc": "ZKC",
		"type": "RNAV",
		"updated": "11/18/2016"
	},
	{
		"name": "PAYRU",
		"latitude": "37-25-16.83 N",
		"longitude": "94-45-32.82 W",
		"state": "KANSAS",
		"artcc": "ZKC",
		"type": "RNAV",
		"updated": "07/18/2012"
	},
	{
		"name": "PEABO",
		"latitude": "38-9-0.77 N",
		"longitude": "97-22-30.98 W",
		"state": "KANSAS",
		"artcc": "ZKC",
		"type": "RP",
		"updated": "ICT*VORTAC*015.00/26.20"
	},
	{
		"name": "PEAKA",
		"latitude": "39-22-36.21 N",
		"longitude": "94-42-16.76 W",
		"state": "MISSOURI",
		"artcc": "ZKC",
		"type": "RNAV",
		"updated": "01/31/2013"
	},
	{
		"name": "PEBOY",
		"latitude": "39-29-4.13 N",
		"longitude": "92-27-34.49 W",
		"state": "MISSOURI",
		"artcc": "ZKC",
		"type": "RNAV",
		"updated": "04/26/2011"
	},
	{
		"name": "PEDAE",
		"latitude": "36-39-23.24 N",
		"longitude": "99-11-37.93 W",
		"state": "OKLAHOMA",
		"artcc": "ZKC",
		"type": "RNAV",
		"updated": "09/20/2002"
	},
	{
		"name": "PEDIC",
		"latitude": "39-52-51.94 N",
		"longitude": "88-45-25.82 W",
		"state": "ILLINOIS",
		"artcc": "ZKC",
		"type": "RNAV",
		"updated": "01/12/2016"
	},
	{
		"name": "PEGGI",
		"latitude": "39-34-11.16 N",
		"longitude": "95-7-44.93 W",
		"state": "MISSOURI",
		"artcc": "ZKC",
		"type": "RP",
		"updated": "RBA*VOR/DME*136.98/21.66"
	},
	{
		"name": "PEGOE",
		"latitude": "35-48-28.11 N",
		"longitude": "97-18-40.4 W",
		"state": "OKLAHOMA",
		"artcc": "ZKC",
		"type": "RNAV",
		"updated": "05/20/2014"
	},
	{
		"name": "PEJAA",
		"latitude": "38-38-32.1 N",
		"longitude": "90-22-44.45 W",
		"state": "MISSOURI",
		"artcc": "ZKC",
		"type": "RNAV",
		"updated": "08/13/2012"
	},
	{
		"name": "PEKLE",
		"latitude": "37-35-19.08 N",
		"longitude": "92-1-22.46 W",
		"state": "MISSOURI",
		"artcc": "ZKC",
		"type": "RP",
		"updated": "VIH*VOR/DME*198.00/37.07"
	},
	{
		"name": "PENNN",
		"latitude": "36-7-26.67 N",
		"longitude": "96-8-48.31 W",
		"state": "OKLAHOMA",
		"artcc": "ZKC",
		"type": "RNAV",
		"updated": "01/26/2009"
	},
	{
		"name": "PENUT",
		"latitude": "38-37-0.04 N",
		"longitude": "99-38-25.41 W",
		"state": "KANSAS",
		"artcc": "ZKC",
		"type": "RNAV",
		"updated": "04/06/2012"
	},
	{
		"name": "PENYN",
		"latitude": "35-57-47.66 N",
		"longitude": "97-53-35.42 W",
		"state": "OKLAHOMA",
		"artcc": "ZKC",
		"type": "RNAV",
		"updated": "04/23/2009"
	},
	{
		"name": "PERCY",
		"latitude": "39-4-4.63 N",
		"longitude": "90-16-32.08 W",
		"state": "ILLINOIS",
		"artcc": "ZKC",
		"type": "RNAV",
		"updated": "09/19/2012"
	},
	{
		"name": "PERDE",
		"latitude": "36-54-14.19 N",
		"longitude": "101-8-17.33 W",
		"state": "OKLAHOMA",
		"artcc": "ZKC",
		"type": "RNAV",
		"updated": "07/05/2007"
	},
	{
		"name": "PERIY",
		"latitude": "38-52-59.9 N",
		"longitude": "93-36-52.7 W",
		"state": "MISSOURI",
		"artcc": "ZKC",
		"type": "RNAV",
		"updated": "02/28/2008"
	},
	{
		"name": "PETCI",
		"latitude": "37-30-52.92 N",
		"longitude": "95-33-34.78 W",
		"state": "KANSAS",
		"artcc": "ZKC",
		"type": "RP",
		"updated": "CNU*VOR/DME*161.42/6.87"
	},
	{
		"name": "PETTI",
		"latitude": "38-59-46.76 N",
		"longitude": "89-35-38.45 W",
		"state": "ILLINOIS",
		"artcc": "ZKC",
		"type": "RP",
		"updated": "CSX*VOR/DME*067.65/38.79"
	},
	{
		"name": "PEVCI",
		"latitude": "37-14-12.63 N",
		"longitude": "101-3-40.44 W",
		"state": "KANSAS",
		"artcc": "ZKC",
		"type": "RNAV",
		"updated": "07/05/2007"
	},
	{
		"name": "PHOGG",
		"latitude": "39-17-11.13 N",
		"longitude": "94-33-16.21 W",
		"state": "MISSOURI",
		"artcc": "ZKC",
		"type": "RNAV",
		"updated": "01/31/2013"
	},
	{
		"name": "PIBKE",
		"latitude": "37-4-28.72 N",
		"longitude": "91-47-41.01 W",
		"state": "MISSOURI",
		"artcc": "ZKC",
		"type": "RNAV",
		"updated": "11/16/2010"
	},
	{
		"name": "PICHE",
		"latitude": "37-34-41.47 N",
		"longitude": "97-27-21 W",
		"state": "KANSAS",
		"artcc": "ZKC",
		"type": "RP",
		"updated": "ICT*VORTAC*141.62"
	},
	{
		"name": "PICKY",
		"latitude": "36-24-10.08 N",
		"longitude": "100-1-41.49 W",
		"state": "TEXAS",
		"artcc": "ZKC",
		"type": "RP",
		"updated": "MMB*VORTAC*286.30/8.00"
	},
	{
		"name": "PICYU",
		"latitude": "38-10-10.32 N",
		"longitude": "92-28-44.78 W",
		"state": "MISSOURI",
		"artcc": "ZKC",
		"type": "RP",
		"updated": "SHY*VOR/DME*/9.68"
	},
	{
		"name": "PIEVE",
		"latitude": "37-49-44.3 N",
		"longitude": "100-43-27.7 W",
		"state": "KANSAS",
		"artcc": "ZKC",
		"type": "RP",
		"updated": "GCK*VORTAC*168.48/5.41"
	},
	{
		"name": "PIGIY",
		"latitude": "36-1-58.9 N",
		"longitude": "95-59-16.35 W",
		"state": "OKLAHOMA",
		"artcc": "ZKC",
		"type": "WP",
		"updated": "11/02/1998"
	},
	{
		"name": "PIGYI",
		"latitude": "39-8-5.17 N",
		"longitude": "97-8-33.86 W",
		"state": "KANSAS",
		"artcc": "ZKC",
		"type": "RNAV",
		"updated": "08/05/2013"
	},
	{
		"name": "PIKCI",
		"latitude": "39-34-25.24 N",
		"longitude": "90-32-30.37 W",
		"state": "ILLINOIS",
		"artcc": "ZKC",
		"type": "RNAV",
		"updated": "02/04/2002"
	},
	{
		"name": "PILKE",
		"latitude": "38-6-30.19 N",
		"longitude": "89-41-59.04 W",
		"state": "ILLINOIS",
		"artcc": "ZKC",
		"type": "RNAV",
		"updated": "09/09/2005"
	},
	{
		"name": "PILUY",
		"latitude": "39-27-23.29 N",
		"longitude": "97-39-8.94 W",
		"state": "KANSAS",
		"artcc": "ZKC",
		"type": "RNAV",
		"updated": "01/30/2012"
	},
	{
		"name": "PIMEW",
		"latitude": "37-54-58.15 N",
		"longitude": "92-16-58.71 W",
		"state": "MISSOURI",
		"artcc": "ZKC",
		"type": "RP",
		"updated": "SHY*VOR/DME*116.11"
	},
	{
		"name": "PINER",
		"latitude": "39-59-54.27 N",
		"longitude": "95-31-43.87 W",
		"state": "KANSAS",
		"artcc": "ZKC",
		"type": "RNAV",
		"updated": "07/11/2003"
	},
	{
		"name": "PIQPU",
		"latitude": "35-58-0.95 N",
		"longitude": "100-19-4.06 W",
		"state": "TEXAS",
		"artcc": "ZKC",
		"type": "RNAV",
		"updated": "10/07/2014"
	},
	{
		"name": "PIRIY",
		"latitude": "37-43-34.77 N",
		"longitude": "100-43-29.23 W",
		"state": "KANSAS",
		"artcc": "ZKC",
		"type": "RNAV",
		"updated": "05/07/2007"
	},
	{
		"name": "PISOE",
		"latitude": "36-35-19.96 N",
		"longitude": "97-59-17.46 W",
		"state": "OKLAHOMA",
		"artcc": "ZKC",
		"type": "MR",
		"updated": "END*VORTAC*342.00/15.00"
	},
	{
		"name": "PIYIS",
		"latitude": "37-30-59.02 N",
		"longitude": "97-29-43.96 W",
		"state": "KANSAS",
		"artcc": "ZKC",
		"type": "RNAV",
		"updated": "08/09/2007"
	},
	{
		"name": "PIZMU",
		"latitude": "36-19-54.74 N",
		"longitude": "97-16-36.87 W",
		"state": "OKLAHOMA",
		"artcc": "ZKC",
		"type": "RNAV",
		"updated": "05/12/2017"
	},
	{
		"name": "PLADD",
		"latitude": "37-37-34.3 N",
		"longitude": "93-9-10.52 W",
		"state": "MISSOURI",
		"artcc": "ZKC",
		"type": "RP",
		"updated": "DGD*VORTAC*339.00"
	},
	{
		"name": "PLANS",
		"latitude": "36-42-49.18 N",
		"longitude": "98-14-21.73 W",
		"state": "OKLAHOMA",
		"artcc": "ZKC",
		"type": "MR",
		"updated": "END*VORTAC*320.00/27.00"
	},
	{
		"name": "PLATT",
		"latitude": "37-23-27.11 N",
		"longitude": "94-49-20.36 W",
		"state": "KANSAS",
		"artcc": "ZKC",
		"type": "RP",
		"updated": "OSW*VOR/DME*044.44/23.00"
	},
	{
		"name": "PLATU",
		"latitude": "39-2-35.78 N",
		"longitude": "90-10-54.91 W",
		"state": "ILLINOIS",
		"artcc": "ZKC",
		"type": "RP",
		"updated": "STL*VORTAC*051.01"
	},
	{
		"name": "PLESS",
		"latitude": "37-48-34.48 N",
		"longitude": "88-57-47.48 W",
		"state": "ILLINOIS",
		"artcc": "ZKC",
		"type": "RP",
		"updated": "STL*VORTAC*129.82/95.46"
	},
	{
		"name": "PLUCK",
		"latitude": "36-15-13.25 N",
		"longitude": "97-54-23.42 W",
		"state": "OKLAHOMA",
		"artcc": "ZKC",
		"type": "MR",
		"updated": "END*VORTAC*169.00/5.50"
	},
	{
		"name": "POACH",
		"latitude": "39-1-6.06 N",
		"longitude": "95-33-10.77 W",
		"state": "KANSAS",
		"artcc": "ZKC",
		"type": "RP",
		"updated": "TOP*VORTAC*176.44"
	},
	{
		"name": "POCID",
		"latitude": "37-11-48.46 N",
		"longitude": "101-46-50.74 W",
		"state": "KANSAS",
		"artcc": "ZKC",
		"type": "RNAV",
		"updated": "03/28/2010"
	},
	{
		"name": "PODDS",
		"latitude": "36-21-21.76 N",
		"longitude": "97-32-29.42 W",
		"state": "OKLAHOMA",
		"artcc": "ZKC",
		"type": "RP",
		"updated": "IFI*VORTAC*025.14"
	},
	{
		"name": "POGBE",
		"latitude": "37-46-25.37 N",
		"longitude": "94-21-14.99 W",
		"state": "MISSOURI",
		"artcc": "ZKC",
		"type": "RNAV",
		"updated": "08/12/2010"
	},
	{
		"name": "POGME",
		"latitude": "38-38-4.69 N",
		"longitude": "90-26-26.51 W",
		"state": "MISSOURI",
		"artcc": "ZKC",
		"type": "RNAV",
		"updated": "09/22/2015"
	},
	{
		"name": "POGUE",
		"latitude": "35-38-49.66 N",
		"longitude": "97-27-16.09 W",
		"state": "OKLAHOMA",
		"artcc": "ZKC",
		"type": "RNAV",
		"updated": "06/13/2008"
	},
	{
		"name": "POKAE",
		"latitude": "37-12-58.19 N",
		"longitude": "93-13-28.76 W",
		"state": "MISSOURI",
		"artcc": "ZKC",
		"type": "RNAV",
		"updated": "11/13/2015"
	},
	{
		"name": "POKPE",
		"latitude": "37-52-44.3 N",
		"longitude": "100-17-53.21 W",
		"state": "KANSAS",
		"artcc": "ZKC",
		"type": "RP",
		"updated": "GCK*VORTAC*085.63/20.42"
	},
	{
		"name": "POKSS",
		"latitude": "35-44-22.56 N",
		"longitude": "97-38-2.7 W",
		"state": "OKLAHOMA",
		"artcc": "ZKC",
		"type": "RNAV",
		"updated": "05/28/2014"
	},
	{
		"name": "POMOE",
		"latitude": "36-19-12.94 N",
		"longitude": "97-54-52.86 W",
		"state": "OKLAHOMA",
		"artcc": "ZKC",
		"type": "MR",
		"updated": "END*VORTAC*/1.49"
	},
	{
		"name": "PONCK",
		"latitude": "36-39-4.38 N",
		"longitude": "97-48-59.35 W",
		"state": "OKLAHOMA",
		"artcc": "ZKC",
		"type": "MR",
		"updated": "END*VORTAC*010.00/19.00"
	},
	{
		"name": "PONDR",
		"latitude": "38-49-54.25 N",
		"longitude": "95-28-43.84 W",
		"state": "KANSAS",
		"artcc": "ZKC",
		"type": "MR",
		"updated": "FOE*TACAN*124.00/11.00"
	},
	{
		"name": "PONPE",
		"latitude": "37-53-37.5 N",
		"longitude": "98-38-31.91 W",
		"state": "KANSAS",
		"artcc": "ZKC",
		"type": "RNAV",
		"updated": "05/14/2008"
	},
	{
		"name": "POSIC",
		"latitude": "38-58-55.51 N",
		"longitude": "90-3-54.06 W",
		"state": "ILLINOIS",
		"artcc": "ZKC",
		"type": "RNAV",
		"updated": "03/28/2011"
	},
	{
		"name": "POSNE",
		"latitude": "39-42-28.06 N",
		"longitude": "93-25-26.18 W",
		"state": "MISSOURI",
		"artcc": "ZKC",
		"type": "RNAV",
		"updated": "04/22/2009"
	},
	{
		"name": "POTHE",
		"latitude": "37-42-4.09 N",
		"longitude": "93-10-37.77 W",
		"state": "MISSOURI",
		"artcc": "ZKC",
		"type": "MR",
		"updated": "SGF*VORTAC*015.85/22.00"
	},
	{
		"name": "POWLS",
		"latitude": "38-34-53.14 N",
		"longitude": "88-30-46.03 W",
		"state": "ILLINOIS",
		"artcc": "ZKC",
		"type": "RNAV",
		"updated": "04/25/2012"
	},
	{
		"name": "POYIL",
		"latitude": "37-23-5.37 N",
		"longitude": "101-21-27.94 W",
		"state": "KANSAS",
		"artcc": "ZKC",
		"type": "RNAV",
		"updated": "05/07/2007"
	},
	{
		"name": "POYOL",
		"latitude": "39-36-18.1 N",
		"longitude": "92-47-58.05 W",
		"state": "MISSOURI",
		"artcc": "ZKC",
		"type": "RP",
		"updated": "MCM*VOR/DME*252.80/15.00"
	},
	{
		"name": "POZAF",
		"latitude": "38-4-28.55 N",
		"longitude": "94-16-58.06 W",
		"state": "MISSOURI",
		"artcc": "ZKC",
		"type": "RNAV",
		"updated": "08/12/2010"
	},
	{
		"name": "PRAYS",
		"latitude": "38-58-16.06 N",
		"longitude": "89-52-6.5 W",
		"state": "ILLINOIS",
		"artcc": "ZKC",
		"type": "RP",
		"updated": "STL*VORTAC*075.84/29.50"
	},
	{
		"name": "PROSS",
		"latitude": "35-29-49.21 N",
		"longitude": "97-33-22.54 W",
		"state": "OKLAHOMA",
		"artcc": "ZKC",
		"type": "RNAV",
		"updated": "06/16/2014"
	},
	{
		"name": "PROVL",
		"latitude": "38-44-30.18 N",
		"longitude": "90-33-17.81 W",
		"state": "MISSOURI",
		"artcc": "ZKC",
		"type": "RNAV",
		"updated": "08/13/2012"
	},
	{
		"name": "PRUET",
		"latitude": "39-21-2 N",
		"longitude": "88-12-40 W",
		"state": "ILLINOIS",
		"artcc": "ZKC",
		"type": "RNAV",
		"updated": "09/24/2012"
	},
	{
		"name": "PRYOR",
		"latitude": "36-12-57.24 N",
		"longitude": "95-13-23.67 W",
		"state": "OKLAHOMA",
		"artcc": "ZME",
		"type": "RP",
		"updated": "EOS*VOR/DME*218.65"
	},
	{
		"name": "PTEES",
		"latitude": "38-27-53.76 N",
		"longitude": "90-15-27.98 W",
		"state": "ILLINOIS",
		"artcc": "ZKC",
		"type": "RNAV",
		"updated": "11/27/2012"
	},
	{
		"name": "PUBHY",
		"latitude": "39-50-11.15 N",
		"longitude": "89-40-6.76 W",
		"state": "ILLINOIS",
		"artcc": "ZKC",
		"type": "RP",
		"updated": "SPI*VORTAC*116.00/0.47"
	},
	{
		"name": "PUCIS",
		"latitude": "38-8-56.11 N",
		"longitude": "98-44-59.37 W",
		"state": "KANSAS",
		"artcc": "ZKC",
		"type": "RNAV",
		"updated": "10/06/2008"
	},
	{
		"name": "PUCNO",
		"latitude": "36-44-47.5 N",
		"longitude": "97-9-36.5 W",
		"state": "OKLAHOMA",
		"artcc": "ZKC",
		"type": "WP",
		"updated": "03/25/1996"
	},
	{
		"name": "PUJXO",
		"latitude": "38-36-0.89 N",
		"longitude": "89-55-13.6 W",
		"state": "ILLINOIS",
		"artcc": "ZKC",
		"type": "RNAV",
		"updated": "02/24/2000"
	},
	{
		"name": "PUKAS",
		"latitude": "38-55-24.77 N",
		"longitude": "94-15-59.99 W",
		"state": "MISSOURI",
		"artcc": "ZKC",
		"type": "RNAV",
		"updated": "03/22/2012"
	},
	{
		"name": "PUNGE",
		"latitude": "36-7-27.57 N",
		"longitude": "95-5-53.32 W",
		"state": "OKLAHOMA",
		"artcc": "ZME",
		"type": "RNAV",
		"updated": "04/28/2008"
	},
	{
		"name": "PUNTY",
		"latitude": "38-51-55.11 N",
		"longitude": "92-11-36.78 W",
		"state": "MISSOURI",
		"artcc": "ZKC",
		"type": "RNAV",
		"updated": "07/28/2017"
	},
	{
		"name": "PUPJE",
		"latitude": "38-31-25.73 N",
		"longitude": "88-13-30.55 W",
		"state": "ILLINOIS",
		"artcc": "ZKC",
		"type": "RNAV",
		"updated": "02/05/2010"
	},
	{
		"name": "PUQZE",
		"latitude": "39-6-36.6 N",
		"longitude": "99-0-7.22 W",
		"state": "KANSAS",
		"artcc": "ZKC",
		"type": "RP",
		"updated": "HLC*VORTAC*090.48/57.79"
	},
	{
		"name": "PURKE",
		"latitude": "37-51-44.69 N",
		"longitude": "97-10-52.23 W",
		"state": "KANSAS",
		"artcc": "ZKC",
		"type": "MR",
		"updated": "IAB*TACAN*012.00/15.00"
	},
	{
		"name": "PUSPE",
		"latitude": "37-38-47.99 N",
		"longitude": "94-18-58.51 W",
		"state": "MISSOURI",
		"artcc": "ZKC",
		"type": "RNAV",
		"updated": "08/12/2010"
	},
	{
		"name": "PUTEE",
		"latitude": "37-44-58.33 N",
		"longitude": "92-44-1.89 W",
		"state": "MISSOURI",
		"artcc": "ZKC",
		"type": "RNAV",
		"updated": "08/03/2015"
	},
	{
		"name": "PUTSY",
		"latitude": "38-40-46.8 N",
		"longitude": "92-50-18 W",
		"state": "MISSOURI",
		"artcc": "ZKC",
		"type": "RP",
		"updated": "ANX*VORTAC*105.00/65.39"
	},
	{
		"name": "PUVEN",
		"latitude": "36-33-28.58 N",
		"longitude": "97-58-10.8 W",
		"state": "OKLAHOMA",
		"artcc": "ZKC",
		"type": "MR",
		"updated": "END*VORTAC*344.00/13.00"
	},
	{
		"name": "PUVOZ",
		"latitude": "39-54-26.33 N",
		"longitude": "94-11-23.56 W",
		"state": "MISSOURI",
		"artcc": "ZKC",
		"type": "RNAV",
		"updated": "02/02/2010"
	},
	{
		"name": "PUWES",
		"latitude": "37-14-59.36 N",
		"longitude": "95-46-33.66 W",
		"state": "KANSAS",
		"artcc": "ZKC",
		"type": "RNAV",
		"updated": "02/23/2016"
	},
	{
		"name": "PUWGO",
		"latitude": "39-45-30.41 N",
		"longitude": "89-27-8.93 W",
		"state": "ILLINOIS",
		"artcc": "ZKC",
		"type": "RP",
		"updated": "SPI*VORTAC*116.00/11.50"
	},
	{
		"name": "PUZLO",
		"latitude": "38-17-16.5 N",
		"longitude": "100-52-55.8 W",
		"state": "KANSAS",
		"artcc": "ZKC",
		"type": "RNAV",
		"updated": "08/04/2006"
	},
	{
		"name": "PYLER",
		"latitude": "37-27-40.04 N",
		"longitude": "92-39-33.99 W",
		"state": "MISSOURI",
		"artcc": "ZKC",
		"type": "RP",
		"updated": "SGF*VORTAC*074.74/32.86"
	},
	{
		"name": "PYRON",
		"latitude": "42-17-33.82 N",
		"longitude": "84-45-51.33 W",
		"state": "MICHIGAN",
		"artcc": "ZKC",
		"type": "RNAV",
		"updated": "09/11/2017"
	},
	{
		"name": "PYUNG",
		"latitude": "38-47-18.73 N",
		"longitude": "90-27-0.07 W",
		"state": "MISSOURI",
		"artcc": "ZKC",
		"type": "RNAV",
		"updated": "08/06/2012"
	}
]
