[
	{
		"name": "QAFNY",
		"latitude": "38-7-26.06 N",
		"longitude": "96-8-22.54 W",
		"state": "KANSAS",
		"artcc": "ZKC",
		"type": "RNAV",
		"updated": "08/09/2007"
	},
	{
		"name": "QAMKI",
		"latitude": "38-26-15.14 N",
		"longitude": "89-7-30.22 W",
		"state": "ILLINOIS",
		"artcc": "ZKC",
		"type": "RNAV",
		"updated": "03/01/2013"
	},
	{
		"name": "QBALL",
		"latitude": "38-7-43.35 N",
		"longitude": "90-4-8.48 W",
		"state": "ILLINOIS",
		"artcc": "ZKC",
		"type": "RP",
		"updated": "STL*VORTAC*154.94/48.00"
	},
	{
		"name": "QENXE",
		"latitude": "39-50-52.8 N",
		"longitude": "91-16-44.1 W",
		"state": "ILLINOIS",
		"artcc": "ZKC",
		"type": "WP",
		"updated": "02/15/1996"
	},
	{
		"name": "QIMLA",
		"latitude": "38-36-7.85 N",
		"longitude": "89-5-25.5 W",
		"state": "ILLINOIS",
		"artcc": "ZKC",
		"type": "RNAV",
		"updated": "04/25/2012"
	},
	{
		"name": "QODCU",
		"latitude": "38-24-53.1 N",
		"longitude": "89-41-48.66 W",
		"state": "ILLINOIS",
		"artcc": "ZKC",
		"type": "RNAV",
		"updated": "02/28/2000"
	},
	{
		"name": "QOSME",
		"latitude": "39-37-53.06 N",
		"longitude": "91-36-46.64 W",
		"state": "MISSOURI",
		"artcc": "ZKC",
		"type": "RNAV",
		"updated": "UIN*VORTAC*225.10/20.19"
	},
	{
		"name": "QUALM",
		"latitude": "37-14-18.8 N",
		"longitude": "94-16-28.84 W",
		"state": "MISSOURI",
		"artcc": "ZKC",
		"type": "RP",
		"updated": "EOS*VOR/DME*011.00"
	},
	{
		"name": "QUMXE",
		"latitude": "37-52-38.23 N",
		"longitude": "91-27-10.52 W",
		"state": "MISSOURI",
		"artcc": "ZKC",
		"type": "RNAV",
		"updated": "11/15/2010"
	},
	{
		"name": "QUNIE",
		"latitude": "38-48-35.58 N",
		"longitude": "89-48-11.15 W",
		"state": "ILLINOIS",
		"artcc": "ZKC",
		"type": "RP",
		"updated": "TOY*VORTAC*047.94"
	},
	{
		"name": "QUOIT",
		"latitude": "35-48-28.17 N",
		"longitude": "97-23-57.26 W",
		"state": "OKLAHOMA",
		"artcc": "ZKC",
		"type": "RNAV",
		"updated": "05/20/2014"
	},
	{
		"name": "QWAKI",
		"latitude": "38-31-24.61 N",
		"longitude": "96-8-20.55 W",
		"state": "KANSAS",
		"artcc": "ZKC",
		"type": "RNAV",
		"updated": "08/09/2007"
	}
]
