	{
		"name": "TABCO",
		"latitude": "39-4-39.3 N",
		"longitude": "92-2-34.14 W",
		"state": "MISSOURI",
		"artcc": "ZKC",
		"type": "RNAV",
		"updated": "12/22/2003",
	},
	{
		"name": "TAGRT",
		"latitude": "39-16-17.49 N",
		"longitude": "94-29-49.98 W",
		"state": "MISSOURI",
		"artcc": "ZKC",
		"type": "RP",
		"updated": "UQY*LD*094.14/10.99",
	},
	{
		"name": "TANKE",
		"latitude": "39-18-33.2 N",
		"longitude": "90-59-12.49 W",
		"state": "MISSOURI",
		"artcc": "ZKC",
		"type": "RNAV",
		"updated": "01/29/2002",
	},
	{
		"name": "TANUC",
		"latitude": "37-31-2.18 N",
		"longitude": "97-23-26.73 W",
		"state": "KANSAS",
		"artcc": "ZKC",
		"type": "RNAV",
		"updated": "08/09/2007",
	},
	{
		"name": "TANZI",
		"latitude": "37-18-2.25 N",
		"longitude": "89-54-28.4 W",
		"state": "MISSOURI",
		"artcc": "ZKC",
		"type": "RP",
		"updated": "CGI*VOR/DME*287.35",
	},
	{
		"name": "TAPLY",
		"latitude": "36-20-15.68 N",
		"longitude": "99-31-19.14 W",
		"state": "OKLAHOMA",
		"artcc": "ZKC",
		"type": "RNAV",
		"updated": "07/10/2009",
	},
	{
		"name": "TARKE",
		"latitude": "36-12-56.66 N",
		"longitude": "98-10-59.43 W",
		"state": "OKLAHOMA",
		"artcc": "ZKC",
		"type": "MR",
		"updated": "END*VORTAC*234.00/15.00",
	},
	{
		"name": "TARKI",
		"latitude": "39-33-23.18 N",
		"longitude": "92-27-13.12 W",
		"state": "MISSOURI",
		"artcc": "ZKC",
		"type": "RP",
		"updated": "MCM*VOR/DME*161.26/6.00",
	},
	{
		"name": "TAROE",
		"latitude": "37-5-2.29 N",
		"longitude": "93-34-33.26 W",
		"state": "MISSOURI",
		"artcc": "ZKC",
		"type": "RP",
		"updated": "SGF*VORTAC*211.49/20.00",
	},
	{
		"name": "TARTS",
		"latitude": "39-46-40.89 N",
		"longitude": "91-25-34.48 W",
		"state": "MISSOURI",
		"artcc": "ZKC",
		"type": "RP",
		"updated": "UIN*VORTAC*233.46/8.00",
	},
	{
		"name": "TATRR",
		"latitude": "39-1-14.32 N",
		"longitude": "90-35-34.79 W",
		"state": "ILLINOIS",
		"artcc": "ZKC",
		"type": "RNAV",
		"updated": "09/24/2012",
	},
	{
		"name": "TAUBE",
		"latitude": "39-10-38.33 N",
		"longitude": "94-47-9.44 W",
		"state": "KANSAS",
		"artcc": "ZKC",
		"type": "RNAV",
		"updated": "01/31/2013",
	},
	{
		"name": "TAVSE",
		"latitude": "40-4-39.24 N",
		"longitude": "91-22-13.16 W",
		"state": "ILLINOIS",
		"artcc": "ZKC",
		"type": "RNAV",
		"updated": "11/17/2008",
	},
	{
		"name": "TAYUG",
		"latitude": "39-59-55.5 N",
		"longitude": "95-31-44.76 W",
		"state": "KANSAS",
		"artcc": "ZKC",
		"type": "RNAV",
		"updated": "11/12/2014",
	},
	{
		"name": "TEBTE",
		"latitude": "36-18-42.9 N",
		"longitude": "97-55-26.74 W",
		"state": "OKLAHOMA",
		"artcc": "ZKC",
		"type": "MR",
		"updated": "END*VORTAC*183.00/2.00",
	},
	{
		"name": "TECOY",
		"latitude": "39-47-2.14 N",
		"longitude": "89-46-32.27 W",
		"state": "ILLINOIS",
		"artcc": "ZKC",
		"type": "RP",
		"updated": "SPI*VORTAC*234.56/5.63",
	},
	{
		"name": "TEDCO",
		"latitude": "36-55-47.37 N",
		"longitude": "96-59-50.68 W",
		"state": "OKLAHOMA",
		"artcc": "ZKC",
		"type": "RNAV",
		"updated": "07/08/2008",
	},
	{
		"name": "TEDDD",
		"latitude": "38-32-11.84 N",
		"longitude": "89-34-30.31 W",
		"state": "ILLINOIS",
		"artcc": "ZKC",
		"type": "RNAV",
		"updated": "08/09/2012",
	},
	{
		"name": "TEEBE",
		"latitude": "38-21-36.62 N",
		"longitude": "90-5-41 W",
		"state": "ILLINOIS",
		"artcc": "ZKC",
		"type": "RNAV",
		"updated": "11/28/2012",
	},
	{
		"name": "TEEKA",
		"latitude": "39-16-37.99 N",
		"longitude": "94-33-51.14 W",
		"state": "MISSOURI",
		"artcc": "ZKC",
		"type": "RP",
		"updated": "UQY*LD*094.14/7.85",
	},
	{
		"name": "TENCU",
		"latitude": "39-59-47.97 N",
		"longitude": "89-29-2.56 W",
		"state": "ILLINOIS",
		"artcc": "ZKC",
		"type": "RNAV",
		"updated": "08/24/2005",
	},
	{
		"name": "TEPIE",
		"latitude": "37-20-7.46 N",
		"longitude": "92-2-40.28 W",
		"state": "MISSOURI",
		"artcc": "ZKC",
		"type": "RNAV",
		"updated": "01/29/2002",
	},
	{
		"name": "TEPOE",
		"latitude": "36-24-10.62 N",
		"longitude": "97-54-34.37 W",
		"state": "OKLAHOMA",
		"artcc": "ZKC",
		"type": "MR",
		"updated": "END*VORTAC*002.00/3.50",
	},
	{
		"name": "TERKY",
		"latitude": "39-7-55.74 N",
		"longitude": "94-45-10.95 W",
		"state": "KANSAS",
		"artcc": "ZKC",
		"type": "RP",
		"updated": "PVL*LD*S CRS/10.92",
	},
	{
		"name": "TEROY",
		"latitude": "37-26-20.66 N",
		"longitude": "97-27-9.7 W",
		"state": "KANSAS",
		"artcc": "ZKC",
		"type": "RP",
		"updated": "ICT*VORTAC*154.14/19.38",
	},
	{
		"name": "TESAE",
		"latitude": "37-17-32.8 N",
		"longitude": "91-57-58.61 W",
		"state": "MISSOURI",
		"artcc": "ZKC",
		"type": "RNAV",
		"updated": "07/06/2012",
	},
	{
		"name": "TEWHY",
		"latitude": "39-19-22.32 N",
		"longitude": "90-0-20.03 W",
		"state": "ILLINOIS",
		"artcc": "ZKC",
		"type": "RP",
		"updated": "CSX*VOR/DME*025.82/38.00",
	},
	{
		"name": "TEXAS",
		"latitude": "37-49-23.37 N",
		"longitude": "88-31-44.48 W",
		"state": "ILLINOIS",
		"artcc": "ZKC",
		"type": "RP",
		"updated": "MWA*VOR/DME*075.65/23.32",
	},
	{
		"name": "TEYNO",
		"latitude": "37-38-21.31 N",
		"longitude": "97-4-51 W",
		"state": "KANSAS",
		"artcc": "ZKC",
		"type": "RNAV",
		"updated": "12/21/2011",
	},
	{
		"name": "TEYOT",
		"latitude": "37-49-41.74 N",
		"longitude": "100-43-25.85 W",
		"state": "KANSAS",
		"artcc": "ZKC",
		"type": "RNAV",
		"updated": "05/07/2007",
	},
	{
		"name": "THOMP",
		"latitude": "37-59-34.13 N",
		"longitude": "88-53-20.48 W",
		"state": "ILLINOIS",
		"artcc": "ZKC",
		"type": "RP",
		"updated": "ENL*VORTAC*149.41/28.61",
	},
	{
		"name": "THURS",
		"latitude": "37-50-12.08 N",
		"longitude": "100-43-25.56 W",
		"state": "KANSAS",
		"artcc": "ZKC",
		"type": "WP",
		"updated": "GCK*VORTAC*168.30/5.00",
	},
	{
		"name": "TIBLY",
		"latitude": "38-22-24.74 N",
		"longitude": "89-38-51.03 W",
		"state": "ILLINOIS",
		"artcc": "ZKC",
		"type": "RP",
		"updated": "SKE*TACAN*138.89/14.09",
	},
	{
		"name": "TIBOE",
		"latitude": "37-13-36.98 N",
		"longitude": "93-14-27.91 W",
		"state": "MISSOURI",
		"artcc": "ZKC",
		"type": "RNAV",
		"updated": "06/09/2015",
	},
	{
		"name": "TICOS",
		"latitude": "39-6-42.68 N",
		"longitude": "95-37-22.48 W",
		"state": "KANSAS",
		"artcc": "ZKC",
		"type": "RNAV",
		"updated": "08/05/2013",
	},
	{
		"name": "TICOT",
		"latitude": "37-10-43.32 N",
		"longitude": "93-25-3.65 W",
		"state": "MISSOURI",
		"artcc": "ZKC",
		"type": "RNAV",
		"updated": "06/13/2008",
	},
	{
		"name": "TIDVE",
		"latitude": "38-59-3.73 N",
		"longitude": "88-32-55.31 W",
		"state": "ILLINOIS",
		"artcc": "ZKC",
		"type": "RNAV",
		"updated": "04/01/2010",
	},
	{
		"name": "TIFFS",
		"latitude": "36-43-29.45 N",
		"longitude": "94-41-9.32 W",
		"state": "OKLAHOMA",
		"artcc": "ZKC",
		"type": "RP",
		"updated": "OSW*VOR/DME*128.00",
	},
	{
		"name": "TIFTO",
		"latitude": "39-36-17.16 N",
		"longitude": "95-53-31.58 W",
		"state": "KANSAS",
		"artcc": "ZKC",
		"type": "RP",
		"updated": "MCI*VORTAC*285.00/57.00",
	},
	{
		"name": "TIGAY",
		"latitude": "38-3-5.93 N",
		"longitude": "95-19-53.81 W",
		"state": "KANSAS",
		"artcc": "ZKC",
		"type": "RNAV",
		"updated": "01/03/2009",
	},
	{
		"name": "TIHCY",
		"latitude": "37-49-9.98 N",
		"longitude": "92-32-26.79 W",
		"state": "MISSOURI",
		"artcc": "ZKC",
		"type": "RNAV",
		"updated": "04/24/2001",
	},
	{
		"name": "TIKUE",
		"latitude": "36-25-54.57 N",
		"longitude": "101-9-57.56 W",
		"state": "TEXAS",
		"artcc": "ZKC",
		"type": "RNAV",
		"updated": "10/28/2008",
	},
	{
		"name": "TIPUW",
		"latitude": "39-52-40.7 N",
		"longitude": "89-44-14.64 W",
		"state": "ILLINOIS",
		"artcc": "ZKC",
		"type": "RNAV",
		"updated": "04/01/2010",
	},
	{
		"name": "TISOY",
		"latitude": "36-41-26.15 N",
		"longitude": "96-0-33.84 W",
		"state": "OKLAHOMA",
		"artcc": "ZKC",
		"type": "RNAV",
		"updated": "12/24/2015",
	},
	{
		"name": "TISSY",
		"latitude": "36-11-36.43 N",
		"longitude": "99-31-24.26 W",
		"state": "OKLAHOMA",
		"artcc": "ZKC",
		"type": "RP",
		"updated": "MMB*VORTAC*107.38/19.51",
	},
	{
		"name": "TIVOY",
		"latitude": "38-51-44.6 N",
		"longitude": "93-43-4.57 W",
		"state": "MISSOURI",
		"artcc": "ZKC",
		"type": "RNAV",
		"updated": "02/28/2008",
	},
	{
		"name": "TIYUP",
		"latitude": "37-58-20.02 N",
		"longitude": "88-23-8.35 W",
		"state": "ILLINOIS",
		"artcc": "ZKC",
		"type": "RNAV",
		"updated": "03/05/2008",
	},
	{
		"name": "TIZGE",
		"latitude": "38-28-32.57 N",
		"longitude": "89-46-12.67 W",
		"state": "ILLINOIS",
		"artcc": "ZKC",
		"type": "RNAV",
		"updated": "02/24/2000",
	},
	{
		"name": "TOBEE",
		"latitude": "37-47-2.66 N",
		"longitude": "97-11-30.48 W",
		"state": "KANSAS",
		"artcc": "ZKC",
		"type": "RNAV",
		"updated": "06/17/2013",
	},
	{
		"name": "TOBFE",
		"latitude": "39-10-2.38 N",
		"longitude": "89-47-18.78 W",
		"state": "ILLINOIS",
		"artcc": "ZKC",
		"type": "RNAV",
		"updated": "08/24/2005",
	},
	{
		"name": "TOCDU",
		"latitude": "39-58-47.62 N",
		"longitude": "94-54-24.88 W",
		"state": "MISSOURI",
		"artcc": "ZKC",
		"type": "RNAV",
		"updated": "10/31/2013",
	},
	{
		"name": "TODOE",
		"latitude": "35-30-58.39 N",
		"longitude": "97-22-55.21 W",
		"state": "OKLAHOMA",
		"artcc": "ZKC",
		"type": "RNAV",
		"updated": "01/10/2013",
	},
	{
		"name": "TOFGY",
		"latitude": "38-38-14.13 N",
		"longitude": "91-1-28.64 W",
		"state": "MISSOURI",
		"artcc": "ZKC",
		"type": "RNAV",
		"updated": "08/26/2009",
	},
	{
		"name": "TOGAS",
		"latitude": "37-0-52.25 N",
		"longitude": "94-20-15.43 W",
		"state": "MISSOURI",
		"artcc": "ZKC",
		"type": "RNAV",
		"updated": "06/15/2011",
	},
	{
		"name": "TOKIE",
		"latitude": "38-9-9.15 N",
		"longitude": "100-22-0.97 W",
		"state": "KANSAS",
		"artcc": "ZKC",
		"type": "RP",
		"updated": "GCK*VORTAC*039.39/22.00",
	},
	{
		"name": "TOMAT",
		"latitude": "38-23-53 N",
		"longitude": "92-10-5.15 W",
		"state": "MISSOURI",
		"artcc": "ZKC",
		"type": "RP",
		"updated": "VIH*VOR/DME*298.00",
	},
	{
		"name": "TOMHO",
		"latitude": "36-55-45.59 N",
		"longitude": "97-6-4.93 W",
		"state": "OKLAHOMA",
		"artcc": "ZKC",
		"type": "RP",
		"updated": "PER*VORTAC*008.47/11.31",
	},
	{
		"name": "TONCE",
		"latitude": "40-16-56.01 N",
		"longitude": "94-37-23.46 W",
		"state": "MISSOURI",
		"artcc": "ZKC",
		"type": "RP",
		"updated": "MCI*VORTAC*360.00/60.00",
	},
	{
		"name": "TONII",
		"latitude": "38-42-19.7 N",
		"longitude": "90-29-0.62 W",
		"state": "MISSOURI",
		"artcc": "ZKC",
		"type": "RP",
		"updated": "STL*VORTAC*179.32",
	},
	{
		"name": "TONYG",
		"latitude": "39-23-4.18 N",
		"longitude": "94-57-23.01 W",
		"state": "KANSAS",
		"artcc": "ZKC",
		"type": "RNAV",
		"updated": "01/31/2013",
	},
	{
		"name": "TOPAZ",
		"latitude": "38-57-37.11 N",
		"longitude": "90-6-35.33 W",
		"state": "ILLINOIS",
		"artcc": "ZKC",
		"type": "RP",
		"updated": "STL*VORTAC*069.99",
	},
	{
		"name": "TOPOC",
		"latitude": "37-11-45.01 N",
		"longitude": "101-53-6.2 W",
		"state": "KANSAS",
		"artcc": "ZKC",
		"type": "RNAV",
		"updated": "03/28/2010",
	},
	{
		"name": "TOREE",
		"latitude": "37-48-15.96 N",
		"longitude": "88-59-45.29 W",
		"state": "ILLINOIS",
		"artcc": "ZKC",
		"type": "RP",
		"updated": "MWA*VOR/DME*010.00/3.10",
	},
	{
		"name": "TORME",
		"latitude": "38-41-40.24 N",
		"longitude": "90-15-31.87 W",
		"state": "MISSOURI",
		"artcc": "ZKC",
		"type": "RNAV",
		"updated": "05/10/2011",
	},
	{
		"name": "TOSAE",
		"latitude": "40-10-43.48 N",
		"longitude": "94-36-0.82 W",
		"state": "MISSOURI",
		"artcc": "ZKC",
		"type": "RP",
		"updated": "STJ*VORTAC*040.75/19.88",
	},
	{
		"name": "TOSSO",
		"latitude": "38-20-2.99 N",
		"longitude": "89-41-54.53 W",
		"state": "ILLINOIS",
		"artcc": "ZKC",
		"type": "RNAV",
		"updated": "01/30/2004",
	},
	{
		"name": "TOSUC",
		"latitude": "35-56-27.68 N",
		"longitude": "97-6-8.09 W",
		"state": "OKLAHOMA",
		"artcc": "ZKC",
		"type": "RP",
		"updated": "SWO*VOR/DME*176.45/17.00",
	},
	{
		"name": "TOTES",
		"latitude": "35-45-28.61 N",
		"longitude": "96-58-46.48 W",
		"state": "OKLAHOMA",
		"artcc": "ZKC",
		"type": "RP",
		"updated": "IRW*VORTAC*045.00",
	},
	{
		"name": "TOVAD",
		"latitude": "61-37-45.02 N",
		"longitude": "140-58-54.31 W",
		"state": "",
		"artcc": "ZKC",
		"type": "RP",
		"updated": "ORT*VORTAC*137.38/83.49",
	},
	{
		"name": "TOWNY",
		"latitude": "38-44-41.62 N",
		"longitude": "89-22-33.17 W",
		"state": "ILLINOIS",
		"artcc": "ZKC",
		"type": "RNAV",
		"updated": "05/04/2016",
	},
	{
		"name": "TOXIC",
		"latitude": "37-54-1.68 N",
		"longitude": "99-53-46.51 W",
		"state": "KANSAS",
		"artcc": "ZKC",
		"type": "RNAV",
		"updated": "02/08/2017",
	},
	{
		"name": "TOYCU",
		"latitude": "37-14-22.15 N",
		"longitude": "94-6-23.39 W",
		"state": "MISSOURI",
		"artcc": "ZKC",
		"type": "RNAV",
		"updated": "03/21/2014",
	},
	{
		"name": "TOYUN",
		"latitude": "37-4-38.05 N",
		"longitude": "92-0-10.69 W",
		"state": "MISSOURI",
		"artcc": "ZKC",
		"type": "RNAV",
		"updated": "09/14/2010",
	},
	{
		"name": "TOZGO",
		"latitude": "38-25-41.45 N",
		"longitude": "98-13-46.27 W",
		"state": "KANSAS",
		"artcc": "ZKC",
		"type": "RNAV",
		"updated": "06/24/2016",
	},
	{
		"name": "TRACS",
		"latitude": "39-55-9.74 N",
		"longitude": "88-53-16.41 W",
		"state": "ILLINOIS",
		"artcc": "ZKC",
		"type": "RP",
		"updated": "CMI*VORTAC*253.45",
	},
	{
		"name": "TRALE",
		"latitude": "37-56-21.3 N",
		"longitude": "93-35-45.86 W",
		"state": "MISSOURI",
		"artcc": "ZKC",
		"type": "RP",
		"updated": "BUM*VORTAC*108.00/46.72",
	},
	{
		"name": "TRAVL",
		"latitude": "39-25-10.79 N",
		"longitude": "94-13-13.52 W",
		"state": "MISSOURI",
		"artcc": "ZKC",
		"type": "RP",
		"updated": "ANX*VORTAC*340.64/19.90",
	},
	{
		"name": "TRAVS",
		"latitude": "38-36-17.86 N",
		"longitude": "90-21-22.28 W",
		"state": "MISSOURI",
		"artcc": "ZKC",
		"type": "RNAV",
		"updated": "08/06/2012",
	},
	{
		"name": "TRAYS",
		"latitude": "37-23-41 N",
		"longitude": "97-1-2 W",
		"state": "KANSAS",
		"artcc": "ZKC",
		"type": "RNAV",
		"updated": "11/26/2002",
	},
	{
		"name": "TRESS",
		"latitude": "39-27-57.76 N",
		"longitude": "91-13-52.14 W",
		"state": "MISSOURI",
		"artcc": "ZKC",
		"type": "RP",
		"updated": "UIN*VORTAC*167.47/23.00",
	},
	{
		"name": "TRHAP",
		"latitude": "36-11-37.35 N",
		"longitude": "97-45-22.49 W",
		"state": "OKLAHOMA",
		"artcc": "ZKC",
		"type": "MR",
		"updated": "END*VORTAC*134.00/12.00",
	},
	{
		"name": "TRIKE",
		"latitude": "38-50-24.56 N",
		"longitude": "94-15-8.6 W",
		"state": "MISSOURI",
		"artcc": "ZKC",
		"type": "RP",
		"updated": "ANX*VORTAC*193.74",
	},
	{
		"name": "TRILL",
		"latitude": "38-43-6.17 N",
		"longitude": "90-36-53.45 W",
		"state": "MISSOURI",
		"artcc": "ZKC",
		"type": "RP",
		"updated": "STL*VORTAC*215.12",
	},
	{
		"name": "TRIST",
		"latitude": "35-56-24.64 N",
		"longitude": "96-0-53.79 W",
		"state": "OKLAHOMA",
		"artcc": "ZKC",
		"type": "RP",
		"updated": "GNP*VOR/DME*291.13",
	},
	{
		"name": "TRUKS",
		"latitude": "36-21-26.93 N",
		"longitude": "97-55-23.48 W",
		"state": "OKLAHOMA",
		"artcc": "ZKC",
		"type": "RNAV",
		"updated": "03/04/2015",
	},
	{
		"name": "TRULL",
		"latitude": "39-53-1.64 N",
		"longitude": "93-0-36.79 W",
		"state": "MISSOURI",
		"artcc": "ZKC",
		"type": "RNAV",
		"updated": "02/10/2016",
	},
	{
		"name": "TRUMP",
		"latitude": "35-50-42.47 N",
		"longitude": "97-15-49.98 W",
		"state": "OKLAHOMA",
		"artcc": "ZKC",
		"type": "RP",
		"updated": "IRW*VORTAC*023.00/33.69",
	},
	{
		"name": "TRUPR",
		"latitude": "35-41-46.03 N",
		"longitude": "96-53-11.36 W",
		"state": "OKLAHOMA",
		"artcc": "ZKC",
		"type": "RNAV",
		"updated": "05/28/2014",
	},
	{
		"name": "TUCJA",
		"latitude": "38-52-42.87 N",
		"longitude": "95-48-8.08 W",
		"state": "KANSAS",
		"artcc": "ZKC",
		"type": "RNAV",
		"updated": "08/05/2013",
	},
	{
		"name": "TUDEE",
		"latitude": "39-37-31.1 N",
		"longitude": "93-20-40.49 W",
		"state": "MISSOURI",
		"artcc": "ZKC",
		"type": "RNAV",
		"updated": "04/23/2009",
	},
	{
		"name": "TUDME",
		"latitude": "37-57-52.13 N",
		"longitude": "89-35-42.53 W",
		"state": "ILLINOIS",
		"artcc": "ZKC",
		"type": "RNAV",
		"updated": "09/09/2005",
	},
	{
		"name": "TUDNE",
		"latitude": "38-48-12.85 N",
		"longitude": "90-28-48.3 W",
		"state": "MISSOURI",
		"artcc": "ZKC",
		"type": "RNAV",
		"updated": "05/23/2011",
	},
	{
		"name": "TUDPE",
		"latitude": "36-27-4.58 N",
		"longitude": "99-56-11.75 W",
		"state": "OKLAHOMA",
		"artcc": "ZKC",
		"type": "RP",
		"updated": "MMB*VORTAC*327.01/7.00",
	},
	{
		"name": "TUGSY",
		"latitude": "38-10-46.54 N",
		"longitude": "92-44-53.46 W",
		"state": "MISSOURI",
		"artcc": "ZKC",
		"type": "RNAV",
		"updated": "08/07/2013",
	},
	{
		"name": "TUKME",
		"latitude": "39-38-11.43 N",
		"longitude": "91-43-21.24 W",
		"state": "MISSOURI",
		"artcc": "ZKC",
		"type": "RP",
		"updated": "UIN*VORTAC*233.46/24.13",
	},
	{
		"name": "TULKE",
		"latitude": "39-49-48.2 N",
		"longitude": "88-9-40.26 W",
		"state": "ILLINOIS",
		"artcc": "ZKC",
		"type": "RNAV",
		"updated": "10/15/2008",
	},
	{
		"name": "TUNBE",
		"latitude": "37-6-13.91 N",
		"longitude": "100-56-0.1 W",
		"state": "KANSAS",
		"artcc": "ZKC",
		"type": "RP",
		"updated": "LBL*VORTAC*016.00/4.00",
	},
	{
		"name": "TURKY",
		"latitude": "38-6-29.26 N",
		"longitude": "97-48-23.58 W",
		"state": "KANSAS",
		"artcc": "ZKC",
		"type": "RP",
		"updated": "HUT*VOR/DME*038.18/9.00",
	},
	{
		"name": "TUROE",
		"latitude": "37-34-34.38 N",
		"longitude": "100-6-37.15 W",
		"state": "KANSAS",
		"artcc": "ZKC",
		"type": "RNAV",
		"updated": "07/25/2017",
	},
	{
		"name": "TUSCO",
		"latitude": "39-47-26.51 N",
		"longitude": "88-16-49.69 W",
		"state": "ILLINOIS",
		"artcc": "ZKC",
		"type": "RP",
		"updated": "CMI*VORTAC*177.80/14.62",
	},
	{
		"name": "TUSOC",
		"latitude": "36-12-42.9 N",
		"longitude": "95-20-37.54 W",
		"state": "OKLAHOMA",
		"artcc": "ZME",
		"type": "RP",
		"updated": "TUL*VORTAC*079.38/21.60",
	},
	{
		"name": "TUWKU",
		"latitude": "37-2-46.24 N",
		"longitude": "94-30-8.86 W",
		"state": "MISSOURI",
		"artcc": "ZKC",
		"type": "CN",
		"updated": "06/30/2003",
	},
	{
		"name": "TUZXY",
		"latitude": "36-38-39.78 N",
		"longitude": "99-15-35.45 W",
		"state": "OKLAHOMA",
		"artcc": "ZKC",
		"type": "RP",
		"updated": "MMB*VORTAC*048.84/35.00",
	},
	{
		"name": "TWAIN",
		"latitude": "39-40-20.55 N",
		"longitude": "91-26-35.13 W",
		"state": "MISSOURI",
		"artcc": "ZKC",
		"type": "RP",
		"updated": "STL*VORTAC*316.69/66.12",
	},
	{
		"name": "TWILA",
		"latitude": "38-47-13.56 N",
		"longitude": "89-33-9.08 W",
		"state": "ILLINOIS",
		"artcc": "ZKC",
		"type": "RP",
		"updated": "STL*VORTAC*094.49/43.82",
	},
	{
		"name": "TWRAY",
		"latitude": "37-36-5.06 N",
		"longitude": "91-0-52.53 W",
		"state": "MISSOURI",
		"artcc": "ZKC",
		"type": "RP",
		"updated": "STL*VORTAC*197.60/79.56",
	},
	{
		"name": "TYGER",
		"latitude": "38-41-0.13 N",
		"longitude": "94-5-1.08 W",
		"state": "MISSOURI",
		"artcc": "ZKC",
		"type": "RP",
		"updated": "MCI*VORTAC*134.52/47.29",
	},
	{
		"name": "TYROE",
		"latitude": "37-3-45.58 N",
		"longitude": "95-40-15.72 W",
		"state": "KANSAS",
		"artcc": "ZKC",
		"type": "RP",
		"updated": "OSW*VOR/DME*247.92/23.14",
	},
	{
		"name": "TYRSH",
		"latitude": "38-35-45.5 N",
		"longitude": "90-3-6.45 W",
		"state": "ILLINOIS",
		"artcc": "ZKC",
		"type": "RP",
		"updated": "TOY*VORTAC*212.15",
	},
	{
		"name": "TYTUS",
		"latitude": "39-12-50.01 N",
		"longitude": "95-22-26.85 W",
		"state": "KANSAS",
		"artcc": "ZKC",
		"type": "RP",
		"updated": "MCI*VORTAC*257.00/30.00",
	},
