	{
		"name": "UBEKY",
		"latitude": "36-54-45.95 N",
		"longitude": "96-55-7.95 W",
		"state": "OKLAHOMA",
		"artcc": "ZKC",
		"type": "RNAV",
		"updated": "09/03/2014",
	},
	{
		"name": "UBELE",
		"latitude": "39-59-20.18 N",
		"longitude": "95-4-20.76 W",
		"state": "MISSOURI",
		"artcc": "ZKC",
		"type": "RP",
		"updated": "STJ*VORTAC*276.11/7.00",
	},
	{
		"name": "UBICI",
		"latitude": "36-56-19.47 N",
		"longitude": "101-23-2.84 W",
		"state": "OKLAHOMA",
		"artcc": "ZKC",
		"type": "RNAV",
		"updated": "05/08/2007",
	},
	{
		"name": "UBIRY",
		"latitude": "35-38-11.85 N",
		"longitude": "96-49-14.49 W",
		"state": "OKLAHOMA",
		"artcc": "ZKC",
		"type": "RNAV",
		"updated": "09/26/2002",
	},
	{
		"name": "UBWIK",
		"latitude": "37-53-36.45 N",
		"longitude": "96-24-21.12 W",
		"state": "KANSAS",
		"artcc": "ZKC",
		"type": "RP",
		"updated": "EMP*VORTAC*200.10/27.00",
	},
	{
		"name": "UCAKA",
		"latitude": "40-0-27.4 N",
		"longitude": "92-32-42.85 W",
		"state": "MISSOURI",
		"artcc": "ZKC",
		"type": "RP",
		"updated": "IRK*LD*S CRS/5.75",
	},
	{
		"name": "UCEKO",
		"latitude": "37-58-49.52 N",
		"longitude": "97-34-55.93 W",
		"state": "KANSAS",
		"artcc": "ZKC",
		"type": "RNAV",
		"updated": "05/02/2012",
	},
	{
		"name": "UCITY",
		"latitude": "38-41-58.75 N",
		"longitude": "90-17-15.5 W",
		"state": "MISSOURI",
		"artcc": "ZKC",
		"type": "RNAV",
		"updated": "08/13/2012",
	},
	{
		"name": "UCMOZ",
		"latitude": "38-23-41.93 N",
		"longitude": "93-20-31.83 W",
		"state": "MISSOURI",
		"artcc": "ZKC",
		"type": "RNAV",
		"updated": "02/25/2014",
	},
	{
		"name": "UCUKI",
		"latitude": "39-51-17.14 N",
		"longitude": "91-11-52.23 W",
		"state": "ILLINOIS",
		"artcc": "ZKC",
		"type": "RNAV",
		"updated": "11/14/2008",
	},
	{
		"name": "UDBUW",
		"latitude": "35-56-17.71 N",
		"longitude": "97-26-41.97 W",
		"state": "OKLAHOMA",
		"artcc": "ZKC",
		"type": "RNAV",
		"updated": "06/13/2008",
	},
	{
		"name": "UDCOF",
		"latitude": "39-49-11.94 N",
		"longitude": "89-37-22.22 W",
		"state": "ILLINOIS",
		"artcc": "ZKC",
		"type": "RP",
		"updated": "SPI*VORTAC*116.00/2.80",
	},
	{
		"name": "UDCOS",
		"latitude": "38-17-6.87 N",
		"longitude": "95-22-33.74 W",
		"state": "KANSAS",
		"artcc": "ZKC",
		"type": "RP",
		"updated": "EMP*VORTAC*082.33/36.00",
	},
	{
		"name": "UDELE",
		"latitude": "37-21-52.93 N",
		"longitude": "91-58-46.07 W",
		"state": "MISSOURI",
		"artcc": "ZKC",
		"type": "RNAV",
		"updated": "07/06/2012",
	},
	{
		"name": "UDEYE",
		"latitude": "37-21-33.93 N",
		"longitude": "97-23-19.63 W",
		"state": "KANSAS",
		"artcc": "ZKC",
		"type": "RNAV",
		"updated": "08/09/2007",
	},
	{
		"name": "UDHOY",
		"latitude": "39-32-42.4 N",
		"longitude": "91-30-32.53 W",
		"state": "MISSOURI",
		"artcc": "ZKC",
		"type": "WP",
		"updated": "01/24/2002",
	},
	{
		"name": "UFJUV",
		"latitude": "39-7-29.77 N",
		"longitude": "89-1-3.98 W",
		"state": "ILLINOIS",
		"artcc": "ZKC",
		"type": "RP",
		"updated": "VLA*VORTAC*070.51/7.00",
	},
	{
		"name": "UFWOB",
		"latitude": "37-47-53.7 N",
		"longitude": "101-28-50.4 W",
		"state": "KANSAS",
		"artcc": "ZKC",
		"type": "RNAV",
		"updated": "06/22/2005",
	},
	{
		"name": "UGAWU",
		"latitude": "37-50-52.74 N",
		"longitude": "98-5-23.03 W",
		"state": "KANSAS",
		"artcc": "ZKC",
		"type": "RNAV",
		"updated": "09/08/2003",
	},
	{
		"name": "UGEKY",
		"latitude": "36-30-18.55 N",
		"longitude": "94-44-18.3 W",
		"state": "OKLAHOMA",
		"artcc": "ZKC",
		"type": "RNAV",
		"updated": "02/25/2005",
	},
	{
		"name": "UHKET",
		"latitude": "36-41-28.68 N",
		"longitude": "100-49-58.86 W",
		"state": "OKLAHOMA",
		"artcc": "ZKC",
		"type": "RNAV",
		"updated": "06/27/2013",
	},
	{
		"name": "UHMAM",
		"latitude": "38-22-47.58 N",
		"longitude": "90-58-59.67 W",
		"state": "MISSOURI",
		"artcc": "ZKC",
		"type": "RNAV",
		"updated": "09/10/2007",
	},
	{
		"name": "UJASA",
		"latitude": "38-56-9.34 N",
		"longitude": "95-26-42.83 W",
		"state": "KANSAS",
		"artcc": "ZKC",
		"type": "RP",
		"updated": "TOP*LS*SE CRS",
	},
	{
		"name": "UJCEL",
		"latitude": "37-57-30.74 N",
		"longitude": "97-19-44.07 W",
		"state": "KANSAS",
		"artcc": "ZKC",
		"type": "RNAV",
		"updated": "06/17/2013",
	},
	{
		"name": "UKAAY",
		"latitude": "39-10-15.7 N",
		"longitude": "88-52-46.51 W",
		"state": "ILLINOIS",
		"artcc": "ZKC",
		"type": "RNAV",
		"updated": "02/11/2013",
	},
	{
		"name": "UKIXE",
		"latitude": "38-20-36.22 N",
		"longitude": "97-41-24.08 W",
		"state": "KANSAS",
		"artcc": "ZKC",
		"type": "RP",
		"updated": "HUT*VOR/DME*025.01/23.76",
	},
	{
		"name": "UKPAZ",
		"latitude": "38-4-59.46 N",
		"longitude": "92-39-14.19 W",
		"state": "MISSOURI",
		"artcc": "ZKC",
		"type": "RNAV",
		"updated": "08/07/2013",
	},
	{
		"name": "UKUCU",
		"latitude": "39-45-6.48 N",
		"longitude": "91-15-37.68 W",
		"state": "ILLINOIS",
		"artcc": "ZKC",
		"type": "RNAV",
		"updated": "11/14/2008",
	},
	{
		"name": "ULAXY",
		"latitude": "39-58-18.89 N",
		"longitude": "89-51-40.31 W",
		"state": "ILLINOIS",
		"artcc": "ZKC",
		"type": "RP",
		"updated": "SPI*VORTAC*314.15/11.60",
	},
	{
		"name": "ULECU",
		"latitude": "38-32-30.79 N",
		"longitude": "97-38-43.09 W",
		"state": "KANSAS",
		"artcc": "ZKC",
		"type": "RP",
		"updated": "SLN*VORTAC*175.81/23.00",
	},
	{
		"name": "ULIJA",
		"latitude": "37-9-48.88 N",
		"longitude": "91-51-46.1 W",
		"state": "MISSOURI",
		"artcc": "ZKC",
		"type": "RNAV",
		"updated": "07/06/2012",
	},
	{
		"name": "ULIKY",
		"latitude": "37-43-31.08 N",
		"longitude": "92-38-58.34 W",
		"state": "MISSOURI",
		"artcc": "ZKC",
		"type": "RNAV",
		"updated": "04/24/2001",
	},
	{
		"name": "ULKEC",
		"latitude": "38-55-10.43 N",
		"longitude": "94-26-26.14 W",
		"state": "MISSOURI",
		"artcc": "ZKC",
		"type": "RNAV",
		"updated": "03/23/2012",
	},
	{
		"name": "ULMAN",
		"latitude": "38-2-24.45 N",
		"longitude": "92-41-51.8 W",
		"state": "MISSOURI",
		"artcc": "ZKC",
		"type": "RP",
		"updated": "EOS*VOR/DME*041.64/109.76",
	},
	{
		"name": "ULNAZ",
		"latitude": "39-6-32.15 N",
		"longitude": "95-50-58.66 W",
		"state": "KANSAS",
		"artcc": "ZKC",
		"type": "RP",
		"updated": "TOP*VORTAC*258.23/14.13",
	},
	{
		"name": "ULUFA",
		"latitude": "38-37-39.18 N",
		"longitude": "92-18-45.45 W",
		"state": "MISSOURI",
		"artcc": "ZKC",
		"type": "RNAV",
		"updated": "07/28/2017",
	},
	{
		"name": "ULUVY",
		"latitude": "38-17-44.02 N",
		"longitude": "88-39-0.27 W",
		"state": "ILLINOIS",
		"artcc": "ZKC",
		"type": "RNAV",
		"updated": "09/10/2009",
	},
	{
		"name": "UMPEW",
		"latitude": "39-54-42.64 N",
		"longitude": "93-27-12.63 W",
		"state": "MISSOURI",
		"artcc": "ZKC",
		"type": "RNAV",
		"updated": "05/14/2012",
	},
	{
		"name": "UMREW",
		"latitude": "39-20-15.94 N",
		"longitude": "94-41-32.39 W",
		"state": "MISSOURI",
		"artcc": "ZKC",
		"type": "RP",
		"updated": "DYH*LD*010.95/3.64",
	},
	{
		"name": "UNDUE",
		"latitude": "39-1-18.03 N",
		"longitude": "99-26-7.38 W",
		"state": "KANSAS",
		"artcc": "ZKC",
		"type": "WP",
		"updated": "HYS*VORTAC*314.50/12.80",
	},
	{
		"name": "UNEVE",
		"latitude": "39-15-1.67 N",
		"longitude": "89-26-2.68 W",
		"state": "ILLINOIS",
		"artcc": "ZKC",
		"type": "RNAV",
		"updated": "08/24/2005",
	},
	{
		"name": "UNHAF",
		"latitude": "36-48-21.04 N",
		"longitude": "94-44-19.94 W",
		"state": "OKLAHOMA",
		"artcc": "ZKC",
		"type": "RNAV",
		"updated": "07/17/2007",
	},
	{
		"name": "UNHIC",
		"latitude": "37-24-15.4 N",
		"longitude": "93-21-26.16 W",
		"state": "MISSOURI",
		"artcc": "ZKC",
		"type": "RNAV",
		"updated": "05/10/2007",
	},
	{
		"name": "UNIKY",
		"latitude": "37-44-56.01 N",
		"longitude": "98-6-27.84 W",
		"state": "KANSAS",
		"artcc": "ZKC",
		"type": "RNAV",
		"updated": "09/08/2003",
	},
	{
		"name": "UNITI",
		"latitude": "39-55-44.63 N",
		"longitude": "88-39-9.34 W",
		"state": "ILLINOIS",
		"artcc": "ZKC",
		"type": "RP",
		"updated": "MTO*VOR/DME*325.00",
	},
	{
		"name": "UNNAS",
		"latitude": "37-53-51.78 N",
		"longitude": "92-38-46.68 W",
		"state": "MISSOURI",
		"artcc": "ZKC",
		"type": "RNAV",
		"updated": "06/17/2013",
	},
	{
		"name": "UNOXY",
		"latitude": "38-38-12.1 N",
		"longitude": "94-59-53.17 W",
		"state": "KANSAS",
		"artcc": "ZKC",
		"type": "RNAV",
		"updated": "02/17/2006",
	},
	{
		"name": "UNROJ",
		"latitude": "39-3-27.64 N",
		"longitude": "88-29-35.73 W",
		"state": "ILLINOIS",
		"artcc": "ZKC",
		"type": "RNAV",
		"updated": "07/30/2013",
	},
	{
		"name": "UNUGE",
		"latitude": "35-42-50.49 N",
		"longitude": "96-25-20.24 W",
		"state": "OKLAHOMA",
		"artcc": "ZKC",
		"type": "RNAV",
		"updated": "02/17/2015",
	},
	{
		"name": "UNZAS",
		"latitude": "39-50-34.56 N",
		"longitude": "95-0-27.26 W",
		"state": "KANSAS",
		"artcc": "ZKC",
		"type": "RNAV",
		"updated": "10/31/2013",
	},
	{
		"name": "UPEZA",
		"latitude": "38-45-32.78 N",
		"longitude": "90-23-23.72 W",
		"state": "MISSOURI",
		"artcc": "ZKC",
		"type": "RNAV",
		"updated": "06/19/2000",
	},
	{
		"name": "UPICI",
		"latitude": "39-57-34.28 N",
		"longitude": "91-14-4.43 W",
		"state": "ILLINOIS",
		"artcc": "ZKC",
		"type": "RP",
		"updated": "UIN*VORTAC*012.00/7.00",
	},
	{
		"name": "UPIRE",
		"latitude": "37-26-5.16 N",
		"longitude": "101-32-32.37 W",
		"state": "KANSAS",
		"artcc": "ZKC",
		"type": "RP",
		"updated": "LBL*VORTAC*299.70/36.00",
	},
	{
		"name": "UQULO",
		"latitude": "38-43-53.86 N",
		"longitude": "88-57-48.3 W",
		"state": "ILLINOIS",
		"artcc": "ZKC",
		"type": "RNAV",
		"updated": "03/28/2013",
	},
	{
		"name": "URAVY",
		"latitude": "39-8-32.58 N",
		"longitude": "97-23-7.03 W",
		"state": "KANSAS",
		"artcc": "ZKC",
		"type": "RP",
		"updated": "SLN*VORTAC*033.21/17.07",
	},
	{
		"name": "URAYU",
		"latitude": "37-49-30.34 N",
		"longitude": "92-12-31.17 W",
		"state": "MISSOURI",
		"artcc": "ZKC",
		"type": "RNAV",
		"updated": "02/06/2006",
	},
	{
		"name": "UROYI",
		"latitude": "36-52-28.56 N",
		"longitude": "94-17-45.38 W",
		"state": "MISSOURI",
		"artcc": "ZKC",
		"type": "RP",
		"updated": "EOS*VOR/DME*066.98/7.00",
	},
	{
		"name": "URSAE",
		"latitude": "37-42-58.79 N",
		"longitude": "92-41-11.08 W",
		"state": "MISSOURI",
		"artcc": "ZKC",
		"type": "RNAV",
		"updated": "08/03/2015",
	},
	{
		"name": "USACE",
		"latitude": "39-54-10.96 N",
		"longitude": "95-27-14.86 W",
		"state": "KANSAS",
		"artcc": "ZKC",
		"type": "RNAV",
		"updated": "11/12/2014",
	},
	{
		"name": "USARE",
		"latitude": "37-1-32.14 N",
		"longitude": "91-53-59.36 W",
		"state": "MISSOURI",
		"artcc": "ZKC",
		"type": "RNAV",
		"updated": "11/16/2010",
	},
	{
		"name": "USIRE",
		"latitude": "39-50-23.04 N",
		"longitude": "89-40-39.06 W",
		"state": "ILLINOIS",
		"artcc": "ZKC",
		"type": "RNAV",
		"updated": "01/26/2015",
	},
	{
		"name": "USOCO",
		"latitude": "39-10-58.88 N",
		"longitude": "95-36-30.73 W",
		"state": "KANSAS",
		"artcc": "ZKC",
		"type": "RNAV",
		"updated": "08/05/2013",
	},
	{
		"name": "USOMY",
		"latitude": "37-28-37.86 N",
		"longitude": "97-18-33.95 W",
		"state": "KANSAS",
		"artcc": "ZKC",
		"type": "RNAV",
		"updated": "03/26/2010",
	},
	{
		"name": "USUCE",
		"latitude": "36-57-22.96 N",
		"longitude": "95-46-40.33 W",
		"state": "OKLAHOMA",
		"artcc": "ZKC",
		"type": "RNAV",
		"updated": "10/09/2008",
	},
	{
		"name": "UTEYI",
		"latitude": "39-22-58.7 N",
		"longitude": "98-7-29.23 W",
		"state": "KANSAS",
		"artcc": "ZKC",
		"type": "RNAV",
		"updated": "03/09/2009",
	},
	{
		"name": "UTINY",
		"latitude": "38-56-11.04 N",
		"longitude": "99-18-0.92 W",
		"state": "KANSAS",
		"artcc": "ZKC",
		"type": "RNAV",
		"updated": "08/12/2010",
	},
	{
		"name": "UTMIH",
		"latitude": "37-49-27.9 N",
		"longitude": "92-45-3.7 W",
		"state": "MISSOURI",
		"artcc": "ZKC",
		"type": "RNAV",
		"updated": "04/24/2001",
	},
	{
		"name": "UTUCO",
		"latitude": "38-42-34.53 N",
		"longitude": "99-27-25.27 W",
		"state": "KANSAS",
		"artcc": "ZKC",
		"type": "RNAV",
		"updated": "08/12/2010",
	},
	{
		"name": "UTUVE",
		"latitude": "39-10-9.39 N",
		"longitude": "99-18-33.78 W",
		"state": "KANSAS",
		"artcc": "ZKC",
		"type": "RNAV",
		"updated": "10/29/2013",
	},
	{
		"name": "UVCAP",
		"latitude": "36-53-50.86 N",
		"longitude": "101-28-45.49 W",
		"state": "OKLAHOMA",
		"artcc": "ZKC",
		"type": "RNAV",
		"updated": "11/07/2011",
	},
	{
		"name": "UVODE",
		"latitude": "40-28-30.63 N",
		"longitude": "92-54-40.37 W",
		"state": "MISSOURI",
		"artcc": "ZKC",
		"type": "RNAV",
		"updated": "04/04/2010",
	},
	{
		"name": "UVPOW",
		"latitude": "37-49-20.48 N",
		"longitude": "96-45-39.5 W",
		"state": "KANSAS",
		"artcc": "ZKC",
		"type": "RNAV",
		"updated": "01/30/2011",
	},
	{
		"name": "UWALE",
		"latitude": "37-24-12.77 N",
		"longitude": "89-29-2.34 W",
		"state": "MISSOURI",
		"artcc": "ZKC",
		"type": "RNAV",
		"updated": "04/23/2013",
	},
	{
		"name": "UWIRU",
		"latitude": "37-51-41.05 N",
		"longitude": "97-10-13.16 W",
		"state": "KANSAS",
		"artcc": "ZKC",
		"type": "RNAV",
		"updated": "09/09/2005",
	},
	{
		"name": "UWXIX",
		"latitude": "39-7-35.47 N",
		"longitude": "94-35-24.15 W",
		"state": "MISSOURI",
		"artcc": "ZKC",
		"type": "CN",
		"updated": "03/23/2012",
	},
	{
		"name": "UYADI",
		"latitude": "38-3-2.54 N",
		"longitude": "88-56-6.41 W",
		"state": "ILLINOIS",
		"artcc": "ZKC",
		"type": "RNAV",
		"updated": "05/06/2011",
	},
	{
		"name": "UYALE",
		"latitude": "37-14-13.78 N",
		"longitude": "100-51-9.08 W",
		"state": "KANSAS",
		"artcc": "ZKC",
		"type": "RNAV",
		"updated": "07/05/2007",
	},
	{
		"name": "UYAPI",
		"latitude": "39-48-11.42 N",
		"longitude": "91-1-3.89 W",
		"state": "ILLINOIS",
		"artcc": "ZKC",
		"type": "RNAV",
		"updated": "11/14/2008",
	},
	{
		"name": "UYIDI",
		"latitude": "38-44-38.16 N",
		"longitude": "90-23-16.99 W",
		"state": "MISSOURI",
		"artcc": "ZKC",
		"type": "RP",
		"updated": "JAK*LD*243.81/0.22",
	},
	{
		"name": "UYITO",
		"latitude": "38-39-25.83 N",
		"longitude": "90-0-33.99 W",
		"state": "ILLINOIS",
		"artcc": "ZKC",
		"type": "RP",
		"updated": "SKE*TACAN*314.13/10.00",
	},
	{
		"name": "UYUJA",
		"latitude": "36-58-24.9 N",
		"longitude": "92-41-13.1 W",
		"state": "MISSOURI",
		"artcc": "ZKC",
		"type": "RP",
		"updated": "DGD*VORTAC*107.19/9.61",
	},
	{
		"name": "UYUPE",
		"latitude": "36-34-18.16 N",
		"longitude": "99-11-38.46 W",
		"state": "OKLAHOMA",
		"artcc": "ZKC",
		"type": "RNAV",
		"updated": "09/20/2002",
	},
	{
		"name": "UYUPU",
		"latitude": "37-21-10.05 N",
		"longitude": "95-46-31.31 W",
		"state": "KANSAS",
		"artcc": "ZKC",
		"type": "RNAV",
		"updated": "10/06/2008",
	},
	{
		"name": "UYURO",
		"latitude": "38-38-47.2 N",
		"longitude": "92-0-29.48 W",
		"state": "MISSOURI",
		"artcc": "ZKC",
		"type": "RNAV",
		"updated": "01/03/2009",
	},
	{
		"name": "UZAYO",
		"latitude": "38-43-19.59 N",
		"longitude": "91-11-45.2 W",
		"state": "MISSOURI",
		"artcc": "ZKC",
		"type": "RNAV",
		"updated": "09/10/2007",
	},
	{
		"name": "UZOTY",
		"latitude": "38-57-34.9 N",
		"longitude": "91-59-48.26 W",
		"state": "MISSOURI",
		"artcc": "ZKC",
		"type": "RNAV",
		"updated": "07/28/2017",
	},
	{
		"name": "UZZUF",
		"latitude": "37-21-29.64 N",
		"longitude": "98-4-41.65 W",
		"state": "KANSAS",
		"artcc": "ZKC",
		"type": "RNAV",
		"updated": "04/05/2012",
	},
