	{
		"name": "YACKS",
		"latitude": "37-28-56.74 N",
		"longitude": "90-19-24.17 W",
		"state": "MISSOURI",
		"artcc": "ZKC",
		"type": "RNAV",
		"updated": "09/25/2012",
	},
	{
		"name": "YACUC",
		"latitude": "38-1-55.91 N",
		"longitude": "95-13-44.52 W",
		"state": "KANSAS",
		"artcc": "ZKC",
		"type": "RNAV",
		"updated": "01/03/2009",
	},
	{
		"name": "YADDI",
		"latitude": "38-59-53.99 N",
		"longitude": "90-39-56.71 W",
		"state": "ILLINOIS",
		"artcc": "ZKC",
		"type": "RNAV",
		"updated": "08/13/2012",
	},
	{
		"name": "YAKUN",
		"latitude": "39-0-46.24 N",
		"longitude": "91-51-27.66 W",
		"state": "MISSOURI",
		"artcc": "ZKC",
		"type": "RNAV",
		"updated": "02/12/2008",
	},
	{
		"name": "YAKUY",
		"latitude": "39-1-27.85 N",
		"longitude": "91-59-31.16 W",
		"state": "MISSOURI",
		"artcc": "ZKC",
		"type": "RNAV",
		"updated": "01/04/2009",
	},
	{
		"name": "YALUR",
		"latitude": "39-50-48.17 N",
		"longitude": "90-30-33.55 W",
		"state": "ILLINOIS",
		"artcc": "ZKC",
		"type": "RP",
		"updated": "SPI*VORTAC*271.89/38.43",
	},
	{
		"name": "YAMBO",
		"latitude": "38-28-5.71 N",
		"longitude": "92-10-16.45 W",
		"state": "MISSOURI",
		"artcc": "ZKC",
		"type": "CN",
		"updated": "12/04/2014",
	},
	{
		"name": "YANUK",
		"latitude": "38-8-31.01 N",
		"longitude": "100-52-8.3 W",
		"state": "KANSAS",
		"artcc": "ZKC",
		"type": "RP",
		"updated": "GCK*VORTAC*321.99/15.00",
	},
	{
		"name": "YAPUS",
		"latitude": "37-15-12.78 N",
		"longitude": "101-19-5.84 W",
		"state": "KANSAS",
		"artcc": "ZKC",
		"type": "RNAV",
		"updated": "05/07/2007",
	},
	{
		"name": "YARBU",
		"latitude": "36-18-7.75 N",
		"longitude": "101-8-16.73 W",
		"state": "TEXAS",
		"artcc": "ZKC",
		"type": "RNAV",
		"updated": "10/28/2008",
	},
	{
		"name": "YARNS",
		"latitude": "36-4-39.37 N",
		"longitude": "96-41-6.2 W",
		"state": "OKLAHOMA",
		"artcc": "ZKC",
		"type": "RP",
		"updated": "PER*VORTAC*144.00",
	},
	{
		"name": "YATGU",
		"latitude": "38-42-51.25 N",
		"longitude": "92-16-9.49 W",
		"state": "MISSOURI",
		"artcc": "ZKC",
		"type": "RP",
		"updated": "COU*LD*201.43/7.11",
	},
	{
		"name": "YAVOR",
		"latitude": "35-48-40.72 N",
		"longitude": "97-42-54.96 W",
		"state": "OKLAHOMA",
		"artcc": "ZKC",
		"type": "RNAV",
		"updated": "06/15/2011",
	},
	{
		"name": "YAVUG",
		"latitude": "38-3-1.74 N",
		"longitude": "92-44-10.88 W",
		"state": "MISSOURI",
		"artcc": "ZKC",
		"type": "RNAV",
		"updated": "06/17/2013",
	},
	{
		"name": "YAVUP",
		"latitude": "38-56-4.94 N",
		"longitude": "95-26-37.11 W",
		"state": "KANSAS",
		"artcc": "ZKC",
		"type": "RNAV",
		"updated": "10/23/2003",
	},
	{
		"name": "YAYLU",
		"latitude": "38-7-29.95 N",
		"longitude": "91-46-33.51 W",
		"state": "MISSOURI",
		"artcc": "ZKC",
		"type": "RP",
		"updated": "VIH*VOR/DME*236.00/3.71",
	},
	{
		"name": "YAYSU",
		"latitude": "39-30-52.82 N",
		"longitude": "88-23-30.78 W",
		"state": "ILLINOIS",
		"artcc": "ZKC",
		"type": "RNAV",
		"updated": "01/22/2016",
	},
	{
		"name": "YAYUL",
		"latitude": "37-43-27.54 N",
		"longitude": "97-24-18.33 W",
		"state": "KANSAS",
		"artcc": "ZKC",
		"type": "RNAV",
		"updated": "03/30/2015",
	},
	{
		"name": "YAZRI",
		"latitude": "38-36-28.82 N",
		"longitude": "90-12-14.99 W",
		"state": "MISSOURI",
		"artcc": "ZKC",
		"type": "RP",
		"updated": "STL*VORTAC*138.14/20.00",
	},
	{
		"name": "YEBUS",
		"latitude": "36-21-55.27 N",
		"longitude": "97-54-52.76 W",
		"state": "OKLAHOMA",
		"artcc": "ZKC",
		"type": "MR",
		"updated": "END*VORTAC*/1.23",
	},
	{
		"name": "YECUT",
		"latitude": "37-43-25.38 N",
		"longitude": "100-46-49.9 W",
		"state": "KANSAS",
		"artcc": "ZKC",
		"type": "RP",
		"updated": "GCK*VORTAC*181.71/12.00",
	},
	{
		"name": "YEGSA",
		"latitude": "39-2-20.98 N",
		"longitude": "92-15-19.21 W",
		"state": "MISSOURI",
		"artcc": "ZKC",
		"type": "RNAV",
		"updated": "07/28/2017",
	},
	{
		"name": "YEHTU",
		"latitude": "39-1-39.34 N",
		"longitude": "89-29-4.13 W",
		"state": "ILLINOIS",
		"artcc": "ZKC",
		"type": "RNAV",
		"updated": "12/31/2009",
	},
	{
		"name": "YEJUL",
		"latitude": "38-25-41.98 N",
		"longitude": "89-5-34.67 W",
		"state": "ILLINOIS",
		"artcc": "ZKC",
		"type": "RNAV",
		"updated": "04/25/2012",
	},
	{
		"name": "YEKNU",
		"latitude": "36-21-33.97 N",
		"longitude": "96-16-25.36 W",
		"state": "OKLAHOMA",
		"artcc": "ZKC",
		"type": "RNAV",
		"updated": "01/26/2009",
	},
	{
		"name": "YEKUL",
		"latitude": "37-58-27.06 N",
		"longitude": "90-25-30.27 W",
		"state": "MISSOURI",
		"artcc": "ZKC",
		"type": "RNAV",
		"updated": "08/11/2010",
	},
	{
		"name": "YEKUP",
		"latitude": "37-48-23.92 N",
		"longitude": "101-47-23.78 W",
		"state": "KANSAS",
		"artcc": "ZKC",
		"type": "RNAV",
		"updated": "07/22/2010",
	},
	{
		"name": "YELLU",
		"latitude": "38-17-19.84 N",
		"longitude": "100-46-34.79 W",
		"state": "KANSAS",
		"artcc": "ZKC",
		"type": "RNAV",
		"updated": "08/07/2006",
	},
	{
		"name": "YELOO",
		"latitude": "37-28-1.78 N",
		"longitude": "97-30-23.5 W",
		"state": "KANSAS",
		"artcc": "ZKC",
		"type": "RNAV",
		"updated": "09/21/2014",
	},
	{
		"name": "YEMBO",
		"latitude": "39-0-19.2 N",
		"longitude": "93-12-8.66 W",
		"state": "MISSOURI",
		"artcc": "ZKC",
		"type": "RNAV",
		"updated": "08/08/2011",
	},
	{
		"name": "YENVU",
		"latitude": "39-56-18.47 N",
		"longitude": "89-6-6.95 W",
		"state": "ILLINOIS",
		"artcc": "ZKC",
		"type": "RNAV",
		"updated": "01/04/2012",
	},
	{
		"name": "YEPUT",
		"latitude": "36-9-12.63 N",
		"longitude": "95-53-7.2 W",
		"state": "OKLAHOMA",
		"artcc": "ZKC",
		"type": "RP",
		"updated": "TUL*LD*180.09/3.80",
	},
	{
		"name": "YEPUY",
		"latitude": "38-17-59.02 N",
		"longitude": "92-21-14.42 W",
		"state": "MISSOURI",
		"artcc": "ZKC",
		"type": "RP",
		"updated": "SHY*VOR/DME*/19.48",
	},
	{
		"name": "YERPI",
		"latitude": "39-34-27.35 N",
		"longitude": "90-41-41.5 W",
		"state": "ILLINOIS",
		"artcc": "ZKC",
		"type": "RNAV",
		"updated": "02/04/2002",
	},
	{
		"name": "YERSU",
		"latitude": "36-41-51.56 N",
		"longitude": "93-50-33.28 W",
		"state": "MISSOURI",
		"artcc": "ZKC",
		"type": "RNAV",
		"updated": "06/24/2013",
	},
	{
		"name": "YERUL",
		"latitude": "38-55-38.89 N",
		"longitude": "90-3-24.68 W",
		"state": "ILLINOIS",
		"artcc": "ZKC",
		"type": "RNAV",
		"updated": "12/15/2011",
	},
	{
		"name": "YERUV",
		"latitude": "39-16-21.75 N",
		"longitude": "95-47-18.62 W",
		"state": "KANSAS",
		"artcc": "ZKC",
		"type": "RNAV",
		"updated": "08/07/2013",
	},
	{
		"name": "YESNU",
		"latitude": "39-0-11.39 N",
		"longitude": "92-7-26.8 W",
		"state": "MISSOURI",
		"artcc": "ZKC",
		"type": "RP",
		"updated": "COU*LD*021.44/11.50",
	},
	{
		"name": "YESUB",
		"latitude": "38-24-43.61 N",
		"longitude": "93-36-49.28 W",
		"state": "MISSOURI",
		"artcc": "ZKC",
		"type": "RNAV",
		"updated": "04/24/2013",
	},
	{
		"name": "YESUD",
		"latitude": "38-51-48.89 N",
		"longitude": "99-14-15.94 W",
		"state": "KANSAS",
		"artcc": "ZKC",
		"type": "RNAV",
		"updated": "08/12/2010",
	},
	{
		"name": "YESVO",
		"latitude": "38-45-21.25 N",
		"longitude": "90-22-28.74 W",
		"state": "MISSOURI",
		"artcc": "ZKC",
		"type": "RNAV",
		"updated": "06/19/2000",
	},
	{
		"name": "YETRU",
		"latitude": "38-6-28.94 N",
		"longitude": "98-13-3.92 W",
		"state": "KANSAS",
		"artcc": "ZKC",
		"type": "RP",
		"updated": "HUT*VOR/DME*292.45/15.00",
	},
	{
		"name": "YETUK",
		"latitude": "38-55-58 N",
		"longitude": "94-57-26.4 W",
		"state": "KANSAS",
		"artcc": "ZKC",
		"type": "RNAV",
		"updated": "03/06/2018",
	},
	{
		"name": "YEVMY",
		"latitude": "37-43-24.23 N",
		"longitude": "101-33-45.52 W",
		"state": "KANSAS",
		"artcc": "ZKC",
		"type": "RNAV",
		"updated": "03/26/2008",
	},
	{
		"name": "YEWTO",
		"latitude": "39-21-22.98 N",
		"longitude": "97-39-6.02 W",
		"state": "KANSAS",
		"artcc": "ZKC",
		"type": "RNAV",
		"updated": "01/31/2012",
	},
	{
		"name": "YEXIF",
		"latitude": "38-51-23.28 N",
		"longitude": "92-41-31.56 W",
		"state": "MISSOURI",
		"artcc": "ZKC",
		"type": "RNAV",
		"updated": "03/23/2007",
	},
	{
		"name": "YEYUK",
		"latitude": "39-45-51.35 N",
		"longitude": "97-2-50.8 W",
		"state": "KANSAS",
		"artcc": "ZKC",
		"type": "RNAV",
		"updated": "06/09/2014",
	},
	{
		"name": "YIBFO",
		"latitude": "39-4-7.72 N",
		"longitude": "89-18-30.92 W",
		"state": "ILLINOIS",
		"artcc": "ZKC",
		"type": "RP",
		"updated": "VLA*VORTAC*253.67/7.00",
	},
	{
		"name": "YICCU",
		"latitude": "38-49-55.58 N",
		"longitude": "92-12-36.84 W",
		"state": "MISSOURI",
		"artcc": "ZKC",
		"type": "RP",
		"updated": "COU*LD*021.44/0.48",
	},
	{
		"name": "YICHO",
		"latitude": "39-0-56.89 N",
		"longitude": "94-18-57.73 W",
		"state": "MISSOURI",
		"artcc": "ZKC",
		"type": "RNAV",
		"updated": "09/19/2014",
	},
	{
		"name": "YIGGO",
		"latitude": "38-48-49.02 N",
		"longitude": "90-33-17.4 W",
		"state": "MISSOURI",
		"artcc": "ZKC",
		"type": "RNAV",
		"updated": "10/15/2007",
	},
	{
		"name": "YIGPU",
		"latitude": "37-0-25.11 N",
		"longitude": "91-49-24.55 W",
		"state": "MISSOURI",
		"artcc": "ZKC",
		"type": "RNAV",
		"updated": "04/24/2013",
	},
	{
		"name": "YIGRE",
		"latitude": "40-4-52.89 N",
		"longitude": "93-22-49.42 W",
		"state": "MISSOURI",
		"artcc": "ZKC",
		"type": "RP",
		"updated": "IRK*VORTAC*259.19/36.45",
	},
	{
		"name": "YIJOY",
		"latitude": "37-42-11.93 N",
		"longitude": "91-37-44.39 W",
		"state": "MISSOURI",
		"artcc": "ZKC",
		"type": "RNAV",
		"updated": "05/01/2001",
	},
	{
		"name": "YIJVO",
		"latitude": "38-39-59.68 N",
		"longitude": "91-2-34.21 W",
		"state": "MISSOURI",
		"artcc": "ZKC",
		"type": "RNAV",
		"updated": "09/10/2007",
	},
	{
		"name": "YIKCU",
		"latitude": "37-22-51.83 N",
		"longitude": "95-30-23.69 W",
		"state": "KANSAS",
		"artcc": "ZKC",
		"type": "RNAV",
		"updated": "07/03/2008",
	},
	{
		"name": "YIKUY",
		"latitude": "38-9-30.84 N",
		"longitude": "93-40-58.74 W",
		"state": "MISSOURI",
		"artcc": "ZKC",
		"type": "RNAV",
		"updated": "02/21/2014",
	},
	{
		"name": "YINUG",
		"latitude": "38-2-23.74 N",
		"longitude": "97-49-56.74 W",
		"state": "KANSAS",
		"artcc": "ZKC",
		"type": "RNAV",
		"updated": "05/02/2012",
	},
	{
		"name": "YIPTU",
		"latitude": "40-8-20.57 N",
		"longitude": "91-5-36.83 W",
		"state": "ILLINOIS",
		"artcc": "ZKC",
		"type": "RNAV",
		"updated": "11/12/2008",
	},
	{
		"name": "YIPUS",
		"latitude": "39-58-31.7 N",
		"longitude": "91-14-19.11 W",
		"state": "ILLINOIS",
		"artcc": "ZKC",
		"type": "RNAV",
		"updated": "11/12/2008",
	},
	{
		"name": "YIRBU",
		"latitude": "38-32-48.33 N",
		"longitude": "89-5-28.43 W",
		"state": "ILLINOIS",
		"artcc": "ZKC",
		"type": "RNAV",
		"updated": "04/25/2012",
	},
	{
		"name": "YIRGU",
		"latitude": "37-6-10.43 N",
		"longitude": "95-46-37 W",
		"state": "KANSAS",
		"artcc": "ZKC",
		"type": "RNAV",
		"updated": "11/22/2017",
	},
	{
		"name": "YIRPU",
		"latitude": "36-54-16.7 N",
		"longitude": "92-36-17.44 W",
		"state": "MISSOURI",
		"artcc": "ZKC",
		"type": "RNAV",
		"updated": "02/22/2013",
	},
	{
		"name": "YISLU",
		"latitude": "39-11-5.2 N",
		"longitude": "93-11-54.78 W",
		"state": "MISSOURI",
		"artcc": "ZKC",
		"type": "RNAV",
		"updated": "10/31/2005",
	},
	{
		"name": "YITCU",
		"latitude": "39-27-52.42 N",
		"longitude": "88-14-19.48 W",
		"state": "ILLINOIS",
		"artcc": "ZKC",
		"type": "RNAV",
		"updated": "01/22/2016",
	},
	{
		"name": "YIVHE",
		"latitude": "36-5-36.76 N",
		"longitude": "95-53-21.55 W",
		"state": "OKLAHOMA",
		"artcc": "ZKC",
		"type": "RNAV",
		"updated": "07/09/2009",
	},
	{
		"name": "YIXER",
		"latitude": "39-0-43.91 N",
		"longitude": "94-6-28.38 W",
		"state": "MISSOURI",
		"artcc": "ZKC",
		"type": "RNAV",
		"updated": "09/19/2014",
	},
	{
		"name": "YLLOW",
		"latitude": "37-29-22.65 N",
		"longitude": "94-44-21.29 W",
		"state": "KANSAS",
		"artcc": "ZKC",
		"type": "RNAV",
		"updated": "11/30/2017",
	},
	{
		"name": "YOBUC",
		"latitude": "38-42-46.21 N",
		"longitude": "90-18-51.65 W",
		"state": "MISSOURI",
		"artcc": "ZKC",
		"type": "RNAV",
		"updated": "05/01/2006",
	},
	{
		"name": "YOBUL",
		"latitude": "36-10-24.56 N",
		"longitude": "97-47-28.05 W",
		"state": "OKLAHOMA",
		"artcc": "ZKC",
		"type": "RP",
		"updated": "ODG*VOR/DME*/12.00",
	},
	{
		"name": "YOCPU",
		"latitude": "38-45-8.44 N",
		"longitude": "93-48-30.99 W",
		"state": "MISSOURI",
		"artcc": "ZKC",
		"type": "RNAV",
		"updated": "02/25/2015",
	},
	{
		"name": "YOCUD",
		"latitude": "37-12-38.33 N",
		"longitude": "97-2-10.02 W",
		"state": "KANSAS",
		"artcc": "ZKC",
		"type": "RNAV",
		"updated": "09/11/2014",
	},
	{
		"name": "YODBU",
		"latitude": "38-53-42.06 N",
		"longitude": "96-58-41.6 W",
		"state": "KANSAS",
		"artcc": "ZKC",
		"type": "RNAV",
		"updated": "08/07/2013",
	},
	{
		"name": "YODNU",
		"latitude": "39-49-8.7 N",
		"longitude": "97-2-49.82 W",
		"state": "KANSAS",
		"artcc": "ZKC",
		"type": "RNAV",
		"updated": "06/09/2014",
	},
	{
		"name": "YOGYU",
		"latitude": "39-43-58.98 N",
		"longitude": "94-52-7.05 W",
		"state": "MISSOURI",
		"artcc": "ZKC",
		"type": "RNAV",
		"updated": "10/31/2013",
	},
	{
		"name": "YOHER",
		"latitude": "37-42-34.45 N",
		"longitude": "96-53-42.85 W",
		"state": "KANSAS",
		"artcc": "ZKC",
		"type": "RP",
		"updated": "ICT*VORTAC*086.52/32.85",
	},
	{
		"name": "YOHUP",
		"latitude": "38-23-22.85 N",
		"longitude": "100-53-1.23 W",
		"state": "KANSAS",
		"artcc": "ZKC",
		"type": "RNAV",
		"updated": "08/07/2006",
	},
	{
		"name": "YOJCO",
		"latitude": "39-9-12.37 N",
		"longitude": "92-39-39.55 W",
		"state": "MISSOURI",
		"artcc": "ZKC",
		"type": "RP",
		"updated": "HLV*VORTAC*269.66/24.99",
	},
	{
		"name": "YOKJU",
		"latitude": "37-39-37.77 N",
		"longitude": "97-14-3.33 W",
		"state": "KANSAS",
		"artcc": "ZKC",
		"type": "RNAV",
		"updated": "12/15/2004",
	},
	{
		"name": "YOKUD",
		"latitude": "37-39-25.17 N",
		"longitude": "97-13-27.76 W",
		"state": "KANSAS",
		"artcc": "ZKC",
		"type": "RNAV",
		"updated": "06/17/2013",
	},
	{
		"name": "YONVY",
		"latitude": "37-41-46.62 N",
		"longitude": "90-15-28.27 W",
		"state": "MISSOURI",
		"artcc": "ZKC",
		"type": "RNAV",
		"updated": "06/24/2013",
	},
	{
		"name": "YOPNU",
		"latitude": "39-52-25.6 N",
		"longitude": "88-57-2.19 W",
		"state": "ILLINOIS",
		"artcc": "ZKC",
		"type": "RNAV",
		"updated": "12/29/2011",
	},
	{
		"name": "YOPPS",
		"latitude": "39-38-52.56 N",
		"longitude": "92-29-41.58 W",
		"state": "MISSOURI",
		"artcc": "ZKC",
		"type": "RNAV",
		"updated": "02/18/2014",
	},
	{
		"name": "YOPZU",
		"latitude": "38-16-0.48 N",
		"longitude": "88-56-38.35 W",
		"state": "ILLINOIS",
		"artcc": "ZKC",
		"type": "RNAV",
		"updated": "10/15/2008",
	},
	{
		"name": "YOSDU",
		"latitude": "37-31-29.72 N",
		"longitude": "101-22-22.79 W",
		"state": "KANSAS",
		"artcc": "ZKC",
		"type": "RNAV",
		"updated": "06/22/2005",
	},
	{
		"name": "YOSUP",
		"latitude": "37-56-53.69 N",
		"longitude": "88-54-45.64 W",
		"state": "ILLINOIS",
		"artcc": "ZKC",
		"type": "RNAV",
		"updated": "09/18/2012",
	},
	{
		"name": "YOVNU",
		"latitude": "39-30-33 N",
		"longitude": "94-38-29.12 W",
		"state": "MISSOURI",
		"artcc": "ZKC",
		"type": "RP",
		"updated": "DYH*LD*010.95/14.18",
	},
	{
		"name": "YOVSU",
		"latitude": "36-24-14.06 N",
		"longitude": "101-18-31.11 W",
		"state": "TEXAS",
		"artcc": "ZKC",
		"type": "RNAV",
		"updated": "10/20/2011",
	},
	{
		"name": "YOZKY",
		"latitude": "37-2-53.21 N",
		"longitude": "92-46-10.41 W",
		"state": "MISSOURI",
		"artcc": "ZKC",
		"type": "RNAV",
		"updated": "02/22/2013",
	},
	{
		"name": "YUCBI",
		"latitude": "38-23-29.2 N",
		"longitude": "88-45-17.79 W",
		"state": "ILLINOIS",
		"artcc": "ZKC",
		"type": "RNAV",
		"updated": "10/20/2008",
	},
	{
		"name": "YUCUG",
		"latitude": "36-8-44.32 N",
		"longitude": "100-40-6.56 W",
		"state": "TEXAS",
		"artcc": "ZKC",
		"type": "RNAV",
		"updated": "06/20/2013",
	},
	{
		"name": "YUCUK",
		"latitude": "38-25-7.22 N",
		"longitude": "99-1-28.45 W",
		"state": "KANSAS",
		"artcc": "ZKC",
		"type": "RNAV",
		"updated": "10/06/2008",
	},
	{
		"name": "YUGTU",
		"latitude": "37-41-58.6 N",
		"longitude": "94-28-1.21 W",
		"state": "MISSOURI",
		"artcc": "ZKC",
		"type": "RP",
		"updated": "BUM*VORTAC*171.31/34.32",
	},
	{
		"name": "YUGUG",
		"latitude": "38-52-19.8 N",
		"longitude": "98-48-40.7 W",
		"state": "KANSAS",
		"artcc": "ZKC",
		"type": "RP",
		"updated": "HYS*VORTAC*076.00/21.86",
	},
	{
		"name": "YUHAX",
		"latitude": "37-14-48.9 N",
		"longitude": "94-29-37.89 W",
		"state": "MISSOURI",
		"artcc": "ZKC",
		"type": "RP",
		"updated": "JQX*LD*357.96/6.23",
	},
	{
		"name": "YUING",
		"latitude": "38-50-51.29 N",
		"longitude": "95-11-57.43 W",
		"state": "KANSAS",
		"artcc": "ZKC",
		"type": "RNAV",
		"updated": "09/09/2011",
	},
	{
		"name": "YUKON",
		"latitude": "40-12-58.76 N",
		"longitude": "91-40-31.77 W",
		"state": "MISSOURI",
		"artcc": "ZKC",
		"type": "RNAV",
		"updated": "07/31/2006",
	},
	{
		"name": "YULUD",
		"latitude": "39-33-45.83 N",
		"longitude": "98-7-44.68 W",
		"state": "KANSAS",
		"artcc": "ZKC",
		"type": "RNAV",
		"updated": "03/09/2009",
	},
	{
		"name": "YUNNY",
		"latitude": "40-2-33.21 N",
		"longitude": "91-40-51.69 W",
		"state": "MISSOURI",
		"artcc": "ZKC",
		"type": "RNAV",
		"updated": "07/31/2006",
	},
	{
		"name": "YUNRU",
		"latitude": "38-4-2.92 N",
		"longitude": "91-51-11.63 W",
		"state": "MISSOURI",
		"artcc": "ZKC",
		"type": "RNAV",
		"updated": "08/16/2010",
	},
	{
		"name": "YUNUP",
		"latitude": "37-9-11.2 N",
		"longitude": "101-7-45.31 W",
		"state": "KANSAS",
		"artcc": "ZKC",
		"type": "RP",
		"updated": "LBL*VORTAC*299.70/10.00",
	},
	{
		"name": "YUPUD",
		"latitude": "36-7-55.15 N",
		"longitude": "97-20-52.36 W",
		"state": "OKLAHOMA",
		"artcc": "ZKC",
		"type": "RNAV",
		"updated": "05/02/2011",
	},
	{
		"name": "YUPUN",
		"latitude": "37-38-4.83 N",
		"longitude": "93-20-46.19 W",
		"state": "MISSOURI",
		"artcc": "ZKC",
		"type": "RNAV",
		"updated": "05/10/2007",
	},
	{
		"name": "YURGE",
		"latitude": "37-34-49.18 N",
		"longitude": "90-31-43.05 W",
		"state": "MISSOURI",
		"artcc": "ZKC",
		"type": "RNAV",
		"updated": "08/11/2010",
	},
	{
		"name": "YURWU",
		"latitude": "38-45-4.3 N",
		"longitude": "99-14-50.03 W",
		"state": "KANSAS",
		"artcc": "ZKC",
		"type": "RNAV",
		"updated": "08/12/2010",
	},
	{
		"name": "YUXID",
		"latitude": "37-31-41.84 N",
		"longitude": "91-34-48.93 W",
		"state": "MISSOURI",
		"artcc": "ZKC",
		"type": "RNAV",
		"updated": "04/30/2001",
	},
	{
		"name": "YUXTI",
		"latitude": "37-30-53.41 N",
		"longitude": "90-19-1.45 W",
		"state": "MISSOURI",
		"artcc": "ZKC",
		"type": "RNAV",
		"updated": "06/24/2013",
	},
