	{
		"name": "ZABAD",
		"latitude": "38-57-59.04 N",
		"longitude": "93-59-35.73 W",
		"state": "MISSOURI",
		"artcc": "ZKC",
		"type": "RP",
		"updated": "ANX*VORTAC*133.62/10.00",
	},
	{
		"name": "ZABEK",
		"latitude": "39-18-14.96 N",
		"longitude": "98-47-50.13 W",
		"state": "KANSAS",
		"artcc": "ZKC",
		"type": "RP",
		"updated": "TKO*VORTAC*209.80/39.45",
	},
	{
		"name": "ZABOG",
		"latitude": "38-46-3.25 N",
		"longitude": "94-16-54.4 W",
		"state": "MISSOURI",
		"artcc": "ZKC",
		"type": "RNAV",
		"updated": "07/11/2007",
	},
	{
		"name": "ZABOL",
		"latitude": "38-1-50.32 N",
		"longitude": "100-43-19.1 W",
		"state": "KANSAS",
		"artcc": "ZKC",
		"type": "RNAV",
		"updated": "05/07/2007",
	},
	{
		"name": "ZADGU",
		"latitude": "38-55-35.45 N",
		"longitude": "94-39-14.29 W",
		"state": "KANSAS",
		"artcc": "ZKC",
		"type": "RNAV",
		"updated": "03/08/2012",
	},
	{
		"name": "ZADKU",
		"latitude": "36-24-33.81 N",
		"longitude": "98-13-3.05 W",
		"state": "OKLAHOMA",
		"artcc": "ZKC",
		"type": "MR",
		"updated": "END*VORTAC*280.00/15.00",
	},
	{
		"name": "ZADNO",
		"latitude": "36-22-22.37 N",
		"longitude": "96-4-4.87 W",
		"state": "OKLAHOMA",
		"artcc": "ZKC",
		"type": "RNAV",
		"updated": "01/26/2009",
	},
	{
		"name": "ZAGDA",
		"latitude": "37-43-50.45 N",
		"longitude": "89-14-58.16 W",
		"state": "ILLINOIS",
		"artcc": "ZKC",
		"type": "RNAV",
		"updated": "12/09/2009",
	},
	{
		"name": "ZAGRI",
		"latitude": "39-16-55.11 N",
		"longitude": "94-19-3.97 W",
		"state": "MISSOURI",
		"artcc": "ZKC",
		"type": "RNAV",
		"updated": "07/14/2008",
	},
	{
		"name": "ZAGUK",
		"latitude": "39-26-2.4 N",
		"longitude": "88-22-42.96 W",
		"state": "ILLINOIS",
		"artcc": "ZKC",
		"type": "RNAV",
		"updated": "01/22/2016",
	},
	{
		"name": "ZAKAD",
		"latitude": "37-38-18.63 N",
		"longitude": "97-13-1.49 W",
		"state": "KANSAS",
		"artcc": "ZKC",
		"type": "RP",
		"updated": "ICT*VORTAC*103.00/18.60",
	},
	{
		"name": "ZAKAS",
		"latitude": "36-48-32.21 N",
		"longitude": "101-59-20.1 W",
		"state": "OKLAHOMA",
		"artcc": "ZKC",
		"type": "RNAV",
		"updated": "03/28/2010",
	},
	{
		"name": "ZAKIP",
		"latitude": "38-6-6.01 N",
		"longitude": "91-25-28.96 W",
		"state": "MISSOURI",
		"artcc": "ZKC",
		"type": "RNAV",
		"updated": "11/15/2010",
	},
	{
		"name": "ZAKMI",
		"latitude": "40-28-28.07 N",
		"longitude": "91-10-18.68 W",
		"state": "ILLINOIS",
		"artcc": "ZKC",
		"type": "RNAV",
		"updated": "07/27/2006",
	},
	{
		"name": "ZALER",
		"latitude": "37-20-59.42 N",
		"longitude": "94-35-38.45 W",
		"state": "MISSOURI",
		"artcc": "ZKC",
		"type": "RNAV",
		"updated": "06/20/2005",
	},
	{
		"name": "ZALIK",
		"latitude": "36-43-53.6 N",
		"longitude": "100-28-46.57 W",
		"state": "OKLAHOMA",
		"artcc": "ZKC",
		"type": "RP",
		"updated": "LBL*VORTAC*117.24/30.19",
	},
	{
		"name": "ZALTA",
		"latitude": "39-36-56.44 N",
		"longitude": "95-11-19.13 W",
		"state": "KANSAS",
		"artcc": "ZKC",
		"type": "RP",
		"updated": "MCI*VORTAC*308.48",
	},
	{
		"name": "ZAMEV",
		"latitude": "37-14-48.42 N",
		"longitude": "93-20-8.75 W",
		"state": "MISSOURI",
		"artcc": "ZKC",
		"type": "RNAV",
		"updated": "11/03/2015",
	},
	{
		"name": "ZAMPO",
		"latitude": "38-39-40.85 N",
		"longitude": "100-18-54.55 W",
		"state": "KANSAS",
		"artcc": "ZKC",
		"type": "RP",
		"updated": "HYS*VORTAC*247.42/50.00",
	},
	{
		"name": "ZAMSA",
		"latitude": "35-41-25.99 N",
		"longitude": "97-15-25.06 W",
		"state": "OKLAHOMA",
		"artcc": "ZKC",
		"type": "RNAV",
		"updated": "06/13/2008",
	},
	{
		"name": "ZAMYU",
		"latitude": "37-41-54.84 N",
		"longitude": "101-22-28.56 W",
		"state": "KANSAS",
		"artcc": "ZKC",
		"type": "RNAV",
		"updated": "06/22/2005",
	},
	{
		"name": "ZANGA",
		"latitude": "38-30-53.85 N",
		"longitude": "93-10-47.86 W",
		"state": "MISSOURI",
		"artcc": "ZKC",
		"type": "RNAV",
		"updated": "05/31/2005",
	},
	{
		"name": "ZANGO",
		"latitude": "38-53-12.15 N",
		"longitude": "91-54-39.99 W",
		"state": "MISSOURI",
		"artcc": "ZKC",
		"type": "RNAV",
		"updated": "02/12/2008",
	},
	{
		"name": "ZANOG",
		"latitude": "36-29-27.67 N",
		"longitude": "101-22-11.16 W",
		"state": "TEXAS",
		"artcc": "ZKC",
		"type": "RNAV",
		"updated": "10/20/2011",
	},
	{
		"name": "ZANPU",
		"latitude": "39-37-31.18 N",
		"longitude": "97-40-0.86 W",
		"state": "KANSAS",
		"artcc": "ZKC",
		"type": "RNAV",
		"updated": "09/09/2011",
	},
	{
		"name": "ZANRA",
		"latitude": "39-46-22.74 N",
		"longitude": "89-45-36.01 W",
		"state": "ILLINOIS",
		"artcc": "ZKC",
		"type": "RP",
		"updated": "SPI*VORTAC*224.57/5.52",
	},
	{
		"name": "ZAPAP",
		"latitude": "37-5-56.41 N",
		"longitude": "100-57-23.57 W",
		"state": "KANSAS",
		"artcc": "ZKC",
		"type": "RNAV",
		"updated": "07/05/2007",
	},
	{
		"name": "ZARDA",
		"latitude": "38-22-38.06 N",
		"longitude": "88-12-23.33 W",
		"state": "ILLINOIS",
		"artcc": "ZKC",
		"type": "RP",
		"updated": "ENL*VORTAC*088.97/45.00",
	},
	{
		"name": "ZARIR",
		"latitude": "39-40-14.43 N",
		"longitude": "88-24-30.27 W",
		"state": "ILLINOIS",
		"artcc": "ZKC",
		"type": "RP",
		"updated": "MTO*VOR/DME*330.87",
	},
	{
		"name": "ZARUB",
		"latitude": "38-25-1.53 N",
		"longitude": "92-34-7.52 W",
		"state": "MISSOURI",
		"artcc": "ZKC",
		"type": "RNAV",
		"updated": "05/31/2012",
	},
	{
		"name": "ZASBO",
		"latitude": "39-27-29.27 N",
		"longitude": "94-39-23.79 W",
		"state": "MISSOURI",
		"artcc": "ZKC",
		"type": "RP",
		"updated": "DYH*LD*010.95/11.04",
	},
	{
		"name": "ZASOB",
		"latitude": "39-35-14.62 N",
		"longitude": "97-39-12.77 W",
		"state": "KANSAS",
		"artcc": "ZKC",
		"type": "RNAV",
		"updated": "01/31/2012",
	},
	{
		"name": "ZATEB",
		"latitude": "36-32-7.61 N",
		"longitude": "94-13-3.53 W",
		"state": "MISSOURI",
		"artcc": "ZKC",
		"type": "RNAV",
		"updated": "10/24/2012",
	},
	{
		"name": "ZATUD",
		"latitude": "38-6-34.79 N",
		"longitude": "90-39-12.93 W",
		"state": "MISSOURI",
		"artcc": "ZKC",
		"type": "RNAV",
		"updated": "01/21/2011",
	},
	{
		"name": "ZATUL",
		"latitude": "38-34-43.83 N",
		"longitude": "89-48-15.35 W",
		"state": "ILLINOIS",
		"artcc": "ZKC",
		"type": "RP",
		"updated": "SKE*TACAN*050.00/3.00",
	},
	{
		"name": "ZATUX",
		"latitude": "37-18-54.25 N",
		"longitude": "101-10-4.35 W",
		"state": "KANSAS",
		"artcc": "ZKC",
		"type": "RNAV",
		"updated": "05/07/2007",
	},
	{
		"name": "ZAVEK",
		"latitude": "37-14-13.37 N",
		"longitude": "100-57-24.76 W",
		"state": "KANSAS",
		"artcc": "ZKC",
		"type": "RNAV",
		"updated": "07/05/2007",
	},
	{
		"name": "ZAVEN",
		"latitude": "39-40-17.14 N",
		"longitude": "89-58-19.42 W",
		"state": "ILLINOIS",
		"artcc": "ZKC",
		"type": "RP",
		"updated": "SPI*VORTAC*234.56/16.95",
	},
	{
		"name": "ZAVGU",
		"latitude": "38-32-12.23 N",
		"longitude": "89-50-32.96 W",
		"state": "ILLINOIS",
		"artcc": "ZKC",
		"type": "RP",
		"updated": "SKE*TACAN*142.20/0.67",
	},
	{
		"name": "ZAXUV",
		"latitude": "39-45-47.45 N",
		"longitude": "92-26-28.06 W",
		"state": "MISSOURI",
		"artcc": "ZKC",
		"type": "RNAV",
		"updated": "02/18/2014",
	},
	{
		"name": "ZEBEK",
		"latitude": "35-56-21.3 N",
		"longitude": "96-0-54.76 W",
		"state": "OKLAHOMA",
		"artcc": "ZKC",
		"type": "RNAV",
		"updated": "01/24/2017",
	},
	{
		"name": "ZEBRE",
		"latitude": "39-26-34.88 N",
		"longitude": "88-10-23.32 W",
		"state": "ILLINOIS",
		"artcc": "ZKC",
		"type": "RP",
		"updated": "MTO*VOR/DME*108.75/5.65",
	},
	{
		"name": "ZEBRI",
		"latitude": "38-58-47.57 N",
		"longitude": "92-8-9.09 W",
		"state": "MISSOURI",
		"artcc": "ZKC",
		"type": "RP",
		"updated": "COU*LD*021.44/10.00",
	},
	{
		"name": "ZEBTA",
		"latitude": "39-1-42.07 N",
		"longitude": "89-16-14.19 W",
		"state": "ILLINOIS",
		"artcc": "ZKC",
		"type": "RNAV",
		"updated": "12/31/2009",
	},
	{
		"name": "ZEBUT",
		"latitude": "37-7-52.86 N",
		"longitude": "97-16-54.24 W",
		"state": "KANSAS",
		"artcc": "ZKC",
		"type": "RNAV",
		"updated": "08/09/2007",
	},
	{
		"name": "ZEDAK",
		"latitude": "37-19-14.4 N",
		"longitude": "93-27-54.15 W",
		"state": "MISSOURI",
		"artcc": "ZKC",
		"type": "RNAV",
		"updated": "05/02/2011",
	},
	{
		"name": "ZEDDI",
		"latitude": "37-25-43.75 N",
		"longitude": "94-14-42.05 W",
		"state": "MISSOURI",
		"artcc": "ZKC",
		"type": "RP",
		"updated": "SGF*VORTAC*272.00/43.78",
	},
	{
		"name": "ZEDUD",
		"latitude": "38-51-54.21 N",
		"longitude": "97-14-9.29 W",
		"state": "KANSAS",
		"artcc": "ZKC",
		"type": "RNAV",
		"updated": "08/07/2013",
	},
	{
		"name": "ZEGAP",
		"latitude": "39-10-43.94 N",
		"longitude": "94-34-36.42 W",
		"state": "MISSOURI",
		"artcc": "ZKC",
		"type": "RNAV",
		"updated": "06/30/2017",
	},
	{
		"name": "ZEGAT",
		"latitude": "37-10-17.93 N",
		"longitude": "93-17-7.75 W",
		"state": "MISSOURI",
		"artcc": "ZKC",
		"type": "RNAV",
		"updated": "06/09/2015",
	},
	{
		"name": "ZEGNI",
		"latitude": "38-10-35.91 N",
		"longitude": "98-5-16.08 W",
		"state": "KANSAS",
		"artcc": "ZKC",
		"type": "RP",
		"updated": "HUT*VOR/DME*322.00/13.00",
	},
	{
		"name": "ZEKUP",
		"latitude": "35-37-51.78 N",
		"longitude": "97-38-57.1 W",
		"state": "OKLAHOMA",
		"artcc": "ZKC",
		"type": "RNAV",
		"updated": "08/03/2015",
	},
	{
		"name": "ZELOB",
		"latitude": "37-27-46.24 N",
		"longitude": "97-5-49.07 W",
		"state": "KANSAS",
		"artcc": "ZKC",
		"type": "RNAV",
		"updated": "12/14/2011",
	},
	{
		"name": "ZEMAX",
		"latitude": "36-42-53.14 N",
		"longitude": "93-22-24.66 W",
		"state": "MISSOURI",
		"artcc": "ZKC",
		"type": "RNAV",
		"updated": "06/09/2015",
	},
	{
		"name": "ZEMGU",
		"latitude": "35-34-1.79 N",
		"longitude": "97-36-17.2 W",
		"state": "OKLAHOMA",
		"artcc": "ZKC",
		"type": "MR",
		"updated": "IRW*VORTAC*354.00",
	},
	{
		"name": "ZENDA",
		"latitude": "37-20-30.02 N",
		"longitude": "98-15-5.38 W",
		"state": "KANSAS",
		"artcc": "ZKC",
		"type": "RP",
		"updated": "ANY*VORTAC*333.57",
	},
	{
		"name": "ZENIS",
		"latitude": "38-55-21.58 N",
		"longitude": "91-59-46.92 W",
		"state": "MISSOURI",
		"artcc": "ZKC",
		"type": "RNAV",
		"updated": "01/04/2009",
	},
	{
		"name": "ZENOS",
		"latitude": "38-12-46.14 N",
		"longitude": "98-1-40.4 W",
		"state": "KANSAS",
		"artcc": "ZKC",
		"type": "RNAV",
		"updated": "09/16/2008",
	},
	{
		"name": "ZERES",
		"latitude": "37-23-49.69 N",
		"longitude": "94-17-31.87 W",
		"state": "MISSOURI",
		"artcc": "ZKC",
		"type": "RNAV",
		"updated": "03/21/2014",
	},
	{
		"name": "ZEROJ",
		"latitude": "38-12-14.82 N",
		"longitude": "89-50-27.98 W",
		"state": "ILLINOIS",
		"artcc": "ZKC",
		"type": "RP",
		"updated": "CSX*VOR/DME*143.16/41.00",
	},
	{
		"name": "ZESAB",
		"latitude": "39-21-5.4 N",
		"longitude": "94-42-43.64 W",
		"state": "MISSOURI",
		"artcc": "ZKC",
		"type": "RP",
		"updated": "PAJ*LD*010.93/3.76",
	},
	{
		"name": "ZESIR",
		"latitude": "39-15-53.67 N",
		"longitude": "95-26-43.02 W",
		"state": "KANSAS",
		"artcc": "ZKC",
		"type": "RNAV",
		"updated": "08/07/2013",
	},
	{
		"name": "ZESUR",
		"latitude": "40-18-12.45 N",
		"longitude": "92-25-58.98 W",
		"state": "MISSOURI",
		"artcc": "ZKC",
		"type": "RNAV",
		"updated": "04/13/2006",
	},
	{
		"name": "ZETGO",
		"latitude": "38-39-12.04 N",
		"longitude": "90-10-32.6 W",
		"state": "ILLINOIS",
		"artcc": "ZKC",
		"type": "RNAV",
		"updated": "05/10/2011",
	},
	{
		"name": "ZEVED",
		"latitude": "38-56-41.11 N",
		"longitude": "94-19-45.31 W",
		"state": "MISSOURI",
		"artcc": "ZKC",
		"type": "RNAV",
		"updated": "03/23/2012",
	},
	{
		"name": "ZEVNA",
		"latitude": "37-49-59.87 N",
		"longitude": "92-9-18.9 W",
		"state": "MISSOURI",
		"artcc": "ZKC",
		"type": "RNAV",
		"updated": "06/09/2015",
	},
	{
		"name": "ZEVNI",
		"latitude": "38-49-11.76 N",
		"longitude": "93-47-46.7 W",
		"state": "MISSOURI",
		"artcc": "ZKC",
		"type": "RNAV",
		"updated": "02/25/2015",
	},
	{
		"name": "ZEXAR",
		"latitude": "37-23-43.52 N",
		"longitude": "96-55-7.06 W",
		"state": "KANSAS",
		"artcc": "ZKC",
		"type": "RNAV",
		"updated": "09/11/2014",
	},
	{
		"name": "ZEXUL",
		"latitude": "39-49-12.37 N",
		"longitude": "94-54-24.88 W",
		"state": "KANSAS",
		"artcc": "ZKC",
		"type": "RNAV",
		"updated": "10/31/2013",
	},
	{
		"name": "ZIBMO",
		"latitude": "37-36-14.03 N",
		"longitude": "94-34-3.27 W",
		"state": "MISSOURI",
		"artcc": "ZKC",
		"type": "RNAV",
		"updated": "07/20/2012",
	},
	{
		"name": "ZIBRU",
		"latitude": "38-15-35.42 N",
		"longitude": "93-40-44.17 W",
		"state": "MISSOURI",
		"artcc": "ZKC",
		"type": "RNAV",
		"updated": "02/21/2014",
	},
	{
		"name": "ZICRE",
		"latitude": "40-27-37.97 N",
		"longitude": "93-47-52.1 W",
		"state": "MISSOURI",
		"artcc": "ZKC",
		"type": "RNAV",
		"updated": "12/04/2000",
	},
	{
		"name": "ZIDIB",
		"latitude": "38-54-16.73 N",
		"longitude": "98-6-42.35 W",
		"state": "KANSAS",
		"artcc": "ZKC",
		"type": "RP",
		"updated": "SLN*VORTAC*260.09/23.00",
	},
	{
		"name": "ZIDLI",
		"latitude": "40-2-4.93 N",
		"longitude": "91-12-2.22 W",
		"state": "ILLINOIS",
		"artcc": "ZKC",
		"type": "RNAV",
		"updated": "11/14/2008",
	},
	{
		"name": "ZIDRO",
		"latitude": "35-59-3.44 N",
		"longitude": "96-0-7.51 W",
		"state": "OKLAHOMA",
		"artcc": "ZKC",
		"type": "RP",
		"updated": "GNP*VOR/DME*330.80",
	},
	{
		"name": "ZIDVU",
		"latitude": "37-44-23.98 N",
		"longitude": "97-23-52.43 W",
		"state": "KANSAS",
		"artcc": "ZKC",
		"type": "RNAV",
		"updated": "03/30/2015",
	},
	{
		"name": "ZIGNI",
		"latitude": "40-3-4.48 N",
		"longitude": "95-34-13.19 W",
		"state": "NEBRASKA",
		"artcc": "ZKC",
		"type": "RNAV",
		"updated": "11/06/2014",
	},
	{
		"name": "ZIGUG",
		"latitude": "36-5-52.4 N",
		"longitude": "100-9-33.74 W",
		"state": "TEXAS",
		"artcc": "ZKC",
		"type": "RNAV",
		"updated": "10/09/2014",
	},
	{
		"name": "ZIKTO",
		"latitude": "37-33-59.03 N",
		"longitude": "90-18-0.99 W",
		"state": "MISSOURI",
		"artcc": "ZKC",
		"type": "RNAV",
		"updated": "06/24/2013",
	},
	{
		"name": "ZIKUB",
		"latitude": "38-53-3.62 N",
		"longitude": "95-33-41.97 W",
		"state": "KANSAS",
		"artcc": "ZKC",
		"type": "MR",
		"updated": "FOE*TACAN*124.00/6.00",
	},
	{
		"name": "ZILCH",
		"latitude": "37-42-17.18 N",
		"longitude": "100-36-28.13 W",
		"state": "KANSAS",
		"artcc": "ZKC",
		"type": "RP",
		"updated": "GCK*VORTAC*145.50/14.00",
	},
	{
		"name": "ZILGU",
		"latitude": "39-37-10.55 N",
		"longitude": "96-38-25.06 W",
		"state": "KANSAS",
		"artcc": "ZKC",
		"type": "RNAV",
		"updated": "01/30/2011",
	},
	{
		"name": "ZILNI",
		"latitude": "36-47-48.32 N",
		"longitude": "93-21-22.39 W",
		"state": "MISSOURI",
		"artcc": "ZKC",
		"type": "RNAV",
		"updated": "01/04/2011",
	},
	{
		"name": "ZIMES",
		"latitude": "37-10-51.2 N",
		"longitude": "93-24-52.98 W",
		"state": "MISSOURI",
		"artcc": "ZKC",
		"type": "RP",
		"updated": "SGF*VORTAC*196.24/11.18",
	},
	{
		"name": "ZIMEX",
		"latitude": "37-49-44.28 N",
		"longitude": "97-41-59.76 W",
		"state": "KANSAS",
		"artcc": "ZKC",
		"type": "RP",
		"updated": "HUT*VOR/DME*128.08/15.00",
	},
	{
		"name": "ZIMID",
		"latitude": "37-3-30.7 N",
		"longitude": "95-46-38.01 W",
		"state": "KANSAS",
		"artcc": "ZKC",
		"type": "RNAV",
		"updated": "11/22/2017",
	},
	{
		"name": "ZIMLI",
		"latitude": "37-36-40.49 N",
		"longitude": "91-54-37.24 W",
		"state": "MISSOURI",
		"artcc": "ZKC",
		"type": "RNAV",
		"updated": "02/06/2006",
	},
	{
		"name": "ZIMOK",
		"latitude": "39-44-40.62 N",
		"longitude": "91-5-40.96 W",
		"state": "ILLINOIS",
		"artcc": "ZKC",
		"type": "RNAV",
		"updated": "11/14/2008",
	},
	{
		"name": "ZIMTO",
		"latitude": "37-37-26 N",
		"longitude": "93-26-2.7 W",
		"state": "MISSOURI",
		"artcc": "ZKC",
		"type": "RNAV",
		"updated": "08/03/2015",
	},
	{
		"name": "ZIMUN",
		"latitude": "38-22-0.27 N",
		"longitude": "88-23-58.45 W",
		"state": "ILLINOIS",
		"artcc": "ZKC",
		"type": "RP",
		"updated": "PXV*VORTAC*308.26/40.00",
	},
	{
		"name": "ZINKI",
		"latitude": "38-25-54.98 N",
		"longitude": "90-21-24.54 W",
		"state": "MISSOURI",
		"artcc": "ZKC",
		"type": "RNAV",
		"updated": "09/09/2005",
	},
	{
		"name": "ZINOB",
		"latitude": "39-51-34.66 N",
		"longitude": "88-48-13.94 W",
		"state": "ILLINOIS",
		"artcc": "ZKC",
		"type": "RNAV",
		"updated": "01/12/2016",
	},
	{
		"name": "ZINUR",
		"latitude": "39-41-34.26 N",
		"longitude": "96-22-13.04 W",
		"state": "KANSAS",
		"artcc": "ZKC",
		"type": "RP",
		"updated": "PWE*VORTAC*189.02/31.35",
	},
	{
		"name": "ZIPUR",
		"latitude": "38-25-14.65 N",
		"longitude": "91-49-21.82 W",
		"state": "MISSOURI",
		"artcc": "ZKC",
		"type": "RP",
		"updated": "VIH*VOR/DME*335.12/16.90",
	},
	{
		"name": "ZIRAM",
		"latitude": "38-52-57.65 N",
		"longitude": "91-59-53.1 W",
		"state": "MISSOURI",
		"artcc": "ZKC",
		"type": "RNAV",
		"updated": "01/04/2009",
	},
	{
		"name": "ZISAB",
		"latitude": "37-58-3.21 N",
		"longitude": "90-42-53.86 W",
		"state": "MISSOURI",
		"artcc": "ZKC",
		"type": "RNAV",
		"updated": "01/21/2011",
	},
	{
		"name": "ZISDA",
		"latitude": "38-51-50.24 N",
		"longitude": "98-58-1.36 W",
		"state": "KANSAS",
		"artcc": "ZKC",
		"type": "RP",
		"updated": "HYS*VORTAC*076.05/14.55",
	},
	{
		"name": "ZISGI",
		"latitude": "39-20-23.39 N",
		"longitude": "94-11-52.12 W",
		"state": "MISSOURI",
		"artcc": "ZKC",
		"type": "RP",
		"updated": "ANX*VORTAC*340.64/15.00",
	},
	{
		"name": "ZITIK",
		"latitude": "38-56-29.58 N",
		"longitude": "97-28-23.99 W",
		"state": "KANSAS",
		"artcc": "ZKC",
		"type": "RP",
		"updated": "SLN*VORTAC*074.88/7.00",
	},
	{
		"name": "ZIVEG",
		"latitude": "38-44-2.69 N",
		"longitude": "90-20-20.21 W",
		"state": "MISSOURI",
		"artcc": "ZKC",
		"type": "RNAV",
		"updated": "06/19/2000",
	},
	{
		"name": "ZIXAT",
		"latitude": "38-47-39.62 N",
		"longitude": "94-53-29.8 W",
		"state": "KANSAS",
		"artcc": "ZKC",
		"type": "RP",
		"updated": "IXD*LD*176.04/2.87",
	},
	{
		"name": "ZIXIN",
		"latitude": "36-52-24.16 N",
		"longitude": "98-40-12.53 W",
		"state": "OKLAHOMA",
		"artcc": "ZKC",
		"type": "RNAV",
		"updated": "07/01/2015",
	},
	{
		"name": "ZOBAM",
		"latitude": "38-15-18.45 N",
		"longitude": "88-51-48.79 W",
		"state": "ILLINOIS",
		"artcc": "ZKC",
		"type": "RNAV",
		"updated": "05/06/2011",
	},
	{
		"name": "ZOBEN",
		"latitude": "39-1-28.87 N",
		"longitude": "96-47-40.92 W",
		"state": "KANSAS",
		"artcc": "ZKC",
		"type": "RP",
		"updated": "MHK*VOR/DME*215.15/9.33",
	},
	{
		"name": "ZOBGA",
		"latitude": "38-5-8.82 N",
		"longitude": "92-39-11.79 W",
		"state": "MISSOURI",
		"artcc": "ZKC",
		"type": "RP",
		"updated": "SHY*VOR/DME*318.33/3.62",
	},
	{
		"name": "ZOBOS",
		"latitude": "39-6-1.55 N",
		"longitude": "95-39-38.64 W",
		"state": "KANSAS",
		"artcc": "ZKC",
		"type": "RNAV",
		"updated": "03/27/2012",
	},
	{
		"name": "ZOBSE",
		"latitude": "39-44-46.41 N",
		"longitude": "88-39-15.66 W",
		"state": "ILLINOIS",
		"artcc": "ZKC",
		"type": "RNAV",
		"updated": "08/19/2010",
	},
	{
		"name": "ZOBUG",
		"latitude": "39-0-46.24 N",
		"longitude": "94-8-37.03 W",
		"state": "MISSOURI",
		"artcc": "ZKC",
		"type": "RNAV",
		"updated": "09/19/2014",
	},
	{
		"name": "ZODGA",
		"latitude": "39-13-26.84 N",
		"longitude": "94-33-49.21 W",
		"state": "MISSOURI",
		"artcc": "ZKC",
		"type": "RP",
		"updated": "MKC*LD*011.69/6.76",
	},
	{
		"name": "ZODOD",
		"latitude": "39-42-1.54 N",
		"longitude": "97-2-51.95 W",
		"state": "KANSAS",
		"artcc": "ZKC",
		"type": "RNAV",
		"updated": "06/09/2014",
	},
	{
		"name": "ZODPU",
		"latitude": "39-1-14.47 N",
		"longitude": "94-53-29.07 W",
		"state": "KANSAS",
		"artcc": "ZKC",
		"type": "RNAV",
		"updated": "02/11/2005",
	},
	{
		"name": "ZODUX",
		"latitude": "37-56-25.76 N",
		"longitude": "90-19-43.26 W",
		"state": "MISSOURI",
		"artcc": "ZKC",
		"type": "RNAV",
		"updated": "08/11/2010",
	},
	{
		"name": "ZOGAR",
		"latitude": "36-59-34.29 N",
		"longitude": "94-7-0.53 W",
		"state": "MISSOURI",
		"artcc": "ZKC",
		"type": "RP",
		"updated": "EOS*VOR/DME*052.47/17.79",
	},
	{
		"name": "ZOGOS",
		"latitude": "40-1-7.6 N",
		"longitude": "91-26-50.24 W",
		"state": "ILLINOIS",
		"artcc": "ZKC",
		"type": "RNAV",
		"updated": "11/14/2008",
	},
	{
		"name": "ZOKOF",
		"latitude": "36-57-24.55 N",
		"longitude": "98-40-11.74 W",
		"state": "OKLAHOMA",
		"artcc": "ZKC",
		"type": "RNAV",
		"updated": "07/01/2015",
	},
	{
		"name": "ZOLAK",
		"latitude": "37-1-22.29 N",
		"longitude": "91-56-48.64 W",
		"state": "MISSOURI",
		"artcc": "ZKC",
		"type": "RNAV",
		"updated": "04/25/2013",
	},
	{
		"name": "ZOLAL",
		"latitude": "39-10-23.09 N",
		"longitude": "97-9-48.96 W",
		"state": "KANSAS",
		"artcc": "ZKC",
		"type": "RNAV",
		"updated": "12/10/2010",
	},
	{
		"name": "ZOLIP",
		"latitude": "39-55-58.79 N",
		"longitude": "88-38-38.27 W",
		"state": "ILLINOIS",
		"artcc": "ZKC",
		"type": "RNAV",
		"updated": "08/23/2005",
	},
	{
		"name": "ZOLLI",
		"latitude": "38-19-12.23 N",
		"longitude": "88-52-10.73 W",
		"state": "ILLINOIS",
		"artcc": "ZKC",
		"type": "RP",
		"updated": "ENL*VORTAC*109.60/14.91",
	},
	{
		"name": "ZOLOS",
		"latitude": "37-24-57.43 N",
		"longitude": "91-59-19.79 W",
		"state": "MISSOURI",
		"artcc": "ZKC",
		"type": "RNAV",
		"updated": "07/06/2012",
	},
	{
		"name": "ZOLSA",
		"latitude": "38-56-1.07 N",
		"longitude": "94-17-47.19 W",
		"state": "MISSOURI",
		"artcc": "ZKC",
		"type": "RNAV",
		"updated": "07/11/2007",
	},
	{
		"name": "ZOLVU",
		"latitude": "38-0-36.23 N",
		"longitude": "89-21-34.24 W",
		"state": "ILLINOIS",
		"artcc": "ZKC",
		"type": "RNAV",
		"updated": "01/18/2013",
	},
	{
		"name": "ZOMED",
		"latitude": "37-29-0.29 N",
		"longitude": "97-26-58.19 W",
		"state": "KANSAS",
		"artcc": "ZKC",
		"type": "RNAV",
		"updated": "06/17/2013",
	},
	{
		"name": "ZOMON",
		"latitude": "38-58-42.01 N",
		"longitude": "97-8-4.89 W",
		"state": "KANSAS",
		"artcc": "ZKC",
		"type": "RP",
		"updated": "SLN*VORTAC*074.88/23.00",
	},
	{
		"name": "ZOMUT",
		"latitude": "38-49-9.97 N",
		"longitude": "97-42-11.54 W",
		"state": "KANSAS",
		"artcc": "ZKC",
		"type": "RNAV",
		"updated": "09/16/2008",
	},
	{
		"name": "ZONER",
		"latitude": "39-18-35.32 N",
		"longitude": "91-8-25.88 W",
		"state": "MISSOURI",
		"artcc": "ZKC",
		"type": "RNAV",
		"updated": "01/29/2002",
	},
	{
		"name": "ZONKI",
		"latitude": "38-52-37.14 N",
		"longitude": "94-7-46.95 W",
		"state": "MISSOURI",
		"artcc": "ZKC",
		"type": "RNAV",
		"updated": "03/23/2012",
	},
	{
		"name": "ZONOL",
		"latitude": "40-29-17.92 N",
		"longitude": "91-5-45.94 W",
		"state": "ILLINOIS",
		"artcc": "ZKC",
		"type": "RNAV",
		"updated": "03/27/2018",
	},
	{
		"name": "ZOOMY",
		"latitude": "36-55-9 N",
		"longitude": "95-55-31 W",
		"state": "OKLAHOMA",
		"artcc": "ZKC",
		"type": "RNAV",
		"updated": "11/26/2002",
	},
	{
		"name": "ZOPMO",
		"latitude": "38-8-40.16 N",
		"longitude": "97-42-55.92 W",
		"state": "KANSAS",
		"artcc": "ZKC",
		"type": "RNAV",
		"updated": "08/09/2007",
	},
	{
		"name": "ZOPQE",
		"latitude": "37-28-33.23 N",
		"longitude": "94-42-7.24 W",
		"state": "KANSAS",
		"artcc": "ZKC",
		"type": "RNAV",
		"updated": "07/18/2012",
	},
	{
		"name": "ZOPTI",
		"latitude": "37-0-35.75 N",
		"longitude": "92-43-32.28 W",
		"state": "MISSOURI",
		"artcc": "ZKC",
		"type": "RNAV",
		"updated": "02/22/2013",
	},
	{
		"name": "ZOPUD",
		"latitude": "38-10-53.13 N",
		"longitude": "92-13-53.6 W",
		"state": "MISSOURI",
		"artcc": "ZKC",
		"type": "RP",
		"updated": "SHY*VOR/DME*064.22/19.48",
	},
	{
		"name": "ZORAL",
		"latitude": "38-0-59.95 N",
		"longitude": "89-18-1.42 W",
		"state": "ILLINOIS",
		"artcc": "ZKC",
		"type": "RP",
		"updated": "ENL*VORTAC*192.00/25.00",
	},
	{
		"name": "ZOREB",
		"latitude": "37-55-31.31 N",
		"longitude": "91-50-7.03 W",
		"state": "MISSOURI",
		"artcc": "ZKC",
		"type": "RP",
		"updated": "VIH*VOR/DME*198.00/15.00",
	},
	{
		"name": "ZOSIB",
		"latitude": "39-30-0.29 N",
		"longitude": "88-20-49.93 W",
		"state": "ILLINOIS",
		"artcc": "ZKC",
		"type": "RNAV",
		"updated": "01/25/2016",
	},
	{
		"name": "ZOSKI",
		"latitude": "38-9-19.22 N",
		"longitude": "94-29-2.04 W",
		"state": "MISSOURI",
		"artcc": "ZKC",
		"type": "RP",
		"updated": "BUM*VORTAC*171.31/7.00",
	},
	{
		"name": "ZOTRI",
		"latitude": "37-21-11.58 N",
		"longitude": "94-31-1.93 W",
		"state": "MISSOURI",
		"artcc": "ZKC",
		"type": "RNAV",
		"updated": "03/21/2014",
	},
	{
		"name": "ZOTRU",
		"latitude": "37-57-47.17 N",
		"longitude": "91-47-31.9 W",
		"state": "MISSOURI",
		"artcc": "ZKC",
		"type": "RNAV",
		"updated": "08/03/2015",
	},
	{
		"name": "ZOVEG",
		"latitude": "36-46-28.93 N",
		"longitude": "94-24-4.54 W",
		"state": "MISSOURI",
		"artcc": "ZKC",
		"type": "RNAV",
		"updated": "06/15/2011",
	},
	{
		"name": "ZOVOD",
		"latitude": "37-7-22.52 N",
		"longitude": "95-46-36.55 W",
		"state": "KANSAS",
		"artcc": "ZKC",
		"type": "RP",
		"updated": "IDP*LD*178.29/2.67",
	},
	{
		"name": "ZOVUM",
		"latitude": "35-37-51.98 N",
		"longitude": "97-38-43.87 W",
		"state": "OKLAHOMA",
		"artcc": "ZKC",
		"type": "RNAV",
		"updated": "03/04/2015",
	},
	{
		"name": "ZOVUN",
		"latitude": "38-52-33.73 N",
		"longitude": "90-38-47.23 W",
		"state": "MISSOURI",
		"artcc": "ZKC",
		"type": "RP",
		"updated": "STL*VORTAC*275.87",
	},
	{
		"name": "ZOXAD",
		"latitude": "39-37-26.04 N",
		"longitude": "94-43-52.46 W",
		"state": "MISSOURI",
		"artcc": "ZKC",
		"type": "RNAV",
		"updated": "10/31/2013",
	},
	{
		"name": "ZOXBY",
		"latitude": "37-30-15.57 N",
		"longitude": "93-21-8.83 W",
		"state": "MISSOURI",
		"artcc": "ZKC",
		"type": "RNAV",
		"updated": "05/10/2007",
	},
	{
		"name": "ZOYFY",
		"latitude": "39-15-51.07 N",
		"longitude": "95-56-10.19 W",
		"state": "KANSAS",
		"artcc": "ZKC",
		"type": "CN",
		"updated": "12/04/2014",
	},
	{
		"name": "ZUBTA",
		"latitude": "39-30-45.12 N",
		"longitude": "88-48-37.35 W",
		"state": "ILLINOIS",
		"artcc": "ZKC",
		"type": "CN",
		"updated": "08/17/2010",
	},
	{
		"name": "ZUCKO",
		"latitude": "38-52-3.39 N",
		"longitude": "90-4-45.37 W",
		"state": "ILLINOIS",
		"artcc": "ZKC",
		"type": "RP",
		"updated": "TOY*VORTAC*311.67",
	},
	{
		"name": "ZUDKA",
		"latitude": "38-42-12.83 N",
		"longitude": "90-29-17.56 W",
		"state": "MISSOURI",
		"artcc": "ZKC",
		"type": "RNAV",
		"updated": "10/02/2015",
	},
	{
		"name": "ZUDKI",
		"latitude": "38-52-14.87 N",
		"longitude": "95-27-39.33 W",
		"state": "KANSAS",
		"artcc": "ZKC",
		"type": "RNAV",
		"updated": "08/07/2013",
	},
	{
		"name": "ZUDSU",
		"latitude": "37-1-13 N",
		"longitude": "92-58-50.53 W",
		"state": "MISSOURI",
		"artcc": "ZKC",
		"type": "RNAV",
		"updated": "06/09/2015",
	},
	{
		"name": "ZUGEB",
		"latitude": "38-31-11.26 N",
		"longitude": "90-2-57.29 W",
		"state": "ILLINOIS",
		"artcc": "ZKC",
		"type": "RNAV",
		"updated": "05/07/2011",
	},
	{
		"name": "ZUGOR",
		"latitude": "39-15-38.95 N",
		"longitude": "94-44-20.11 W",
		"state": "MISSOURI",
		"artcc": "ZKC",
		"type": "RP",
		"updated": "DOT*LD*190.93/3.96",
	},
	{
		"name": "ZULDU",
		"latitude": "37-8-2.86 N",
		"longitude": "92-12-9.8 W",
		"state": "MISSOURI",
		"artcc": "ZKC",
		"type": "RNAV",
		"updated": "05/08/2014",
	},
	{
		"name": "ZULEM",
		"latitude": "38-32-52.19 N",
		"longitude": "93-40-2.51 W",
		"state": "MISSOURI",
		"artcc": "ZKC",
		"type": "RNAV",
		"updated": "02/21/2014",
	},
	{
		"name": "ZULEN",
		"latitude": "35-58-55.98 N",
		"longitude": "95-47-26.27 W",
		"state": "OKLAHOMA",
		"artcc": "ZKC",
		"type": "RNAV",
		"updated": "11/05/2001",
	},
	{
		"name": "ZULID",
		"latitude": "38-42-44.89 N",
		"longitude": "95-43-17.76 W",
		"state": "KANSAS",
		"artcc": "ZKC",
		"type": "RNAV",
		"updated": "08/07/2013",
	},
	{
		"name": "ZULMO",
		"latitude": "38-35-39.24 N",
		"longitude": "91-23-46.08 W",
		"state": "MISSOURI",
		"artcc": "ZKC",
		"type": "RNAV",
		"updated": "09/25/2012",
	},
	{
		"name": "ZULOT",
		"latitude": "36-32-17.68 N",
		"longitude": "97-5-53.64 W",
		"state": "OKLAHOMA",
		"artcc": "ZKC",
		"type": "RNAV",
		"updated": "11/24/2003",
	},
	{
		"name": "ZULSA",
		"latitude": "39-0-54.76 N",
		"longitude": "94-16-48.95 W",
		"state": "MISSOURI",
		"artcc": "ZKC",
		"type": "RNAV",
		"updated": "09/19/2014",
	},
	{
		"name": "ZUMAY",
		"latitude": "38-47-16.28 N",
		"longitude": "90-16-43.45 W",
		"state": "MISSOURI",
		"artcc": "ZKC",
		"type": "RP",
		"updated": "STL*LD*063.83/5.57",
	},
	{
		"name": "ZUMDI",
		"latitude": "38-51-40.81 N",
		"longitude": "99-1-16.83 W",
		"state": "KANSAS",
		"artcc": "ZKC",
		"type": "RP",
		"updated": "HYS*VORTAC*076.00/12.00",
	},
	{
		"name": "ZUMIL",
		"latitude": "38-27-11.13 N",
		"longitude": "92-34-1.53 W",
		"state": "MISSOURI",
		"artcc": "ZKC",
		"type": "RNAV",
		"updated": "05/31/2012",
	},
	{
		"name": "ZUMLA",
		"latitude": "38-36-9.77 N",
		"longitude": "90-5-31.56 W",
		"state": "ILLINOIS",
		"artcc": "ZKC",
		"type": "RP",
		"updated": "TOY*VORTAC*220.97",
	},
	{
		"name": "ZUNDU",
		"latitude": "37-4-31.91 N",
		"longitude": "93-28-8.67 W",
		"state": "MISSOURI",
		"artcc": "ZKC",
		"type": "RP",
		"updated": "SGF*LD*198.79/11.64",
	},
	{
		"name": "ZUPAB",
		"latitude": "38-14-19.59 N",
		"longitude": "97-47-27.94 W",
		"state": "KANSAS",
		"artcc": "ZKC",
		"type": "RP",
		"updated": "HUT*VOR/DME*021.00/16.00",
	},
	{
		"name": "ZUPSA",
		"latitude": "37-41-15.54 N",
		"longitude": "92-38-43.6 W",
		"state": "MISSOURI",
		"artcc": "ZKC",
		"type": "RNAV",
		"updated": "08/03/2015",
	},
	{
		"name": "ZURAG",
		"latitude": "36-14-50.85 N",
		"longitude": "97-56-6.98 W",
		"state": "OKLAHOMA",
		"artcc": "ZKC",
		"type": "MR",
		"updated": "END*VORTAC*183.00/5.90",
	},
	{
		"name": "ZURED",
		"latitude": "37-58-36.86 N",
		"longitude": "96-45-29.79 W",
		"state": "KANSAS",
		"artcc": "ZKC",
		"type": "RNAV",
		"updated": "08/07/2013",
	},
	{
		"name": "ZURES",
		"latitude": "36-41-46.12 N",
		"longitude": "94-7-40.8 W",
		"state": "MISSOURI",
		"artcc": "ZKC",
		"type": "RNAV",
		"updated": "06/24/2013",
	},
	{
		"name": "ZURUN",
		"latitude": "36-36-32.18 N",
		"longitude": "94-43-57.07 W",
		"state": "OKLAHOMA",
		"artcc": "ZKC",
		"type": "RP",
		"updated": "EOS*VOR/DME*218.75/20.02",
	},
	{
		"name": "ZUSIP",
		"latitude": "38-35-24.42 N",
		"longitude": "89-54-52.94 W",
		"state": "ILLINOIS",
		"artcc": "ZKC",
		"type": "RP",
		"updated": "SKE*TACAN*314.13/4.00",
	},
	{
		"name": "ZUSKI",
		"latitude": "37-30-35.17 N",
		"longitude": "98-44-47.56 W",
		"state": "KANSAS",
		"artcc": "ZKC",
		"type": "RNAV",
		"updated": "05/13/2008",
	},
	{
		"name": "ZUTAL",
		"latitude": "38-31-38.41 N",
		"longitude": "97-33-40.54 W",
		"state": "KANSAS",
		"artcc": "ZKC",
		"type": "RNAV",
		"updated": "08/09/2007",
	},
	{
		"name": "ZUVBO",
		"latitude": "40-25-38.98 N",
		"longitude": "90-57-41.19 W",
		"state": "ILLINOIS",
		"artcc": "ZKC",
		"type": "RNAV",
		"updated": "01/10/2013",
	},
	{
		"name": "ZUXEG",
		"latitude": "37-34-21.63 N",
		"longitude": "97-22-28.01 W",
		"state": "KANSAS",
		"artcc": "ZKC",
		"type": "RNAV",
		"updated": "12/15/2004",
	},
	{
		"name": "ZUXKY",
		"latitude": "35-59-40.78 N",
		"longitude": "96-1-9.44 W",
		"state": "OKLAHOMA",
		"artcc": "ZKC",
		"type": "RNAV",
		"updated": "07/09/2009",
	},
