[
	{
		"name": "AADPO",
		"latitude": "14-10-7.54 S",
		"longitude": "170-58-3.12 W",
		"state": "",
		"artcc": "ZHN",
		"type": "RP",
		"updated": "TUT*VORTAC*/18.00"
	},
	{
		"name": "AARES",
		"latitude": "20-59-55 N",
		"longitude": "157-5-42 W",
		"state": "HAWAII",
		"artcc": "ZHN",
		"type": "RNAV",
		"updated": "12/14/2011"
	},
	{
		"name": "AATRE",
		"latitude": "21-13-11.05 N",
		"longitude": "157-55-18.91 W",
		"state": "HAWAII",
		"artcc": "ZHN",
		"type": "RNAV",
		"updated": "06/02/2014"
	},
	{
		"name": "ACRON",
		"latitude": "13-37-25.51 N",
		"longitude": "143-1-52.11 E",
		"state": "GUAM",
		"artcc": "ZHN",
		"type": "RP",
		"updated": "UNZ*VORTAC*274.00/100.00"
	},
	{
		"name": "ADBON",
		"latitude": "0-0-0 N",
		"longitude": "154-13-42 E",
		"state": "OFFSHORE PACIFIC",
		"artcc": "ZHN",
		"type": "RP",
		"updated": "03/01/1990"
	},
	{
		"name": "ADLEC",
		"latitude": "28-27-36.08 N",
		"longitude": "178-0-9.35 W",
		"state": "MIDWAY ATOLL",
		"artcc": "ZHN",
		"type": "WP",
		"updated": "11/02/2001"
	},
	{
		"name": "ADUFO",
		"latitude": "7-14-37.94 N",
		"longitude": "157-46-21.58 E",
		"state": "",
		"artcc": "ZHN",
		"type": "MR",
		"updated": "PNI*NDB/DME*294.40/30.00"
	},
	{
		"name": "AFOYU",
		"latitude": "6-39-25.86 N",
		"longitude": "158-35-6.19 E",
		"state": "",
		"artcc": "ZHN",
		"type": "RNAV",
		"updated": "03/06/2017"
	},
	{
		"name": "AJUMI",
		"latitude": "20-40-40.99 N",
		"longitude": "156-29-59.33 W",
		"state": "HAWAII",
		"artcc": "ZHN",
		"type": "RP",
		"updated": "OGG*VORTAC*187.00/14.36"
	},
	{
		"name": "AKKAA",
		"latitude": "19-39-2.19 N",
		"longitude": "156-8-7.28 W",
		"state": "HAWAII",
		"artcc": "ZHN",
		"type": "RNAV",
		"updated": "06/10/2014"
	},
	{
		"name": "AKOKE",
		"latitude": "21-9-29.99 N",
		"longitude": "157-59-21.13 W",
		"state": "HAWAII",
		"artcc": "ZHN",
		"type": "RNAV",
		"updated": "02/24/2012"
	},
	{
		"name": "AKULE",
		"latitude": "21-52-23.04 N",
		"longitude": "159-20-9.3 W",
		"state": "HAWAII",
		"artcc": "ZHN",
		"type": "RP",
		"updated": "SOK*VORTAC*087.59"
	},
	{
		"name": "ALAFU",
		"latitude": "21-21-37.13 N",
		"longitude": "155-40-19.94 W",
		"state": "HAWAII",
		"artcc": "ZHN",
		"type": "RP",
		"updated": "OGG*VORTAC*046.00/50.00"
	},
	{
		"name": "ALANA",
		"latitude": "21-4-31.18 N",
		"longitude": "157-56-20.71 W",
		"state": "HAWAII",
		"artcc": "ZHN",
		"type": "RP",
		"updated": "CKH*VORTAC*218.45/17.44"
	},
	{
		"name": "ALEWA",
		"latitude": "20-0-22.37 N",
		"longitude": "155-38-54.72 W",
		"state": "HAWAII",
		"artcc": "ZHN",
		"type": "RP",
		"updated": "MUE*VOR/DME*056.96/1.30"
	},
	{
		"name": "ALICA",
		"latitude": "21-34-56.16 N",
		"longitude": "153-23-7.62 W",
		"state": "HAWAII",
		"artcc": "ZHN",
		"type": "RP",
		"updated": "UPP*VORTAC*047.68/160.90"
	},
	{
		"name": "ALJAI",
		"latitude": "20-40-6.78 N",
		"longitude": "158-40-59.87 W",
		"state": "HAWAII",
		"artcc": "ZHN",
		"type": "MR",
		"updated": "HNL*VORTAC*217.00/57.00"
	},
	{
		"name": "ALLUN",
		"latitude": "22-1-43.36 N",
		"longitude": "157-51-43.45 W",
		"state": "OFFSHORE PACIFIC",
		"artcc": "ZHN",
		"type": "MR",
		"updated": "NGF*TACAN*340.00/35.00"
	},
	{
		"name": "ALOCA",
		"latitude": "23-8-1 N",
		"longitude": "157-5-0 W",
		"state": "OFFSHORE PACIFIC",
		"artcc": "ZHN",
		"type": "RNAV",
		"updated": "08/29/2011"
	},
	{
		"name": "AMERY",
		"latitude": "19-57-18.31 N",
		"longitude": "156-24-32.98 W",
		"state": "HAWAII",
		"artcc": "ZHN",
		"type": "RP",
		"updated": "OGG*VORTAC*168.33/56.87"
	},
	{
		"name": "ANDES",
		"latitude": "19-49-41.21 N",
		"longitude": "156-12-51.98 W",
		"state": "HAWAII",
		"artcc": "ZHN",
		"type": "RP",
		"updated": "KOA*VORTAC*293.67/11.66"
	},
	{
		"name": "ANIKA",
		"latitude": "13-32-35.1 N",
		"longitude": "144-50-34.76 E",
		"state": "GUAM",
		"artcc": "ZHN",
		"type": "MR",
		"updated": "UAM*TACAN*242.61/6.70"
	},
	{
		"name": "ANUYA",
		"latitude": "22-7-35.46 N",
		"longitude": "159-11-1.8 W",
		"state": "HAWAII",
		"artcc": "ZHN",
		"type": "RNAV",
		"updated": "05/24/2007"
	},
	{
		"name": "APACK",
		"latitude": "24-2-37.33 N",
		"longitude": "156-19-10.35 W",
		"state": "OFFSHORE PACIFIC",
		"artcc": "ZHN",
		"type": "RP",
		"updated": "MKK*VORTAC*004.00/180.00"
	},
	{
		"name": "APRAN",
		"latitude": "14-21-54.8 S",
		"longitude": "170-45-58.57 W",
		"state": "",
		"artcc": "ZHN",
		"type": "RP",
		"updated": "TUT*VORTAC*228.00/3.90"
	},
	{
		"name": "ARBOR",
		"latitude": "19-58-51.61 N",
		"longitude": "155-7-59.7 W",
		"state": "HAWAII",
		"artcc": "ZHN",
		"type": "RP",
		"updated": "ITO*VORTAC*325.00/16.99"
	},
	{
		"name": "ARROW",
		"latitude": "22-21-18.16 N",
		"longitude": "155-12-30.83 W",
		"state": "HAWAII",
		"artcc": "ZHN",
		"type": "RP",
		"updated": "ITO*VORTAC*345.00/157.84"
	},
	{
		"name": "ASAYA",
		"latitude": "21-50-15.7 N",
		"longitude": "159-45-59.25 W",
		"state": "HAWAII",
		"artcc": "ZHN",
		"type": "MR",
		"updated": "NBS*TACAN*165.00/12.00"
	},
	{
		"name": "ATINE",
		"latitude": "22-38-28.07 N",
		"longitude": "157-13-26.4 W",
		"state": "HAWAII",
		"artcc": "ZHN",
		"type": "RP",
		"updated": "MKK*VORTAC*347.00/90.00"
	},
	{
		"name": "AVIKY",
		"latitude": "28-14-12 N",
		"longitude": "177-16-47 W",
		"state": "MIDWAY ATOLL",
		"artcc": "ZHN",
		"type": "WP",
		"updated": "11/02/2001"
	},
	{
		"name": "AWAHI",
		"latitude": "21-6-19.14 N",
		"longitude": "155-33-21 W",
		"state": "HAWAII",
		"artcc": "ZHN",
		"type": "RP",
		"updated": "OGG*VORTAC*065.09/50.00"
	},
	{
		"name": "AXTEN",
		"latitude": "6-49-17.75 N",
		"longitude": "158-40-42.11 E",
		"state": "",
		"artcc": "ZHN",
		"type": "RNAV",
		"updated": "03/06/2017"
	},
	{
		"name": "AZIBA",
		"latitude": "21-17-59.11 N",
		"longitude": "154-41-18.32 W",
		"state": "HAWAII",
		"artcc": "ZHN",
		"type": "RP",
		"updated": "OGG*VORTAC*065.09/100.00"
	}
]
