[
	{
		"name": "BAMBO",
		"latitude": "21-24-59.57 N",
		"longitude": "157-30-36.04 W",
		"state": "OFFSHORE PACIFIC",
		"artcc": "ZHN",
		"type": "RP",
		"updated": "CKH*VORTAC*039.01/14.10"
	},
	{
		"name": "BARBY",
		"latitude": "20-51-39.55 N",
		"longitude": "155-58-47.44 W",
		"state": "HAWAII",
		"artcc": "ZHN",
		"type": "RP",
		"updated": "ITO*VORTAC*310.43/87.33"
	},
	{
		"name": "BASSY",
		"latitude": "21-0-21.41 N",
		"longitude": "155-6-23.69 W",
		"state": "HAWAII",
		"artcc": "ZHN",
		"type": "RP",
		"updated": "ITO*VORTAC*345.00/77.00"
	},
	{
		"name": "BATES",
		"latitude": "20-0-31.3 N",
		"longitude": "153-33-4.4 W",
		"state": "HAWAII",
		"artcc": "ZHN",
		"type": "RP",
		"updated": "ITO*VORTAC*067.00/84.00"
	},
	{
		"name": "BAYCA",
		"latitude": "20-0-14.07 N",
		"longitude": "156-1-19.14 W",
		"state": "HAWAII",
		"artcc": "ZHN",
		"type": "RP",
		"updated": "UPP*VORTAC*209.68/15.49"
	},
	{
		"name": "BEACH",
		"latitude": "20-40-59.01 N",
		"longitude": "156-32-12.2 W",
		"state": "HAWAII",
		"artcc": "ZHN",
		"type": "RP",
		"updated": "OGG*VORTAC*195.00/14.86"
	},
	{
		"name": "BEBYE",
		"latitude": "21-56-26.32 N",
		"longitude": "159-46-10.3 W",
		"state": "HAWAII",
		"artcc": "ZHN",
		"type": "MW",
		"updated": "05/06/2010"
	},
	{
		"name": "BECAN",
		"latitude": "22-44-41 N",
		"longitude": "156-40-42 W",
		"state": "OFFSHORE PACIFIC",
		"artcc": "ZHN",
		"type": "RNAV",
		"updated": "08/29/2011"
	},
	{
		"name": "BERLE",
		"latitude": "23-28-41.1 N",
		"longitude": "157-15-21.5 W",
		"state": "HAWAII",
		"artcc": "ZHN",
		"type": "RP",
		"updated": "MKK*VORTAC*347.00/140.00"
	},
	{
		"name": "BIGZO",
		"latitude": "20-39-53 N",
		"longitude": "159-3-8 W",
		"state": "HAWAII",
		"artcc": "ZHN",
		"type": "RNAV",
		"updated": "01/29/2014"
	},
	{
		"name": "BIKDE",
		"latitude": "20-56-35.87 N",
		"longitude": "156-23-45.6 W",
		"state": "HAWAII",
		"artcc": "ZHN",
		"type": "RNAV",
		"updated": "04/05/2016"
	},
	{
		"name": "BIKUZ",
		"latitude": "22-43-48 N",
		"longitude": "155-42-3 W",
		"state": "HAWAII",
		"artcc": "ZHN",
		"type": "RNAV",
		"updated": "05/26/2011"
	},
	{
		"name": "BINJO",
		"latitude": "20-24-16.82 N",
		"longitude": "160-47-57.24 W",
		"state": "HAWAII",
		"artcc": "ZHN",
		"type": "RP",
		"updated": "HNL*VORTAC*241.00/170.00"
	},
	{
		"name": "BIRUQ",
		"latitude": "7-1-23.21 N",
		"longitude": "157-42-3.22 E",
		"state": "",
		"artcc": "ZHN",
		"type": "RP",
		"updated": "PNI*NDB/DME*267.69/30.00"
	},
	{
		"name": "BISEN",
		"latitude": "20-8-29.45 N",
		"longitude": "154-43-18.76 W",
		"state": "HAWAII",
		"artcc": "ZHN",
		"type": "RP",
		"updated": "ITO*VORTAC*022.00"
	},
	{
		"name": "BITTA",
		"latitude": "23-31-40.91 N",
		"longitude": "155-28-43.81 W",
		"state": "OFFSHORE PACIFIC",
		"artcc": "ZHN",
		"type": "RP",
		"updated": "MKK*VORTAC*022.00/171.00"
	},
	{
		"name": "BLUJA",
		"latitude": "14-23-31.75 S",
		"longitude": "170-48-42.91 W",
		"state": "",
		"artcc": "ZHN",
		"type": "RP",
		"updated": "TUT*LD*SW CRS/7.40"
	},
	{
		"name": "BLUSH",
		"latitude": "21-20-1.31 N",
		"longitude": "156-40-25.8 W",
		"state": "HAWAII",
		"artcc": "ZHN",
		"type": "RP",
		"updated": "CKH*VORTAC*074.75/57.81"
	},
	{
		"name": "BOGEE",
		"latitude": "21-1-13.48 N",
		"longitude": "156-50-30.35 W",
		"state": "HAWAII",
		"artcc": "ZHN",
		"type": "RP",
		"updated": "LNY*VORTAC*014.00/16.88"
	},
	{
		"name": "BONUS",
		"latitude": "20-23-7.09 N",
		"longitude": "155-34-23.53 W",
		"state": "HAWAII",
		"artcc": "ZHN",
		"type": "RP",
		"updated": "ITO*VORTAC*310.43/50.83"
	},
	{
		"name": "BOOKE",
		"latitude": "21-27-47.15 N",
		"longitude": "158-26-59.39 W",
		"state": "HAWAII",
		"artcc": "ZHN",
		"type": "RP",
		"updated": "LIH*VORTAC*110.00/58.00"
	},
	{
		"name": "BOYYR",
		"latitude": "20-47-30.2 N",
		"longitude": "157-3-10.81 W",
		"state": "HAWAII",
		"artcc": "ZHN",
		"type": "RP",
		"updated": "LNY*VORTAC*278.00/5.00"
	},
	{
		"name": "BRNDY",
		"latitude": "20-28-54.6 N",
		"longitude": "158-26-10.77 W",
		"state": "HAWAII",
		"artcc": "ZHN",
		"type": "MR",
		"updated": "HNL*VORTAC*199.00/57.00"
	},
	{
		"name": "BRUTZ",
		"latitude": "21-21-49 N",
		"longitude": "157-17-15 W",
		"state": "HAWAII",
		"artcc": "ZHN",
		"type": "RNAV",
		"updated": "02/14/2012"
	},
	{
		"name": "BRYDG",
		"latitude": "21-28-2.89 N",
		"longitude": "157-26-44.27 W",
		"state": "OFFSHORE PACIFIC",
		"artcc": "ZHN",
		"type": "MW",
		"updated": "08/05/2010"
	},
	{
		"name": "BYROW",
		"latitude": "20-22-10.04 N",
		"longitude": "155-3-32.37 W",
		"state": "HAWAII",
		"artcc": "ZHN",
		"type": "RP",
		"updated": "ITO*VORTAC*345.00/38.84"
	}
]
