	{
		"name": "CABRI",
		"latitude": "9-28-29.76 N",
		"longitude": "137-59-44.02 E",
		"state": "",
		"artcc": "ZHN",
		"type": "RP",
		"updated": "YP*NDB/DME*254.12/5.68",
	},
	{
		"name": "CAMPS",
		"latitude": "20-39-54.94 N",
		"longitude": "156-36-9.39 W",
		"state": "HAWAII",
		"artcc": "ZHN",
		"type": "RP",
		"updated": "OGG*VORTAC*204.34/17.67",
	},
	{
		"name": "CANON",
		"latitude": "22-48-5.4 N",
		"longitude": "162-37-0.8 W",
		"state": "HAWAII",
		"artcc": "ZHN",
		"type": "RP",
		"updated": "SOK*VORTAC*277.00/180.00",
	},
	{
		"name": "CAPRA",
		"latitude": "14-16-17.53 S",
		"longitude": "171-0-39.05 W",
		"state": "",
		"artcc": "ZHN",
		"type": "RP",
		"updated": "TUT*VORTAC*/18.00",
	},
	{
		"name": "CAPVI",
		"latitude": "21-19-30.72 N",
		"longitude": "158-2-55.9 W",
		"state": "HAWAII",
		"artcc": "ZHN",
		"type": "RNAV",
		"updated": "02/22/2017",
	},
	{
		"name": "CARRP",
		"latitude": "19-4-24 N",
		"longitude": "159-35-0 W",
		"state": "OFFSHORE PACIFIC",
		"artcc": "ZHN",
		"type": "RP",
		"updated": "HNL*VORTAC*204.21/162.94",
	},
	{
		"name": "CEDRI",
		"latitude": "21-18-29.75 N",
		"longitude": "157-56-15.27 W",
		"state": "HAWAII",
		"artcc": "ZHN",
		"type": "RNAV",
		"updated": "04/17/2002",
	},
	{
		"name": "CEKOB",
		"latitude": "19-43-16.43 N",
		"longitude": "154-50-5.81 W",
		"state": "HAWAII",
		"artcc": "ZHN",
		"type": "RNAV",
		"updated": "07/09/2002",
	},
	{
		"name": "CFCHF",
		"latitude": "20-58-47.14 N",
		"longitude": "158-3-52.85 W",
		"state": "HAWAII",
		"artcc": "ZHN",
		"type": "CN",
		"updated": "03/06/2017",
	},
	{
		"name": "CFDRM",
		"latitude": "20-57-41.45 N",
		"longitude": "157-52-18.94 W",
		"state": "HAWAII",
		"artcc": "ZHN",
		"type": "CN",
		"updated": "03/06/2017",
	},
	{
		"name": "CFFVB",
		"latitude": "21-12-29.07 N",
		"longitude": "158-4-36.76 W",
		"state": "HAWAII",
		"artcc": "ZHN",
		"type": "CN",
		"updated": "02/24/2012",
	},
	{
		"name": "CFLSP",
		"latitude": "19-43-16.33 N",
		"longitude": "154-48-50.28 W",
		"state": "HAWAII",
		"artcc": "ZHN",
		"type": "CN",
		"updated": "02/10/2012",
	},
	{
		"name": "CFPJK",
		"latitude": "21-16-24.03 N",
		"longitude": "157-53-12.43 W",
		"state": "HAWAII",
		"artcc": "ZHN",
		"type": "CN",
		"updated": "05/30/2017",
	},
	{
		"name": "CFPPX",
		"latitude": "21-10-49.01 N",
		"longitude": "158-1-59.93 W",
		"state": "HAWAII",
		"artcc": "ZHN",
		"type": "CN",
		"updated": "02/24/2012",
	},
	{
		"name": "CFRRC",
		"latitude": "21-13-28.22 N",
		"longitude": "157-56-46.68 W",
		"state": "HAWAII",
		"artcc": "ZHN",
		"type": "CN",
		"updated": "02/22/2017",
	},
	{
		"name": "CHAIN",
		"latitude": "20-58-22.78 N",
		"longitude": "156-55-32.74 W",
		"state": "HAWAII",
		"artcc": "ZHN",
		"type": "RP",
		"updated": "LNY*VORTAC*359.99/12.70",
	},
	{
		"name": "CHOKL",
		"latitude": "22-8-26 N",
		"longitude": "160-27-0 W",
		"state": "HAWAII",
		"artcc": "ZHN",
		"type": "RNAV",
		"updated": "01/13/2011",
	},
	{
		"name": "CHOKO",
		"latitude": "20-22-38.44 N",
		"longitude": "160-52-59.15 W",
		"state": "OFFSHORE PACIFIC",
		"artcc": "ZHN",
		"type": "WP",
		"updated": "07/12/1991",
	},
	{
		"name": "CIDAL",
		"latitude": "22-11-7.04 N",
		"longitude": "159-52-10.21 W",
		"state": "HAWAII",
		"artcc": "ZHN",
		"type": "MR",
		"updated": "NBS*TACAN*322.00/10.00",
	},
	{
		"name": "CIDOP",
		"latitude": "22-5-48.13 N",
		"longitude": "159-49-8.03 W",
		"state": "HAWAII",
		"artcc": "ZHN",
		"type": "MR",
		"updated": "NBS*TACAN*322.00/4.00",
	},
	{
		"name": "CIGAK",
		"latitude": "19-32-10.88 N",
		"longitude": "156-7-19.19 W",
		"state": "HAWAII",
		"artcc": "ZHN",
		"type": "RP",
		"updated": "KOA*VORTAC*191.00/11.66",
	},
	{
		"name": "CIGEP",
		"latitude": "21-19-30.24 N",
		"longitude": "158-10-42.91 W",
		"state": "HAWAII",
		"artcc": "ZHN",
		"type": "RP",
		"updated": "HNL*VORTAC*/13.94",
	},
	{
		"name": "CILBO",
		"latitude": "21-39-48.87 N",
		"longitude": "158-26-52.54 W",
		"state": "HAWAII",
		"artcc": "ZHN",
		"type": "RP",
		"updated": "SOK*VORTAC*092.00/62.00",
	},
	{
		"name": "CIXUK",
		"latitude": "21-16-12.11 N",
		"longitude": "156-35-22.54 W",
		"state": "HAWAII",
		"artcc": "ZHN",
		"type": "RNAV",
		"updated": "01/27/2011",
	},
	{
		"name": "CLORI",
		"latitude": "21-13-56.04 N",
		"longitude": "157-25-10.59 W",
		"state": "HAWAII",
		"artcc": "ZHN",
		"type": "RP",
		"updated": "CKH*VORTAC*086.00/16.00",
	},
	{
		"name": "CLUTS",
		"latitude": "23-0-11.73 N",
		"longitude": "154-39-17.18 W",
		"state": "OFFSHORE PACIFIC",
		"artcc": "ZHN",
		"type": "RP",
		"updated": "OGG*VORTAC*026.83/159.43",
	},
	{
		"name": "CLYYD",
		"latitude": "21-35-44.67 N",
		"longitude": "157-36-12.93 W",
		"state": "HAWAII",
		"artcc": "ZHN",
		"type": "MW",
		"updated": "08/19/2010",
	},
	{
		"name": "COBAL",
		"latitude": "16-37-6.28 N",
		"longitude": "169-46-57.03 W",
		"state": "OFFSHORE PACIFIC",
		"artcc": "ZHN",
		"type": "MW",
		"updated": "04/08/1999",
	},
	{
		"name": "COBIK",
		"latitude": "22-6-31.36 N",
		"longitude": "159-12-10.74 W",
		"state": "HAWAII",
		"artcc": "ZHN",
		"type": "RP",
		"updated": "03/19/2003",
	},
	{
		"name": "CODDY",
		"latitude": "21-26-22.34 N",
		"longitude": "155-8-21.25 W",
		"state": "HAWAII",
		"artcc": "ZHN",
		"type": "RP",
		"updated": "ITO*VORTAC*345.00/103.00",
	},
	{
		"name": "COEST",
		"latitude": "20-44-54 N",
		"longitude": "156-26-30 W",
		"state": "HAWAII",
		"artcc": "ZHN",
		"type": "RNAV",
		"updated": "05/26/2011",
	},
	{
		"name": "COGDA",
		"latitude": "19-49-17.79 N",
		"longitude": "154-50-5.28 W",
		"state": "HAWAII",
		"artcc": "ZHN",
		"type": "RNAV",
		"updated": "07/09/2002",
	},
	{
		"name": "COLIS",
		"latitude": "21-18-24.21 N",
		"longitude": "158-6-29.12 W",
		"state": "HAWAII",
		"artcc": "ZHN",
		"type": "RNAV",
		"updated": "05/10/2002",
	},
	{
		"name": "CONED",
		"latitude": "22-22-9 N",
		"longitude": "156-27-29 W",
		"state": "OFFSHORE PACIFIC",
		"artcc": "ZHN",
		"type": "RNAV",
		"updated": "08/29/2011",
	},
	{
		"name": "COOKE",
		"latitude": "20-10-19.02 N",
		"longitude": "155-2-39.52 W",
		"state": "HAWAII",
		"artcc": "ZHN",
		"type": "RP",
		"updated": "ITO*VORTAC*345.00/27.00",
	},
	{
		"name": "COPTA",
		"latitude": "21-23-40.15 N",
		"longitude": "158-2-31.21 W",
		"state": "HAWAII",
		"artcc": "ZHN",
		"type": "MR",
		"updated": "HHI*NDB*174.28",
	},
	{
		"name": "CORGA",
		"latitude": "19-54-40.98 N",
		"longitude": "155-52-17.93 W",
		"state": "HAWAII",
		"artcc": "ZHN",
		"type": "RNAV",
		"updated": "07/20/2011",
	},
	{
		"name": "COVSU",
		"latitude": "20-49-30.88 N",
		"longitude": "156-29-1.85 W",
		"state": "HAWAII",
		"artcc": "ZHN",
		"type": "RNAV",
		"updated": "06/03/2011",
	},
	{
		"name": "CRISI",
		"latitude": "20-27-44.16 N",
		"longitude": "157-3-56.63 W",
		"state": "HAWAII",
		"artcc": "ZHN",
		"type": "RP",
		"updated": "HNL*VORTAC*125.00/70.13",
	},
	{
		"name": "CRONE",
		"latitude": "16-48-15.46 N",
		"longitude": "169-21-53.13 W",
		"state": "OFFSHORE PACIFIC",
		"artcc": "ZHN",
		"type": "MW",
		"updated": "02/18/1999",
	},
	{
		"name": "CUBIG",
		"latitude": "21-59-23.79 N",
		"longitude": "159-20-9.15 W",
		"state": "HAWAII",
		"artcc": "ZHN",
		"type": "RNAV",
		"updated": "05/10/2012",
	},
	{
		"name": "CUTLE",
		"latitude": "20-4-37.93 N",
		"longitude": "153-37-58.69 W",
		"state": "HAWAII",
		"artcc": "ZHN",
		"type": "RP",
		"updated": "UPP*VORTAC*082.00/125.00",
	},
