[
	{
		"name": "DAFRE",
		"latitude": "19-29-46.73 N",
		"longitude": "157-30-27.4 W",
		"state": "HAWAII",
		"artcc": "ZHN",
		"type": "RP",
		"updated": "MKK*VORTAC*180.12/100.00"
	},
	{
		"name": "DAKKL",
		"latitude": "21-14-51.99 N",
		"longitude": "157-18-7.54 W",
		"state": "HAWAII",
		"artcc": "ZHN",
		"type": "RP",
		"updated": "MKK*VORTAC*299.99/10.00"
	},
	{
		"name": "DAMAY",
		"latitude": "7-34-8 N",
		"longitude": "151-42-56.48 E",
		"state": "",
		"artcc": "ZHN",
		"type": "RP",
		"updated": "TKK*NDB/DME*306.14/10.00"
	},
	{
		"name": "DANIE",
		"latitude": "21-14-35.12 N",
		"longitude": "157-58-8.32 W",
		"state": "HAWAII",
		"artcc": "ZHN",
		"type": "RP",
		"updated": "CKH*VORTAC*254.00"
	},
	{
		"name": "DANNO",
		"latitude": "23-31-59.64 N",
		"longitude": "161-34-54.36 W",
		"state": "HAWAII",
		"artcc": "ZHN",
		"type": "RNAV",
		"updated": "10/26/2016"
	},
	{
		"name": "DANYA",
		"latitude": "22-2-25 N",
		"longitude": "156-21-54 W",
		"state": "OFFSHORE PACIFIC",
		"artcc": "ZHN",
		"type": "RNAV",
		"updated": "08/29/2011"
	},
	{
		"name": "DARBB",
		"latitude": "19-47-53 N",
		"longitude": "156-23-56 W",
		"state": "HAWAII",
		"artcc": "ZHN",
		"type": "RNAV",
		"updated": "01/29/2014"
	},
	{
		"name": "DARIL",
		"latitude": "22-9-4.75 N",
		"longitude": "159-15-26.4 W",
		"state": "HAWAII",
		"artcc": "ZHN",
		"type": "RP",
		"updated": "LIH*VORTAC*011.02/12.00"
	},
	{
		"name": "DATON",
		"latitude": "22-0-31.7 N",
		"longitude": "158-7-24.81 W",
		"state": "HAWAII",
		"artcc": "ZHN",
		"type": "RP",
		"updated": "HNL*VORTAC*334.58/43.25"
	},
	{
		"name": "DEBRY",
		"latitude": "21-14-16.14 N",
		"longitude": "158-2-5.58 W",
		"state": "HAWAII",
		"artcc": "ZHN",
		"type": "RP",
		"updated": "IUM*LD*222.01/9.20"
	},
	{
		"name": "DEEKE",
		"latitude": "21-42-51 N",
		"longitude": "159-6-34 W",
		"state": "HAWAII",
		"artcc": "ZHN",
		"type": "RNAV",
		"updated": "04/12/2010"
	},
	{
		"name": "DEKUM",
		"latitude": "21-57-8 N",
		"longitude": "154-35-51 W",
		"state": "HAWAII",
		"artcc": "ZHN",
		"type": "RNAV",
		"updated": "06/08/2011"
	},
	{
		"name": "DENKL",
		"latitude": "22-37-7 N",
		"longitude": "160-11-14 W",
		"state": "HAWAII",
		"artcc": "ZHN",
		"type": "RNAV",
		"updated": "01/13/2011"
	},
	{
		"name": "DENNS",
		"latitude": "22-21-48.24 N",
		"longitude": "153-52-50.1 W",
		"state": "OFFSHORE PACIFIC",
		"artcc": "ZHN",
		"type": "RP",
		"updated": "ITO*VORTAC*010.68/170.21"
	},
	{
		"name": "DEREC",
		"latitude": "20-18-44.45 N",
		"longitude": "155-19-34.31 W",
		"state": "HAWAII",
		"artcc": "ZHN",
		"type": "RP",
		"updated": "UPP*VORTAC*066.00"
	},
	{
		"name": "DIFFY",
		"latitude": "16-39-12.76 N",
		"longitude": "169-42-13.45 W",
		"state": "OFFSHORE PACIFIC",
		"artcc": "ZHN",
		"type": "MW",
		"updated": "04/08/1999"
	},
	{
		"name": "DIKNY",
		"latitude": "21-52-58.93 N",
		"longitude": "159-59-49.24 W",
		"state": "HAWAII",
		"artcc": "ZHN",
		"type": "MR",
		"updated": "NBS*TACAN*222.00/15.00"
	},
	{
		"name": "DIPPS",
		"latitude": "20-41-35.77 N",
		"longitude": "156-34-54.62 W",
		"state": "HAWAII",
		"artcc": "ZHN",
		"type": "RP",
		"updated": "VYI*NDB*203.94"
	},
	{
		"name": "DMATO",
		"latitude": "19-58-46.38 N",
		"longitude": "156-1-26.97 W",
		"state": "HAWAII",
		"artcc": "ZHN",
		"type": "CN",
		"updated": "12/30/2009"
	},
	{
		"name": "DONCC",
		"latitude": "21-19-30.74 N",
		"longitude": "158-3-46.43 W",
		"state": "HAWAII",
		"artcc": "ZHN",
		"type": "RNAV",
		"updated": "06/02/2014"
	},
	{
		"name": "DOPIE",
		"latitude": "21-32-49.89 N",
		"longitude": "157-50-14.91 W",
		"state": "HAWAII",
		"artcc": "ZHN",
		"type": "MR",
		"updated": "HNL*VORTAC*009.00/15.20"
	},
	{
		"name": "DOVRR",
		"latitude": "18-43-0 N",
		"longitude": "157-40-0 W",
		"state": "HAWAII",
		"artcc": "ZHN",
		"type": "RP",
		"updated": "HNL*VORTAC*163.46/155.63"
	},
	{
		"name": "DRAWN",
		"latitude": "14-37-50.16 S",
		"longitude": "170-53-58.49 W",
		"state": "",
		"artcc": "ZHN",
		"type": "RP",
		"updated": "TUT*VORTAC*200.00/21.00"
	},
	{
		"name": "DREGO",
		"latitude": "21-31-16.13 N",
		"longitude": "157-42-22.78 W",
		"state": "HAWAII",
		"artcc": "ZHN",
		"type": "MR",
		"updated": "NGF*TACAN*026.00/4.80"
	},
	{
		"name": "DUDVE",
		"latitude": "20-43-5.9 N",
		"longitude": "156-47-52.73 W",
		"state": "HAWAII",
		"artcc": "ZHN",
		"type": "RP",
		"updated": "LNY*VORTAC*095.00/10.00"
	},
	{
		"name": "DYDRA",
		"latitude": "21-14-52.22 N",
		"longitude": "157-52-7.62 W",
		"state": "HAWAII",
		"artcc": "ZHN",
		"type": "RP",
		"updated": "CKH*VORTAC*252.68"
	}
]
