[
	{
		"name": "EBBER",
		"latitude": "21-42-48.36 N",
		"longitude": "153-8-50.22 W",
		"state": "HAWAII",
		"artcc": "ZHN",
		"type": "RP",
		"updated": "ITO*VORTAC*030.03/158.64"
	},
	{
		"name": "EDSEL",
		"latitude": "32-14-32.43 N",
		"longitude": "124-5-54.87 W",
		"state": "OFFSHORE PACIFIC",
		"artcc": "ZHN",
		"type": "RP",
		"updated": "01/22/1982"
	},
	{
		"name": "EELIC",
		"latitude": "19-27-25.9 N",
		"longitude": "153-18-22.6 W",
		"state": "HAWAII",
		"artcc": "ZHN",
		"type": "RP",
		"updated": "ITO*VORTAC*088.00/97.85"
	},
	{
		"name": "EGIPT",
		"latitude": "19-49-37.3 N",
		"longitude": "156-2-15.97 W",
		"state": "HAWAII",
		"artcc": "ZHN",
		"type": "RP",
		"updated": "KOA*LD*353.82/6.38"
	},
	{
		"name": "EHEUU",
		"latitude": "21-17-15 N",
		"longitude": "157-26-46 W",
		"state": "HAWAII",
		"artcc": "ZHN",
		"type": "RNAV",
		"updated": "02/14/2012"
	},
	{
		"name": "EHIKU",
		"latitude": "19-57-38.31 N",
		"longitude": "155-45-13.37 W",
		"state": "HAWAII",
		"artcc": "ZHN",
		"type": "RP",
		"updated": "MUE*VOR/DME*233.75/5.24"
	},
	{
		"name": "EKAGE",
		"latitude": "19-43-16.99 N",
		"longitude": "155-3-52.66 W",
		"state": "HAWAII",
		"artcc": "ZHN",
		"type": "RNAV",
		"updated": "07/09/2002"
	},
	{
		"name": "EKJAY",
		"latitude": "21-19-30.07 N",
		"longitude": "158-13-11.77 W",
		"state": "HAWAII",
		"artcc": "ZHN",
		"type": "RNAV",
		"updated": "02/22/2017"
	},
	{
		"name": "EKUZY",
		"latitude": "28-9-58.29 N",
		"longitude": "177-28-58.7 W",
		"state": "MIDWAY ATOLL",
		"artcc": "ZHN",
		"type": "WP",
		"updated": "11/02/2001"
	},
	{
		"name": "ELAYN",
		"latitude": "21-7-27.16 N",
		"longitude": "158-42-31.77 W",
		"state": "HAWAII",
		"artcc": "ZHN",
		"type": "RP",
		"updated": "HNL*VORTAC*245.00/45.00"
	},
	{
		"name": "ELKUC",
		"latitude": "7-25-29.51 N",
		"longitude": "151-47-2.6 E",
		"state": "",
		"artcc": "ZHN",
		"type": "RP",
		"updated": "TKK*NDB/DME*234.41/4.01"
	},
	{
		"name": "EREBE",
		"latitude": "19-43-16.78 N",
		"longitude": "154-56-9.18 W",
		"state": "HAWAII",
		"artcc": "ZHN",
		"type": "RNAV",
		"updated": "07/09/2002"
	},
	{
		"name": "ERLNN",
		"latitude": "21-17-2.18 N",
		"longitude": "156-48-48.87 W",
		"state": "HAWAII",
		"artcc": "ZHN",
		"type": "RNAV",
		"updated": "02/14/2012"
	},
	{
		"name": "ERTTS",
		"latitude": "14-10-5.95 N",
		"longitude": "145-1-44.1 E",
		"state": "GUAM",
		"artcc": "ZHN",
		"type": "RP",
		"updated": "UNZ*VORTAC*020.00/46.00"
	},
	{
		"name": "ESOVY",
		"latitude": "28-16-1.3 N",
		"longitude": "177-11-30.51 W",
		"state": "MIDWAY ATOLL",
		"artcc": "ZHN",
		"type": "WP",
		"updated": "11/02/2001"
	},
	{
		"name": "ETTER",
		"latitude": "16-46-9.37 N",
		"longitude": "169-26-37.12 W",
		"state": "OFFSHORE PACIFIC",
		"artcc": "ZHN",
		"type": "MW",
		"updated": "02/18/1999"
	},
	{
		"name": "EVEVE",
		"latitude": "21-18-24.48 N",
		"longitude": "157-58-47.16 W",
		"state": "HAWAII",
		"artcc": "ZHN",
		"type": "RNAV",
		"updated": "05/10/2002"
	},
	{
		"name": "EVUTY",
		"latitude": "6-59-13.55 N",
		"longitude": "158-14-50.4 E",
		"state": "",
		"artcc": "ZHN",
		"type": "RNAV",
		"updated": "03/06/2017"
	},
	{
		"name": "EWABE",
		"latitude": "21-19-30.77 N",
		"longitude": "158-2-55.9 W",
		"state": "HAWAII",
		"artcc": "ZHN",
		"type": "RP",
		"updated": "HNL*LD*258.99/8.07"
	},
	{
		"name": "EYEPO",
		"latitude": "20-44-3.18 N",
		"longitude": "157-0-15.28 W",
		"state": "HAWAII",
		"artcc": "ZHN",
		"type": "RP",
		"updated": "LNY*LD*213.04/4.85"
	}
]
