[
	{
		"name": "FAKUR",
		"latitude": "20-52-0 N",
		"longitude": "154-18-8 W",
		"state": "HAWAII",
		"artcc": "ZHN",
		"type": "RNAV",
		"updated": "05/26/2011"
	},
	{
		"name": "FALOS",
		"latitude": "21-18-13.87 N",
		"longitude": "157-56-29.01 W",
		"state": "HAWAII",
		"artcc": "ZHN",
		"type": "RP",
		"updated": "IUM*LD*222.01/2.64"
	},
	{
		"name": "FAMBU",
		"latitude": "19-52-3.53 N",
		"longitude": "154-55-15.4 W",
		"state": "HAWAII",
		"artcc": "ZHN",
		"type": "RNAV",
		"updated": "07/09/2002"
	},
	{
		"name": "FAMOP",
		"latitude": "19-43-15.85 N",
		"longitude": "154-43-44.21 W",
		"state": "HAWAII",
		"artcc": "ZHN",
		"type": "RNAV",
		"updated": "07/09/2002"
	},
	{
		"name": "FAVLU",
		"latitude": "20-38-11.76 N",
		"longitude": "156-51-15.51 W",
		"state": "HAWAII",
		"artcc": "ZHN",
		"type": "RP",
		"updated": "LNY*VORTAC*128.85/10.00"
	},
	{
		"name": "FEGTU",
		"latitude": "21-19-30.69 N",
		"longitude": "158-4-6.55 W",
		"state": "HAWAII",
		"artcc": "ZHN",
		"type": "RP",
		"updated": "HNL*LD*258.99/9.17"
	},
	{
		"name": "FENSE",
		"latitude": "3-30-0 N",
		"longitude": "162-15-42 E",
		"state": "OFFSHORE PACIFIC",
		"artcc": "ZHN",
		"type": "RP",
		"updated": "02/04/1985"
	},
	{
		"name": "FEXAN",
		"latitude": "21-8-26.61 N",
		"longitude": "158-1-34.94 W",
		"state": "HAWAII",
		"artcc": "ZHN",
		"type": "RNAV",
		"updated": "04/17/2002"
	},
	{
		"name": "FFLRS",
		"latitude": "21-17-31.4 N",
		"longitude": "158-2-49.04 W",
		"state": "HAWAII",
		"artcc": "ZHN",
		"type": "MW",
		"updated": "06/05/2010"
	},
	{
		"name": "FGTRE",
		"latitude": "21-19-30.56 N",
		"longitude": "158-5-26.96 W",
		"state": "HAWAII",
		"artcc": "ZHN",
		"type": "RP",
		"updated": "HNL*LD*258.99/10.42"
	},
	{
		"name": "FIBEE",
		"latitude": "13-34-4.18 N",
		"longitude": "144-58-24.19 E",
		"state": "GUAM",
		"artcc": "ZHN",
		"type": "RP",
		"updated": "UNZ*VORTAC*062.23/15.58"
	},
	{
		"name": "FIRES",
		"latitude": "20-19-12.05 N",
		"longitude": "156-55-18.24 W",
		"state": "HAWAII",
		"artcc": "ZHN",
		"type": "RP",
		"updated": "MUE*VOR/DME*274.45/73.24"
	},
	{
		"name": "FISHE",
		"latitude": "21-46-38.01 N",
		"longitude": "155-32-7.97 W",
		"state": "HAWAII",
		"artcc": "ZHN",
		"type": "RP",
		"updated": "UPP*VORTAC*359.33/95.83"
	},
	{
		"name": "FITES",
		"latitude": "20-47-40.4 N",
		"longitude": "153-0-2.28 W",
		"state": "HAWAII",
		"artcc": "ZHN",
		"type": "RP",
		"updated": "ITO*VORTAC*049.16"
	},
	{
		"name": "FIVEO",
		"latitude": "21-4-40 N",
		"longitude": "157-54-36 W",
		"state": "HAWAII",
		"artcc": "ZHN",
		"type": "RNAV",
		"updated": "02/14/2012"
	},
	{
		"name": "FLITT",
		"latitude": "20-2-35.31 N",
		"longitude": "155-56-30.03 W",
		"state": "HAWAII",
		"artcc": "ZHN",
		"type": "RP",
		"updated": "MUE*VOR/DME*269.00"
	},
	{
		"name": "FOGOL",
		"latitude": "21-3-46.33 N",
		"longitude": "156-16-14.9 W",
		"state": "HAWAII",
		"artcc": "ZHN",
		"type": "RNAV",
		"updated": "12/04/2008"
	},
	{
		"name": "FOOTS",
		"latitude": "31-7-55.41 N",
		"longitude": "123-32-52.81 W",
		"state": "OFFSHORE PACIFIC",
		"artcc": "ZHN",
		"type": "RP",
		"updated": "01/22/1982"
	},
	{
		"name": "FRAKR",
		"latitude": "22-12-19.38 N",
		"longitude": "159-12-43.74 W",
		"state": "HAWAII",
		"artcc": "ZHN",
		"type": "RP",
		"updated": "LIH*VORTAC*015.00/16.00"
	},
	{
		"name": "FREDI",
		"latitude": "22-32-24.3 N",
		"longitude": "156-48-18.23 W",
		"state": "HAWAII",
		"artcc": "ZHN",
		"type": "RP",
		"updated": "OGG*VORTAC*336.60/99.61"
	},
	{
		"name": "FUNKI",
		"latitude": "20-36-29.92 N",
		"longitude": "156-23-38.13 W",
		"state": "HAWAII",
		"artcc": "ZHN",
		"type": "RP",
		"updated": "OGG*VORTAC*164.12/17.89"
	},
	{
		"name": "FUZZE",
		"latitude": "21-50-49.24 N",
		"longitude": "157-49-52.02 W",
		"state": "OFFSHORE PACIFIC",
		"artcc": "ZHN",
		"type": "MR",
		"updated": "SOK*VORTAC*080.61/94.80"
	}
]
