[
	{
		"name": "HADIG",
		"latitude": "21-18-23.25 N",
		"longitude": "158-17-11.76 W",
		"state": "HAWAII",
		"artcc": "ZHN",
		"type": "RNAV",
		"updated": "05/10/2002"
	},
	{
		"name": "HAGLL",
		"latitude": "19-40-45.68 N",
		"longitude": "154-53-43.88 W",
		"state": "HAWAII",
		"artcc": "ZHN",
		"type": "RP",
		"updated": "ITO*VORTAC*099.99/7.00"
	},
	{
		"name": "HAIKU",
		"latitude": "20-58-9 N",
		"longitude": "156-17-4 W",
		"state": "HAWAII",
		"artcc": "ZHN",
		"type": "RNAV",
		"updated": "05/26/2011"
	},
	{
		"name": "HAKRI",
		"latitude": "19-49-23.68 N",
		"longitude": "154-30-3.03 W",
		"state": "HAWAII",
		"artcc": "ZHN",
		"type": "RP",
		"updated": "ITO*VORTAC*067.00/29.50"
	},
	{
		"name": "HALEU",
		"latitude": "20-42-42.31 N",
		"longitude": "155-49-46.8 W",
		"state": "HAWAII",
		"artcc": "ZHN",
		"type": "RNAV",
		"updated": "07/12/2005"
	},
	{
		"name": "HAPAI",
		"latitude": "21-15-51.52 N",
		"longitude": "157-3-1.25 W",
		"state": "HAWAII",
		"artcc": "ZHN",
		"type": "RP",
		"updated": "LNY*VORTAC*340.31"
	},
	{
		"name": "HARPE",
		"latitude": "21-36-8.39 N",
		"longitude": "157-37-51.35 W",
		"state": "HAWAII",
		"artcc": "ZHN",
		"type": "RP",
		"updated": "MKK*VORTAC*306.00/38.00"
	},
	{
		"name": "HARPO",
		"latitude": "20-38-29.35 N",
		"longitude": "156-30-55.28 W",
		"state": "HAWAII",
		"artcc": "ZHN",
		"type": "RP",
		"updated": "VYI*NDB*184.96"
	},
	{
		"name": "HASOG",
		"latitude": "19-31-23.26 N",
		"longitude": "156-3-53.32 W",
		"state": "HAWAII",
		"artcc": "ZHN",
		"type": "RNAV",
		"updated": "07/20/2011"
	},
	{
		"name": "HAUNA",
		"latitude": "21-5-38.83 N",
		"longitude": "157-42-45.06 W",
		"state": "HAWAII",
		"artcc": "ZHN",
		"type": "RP",
		"updated": "HNL*VORTAC*125.31/17.70"
	},
	{
		"name": "HAVBI",
		"latitude": "20-51-4.27 N",
		"longitude": "157-7-15.74 W",
		"state": "HAWAII",
		"artcc": "ZHN",
		"type": "RP",
		"updated": "LNY*VORTAC*290.24/10.00"
	},
	{
		"name": "HAVNU",
		"latitude": "7-4-40.55 N",
		"longitude": "158-41-44.65 E",
		"state": "",
		"artcc": "ZHN",
		"type": "RP",
		"updated": "PNI*NDB/DME*072.00/30.00"
	},
	{
		"name": "HEDAT",
		"latitude": "20-56-37.75 N",
		"longitude": "156-19-56.34 W",
		"state": "HAWAII",
		"artcc": "ZHN",
		"type": "RNAV",
		"updated": "12/04/2008"
	},
	{
		"name": "HEFTI",
		"latitude": "20-11-4.7 N",
		"longitude": "156-14-51.33 W",
		"state": "HAWAII",
		"artcc": "ZHN",
		"type": "RP",
		"updated": "UPP*VORTAC*256.68/22.84"
	},
	{
		"name": "HEFTL",
		"latitude": "21-15-44.86 N",
		"longitude": "157-50-22.84 W",
		"state": "HAWAII",
		"artcc": "ZHN",
		"type": "RP",
		"updated": "EPC*DD*SE CRS/5.40"
	},
	{
		"name": "HELUX",
		"latitude": "21-41-5.02 N",
		"longitude": "157-42-49.13 W",
		"state": "HAWAII",
		"artcc": "ZHN",
		"type": "RP",
		"updated": "MKK*VORTAC*306.00/44.76"
	},
	{
		"name": "HEROV",
		"latitude": "21-52-54.4 N",
		"longitude": "158-52-10.81 W",
		"state": "HAWAII",
		"artcc": "ZHN",
		"type": "MR",
		"updated": "SOK*VORTAC*080.61/36.80"
	},
	{
		"name": "HERTI",
		"latitude": "21-27-50.31 N",
		"longitude": "157-45-12.47 W",
		"state": "HAWAII",
		"artcc": "ZHN",
		"type": "MR",
		"updated": "NGF*TACAN*011.65/0.50"
	},
	{
		"name": "HIKAG",
		"latitude": "21-15-23.89 N",
		"longitude": "158-8-42.87 W",
		"state": "HAWAII",
		"artcc": "ZHN",
		"type": "RNAV",
		"updated": "12/27/2013"
	},
	{
		"name": "HINUN",
		"latitude": "19-51-12.58 N",
		"longitude": "155-44-45.92 W",
		"state": "HAWAII",
		"artcc": "ZHN",
		"type": "RNAV",
		"updated": "04/07/2016"
	},
	{
		"name": "HIRCH",
		"latitude": "14-47-21.11 N",
		"longitude": "145-46-6.68 E",
		"state": "N MARIANA ISLANDS",
		"artcc": "ZHN",
		"type": "RP",
		"updated": "UNZ*VORTAC*035.00/100.00"
	},
	{
		"name": "HIRUP",
		"latitude": "7-23-26.95 N",
		"longitude": "151-43-35.01 E",
		"state": "",
		"artcc": "ZHN",
		"type": "RP",
		"updated": "TKK*NDB/DME*234.41/8.00"
	},
	{
		"name": "HNAPI",
		"latitude": "21-48-23 N",
		"longitude": "157-59-56 W",
		"state": "HAWAII",
		"artcc": "ZHN",
		"type": "RNAV",
		"updated": "04/13/2010"
	},
	{
		"name": "HODAY",
		"latitude": "19-36-8.33 N",
		"longitude": "154-13-34.65 W",
		"state": "HAWAII",
		"artcc": "ZHN",
		"type": "RP",
		"updated": "ITO*VORTAC*088.00/45.00"
	},
	{
		"name": "HOKLA",
		"latitude": "20-13-33.48 N",
		"longitude": "156-49-36.24 W",
		"state": "HAWAII",
		"artcc": "ZHN",
		"type": "RP",
		"updated": "OGG*VORTAC*198.39"
	},
	{
		"name": "HOLNI",
		"latitude": "21-35-5.01 N",
		"longitude": "157-39-24.84 W",
		"state": "HAWAII",
		"artcc": "ZHN",
		"type": "MR",
		"updated": "NGF*TACAN*026.00/9.50"
	},
	{
		"name": "HOMAI",
		"latitude": "20-54-9 N",
		"longitude": "156-20-3 W",
		"state": "HAWAII",
		"artcc": "ZHN",
		"type": "RNAV",
		"updated": "05/26/2011"
	},
	{
		"name": "HOPPY",
		"latitude": "14-1-18.7 N",
		"longitude": "146-20-39.6 E",
		"state": "GUAM",
		"artcc": "ZHN",
		"type": "RP",
		"updated": "UNZ*VORTAC*068.00/100.00"
	},
	{
		"name": "HOSAX",
		"latitude": "21-37-15.89 N",
		"longitude": "159-44-46.39 W",
		"state": "HAWAII",
		"artcc": "ZHN",
		"type": "MR",
		"updated": "NBS*TACAN*165.00/25.00"
	},
	{
		"name": "HOXLY",
		"latitude": "19-38-23.22 N",
		"longitude": "156-3-15.99 W",
		"state": "HAWAII",
		"artcc": "ZHN",
		"type": "RP",
		"updated": "KOA*LD*173.82/4.86"
	},
	{
		"name": "HPKNS",
		"latitude": "21-17-18.37 N",
		"longitude": "158-10-7.11 W",
		"state": "HAWAII",
		"artcc": "ZHN",
		"type": "RP",
		"updated": "HNL*VORTAC*253.95/13.40"
	},
	{
		"name": "HUKLA",
		"latitude": "20-54-27.58 N",
		"longitude": "156-25-21.12 W",
		"state": "HAWAII",
		"artcc": "ZHN",
		"type": "RNAV",
		"updated": "07/22/2002"
	},
	{
		"name": "HUNPU",
		"latitude": "22-6-13.71 N",
		"longitude": "159-48-1.44 W",
		"state": "HAWAII",
		"artcc": "ZHN",
		"type": "MW",
		"updated": "05/07/2010"
	},
	{
		"name": "HUPUK",
		"latitude": "21-41-22.5 N",
		"longitude": "159-9-47.13 W",
		"state": "HAWAII",
		"artcc": "ZHN",
		"type": "RP",
		"updated": "SOK*VORTAC*110.61/24.00"
	},
	{
		"name": "HUXOR",
		"latitude": "21-18-24.38 N",
		"longitude": "158-2-55.87 W",
		"state": "HAWAII",
		"artcc": "ZHN",
		"type": "RNAV",
		"updated": "05/10/2002"
	}
]
