[
	{
		"name": "IBICU",
		"latitude": "21-17-29.58 N",
		"longitude": "157-51-24.64 W",
		"state": "HAWAII",
		"artcc": "ZHN",
		"type": "RNAV",
		"updated": "08/01/2006"
	},
	{
		"name": "IDOCA",
		"latitude": "29-55-0 N",
		"longitude": "180-0-0 E",
		"state": "MIDWAY ATOLL",
		"artcc": "ZHN",
		"type": "RP",
		"updated": "02/27/2012"
	},
	{
		"name": "IFUPO",
		"latitude": "28-14-43.22 N",
		"longitude": "177-37-0.34 W",
		"state": "MIDWAY ATOLL",
		"artcc": "ZHN",
		"type": "WP",
		"updated": "12/18/2001"
	},
	{
		"name": "IHEPA",
		"latitude": "20-47-44.25 N",
		"longitude": "156-0-0.96 W",
		"state": "HAWAII",
		"artcc": "ZHN",
		"type": "RNAV",
		"updated": "07/12/2005"
	},
	{
		"name": "IKOFO",
		"latitude": "7-5-5.62 N",
		"longitude": "158-24-34.23 E",
		"state": "",
		"artcc": "ZHN",
		"type": "WP",
		"updated": "11/02/1998"
	},
	{
		"name": "IMEBE",
		"latitude": "20-55-42.66 N",
		"longitude": "156-22-2.47 W",
		"state": "HAWAII",
		"artcc": "ZHN",
		"type": "RNAV",
		"updated": "07/15/2002"
	},
	{
		"name": "INECE",
		"latitude": "19-48-14.51 N",
		"longitude": "156-2-32.2 W",
		"state": "HAWAII",
		"artcc": "ZHN",
		"type": "RP",
		"updated": "KOA*VORTAC*350.65/5.19"
	},
	{
		"name": "INOYE",
		"latitude": "21-10-56 N",
		"longitude": "157-48-44 W",
		"state": "HAWAII",
		"artcc": "ZHN",
		"type": "RNAV",
		"updated": "02/14/2012"
	},
	{
		"name": "INUCU",
		"latitude": "20-47-43.94 N",
		"longitude": "155-55-14.49 W",
		"state": "HAWAII",
		"artcc": "ZHN",
		"type": "RNAV",
		"updated": "07/12/2005"
	},
	{
		"name": "IQJOV",
		"latitude": "6-59-25.13 N",
		"longitude": "158-14-35.5 E",
		"state": "",
		"artcc": "ZHN",
		"type": "RP",
		"updated": "PNI*NDB/DME*072.00/2.50"
	},
	{
		"name": "ISSNO",
		"latitude": "21-3-36 N",
		"longitude": "156-43-42 W",
		"state": "HAWAII",
		"artcc": "ZHN",
		"type": "RNAV",
		"updated": "12/14/2011"
	},
	{
		"name": "IVATE",
		"latitude": "22-2-58.21 N",
		"longitude": "159-8-22.62 W",
		"state": "HAWAII",
		"artcc": "ZHN",
		"type": "RNAV",
		"updated": "03/19/2003"
	},
	{
		"name": "IVEYS",
		"latitude": "21-34-12.66 N",
		"longitude": "157-27-45.91 W",
		"state": "HAWAII",
		"artcc": "ZHN",
		"type": "MR",
		"updated": "CKH*VORTAC*022.00/22.00"
	},
	{
		"name": "IWOHI",
		"latitude": "21-21-57.22 N",
		"longitude": "157-51-34.28 W",
		"state": "HAWAII",
		"artcc": "ZHN",
		"type": "RP",
		"updated": "HHI*NDB*113.40"
	},
	{
		"name": "IZZIY",
		"latitude": "20-41-0 N",
		"longitude": "158-1-35 W",
		"state": "HAWAII",
		"artcc": "ZHN",
		"type": "RNAV",
		"updated": "01/30/2014"
	}
]
