[
	{
		"name": "JABDI",
		"latitude": "21-59-49.13 N",
		"longitude": "159-19-22.79 W",
		"state": "HAWAII",
		"artcc": "ZHN",
		"type": "RNAV",
		"updated": "04/07/2003"
	},
	{
		"name": "JASON",
		"latitude": "19-54-30.75 N",
		"longitude": "155-52-13 W",
		"state": "HAWAII",
		"artcc": "ZHN",
		"type": "RP",
		"updated": "MUE*VOR/DME*233.75/12.53"
	},
	{
		"name": "JAVAT",
		"latitude": "21-50-14.7 N",
		"longitude": "159-46-12.7 W",
		"state": "HAWAII",
		"artcc": "ZHN",
		"type": "MR",
		"updated": "04/23/2013"
	},
	{
		"name": "JAZYY",
		"latitude": "20-47-58 N",
		"longitude": "158-30-59 W",
		"state": "HAWAII",
		"artcc": "ZHN",
		"type": "RNAV",
		"updated": "01/30/2014"
	},
	{
		"name": "JEETI",
		"latitude": "21-14-4 N",
		"longitude": "157-51-17 W",
		"state": "HAWAII",
		"artcc": "ZHN",
		"type": "RNAV",
		"updated": "02/14/2012"
	},
	{
		"name": "JEMKO",
		"latitude": "21-2-15.05 N",
		"longitude": "157-16-3.24 W",
		"state": "HAWAII",
		"artcc": "ZHN",
		"type": "RNAV",
		"updated": "02/01/2002"
	},
	{
		"name": "JENSO",
		"latitude": "19-42-43.23 N",
		"longitude": "156-2-52.85 W",
		"state": "HAWAII",
		"artcc": "ZHN",
		"type": "RP",
		"updated": "KOA*LD*173.82/0.52"
	},
	{
		"name": "JESOM",
		"latitude": "19-57-18.91 N",
		"longitude": "155-1-41.67 W",
		"state": "HAWAII",
		"artcc": "ZHN",
		"type": "RNAV",
		"updated": "05/10/2012"
	},
	{
		"name": "JESSI",
		"latitude": "20-15-54.76 N",
		"longitude": "156-25-10.37 W",
		"state": "HAWAII",
		"artcc": "ZHN",
		"type": "RP",
		"updated": "OGG*VORTAC*168.88/38.23"
	},
	{
		"name": "JIMMA",
		"latitude": "21-36-13 N",
		"longitude": "159-8-9 W",
		"state": "HAWAII",
		"artcc": "ZHN",
		"type": "RNAV",
		"updated": "01/13/2011"
	},
	{
		"name": "JINAS",
		"latitude": "20-50-52.74 N",
		"longitude": "156-27-49.11 W",
		"state": "HAWAII",
		"artcc": "ZHN",
		"type": "RNAV",
		"updated": "05/26/2011"
	},
	{
		"name": "JLAKE",
		"latitude": "21-56-11 N",
		"longitude": "158-56-42 W",
		"state": "HAWAII",
		"artcc": "ZHN",
		"type": "RNAV",
		"updated": "01/13/2011"
	},
	{
		"name": "JOELE",
		"latitude": "21-40-6.45 N",
		"longitude": "157-11-14.08 W",
		"state": "OFFSHORE PACIFIC",
		"artcc": "ZHN",
		"type": "RP",
		"updated": "CKH*VORTAC*039.03/37.61"
	},
	{
		"name": "JOISY",
		"latitude": "16-41-19.13 N",
		"longitude": "169-37-29.76 W",
		"state": "OFFSHORE PACIFIC",
		"artcc": "ZHN",
		"type": "MW",
		"updated": "02/18/1999"
	},
	{
		"name": "JOLUN",
		"latitude": "20-46-51.34 N",
		"longitude": "156-24-5.08 W",
		"state": "HAWAII",
		"artcc": "ZHN",
		"type": "RNAV",
		"updated": "05/26/2011"
	},
	{
		"name": "JONAS",
		"latitude": "14-16-31 S",
		"longitude": "170-32-49.18 W",
		"state": "",
		"artcc": "ZHN",
		"type": "RP",
		"updated": "TUT*VORTAC*058.00/10.00"
	},
	{
		"name": "JORDA",
		"latitude": "20-39-34.66 N",
		"longitude": "157-15-58.23 W",
		"state": "HAWAII",
		"artcc": "ZHN",
		"type": "RP",
		"updated": "HNL*VORTAC*125.00/53.80"
	},
	{
		"name": "JOVBO",
		"latitude": "21-39-57.12 N",
		"longitude": "157-35-37.47 W",
		"state": "HAWAII",
		"artcc": "ZHN",
		"type": "MR",
		"updated": "NGF*TACAN*026.00/15.50"
	},
	{
		"name": "JUDEZ",
		"latitude": "20-58-27.41 N",
		"longitude": "156-22-22.5 W",
		"state": "HAWAII",
		"artcc": "ZHN",
		"type": "RNAV",
		"updated": "04/05/2016"
	},
	{
		"name": "JULLE",
		"latitude": "20-57-35.78 N",
		"longitude": "157-34-35.29 W",
		"state": "HAWAII",
		"artcc": "ZHN",
		"type": "RP",
		"updated": "HNL*VORTAC*125.31/28.77"
	},
	{
		"name": "JUNIE",
		"latitude": "11-32-50.64 N",
		"longitude": "147-6-28.51 E",
		"state": "GUAM",
		"artcc": "ZHN",
		"type": "RP",
		"updated": "UNZ*VORTAC*127.00/180.00"
	},
	{
		"name": "JUSSS",
		"latitude": "20-54-50.29 N",
		"longitude": "159-12-20.17 W",
		"state": "HAWAII",
		"artcc": "ZHN",
		"type": "RP",
		"updated": "HNL*VORTAC*240.99/75.32"
	}
]
