[
	{
		"name": "LANEO",
		"latitude": "21-14-55.96 N",
		"longitude": "158-1-9.12 W",
		"state": "HAWAII",
		"artcc": "ZHN",
		"type": "RP",
		"updated": "IUM*LD*222.01/8.10"
	},
	{
		"name": "LARYN",
		"latitude": "21-56-1.66 N",
		"longitude": "157-11-49.9 W",
		"state": "HAWAII",
		"artcc": "ZHN",
		"type": "RP",
		"updated": "MKK*VORTAC*347.00/47.60"
	},
	{
		"name": "LAVAS",
		"latitude": "20-29-26.05 N",
		"longitude": "156-25-9.35 W",
		"state": "HAWAII",
		"artcc": "ZHN",
		"type": "RP",
		"updated": "OGG*VORTAC*168.78/24.86"
	},
	{
		"name": "LAYIG",
		"latitude": "21-10-33.84 N",
		"longitude": "158-1-2.09 W",
		"state": "HAWAII",
		"artcc": "ZHN",
		"type": "RNAV",
		"updated": "07/31/2006"
	},
	{
		"name": "LEANE",
		"latitude": "21-16-9.87 N",
		"longitude": "159-42-52.84 W",
		"state": "HAWAII",
		"artcc": "ZHN",
		"type": "RP",
		"updated": "SOK*VORTAC*184.00"
	},
	{
		"name": "LEHUA",
		"latitude": "21-11-14.33 N",
		"longitude": "157-48-25.92 W",
		"state": "HAWAII",
		"artcc": "ZHN",
		"type": "RP",
		"updated": "CKH*VORTAC*220.50"
	},
	{
		"name": "LELEO",
		"latitude": "21-59-41.05 N",
		"longitude": "159-19-31.21 W",
		"state": "HAWAII",
		"artcc": "ZHN",
		"type": "RP",
		"updated": "LIH*VORTAC*011.02/1.90"
	},
	{
		"name": "LETTR",
		"latitude": "21-30-43.81 N",
		"longitude": "157-43-58.87 W",
		"state": "HAWAII",
		"artcc": "ZHN",
		"type": "MR",
		"updated": "NGF*TACAN*011.65/3.60"
	},
	{
		"name": "LICEP",
		"latitude": "20-0-55.84 N",
		"longitude": "155-37-28.94 W",
		"state": "HAWAII",
		"artcc": "ZHN",
		"type": "RNAV",
		"updated": "07/20/2011"
	},
	{
		"name": "LILIA",
		"latitude": "22-30-27.72 N",
		"longitude": "161-34-59.3 W",
		"state": "HAWAII",
		"artcc": "ZHN",
		"type": "RP",
		"updated": "SOK*VORTAC*277.00/120.00"
	},
	{
		"name": "LIMPE",
		"latitude": "14-13-10.36 S",
		"longitude": "170-59-40.75 W",
		"state": "",
		"artcc": "ZHN",
		"type": "RP",
		"updated": "TUT*VORTAC*280.00/18.00"
	},
	{
		"name": "LNBRG",
		"latitude": "20-38-19.08 N",
		"longitude": "155-56-1.43 W",
		"state": "HAWAII",
		"artcc": "ZHN",
		"type": "RP",
		"updated": "UPP*VORTAC*338.00/26.68"
	},
	{
		"name": "LNDHY",
		"latitude": "21-10-25 N",
		"longitude": "156-7-30 W",
		"state": "HAWAII",
		"artcc": "ZHN",
		"type": "RNAV",
		"updated": "05/26/2011"
	},
	{
		"name": "LOKIE",
		"latitude": "21-7-26.26 N",
		"longitude": "157-20-42.18 W",
		"state": "HAWAII",
		"artcc": "ZHN",
		"type": "RP",
		"updated": "LNY*VORTAC*304.56"
	},
	{
		"name": "LORET",
		"latitude": "20-59-26.93 N",
		"longitude": "156-41-29.02 W",
		"state": "HAWAII",
		"artcc": "ZHN",
		"type": "RP",
		"updated": "LNY*VORTAC*038.00"
	},
	{
		"name": "LUANA",
		"latitude": "20-0-38.94 N",
		"longitude": "155-39-18.93 W",
		"state": "HAWAII",
		"artcc": "ZHN",
		"type": "RNAV",
		"updated": "07/10/2003"
	},
	{
		"name": "LUYEV",
		"latitude": "21-1-34.05 N",
		"longitude": "157-59-25.89 W",
		"state": "HAWAII",
		"artcc": "ZHN",
		"type": "RNAV",
		"updated": "05/21/2007"
	},
	{
		"name": "LYDAT",
		"latitude": "21-52-17.73 N",
		"longitude": "159-17-58.43 W",
		"state": "HAWAII",
		"artcc": "ZHN",
		"type": "RP",
		"updated": "SOK*VORTAC*086.62"
	}
]
