[
	{
		"name": "NAGAI",
		"latitude": "21-46-40.43 N",
		"longitude": "159-15-39.84 W",
		"state": "HAWAII",
		"artcc": "ZHN",
		"type": "RP",
		"updated": "SOK*VORTAC*105.05"
	},
	{
		"name": "NALII",
		"latitude": "21-18-24.46 N",
		"longitude": "157-53-12.39 W",
		"state": "HAWAII",
		"artcc": "ZHN",
		"type": "RNAV",
		"updated": "07/31/2006"
	},
	{
		"name": "NANLE",
		"latitude": "19-40-53.87 N",
		"longitude": "156-14-18.12 W",
		"state": "HAWAII",
		"artcc": "ZHN",
		"type": "RNAV",
		"updated": "07/20/2011"
	},
	{
		"name": "NAPUA",
		"latitude": "21-44-10.93 N",
		"longitude": "159-14-38.56 W",
		"state": "HAWAII",
		"artcc": "ZHN",
		"type": "RP",
		"updated": "SOK*VORTAC*110.61/18.68"
	},
	{
		"name": "NARKS",
		"latitude": "13-44-7.21 N",
		"longitude": "145-21-6 E",
		"state": "GUAM",
		"artcc": "ZHN",
		"type": "MR",
		"updated": "UNZ*VORTAC*063.00/40.00"
	},
	{
		"name": "NASZU",
		"latitude": "22-22-37.8 N",
		"longitude": "159-58-45.73 W",
		"state": "HAWAII",
		"artcc": "ZHN",
		"type": "MR",
		"updated": "NBS*TACAN*322.00/23.00"
	},
	{
		"name": "NAUTI",
		"latitude": "21-54-35.52 N",
		"longitude": "159-47-6.64 W",
		"state": "HAWAII",
		"artcc": "ZHN",
		"type": "MR",
		"updated": "NBS*TACAN*169.99/7.64"
	},
	{
		"name": "NDREW",
		"latitude": "20-31-46.68 N",
		"longitude": "156-33-7.76 W",
		"state": "HAWAII",
		"artcc": "ZHN",
		"type": "RNAV",
		"updated": "04/05/2016"
	},
	{
		"name": "NEEEL",
		"latitude": "21-39-54 N",
		"longitude": "158-17-18 W",
		"state": "HAWAII",
		"artcc": "ZHN",
		"type": "RNAV",
		"updated": "04/13/2010"
	},
	{
		"name": "NENVE",
		"latitude": "19-45-13.83 N",
		"longitude": "156-2-36.01 W",
		"state": "HAWAII",
		"artcc": "ZHN",
		"type": "RP",
		"updated": "KOA*VORTAC*350.65/2.19"
	},
	{
		"name": "NIKKI",
		"latitude": "21-46-2.12 N",
		"longitude": "157-30-52.89 W",
		"state": "OFFSHORE PACIFIC",
		"artcc": "ZHN",
		"type": "MR",
		"updated": "MKK*VORTAC*321.74/42.34"
	},
	{
		"name": "NIYIT",
		"latitude": "20-41-11.08 N",
		"longitude": "156-48-41.93 W",
		"state": "HAWAII",
		"artcc": "ZHN",
		"type": "RP",
		"updated": "LNY*VORTAC*106.80/10.00"
	},
	{
		"name": "NOHEA",
		"latitude": "19-59-46.73 N",
		"longitude": "155-40-25.56 W",
		"state": "HAWAII",
		"artcc": "ZHN",
		"type": "RP",
		"updated": "MUE*VOR/DME*233.75/0.24"
	},
	{
		"name": "NONNI",
		"latitude": "21-13-42.3 N",
		"longitude": "161-2-59.58 W",
		"state": "HAWAII",
		"artcc": "ZHN",
		"type": "RP",
		"updated": "SOK*VORTAC*234.00/94.08"
	},
	{
		"name": "NORBY",
		"latitude": "21-9-18.74 N",
		"longitude": "157-31-21.71 W",
		"state": "HAWAII",
		"artcc": "ZHN",
		"type": "RP",
		"updated": "CKH*VORTAC*112.00/12.00"
	},
	{
		"name": "NOWAK",
		"latitude": "20-51-3.93 N",
		"longitude": "156-27-52.66 W",
		"state": "HAWAII",
		"artcc": "ZHN",
		"type": "RP",
		"updated": "OGG*LD*203.97/4.10"
	},
	{
		"name": "NUDSE",
		"latitude": "21-36-18.05 N",
		"longitude": "157-38-28.02 W",
		"state": "HAWAII",
		"artcc": "ZHN",
		"type": "MR",
		"updated": "NGF*TACAN*026.00/11.00"
	},
	{
		"name": "NUTTI",
		"latitude": "5-0-0 N",
		"longitude": "145-42-24 E",
		"state": "OFFSHORE PACIFIC",
		"artcc": "ZHN",
		"type": "RP",
		"updated": "02/04/1985"
	}
]
