[
	{
		"name": "PAKKI",
		"latitude": "20-10-40.33 N",
		"longitude": "155-23-48.69 W",
		"state": "HAWAII",
		"artcc": "ZHN",
		"type": "RP",
		"updated": "ITO*VORTAC*310.43/34.94"
	},
	{
		"name": "PALAY",
		"latitude": "21-6-20.74 N",
		"longitude": "157-34-13.24 W",
		"state": "HAWAII",
		"artcc": "ZHN",
		"type": "RP",
		"updated": "HNL*VORTAC*110.90/23.54"
	},
	{
		"name": "PARIS",
		"latitude": "20-10-7.16 N",
		"longitude": "155-13-18.9 W",
		"state": "HAWAII",
		"artcc": "ZHN",
		"type": "RP",
		"updated": "ITO*VORTAC*325.00/29.28"
	},
	{
		"name": "PASSA",
		"latitude": "5-0-0 S",
		"longitude": "161-31-30 W",
		"state": "OFFSHORE PACIFIC",
		"artcc": "ZHN",
		"type": "RP",
		"updated": "02/04/1985"
	},
	{
		"name": "PATSY",
		"latitude": "21-53-13.38 N",
		"longitude": "158-45-12.31 W",
		"state": "HAWAII",
		"artcc": "ZHN",
		"type": "MR",
		"updated": "LIH*VORTAC*087.00/32.95"
	},
	{
		"name": "PENRE",
		"latitude": "21-13-22.74 N",
		"longitude": "158-11-50.47 W",
		"state": "HAWAII",
		"artcc": "ZHN",
		"type": "RNAV",
		"updated": "05/10/2002"
	},
	{
		"name": "PERLY",
		"latitude": "21-16-6.62 N",
		"longitude": "157-59-29.16 W",
		"state": "HAWAII",
		"artcc": "ZHN",
		"type": "RP",
		"updated": "IUM*LD*222.01/6.15"
	},
	{
		"name": "PIKOK",
		"latitude": "0-0-0 N",
		"longitude": "146-8-30 E",
		"state": "OFFSHORE PACIFIC",
		"artcc": "ZHN",
		"type": "RP",
		"updated": "07/01/1988"
	},
	{
		"name": "PILPE",
		"latitude": "19-32-13.45 N",
		"longitude": "156-14-26.36 W",
		"state": "HAWAII",
		"artcc": "ZHN",
		"type": "RNAV",
		"updated": "07/20/2011"
	},
	{
		"name": "PITTI",
		"latitude": "14-29-46.73 S",
		"longitude": "170-44-38.39 W",
		"state": "",
		"artcc": "ZHN",
		"type": "RP",
		"updated": "TUT*VORTAC*180.00/10.00"
	},
	{
		"name": "PLUMB",
		"latitude": "21-12-42.3 N",
		"longitude": "156-36-5.35 W",
		"state": "HAWAII",
		"artcc": "ZHN",
		"type": "RP",
		"updated": "VYI*NDB*324.78"
	},
	{
		"name": "POKAI",
		"latitude": "20-4-51.64 N",
		"longitude": "155-29-5.52 W",
		"state": "HAWAII",
		"artcc": "ZHN",
		"type": "RNAV",
		"updated": "07/10/2003"
	},
	{
		"name": "PONOI",
		"latitude": "15-0-51.51 N",
		"longitude": "145-27-56.7 E",
		"state": "GUAM",
		"artcc": "ZHN",
		"type": "RP",
		"updated": "GSN*LD*SW CRS/17.39"
	},
	{
		"name": "PRASK",
		"latitude": "19-49-41.94 N",
		"longitude": "155-3-40.63 W",
		"state": "HAWAII",
		"artcc": "ZHN",
		"type": "RP",
		"updated": "ITO*VORTAC*325.00/7.00"
	},
	{
		"name": "PUKUE",
		"latitude": "20-43-33.25 N",
		"longitude": "156-32-40.54 W",
		"state": "HAWAII",
		"artcc": "ZHN",
		"type": "RNAV",
		"updated": "05/26/2011"
	},
	{
		"name": "PULPS",
		"latitude": "20-28-19.78 N",
		"longitude": "155-53-57.46 W",
		"state": "HAWAII",
		"artcc": "ZHN",
		"type": "RP",
		"updated": "UPP*VORTAC*338.00/16.54"
	},
	{
		"name": "PUMIC",
		"latitude": "20-18-2.29 N",
		"longitude": "155-17-3.98 W",
		"state": "HAWAII",
		"artcc": "ZHN",
		"type": "RP",
		"updated": "ITO*VORTAC*325.00/38.00"
	},
	{
		"name": "PUPPI",
		"latitude": "21-55-16.98 N",
		"longitude": "161-40-46.68 W",
		"state": "HAWAII",
		"artcc": "ZHN",
		"type": "RP",
		"updated": "SOK*VORTAC*260.00/120.00"
	}
]
