	{
		"name": "TACHI",
		"latitude": "21-24-34.48 N",
		"longitude": "157-59-35.51 W",
		"state": "HAWAII",
		"artcc": "ZHN",
		"type": "MR",
		"updated": "HNL*VORTAC*318.86/7.00",
	},
	{
		"name": "TAMMI",
		"latitude": "20-5-33.56 N",
		"longitude": "156-2-0.51 W",
		"state": "HAWAII",
		"artcc": "ZHN",
		"type": "RP",
		"updated": "UPP*VORTAC*228.04/12.53",
	},
	{
		"name": "TANFO",
		"latitude": "21-30-2.85 N",
		"longitude": "153-45-59.25 W",
		"state": "HAWAII",
		"artcc": "ZHN",
		"type": "RP",
		"updated": "OGG*VORTAC*065.09/153.00",
	},
	{
		"name": "TARLE",
		"latitude": "21-16-29.74 N",
		"longitude": "158-19-41.07 W",
		"state": "HAWAII",
		"artcc": "ZHN",
		"type": "RP",
		"updated": "HNL*VORTAC*253.95/22.37",
	},
	{
		"name": "TEBBS",
		"latitude": "20-47-26.89 N",
		"longitude": "156-30-34.01 W",
		"state": "HAWAII",
		"artcc": "ZHN",
		"type": "RP",
		"updated": "OGG*LD*203.97/8.50",
	},
	{
		"name": "TEETA",
		"latitude": "19-49-13.14 N",
		"longitude": "155-42-10.72 W",
		"state": "HAWAII",
		"artcc": "ZHN",
		"type": "MR",
		"updated": "MUE*VOR/DME*179.00/10.79",
	},
	{
		"name": "TEWVU",
		"latitude": "20-37-43.48 N",
		"longitude": "157-4-21.92 W",
		"state": "HAWAII",
		"artcc": "ZHN",
		"type": "RP",
		"updated": "LNY*VORTAC*204.77/10.00",
	},
	{
		"name": "TEZYU",
		"latitude": "20-50-18.51 N",
		"longitude": "157-11-51.65 W",
		"state": "HAWAII",
		"artcc": "ZHN",
		"type": "CN",
		"updated": "06/26/2003",
	},
	{
		"name": "THOMA",
		"latitude": "23-56-36.42 N",
		"longitude": "160-45-48.6 W",
		"state": "HAWAII",
		"artcc": "ZHN",
		"type": "RNAV",
		"updated": "10/27/2016",
	},
	{
		"name": "TIGAH",
		"latitude": "20-4-49.95 N",
		"longitude": "155-27-13.52 W",
		"state": "HAWAII",
		"artcc": "ZHN",
		"type": "RP",
		"updated": "MUE*VOR/DME*056.96/13.17",
	},
	{
		"name": "TOADS",
		"latitude": "22-46-9.3 N",
		"longitude": "156-41-45.7 W",
		"state": "HAWAII",
		"artcc": "ZHN",
		"type": "RP",
		"updated": "MKK*VORTAC*004.02/100.65",
	},
	{
		"name": "TORKL",
		"latitude": "22-57-4 N",
		"longitude": "159-51-19 W",
		"state": "HAWAII",
		"artcc": "ZHU",
		"type": "RNAV",
		"updated": "01/13/2011",
	},
	{
		"name": "TRADD",
		"latitude": "7-1-2.79 N",
		"longitude": "158-22-58.99 E",
		"state": "",
		"artcc": "ZHN",
		"type": "RP",
		"updated": "PNI*NDB/DME*072.00/11.00",
	},
	{
		"name": "TRUCE",
		"latitude": "19-45-47.81 N",
		"longitude": "155-7-35.17 W",
		"state": "HAWAII",
		"artcc": "ZHN",
		"type": "MR",
		"updated": "ITO*VORTAC*279.99/7.00",
	},
	{
		"name": "TYPHO",
		"latitude": "20-0-3.77 N",
		"longitude": "156-28-47.3 W",
		"state": "HAWAII",
		"artcc": "ZHN",
		"type": "RP",
		"updated": "KOA*VORTAC*293.67/29.88",
	},
	{
		"name": "TYRAY",
		"latitude": "22-11-0 N",
		"longitude": "157-0-0 W",
		"state": "HAWAII",
		"artcc": "ZHN",
		"type": "RNAV",
		"updated": "01/30/2014",
	},
