	{
		"name": "WAHAA",
		"latitude": "16-50-21.45 N",
		"longitude": "169-17-9.04 W",
		"state": "OFFSHORE PACIFIC",
		"artcc": "ZHN",
		"type": "MW",
		"updated": "02/18/1999",
	},
	{
		"name": "WAKIK",
		"latitude": "19-43-16.73 N",
		"longitude": "154-55-11.88 W",
		"state": "HAWAII",
		"artcc": "ZHN",
		"type": "RP",
		"updated": "POA*NDB*004.36",
	},
	{
		"name": "WAMOT",
		"latitude": "20-52-19.09 N",
		"longitude": "156-26-51.8 W",
		"state": "HAWAII",
		"artcc": "ZHN",
		"type": "RNAV",
		"updated": "05/26/2011",
	},
	{
		"name": "WANSI",
		"latitude": "20-34-12.22 N",
		"longitude": "156-1-7.81 W",
		"state": "HAWAII",
		"artcc": "ZHN",
		"type": "RP",
		"updated": "MKK*VORTAC*106.55/72.93",
	},
	{
		"name": "WAPIO",
		"latitude": "20-11-16.63 N",
		"longitude": "155-35-33.58 W",
		"state": "HAWAII",
		"artcc": "ZHN",
		"type": "RP",
		"updated": "MUE*VOR/DME*010.00",
	},
	{
		"name": "WAPPO",
		"latitude": "21-48-38.86 N",
		"longitude": "154-55-7.81 W",
		"state": "HAWAII",
		"artcc": "ZHN",
		"type": "RP",
		"updated": "OGG*VORTAC*046.00/100.00",
	},
	{
		"name": "WEGDO",
		"latitude": "21-38-41.27 N",
		"longitude": "157-41-0 W",
		"state": "HAWAII",
		"artcc": "ZHN",
		"type": "MR",
		"updated": "NGF*TACAN*010.00/12.00",
	},
	{
		"name": "WEPGU",
		"latitude": "21-21-0.74 N",
		"longitude": "156-40-50.35 W",
		"state": "HAWAII",
		"artcc": "ZHN",
		"type": "RNAV",
		"updated": "01/13/2011",
	},
	{
		"name": "WERAK",
		"latitude": "19-31-25.06 N",
		"longitude": "156-3-53.16 W",
		"state": "HAWAII",
		"artcc": "ZHN",
		"type": "RP",
		"updated": "KOA*LD*173.82/11.82",
	},
	{
		"name": "WIDLO",
		"latitude": "22-3-16.4 N",
		"longitude": "159-19-2.19 W",
		"state": "HAWAII",
		"artcc": "ZHN",
		"type": "RNAV",
		"updated": "03/19/2003",
	},
	{
		"name": "WIDOW",
		"latitude": "20-52-51.82 N",
		"longitude": "156-10-23.63 W",
		"state": "HAWAII",
		"artcc": "ZHN",
		"type": "RP",
		"updated": "OGG*VORTAC*085.18/14.00",
	},
	{
		"name": "WILIS",
		"latitude": "21-7-7.48 N",
		"longitude": "156-3-29.13 W",
		"state": "HAWAII",
		"artcc": "ZHN",
		"type": "MR",
		"updated": "OGG*VORTAC*048.23/21.24",
	},
	{
		"name": "WIMIR",
		"latitude": "6-59-53.87 N",
		"longitude": "158-17-3.58 E",
		"state": "",
		"artcc": "ZHN",
		"type": "RP",
		"updated": "PNI*NDB/DME*069.00/5.00",
	},
	{
		"name": "WIMUG",
		"latitude": "7-26-15.54 N",
		"longitude": "151-48-20.58 E",
		"state": "",
		"artcc": "ZHN",
		"type": "RP",
		"updated": "TKK*NDB/DME*234.41/2.51",
	},
	{
		"name": "WINDI",
		"latitude": "19-40-6.86 N",
		"longitude": "156-34-56.19 W",
		"state": "HAWAII",
		"artcc": "ZHN",
		"type": "MR",
		"updated": "HNL*VORTAC*131.00/124.00",
	},
	{
		"name": "WININ",
		"latitude": "21-5-36.47 N",
		"longitude": "157-11-7.15 W",
		"state": "HAWAII",
		"artcc": "ZHN",
		"type": "RNAV",
		"updated": "04/18/2014",
	},
	{
		"name": "WIPHU",
		"latitude": "21-14-27.25 N",
		"longitude": "158-3-46.19 W",
		"state": "HAWAII",
		"artcc": "ZHN",
		"type": "RNAV",
		"updated": "06/02/2014",
	},
	{
		"name": "WIPRI",
		"latitude": "20-36-41.38 N",
		"longitude": "156-28-10.09 W",
		"state": "HAWAII",
		"artcc": "ZHN",
		"type": "RP",
		"updated": "OGG*VORTAC*177.80",
	},
	{
		"name": "WIROS",
		"latitude": "7-29-2.65 N",
		"longitude": "151-52-5.29 E",
		"state": "",
		"artcc": "ZHN",
		"type": "RP",
		"updated": "TKK*NDB/DME*041.28/2.17",
	},
	{
		"name": "WMAUI",
		"latitude": "21-4-0 N",
		"longitude": "156-29-30 W",
		"state": "HAWAII",
		"artcc": "ZHN",
		"type": "RNAV",
		"updated": "12/14/2011",
	},
	{
		"name": "WOPNA",
		"latitude": "19-39-38.5 N",
		"longitude": "156-3-9.29 W",
		"state": "HAWAII",
		"artcc": "ZHN",
		"type": "RNAV",
		"updated": "07/20/2011",
	},
	{
		"name": "WORDN",
		"latitude": "21-53-30.66 N",
		"longitude": "157-21-8.43 W",
		"state": "OFFSHORE PACIFIC",
		"artcc": "ZHN",
		"type": "MR",
		"updated": "NGF*TACAN*030.00/35.00",
	},
	{
		"name": "WORUB",
		"latitude": "21-9-7.65 N",
		"longitude": "158-4-23.58 W",
		"state": "HAWAII",
		"artcc": "ZHN",
		"type": "RNAV",
		"updated": "02/24/2012",
	},
	{
		"name": "WUBAL",
		"latitude": "21-8-48.61 N",
		"longitude": "157-7-32.33 W",
		"state": "HAWAII",
		"artcc": "ZHN",
		"type": "RP",
		"updated": "MKK*VORTAC*066.44/2.40",
	},
	{
		"name": "WUBOX",
		"latitude": "19-41-4.96 N",
		"longitude": "155-38-54.53 W",
		"state": "HAWAII",
		"artcc": "ZHN",
		"type": "RNAV",
		"updated": "12/13/2005",
	},
	{
		"name": "WUKUL",
		"latitude": "21-18-14.58 N",
		"longitude": "158-10-48.94 W",
		"state": "HAWAII",
		"artcc": "ZHN",
		"type": "RP",
		"updated": "HNL*VORTAC*258.00/14.00",
	},
	{
		"name": "WULON",
		"latitude": "6-59-6.59 N",
		"longitude": "158-0-11.78 E",
		"state": "",
		"artcc": "ZHN",
		"type": "RNAV",
		"updated": "03/06/2017",
	},
	{
		"name": "WUNBU",
		"latitude": "20-50-40 N",
		"longitude": "156-22-14 W",
		"state": "HAWAII",
		"artcc": "ZHN",
		"type": "RNAV",
		"updated": "05/26/2011",
	},
