[
	{
		"name": "ZAMAG",
		"latitude": "21-28-55.55 N",
		"longitude": "157-44-4.35 W",
		"state": "HAWAII",
		"artcc": "ZHN",
		"type": "MR",
		"updated": "NGF*TACAN*030.00/2.50"
	},
	{
		"name": "ZAPFF",
		"latitude": "21-3-26 N",
		"longitude": "158-3-24 W",
		"state": "HAWAII",
		"artcc": "ZHN",
		"type": "RNAV",
		"updated": "02/14/2012"
	},
	{
		"name": "ZAPSO",
		"latitude": "19-58-14.85 N",
		"longitude": "155-48-30.45 W",
		"state": "HAWAII",
		"artcc": "ZHN",
		"type": "RP",
		"updated": "MUE*VOR/DME*247.27/8.00"
	},
	{
		"name": "ZEGNU",
		"latitude": "21-27-59.28 N",
		"longitude": "156-41-43.67 W",
		"state": "HAWAII",
		"artcc": "ZHN",
		"type": "RNAV",
		"updated": "01/27/2011"
	},
	{
		"name": "ZEGPI",
		"latitude": "21-22-6.26 N",
		"longitude": "158-11-25.54 W",
		"state": "HAWAII",
		"artcc": "ZHN",
		"type": "RP",
		"updated": "HNL*VORTAC*272.90/15.00"
	},
	{
		"name": "ZEGUN",
		"latitude": "20-45-31.96 N",
		"longitude": "156-27-53.28 W",
		"state": "HAWAII",
		"artcc": "ZHN",
		"type": "RNAV",
		"updated": "05/26/2011"
	},
	{
		"name": "ZELIB",
		"latitude": "7-32-0.96 N",
		"longitude": "151-55-12.17 E",
		"state": "",
		"artcc": "ZHN",
		"type": "RP",
		"updated": "TKK*NDB/DME*041.28/6.45"
	},
	{
		"name": "ZIGIE",
		"latitude": "24-18-49.3 N",
		"longitude": "157-17-7.3 W",
		"state": "OFFSHORE PACIFIC",
		"artcc": "ZHN",
		"type": "RP",
		"updated": "MKK*VORTAC*347.05/190.00"
	},
	{
		"name": "ZILAN",
		"latitude": "23-24-49 N",
		"longitude": "157-38-25 W",
		"state": "OFFSHORE PACIFIC",
		"artcc": "ZHN",
		"type": "RNAV",
		"updated": "09/12/2011"
	},
	{
		"name": "ZILNA",
		"latitude": "20-28-51.7 N",
		"longitude": "156-34-20.45 W",
		"state": "HAWAII",
		"artcc": "ZHN",
		"type": "RP",
		"updated": "OGG*VORTAC*187.54"
	},
	{
		"name": "ZITBO",
		"latitude": "21-13-3.65 N",
		"longitude": "158-3-48.15 W",
		"state": "HAWAII",
		"artcc": "ZHN",
		"type": "RNAV",
		"updated": "02/24/2012"
	},
	{
		"name": "ZIVOR",
		"latitude": "7-22-25.57 N",
		"longitude": "151-41-51.06 E",
		"state": "",
		"artcc": "ZHN",
		"type": "RP",
		"updated": "TKK*NDB/DME*234.41/10.00"
	},
	{
		"name": "ZOBLA",
		"latitude": "19-57-18.64 N",
		"longitude": "156-8-37.98 W",
		"state": "HAWAII",
		"artcc": "ZHN",
		"type": "RNAV",
		"updated": "07/20/2011"
	},
	{
		"name": "ZOFZO",
		"latitude": "9-28-28.85 N",
		"longitude": "138-16-37.26 E",
		"state": "",
		"artcc": "ZHN",
		"type": "WP",
		"updated": "10/28/1998"
	},
	{
		"name": "ZUDNU",
		"latitude": "20-56-45.23 N",
		"longitude": "156-23-54.99 W",
		"state": "HAWAII",
		"artcc": "ZHN",
		"type": "RNAV",
		"updated": "05/25/2011"
	},
	{
		"name": "ZUKEY",
		"latitude": "20-46-57.59 N",
		"longitude": "159-37-19.48 W",
		"state": "HAWAII",
		"artcc": "ZHN",
		"type": "RP",
		"updated": "SOK*VORTAC*173.00"
	},
	{
		"name": "ZULBI",
		"latitude": "20-46-6.46 N",
		"longitude": "156-58-8.58 W",
		"state": "HAWAII",
		"artcc": "ZHN",
		"type": "RP",
		"updated": "LNY*LD*213.04/2.00"
	},
	{
		"name": "ZULUD",
		"latitude": "21-7-55.97 N",
		"longitude": "156-25-28.54 W",
		"state": "HAWAII",
		"artcc": "ZHN",
		"type": "RNAV",
		"updated": "12/04/2008"
	},
	{
		"name": "ZUTAR",
		"latitude": "21-8-43.81 N",
		"longitude": "157-6-31.78 W",
		"state": "HAWAII",
		"artcc": "ZHN",
		"type": "RNAV",
		"updated": "02/01/2002"
	}
]
