	{
		"name": "BAALS",
		"latitude": "43-2-10.84 N",
		"longitude": "96-4-48.32 W",
		"state": "IOWA",
		"artcc": "ZMP",
		"type": "RNAV",
		"updated": "11/02/2015",
	},
	{
		"name": "BAARK",
		"latitude": "41-8-8.61 N",
		"longitude": "95-53-43.31 W",
		"state": "NEBRASKA",
		"artcc": "ZMP",
		"type": "RNAV",
		"updated": "08/09/2012",
	},
	{
		"name": "BABBE",
		"latitude": "44-12-59.55 N",
		"longitude": "85-37-9.66 W",
		"state": "MICHIGAN",
		"artcc": "ZMP",
		"type": "RP",
		"updated": "MBL*VOR/DME*101.54",
	},
	{
		"name": "BABDE",
		"latitude": "46-55-24.87 N",
		"longitude": "94-7-2.2 W",
		"state": "MINNESOTA",
		"artcc": "ZMP",
		"type": "RNAV",
		"updated": "01/15/2002",
	},
	{
		"name": "BABYA",
		"latitude": "42-34-31.57 N",
		"longitude": "94-35-2.93 W",
		"state": "IOWA",
		"artcc": "ZMP",
		"type": "RP",
		"updated": "FOD*VORTAC*253.62/13.00",
	},
	{
		"name": "BADAY",
		"latitude": "45-38-12.99 N",
		"longitude": "89-9-4.97 W",
		"state": "WISCONSIN",
		"artcc": "ZMP",
		"type": "RNAV",
		"updated": "02/15/2010",
	},
	{
		"name": "BADVE",
		"latitude": "46-31-38.19 N",
		"longitude": "90-3-20.61 W",
		"state": "MICHIGAN",
		"artcc": "ZMP",
		"type": "RNAV",
		"updated": "03/30/2009",
	},
	{
		"name": "BADYA",
		"latitude": "49-2-30.08 N",
		"longitude": "95-45-52.65 W",
		"state": "",
		"artcc": "ZMP",
		"type": "RNAV",
		"updated": "06/28/2007",
	},
	{
		"name": "BAFZI",
		"latitude": "42-15-56.93 N",
		"longitude": "93-48-39.88 W",
		"state": "IOWA",
		"artcc": "ZMP",
		"type": "WP",
		"updated": "11/02/1998",
	},
	{
		"name": "BAGPE",
		"latitude": "44-59-36.33 N",
		"longitude": "89-29-18.47 W",
		"state": "WISCONSIN",
		"artcc": "ZMP",
		"type": "RNAV",
		"updated": "06/10/2013",
	},
	{
		"name": "BAHAI",
		"latitude": "45-19-51.14 N",
		"longitude": "83-30-49.75 W",
		"state": "MICHIGAN",
		"artcc": "ZMP",
		"type": "MR",
		"updated": "APN*VORTAC*014.00/15.00",
	},
	{
		"name": "BAINY",
		"latitude": "45-45-13 N",
		"longitude": "93-41-58 W",
		"state": "MINNESOTA",
		"artcc": "ZMP",
		"type": "RNAV",
		"updated": "01/12/2015",
	},
	{
		"name": "BAITS",
		"latitude": "45-19-24.48 N",
		"longitude": "90-19-41.02 W",
		"state": "WISCONSIN",
		"artcc": "ZMP",
		"type": "RP",
		"updated": "RHI*VOR/DME*241.43/41.19",
	},
	{
		"name": "BAKAC",
		"latitude": "43-43-30.45 N",
		"longitude": "95-6-39.54 W",
		"state": "MINNESOTA",
		"artcc": "ZMP",
		"type": "RNAV",
		"updated": "07/10/2003",
	},
	{
		"name": "BAKLE",
		"latitude": "43-52-53.16 N",
		"longitude": "94-42-27.3 W",
		"state": "MINNESOTA",
		"artcc": "ZMP",
		"type": "RNAV",
		"updated": "05/22/2009",
	},
	{
		"name": "BALEE",
		"latitude": "47-57-8.56 N",
		"longitude": "97-13-37.46 W",
		"state": "NORTH DAKOTA",
		"artcc": "ZMP",
		"type": "RNAV",
		"updated": "02/02/2009",
	},
	{
		"name": "BALEY",
		"latitude": "44-18-41.97 N",
		"longitude": "95-2-42.03 W",
		"state": "MINNESOTA",
		"artcc": "ZMP",
		"type": "RP",
		"updated": "RWF*VOR/DME*152.00/10.00",
	},
	{
		"name": "BALTA",
		"latitude": "48-11-26.69 N",
		"longitude": "100-2-51.2 W",
		"state": "NORTH DAKOTA",
		"artcc": "ZMP",
		"type": "RP",
		"updated": "MOT*VORTAC*081.34/49.90",
	},
	{
		"name": "BALVE",
		"latitude": "41-55-39.81 N",
		"longitude": "93-33-56.57 W",
		"state": "IOWA",
		"artcc": "ZMP",
		"type": "RNAV",
		"updated": "01/19/2011",
	},
	{
		"name": "BAMDY",
		"latitude": "42-32-18.12 N",
		"longitude": "95-40-51.15 W",
		"state": "IOWA",
		"artcc": "ZMP",
		"type": "RNAV",
		"updated": "04/14/2009",
	},
	{
		"name": "BANAW",
		"latitude": "48-21-4.21 N",
		"longitude": "99-57-2.05 W",
		"state": "NORTH DAKOTA",
		"artcc": "ZMP",
		"type": "RNAV",
		"updated": "06/28/2011",
	},
	{
		"name": "BANBE",
		"latitude": "43-32-58.89 N",
		"longitude": "94-0-20.82 W",
		"state": "MINNESOTA",
		"artcc": "ZMP",
		"type": "RNAV",
		"updated": "02/14/2008",
	},
	{
		"name": "BANCO",
		"latitude": "43-14-12.2 N",
		"longitude": "94-8-54.82 W",
		"state": "IOWA",
		"artcc": "ZMP",
		"type": "RP",
		"updated": "FOD*VORTAC*002.70/38.08",
	},
	{
		"name": "BANEY",
		"latitude": "46-14-21.15 N",
		"longitude": "96-56-14.9 W",
		"state": "NORTH DAKOTA",
		"artcc": "ZMP",
		"type": "RP",
		"updated": "FAR*VOR/DME*177.63/31.07",
	},
	{
		"name": "BANGU",
		"latitude": "45-0-52.5 N",
		"longitude": "84-48-29.1 W",
		"state": "MICHIGAN",
		"artcc": "ZMP",
		"type": "RP",
		"updated": "GL*NDB*276.10",
	},
	{
		"name": "BANIS",
		"latitude": "47-24-59.14 N",
		"longitude": "92-21-27.41 W",
		"state": "MINNESOTA",
		"artcc": "ZMP",
		"type": "RNAV",
		"updated": "01/08/2013",
	},
	{
		"name": "BANJO",
		"latitude": "44-6-38.29 N",
		"longitude": "84-10-33.54 W",
		"state": "MICHIGAN",
		"artcc": "ZMP",
		"type": "RP",
		"updated": "MOP*VOR/DME*044.58",
	},
	{
		"name": "BANKY",
		"latitude": "44-19-16.29 N",
		"longitude": "89-35-0.23 W",
		"state": "WISCONSIN",
		"artcc": "ZMP",
		"type": "RNAV",
		"updated": "04/19/2018",
	},
	{
		"name": "BANVY",
		"latitude": "45-37-53.98 N",
		"longitude": "94-52-29.59 W",
		"state": "MINNESOTA",
		"artcc": "ZMP",
		"type": "RNAV",
		"updated": "09/15/2014",
	},
	{
		"name": "BAPKE",
		"latitude": "45-57-44.85 N",
		"longitude": "84-29-16.4 W",
		"state": "MICHIGAN",
		"artcc": "ZMP",
		"type": "RNAV",
		"updated": "06/19/2002",
	},
	{
		"name": "BAPVE",
		"latitude": "47-52-27.24 N",
		"longitude": "97-23-35.09 W",
		"state": "NORTH DAKOTA",
		"artcc": "ZMP",
		"type": "MR",
		"updated": "RDR*TACAN*168.00/5.00",
	},
	{
		"name": "BAPYA",
		"latitude": "47-17-59.29 N",
		"longitude": "88-42-39.02 W",
		"state": "MICHIGAN",
		"artcc": "ZMP",
		"type": "RNAV",
		"updated": "09/24/2004",
	},
	{
		"name": "BAQLY",
		"latitude": "41-35-23.64 N",
		"longitude": "97-34-52.25 W",
		"state": "NEBRASKA",
		"artcc": "ZMP",
		"type": "RNAV",
		"updated": "07/11/2005",
	},
	{
		"name": "BARAK",
		"latitude": "44-46-16.28 N",
		"longitude": "85-17-56.99 W",
		"state": "MICHIGAN",
		"artcc": "ZMP",
		"type": "RNAV",
		"updated": "02/26/2015",
	},
	{
		"name": "BARUM",
		"latitude": "46-31-42.43 N",
		"longitude": "92-15-4.87 W",
		"state": "WISCONSIN",
		"artcc": "ZMP",
		"type": "RP",
		"updated": "COQ*NDB*135.09",
	},
	{
		"name": "BASBY",
		"latitude": "44-45-29.87 N",
		"longitude": "88-27-41.93 W",
		"state": "WISCONSIN",
		"artcc": "ZMP",
		"type": "RNAV",
		"updated": "06/13/2012",
	},
	{
		"name": "BATOM",
		"latitude": "42-40-20.04 N",
		"longitude": "97-19-39.67 W",
		"state": "NEBRASKA",
		"artcc": "ZMP",
		"type": "RNAV",
		"updated": "06/28/2011",
	},
	{
		"name": "BATPE",
		"latitude": "44-24-38.36 N",
		"longitude": "100-19-23.91 W",
		"state": "SOUTH DAKOTA",
		"artcc": "ZMP",
		"type": "RNAV",
		"updated": "06/28/2007",
	},
	{
		"name": "BAVDY",
		"latitude": "45-25-13.11 N",
		"longitude": "85-0-32.82 W",
		"state": "MICHIGAN",
		"artcc": "ZMP",
		"type": "RNAV",
		"updated": "07/09/2009",
	},
	{
		"name": "BAYAC",
		"latitude": "43-56-34.19 N",
		"longitude": "83-9-59.6 W",
		"state": "MICHIGAN",
		"artcc": "ZMP",
		"type": "RNAV",
		"updated": "06/25/2007",
	},
	{
		"name": "BAYAF",
		"latitude": "45-13-49.4 N",
		"longitude": "100-20-7.54 W",
		"state": "SOUTH DAKOTA",
		"artcc": "ZMP",
		"type": "RP",
		"updated": "PIR*VORTAC*340.70/50.70",
	},
	{
		"name": "BAYAG",
		"latitude": "43-41-10.04 N",
		"longitude": "93-13-52.54 W",
		"state": "MINNESOTA",
		"artcc": "ZMP",
		"type": "RNAV",
		"updated": "02/07/2008",
	},
	{
		"name": "BAYKS",
		"latitude": "45-3-37.67 N",
		"longitude": "92-12-53.65 W",
		"state": "WISCONSIN",
		"artcc": "ZMP",
		"type": "RNAV",
		"updated": "01/14/2015",
	},
	{
		"name": "BAYLA",
		"latitude": "43-48-4.72 N",
		"longitude": "96-52-34.19 W",
		"state": "SOUTH DAKOTA",
		"artcc": "ZMP",
		"type": "RP",
		"updated": "FSD*VORTAC*326.62/10.00",
	},
	{
		"name": "BAYNY",
		"latitude": "42-24-38.4 N",
		"longitude": "97-11-14.1 W",
		"state": "NEBRASKA",
		"artcc": "ZMP",
		"type": "RNAV",
		"updated": "06/28/2011",
	},
	{
		"name": "BAYSH",
		"latitude": "45-6-13.2 N",
		"longitude": "90-14-36.38 W",
		"state": "WISCONSIN",
		"artcc": "ZMP",
		"type": "RNAV",
		"updated": "12/22/2008",
	},
	{
		"name": "BAYZL",
		"latitude": "44-56-52.24 N",
		"longitude": "93-4-22.31 W",
		"state": "MINNESOTA",
		"artcc": "ZMP",
		"type": "RNAV",
		"updated": "03/24/2015",
	},
	{
		"name": "BBERD",
		"latitude": "43-19-35 N",
		"longitude": "94-28-53 W",
		"state": "IOWA",
		"artcc": "ZMP",
		"type": "RNAV",
		"updated": "09/16/2016",
	},
	{
		"name": "BBUCK",
		"latitude": "44-46-25.7 N",
		"longitude": "92-59-0.61 W",
		"state": "MINNESOTA",
		"artcc": "ZMP",
		"type": "RNAV",
		"updated": "11/25/2016",
	},
	{
		"name": "BDOGG",
		"latitude": "44-48-31.68 N",
		"longitude": "93-15-18.72 W",
		"state": "MINNESOTA",
		"artcc": "ZMP",
		"type": "RNAV",
		"updated": "06/04/2012",
	},
	{
		"name": "BEAAR",
		"latitude": "44-45-14 N",
		"longitude": "85-52-27.21 W",
		"state": "MICHIGAN",
		"artcc": "ZMP",
		"type": "RNAV",
		"updated": "10/09/2008",
	},
	{
		"name": "BEADY",
		"latitude": "44-26-42.52 N",
		"longitude": "98-20-7.7 W",
		"state": "SOUTH DAKOTA",
		"artcc": "ZMP",
		"type": "RP",
		"updated": "HON*LD*NW CRS/6.51",
	},
	{
		"name": "BEALS",
		"latitude": "48-56-5.56 N",
		"longitude": "95-20-21.64 W",
		"state": "MINNESOTA",
		"artcc": "ZMP",
		"type": "WP",
		"updated": "ROX*VOR/DME*065.99/14.89",
	},
	{
		"name": "BEAUS",
		"latitude": "44-0-4.53 N",
		"longitude": "85-39-7.27 W",
		"state": "MICHIGAN",
		"artcc": "ZMP",
		"type": "RNAV",
		"updated": "03/06/2014",
	},
	{
		"name": "BEBEL",
		"latitude": "48-14-58.58 N",
		"longitude": "93-25-29.12 W",
		"state": "MINNESOTA",
		"artcc": "ZMP",
		"type": "RP",
		"updated": "BDE*VOR/DME*116.60",
	},
	{
		"name": "BECKI",
		"latitude": "46-1-49.79 N",
		"longitude": "88-11-35.88 W",
		"state": "MICHIGAN",
		"artcc": "ZMP",
		"type": "RNAV",
		"updated": "01/21/2009",
	},
	{
		"name": "BECKY",
		"latitude": "44-33-11.51 N",
		"longitude": "88-35-49.9 W",
		"state": "WISCONSIN",
		"artcc": "ZMP",
		"type": "RP",
		"updated": "OSH*VORTAC*355.00/33.81",
	},
	{
		"name": "BECOM",
		"latitude": "41-57-48.7 N",
		"longitude": "96-7-52.13 W",
		"state": "IOWA",
		"artcc": "ZMP",
		"type": "RP",
		"updated": "SUX*VORTAC*150.33/24.41",
	},
	{
		"name": "BEDAY",
		"latitude": "46-30-50.14 N",
		"longitude": "90-16-32.04 W",
		"state": "WISCONSIN",
		"artcc": "ZMP",
		"type": "RP",
		"updated": "IWD*VORTAC*259.00/6.30",
	},
	{
		"name": "BEDSE",
		"latitude": "47-54-17.79 N",
		"longitude": "96-43-7.73 W",
		"state": "MINNESOTA",
		"artcc": "ZMP",
		"type": "RNAV",
		"updated": "08/06/2007",
	},
	{
		"name": "BEEFF",
		"latitude": "41-13-10 N",
		"longitude": "95-48-40.32 W",
		"state": "IOWA",
		"artcc": "ZMP",
		"type": "RP",
		"updated": "EDI*LD*142.40/7.12",
	},
	{
		"name": "BEEGR",
		"latitude": "44-32-34.58 N",
		"longitude": "94-16-41.15 W",
		"state": "MINNESOTA",
		"artcc": "ZMP",
		"type": "RP",
		"updated": "RWF*VOR/DME*075.61/36.78",
	},
	{
		"name": "BEESE",
		"latitude": "45-14-33.78 N",
		"longitude": "95-20-43.73 W",
		"state": "MINNESOTA",
		"artcc": "ZMP",
		"type": "RNAV",
		"updated": "11/09/2006",
	},
	{
		"name": "BEETZ",
		"latitude": "47-26-56.48 N",
		"longitude": "97-4-55.21 W",
		"state": "NORTH DAKOTA",
		"artcc": "ZMP",
		"type": "RNAV",
		"updated": "11/26/2014",
	},
	{
		"name": "BEGGS",
		"latitude": "46-4-13.54 N",
		"longitude": "96-29-44.18 W",
		"state": "MINNESOTA",
		"artcc": "ZMP",
		"type": "RNAV",
		"updated": "10/31/2005",
	},
	{
		"name": "BEGNE",
		"latitude": "44-41-3.33 N",
		"longitude": "96-9-42.54 W",
		"state": "MINNESOTA",
		"artcc": "ZMP",
		"type": "RNAV",
		"updated": "06/01/2010",
	},
	{
		"name": "BEGSE",
		"latitude": "43-40-53.21 N",
		"longitude": "98-1-58.65 W",
		"state": "SOUTH DAKOTA",
		"artcc": "ZMP",
		"type": "RNAV",
		"updated": "11/02/2015",
	},
	{
		"name": "BEHQY",
		"latitude": "47-2-19.07 N",
		"longitude": "99-41-50 W",
		"state": "NORTH DAKOTA",
		"artcc": "ZMP",
		"type": "RP",
		"updated": "BIS*VOR/DME*055.00/43.16",
	},
	{
		"name": "BEILY",
		"latitude": "45-17-25 N",
		"longitude": "102-4-42 W",
		"state": "SOUTH DAKOTA",
		"artcc": "ZMP",
		"type": "RNAV",
		"updated": "10/02/2017",
	},
	{
		"name": "BEJAY",
		"latitude": "43-55-32.32 N",
		"longitude": "90-37-18.25 W",
		"state": "WISCONSIN",
		"artcc": "ZMP",
		"type": "RNAV",
		"updated": "06/24/2011",
	},
	{
		"name": "BEJOU",
		"latitude": "41-9-30.41 N",
		"longitude": "96-19-23.15 W",
		"state": "NEBRASKA",
		"artcc": "ZMP",
		"type": "RNAV",
		"updated": "02/27/2014",
	},
	{
		"name": "BEKNN",
		"latitude": "41-34-38.11 N",
		"longitude": "94-26-11.7 W",
		"state": "IOWA",
		"artcc": "ZMP",
		"type": "RNAV",
		"updated": "05/24/2011",
	},
	{
		"name": "BELGO",
		"latitude": "44-39-39.65 N",
		"longitude": "90-24-12.79 W",
		"state": "WISCONSIN",
		"artcc": "ZMP",
		"type": "RP",
		"updated": "EAU*VORTAC*102.80/48.09",
	},
	{
		"name": "BELON",
		"latitude": "40-31-21.93 N",
		"longitude": "99-2-36.48 W",
		"state": "NEBRASKA",
		"artcc": "ZMP",
		"type": "RNAV",
		"updated": "06/29/2005",
	},
	{
		"name": "BENEC",
		"latitude": "46-46-45.57 N",
		"longitude": "92-5-11.44 W",
		"state": "MINNESOTA",
		"artcc": "ZMP",
		"type": "RNAV",
		"updated": "05/18/2017",
	},
	{
		"name": "BENNI",
		"latitude": "44-1-43.93 N",
		"longitude": "87-40-4.22 W",
		"state": "WISCONSIN",
		"artcc": "ZMP",
		"type": "RP",
		"updated": "MTW*VOR/DME*177.00/6.00",
	},
	{
		"name": "BENNY",
		"latitude": "43-44-3.21 N",
		"longitude": "84-6-41.84 W",
		"state": "MICHIGAN",
		"artcc": "ZMP",
		"type": "RP",
		"updated": "MOP*VOR/DME*081.00",
	},
	{
		"name": "BERWI",
		"latitude": "42-13-25.89 N",
		"longitude": "84-34-48.27 W",
		"state": "MICHIGAN",
		"artcc": "ZMP",
		"type": "RNAV",
		"updated": "09/11/2017",
	},
	{
		"name": "BETAY",
		"latitude": "45-40-23.39 N",
		"longitude": "84-50-39.16 W",
		"state": "MICHIGAN",
		"artcc": "ZMP",
		"type": "RP",
		"updated": "PLN*VORTAC*294.67/8.00",
	},
	{
		"name": "BETRA",
		"latitude": "47-32-20.92 N",
		"longitude": "96-20-2.32 W",
		"state": "MINNESOTA",
		"artcc": "ZMP",
		"type": "RP",
		"updated": "FAR*VOR/DME*015.00",
	},
	{
		"name": "BEWIG",
		"latitude": "42-24-44.97 N",
		"longitude": "97-27-59.96 W",
		"state": "NEBRASKA",
		"artcc": "ZMP",
		"type": "RP",
		"updated": "SUX*VORTAC*265.97/50.99",
	},
	{
		"name": "BEXEQ",
		"latitude": "41-2-15.03 N",
		"longitude": "98-23-20.48 W",
		"state": "NEBRASKA",
		"artcc": "ZMP",
		"type": "RNAV",
		"updated": "10/31/2005",
	},
	{
		"name": "BEYAG",
		"latitude": "45-8-32.77 N",
		"longitude": "89-14-53.07 W",
		"state": "WISCONSIN",
		"artcc": "ZMP",
		"type": "RNAV",
		"updated": "06/12/2013",
	},
	{
		"name": "BEYAK",
		"latitude": "44-23-52.95 N",
		"longitude": "100-13-25.7 W",
		"state": "SOUTH DAKOTA",
		"artcc": "ZMP",
		"type": "RNAV",
		"updated": "06/28/2007",
	},
	{
		"name": "BGOSH",
		"latitude": "44-15-43.37 N",
		"longitude": "89-26-2.96 W",
		"state": "WISCONSIN",
		"artcc": "ZMP",
		"type": "RP",
		"updated": "BAE*VOR/DME*322.32/85.00",
	},
	{
		"name": "BIGBA",
		"latitude": "47-42-30.86 N",
		"longitude": "97-22-2.37 W",
		"state": "NORTH DAKOTA",
		"artcc": "ZMP",
		"type": "MR",
		"updated": "RDR*TACAN*168.00/15.00",
	},
	{
		"name": "BIGBK",
		"latitude": "41-11-25.6 N",
		"longitude": "95-53-42.35 W",
		"state": "IOWA",
		"artcc": "ZMP",
		"type": "RNAV",
		"updated": "08/13/2012",
	},
	{
		"name": "BIGEN",
		"latitude": "42-7-53.71 N",
		"longitude": "93-47-52.88 W",
		"state": "IOWA",
		"artcc": "ZMP",
		"type": "RNAV",
		"updated": "04/04/2010",
	},
	{
		"name": "BIGIW",
		"latitude": "44-0-55.77 N",
		"longitude": "93-54-32.58 W",
		"state": "MINNESOTA",
		"artcc": "ZMP",
		"type": "RNAV",
		"updated": "08/19/2009",
	},
	{
		"name": "BIGKA",
		"latitude": "43-38-41.79 N",
		"longitude": "93-21-29.45 W",
		"state": "MINNESOTA",
		"artcc": "ZMP",
		"type": "RNAV",
		"updated": "12/20/2011",
	},
	{
		"name": "BIGLA",
		"latitude": "40-49-46.98 N",
		"longitude": "98-59-28.1 W",
		"state": "NEBRASKA",
		"artcc": "ZMP",
		"type": "RNAV",
		"updated": "06/29/2005",
	},
	{
		"name": "BIKPE",
		"latitude": "41-33-5.72 N",
		"longitude": "96-16-39.75 W",
		"state": "NEBRASKA",
		"artcc": "ZMP",
		"type": "RNAV",
		"updated": "04/05/2016",
	},
	{
		"name": "BILEH",
		"latitude": "42-7-52.91 N",
		"longitude": "96-59-2.98 W",
		"state": "NEBRASKA",
		"artcc": "ZMP",
		"type": "RNAV",
		"updated": "09/12/2011",
	},
	{
		"name": "BILOO",
		"latitude": "43-28-6.1 N",
		"longitude": "95-34-24.17 W",
		"state": "IOWA",
		"artcc": "ZMP",
		"type": "RP",
		"updated": "FSD*VORTAC*092.24/53.80",
	},
	{
		"name": "BIMAC",
		"latitude": "43-28-13.79 N",
		"longitude": "100-6-51.33 W",
		"state": "SOUTH DAKOTA",
		"artcc": "ZMP",
		"type": "RNAV",
		"updated": "03/22/2009",
	},
	{
		"name": "BINDE",
		"latitude": "47-48-7.3 N",
		"longitude": "91-46-19.92 W",
		"state": "MINNESOTA",
		"artcc": "ZMP",
		"type": "RNAV",
		"updated": "01/03/2012",
	},
	{
		"name": "BINGR",
		"latitude": "46-40-47.06 N",
		"longitude": "89-17-40.97 W",
		"state": "MICHIGAN",
		"artcc": "ZMP",
		"type": "RNAV",
		"updated": "05/31/2017",
	},
	{
		"name": "BIPAC",
		"latitude": "48-53-55.3 N",
		"longitude": "95-55-9.51 W",
		"state": "MINNESOTA",
		"artcc": "ZMP",
		"type": "RNAV",
		"updated": "06/28/2007",
	},
	{
		"name": "BIPID",
		"latitude": "44-33-4.33 N",
		"longitude": "88-51-26.97 W",
		"state": "WISCONSIN",
		"artcc": "ZMP",
		"type": "RP",
		"updated": "OSH*VORTAC*336.98/36.07",
	},
	{
		"name": "BIPSE",
		"latitude": "48-31-16.27 N",
		"longitude": "93-20-14.34 W",
		"state": "MINNESOTA",
		"artcc": "ZMP",
		"type": "RNAV",
		"updated": "02/14/2008",
	},
	{
		"name": "BIRNE",
		"latitude": "48-41-35.86 N",
		"longitude": "95-30-35.8 W",
		"state": "MINNESOTA",
		"artcc": "ZMP",
		"type": "RNAV",
		"updated": "06/28/2007",
	},
	{
		"name": "BIRSE",
		"latitude": "43-42-25.03 N",
		"longitude": "84-9-12.49 W",
		"state": "MICHIGAN",
		"artcc": "ZMP",
		"type": "RNAV",
		"updated": "04/06/2009",
	},
	{
		"name": "BISCA",
		"latitude": "47-59-45.77 N",
		"longitude": "97-36-9.26 W",
		"state": "NORTH DAKOTA",
		"artcc": "ZMP",
		"type": "RP",
		"updated": "GFK*VOR/DME*269.52/17.00",
	},
	{
		"name": "BITLR",
		"latitude": "44-53-2.57 N",
		"longitude": "92-19-26.55 W",
		"state": "WISCONSIN",
		"artcc": "ZMP",
		"type": "RP",
		"updated": "GEP*VORTAC*103.00/47.33",
	},
	{
		"name": "BIVBE",
		"latitude": "46-36-35.04 N",
		"longitude": "89-50-40.46 W",
		"state": "MICHIGAN",
		"artcc": "ZMP",
		"type": "RNAV",
		"updated": "03/30/2009",
	},
	{
		"name": "BIYLA",
		"latitude": "45-18-48.37 N",
		"longitude": "93-43-37.91 W",
		"state": "MINNESOTA",
		"artcc": "ZMP",
		"type": "RP",
		"updated": "GEP*VORTAC*297.97",
	},
	{
		"name": "BIZXU",
		"latitude": "43-55-49.94 N",
		"longitude": "92-24-21.39 W",
		"state": "MINNESOTA",
		"artcc": "ZMP",
		"type": "RNAV",
		"updated": "02/05/2015",
	},
	{
		"name": "BLADE",
		"latitude": "45-55-5.67 N",
		"longitude": "95-54-47.62 W",
		"state": "MINNESOTA",
		"artcc": "ZMP",
		"type": "RNAV",
		"updated": "09/06/2013",
	},
	{
		"name": "BLANN",
		"latitude": "47-22-37.99 N",
		"longitude": "97-18-58.69 W",
		"state": "NORTH DAKOTA",
		"artcc": "ZMP",
		"type": "MR",
		"updated": "RDR*TACAN*168.00/35.00",
	},
	{
		"name": "BLAYN",
		"latitude": "45-18-50.64 N",
		"longitude": "92-53-9.34 W",
		"state": "MINNESOTA",
		"artcc": "ZMP",
		"type": "RP",
		"updated": "GEP*VORTAC*057.77/23.00",
	},
	{
		"name": "BLDSO",
		"latitude": "42-21-59.19 N",
		"longitude": "93-48-2.4 W",
		"state": "IOWA",
		"artcc": "ZMP",
		"type": "RNAV",
		"updated": "07/31/2014",
	},
	{
		"name": "BLEND",
		"latitude": "43-40-36.58 N",
		"longitude": "94-2-37.68 W",
		"state": "MINNESOTA",
		"artcc": "ZMP",
		"type": "RP",
		"updated": "FRM*VOR/DME*076.47",
	},
	{
		"name": "BLITS",
		"latitude": "48-2-10.65 N",
		"longitude": "97-9-34.36 W",
		"state": "NORTH DAKOTA",
		"artcc": "ZMP",
		"type": "RP",
		"updated": "GFK*VOR/DME*003.00/5.00",
	},
	{
		"name": "BLOON",
		"latitude": "40-15-32.2 N",
		"longitude": "97-8-34.95 W",
		"state": "NEBRASKA",
		"artcc": "ZMP",
		"type": "RP",
		"updated": "BIE*VOR*255.00",
	},
	{
		"name": "BLUEM",
		"latitude": "44-10-52.86 N",
		"longitude": "93-13-25.67 W",
		"state": "MINNESOTA",
		"artcc": "ZMP",
		"type": "RNAV",
		"updated": "01/16/2015",
	},
	{
		"name": "BLUME",
		"latitude": "40-30-43.19 N",
		"longitude": "98-56-6.41 W",
		"state": "NEBRASKA",
		"artcc": "ZMP",
		"type": "RNAV",
		"updated": "06/29/2005",
	},
	{
		"name": "BLUNN",
		"latitude": "44-20-3.82 N",
		"longitude": "89-33-53.18 W",
		"state": "WISCONSIN",
		"artcc": "ZMP",
		"type": "RNAV",
		"updated": "01/21/2009",
	},
	{
		"name": "BLUOX",
		"latitude": "47-34-33.13 N",
		"longitude": "95-1-29.11 W",
		"state": "MINNESOTA",
		"artcc": "ZMP",
		"type": "RP",
		"updated": "BDE*VOR/DME*189.85/70.87",
	},
	{
		"name": "BNATT",
		"latitude": "46-31-22.13 N",
		"longitude": "91-54-5.07 W",
		"state": "WISCONSIN",
		"artcc": "ZMP",
		"type": "RNAV",
		"updated": "08/01/2012",
	},
	{
		"name": "BOBDE",
		"latitude": "45-6-7.34 N",
		"longitude": "97-8-59.78 W",
		"state": "SOUTH DAKOTA",
		"artcc": "ZMP",
		"type": "RNAV",
		"updated": "07/21/2007",
	},
	{
		"name": "BOBEE",
		"latitude": "44-56-55.63 N",
		"longitude": "93-15-29.29 W",
		"state": "MINNESOTA",
		"artcc": "ZMP",
		"type": "RP",
		"updated": "FCM*VOR/DME*045.68",
	},
	{
		"name": "BOBII",
		"latitude": "44-4-9.26 N",
		"longitude": "93-8-57.63 W",
		"state": "MINNESOTA",
		"artcc": "ZMP",
		"type": "RP",
		"updated": "AEL*VOR/DME*021.38",
	},
	{
		"name": "BOCAG",
		"latitude": "44-7-23.76 N",
		"longitude": "92-20-56.72 W",
		"state": "MINNESOTA",
		"artcc": "ZMP",
		"type": "RP",
		"updated": "RST*VOR/DME*022.66",
	},
	{
		"name": "BOCAK",
		"latitude": "41-29-3.21 N",
		"longitude": "96-33-34.2 W",
		"state": "NEBRASKA",
		"artcc": "ZMP",
		"type": "RNAV",
		"updated": "10/16/2013",
	},
	{
		"name": "BOCDA",
		"latitude": "45-12-13.33 N",
		"longitude": "85-31-58.31 W",
		"state": "MICHIGAN",
		"artcc": "ZMP",
		"type": "RNAV",
		"updated": "11/15/2004",
	},
	{
		"name": "BOCTA",
		"latitude": "41-11-23.61 N",
		"longitude": "95-47-18.98 W",
		"state": "IOWA",
		"artcc": "ZMP",
		"type": "RP",
		"updated": "OVR*VORTAC*292.18",
	},
	{
		"name": "BODAC",
		"latitude": "47-32-6.99 N",
		"longitude": "94-47-55.86 W",
		"state": "MINNESOTA",
		"artcc": "ZMP",
		"type": "RP",
		"updated": "BJI*LD*073.00/6.30",
	},
	{
		"name": "BODAY",
		"latitude": "45-41-25.93 N",
		"longitude": "85-16-2.2 W",
		"state": "MICHIGAN",
		"artcc": "ZMP",
		"type": "RNAV",
		"updated": "06/12/2008",
	},
	{
		"name": "BODDI",
		"latitude": "48-12-21.39 N",
		"longitude": "97-22-24.4 W",
		"state": "NORTH DAKOTA",
		"artcc": "ZMP",
		"type": "MR",
		"updated": "RDR*TACAN*359.00/15.00",
	},
	{
		"name": "BODGY",
		"latitude": "41-3-25.29 N",
		"longitude": "93-35-46.48 W",
		"state": "IOWA",
		"artcc": "ZMP",
		"type": "RNAV",
		"updated": "10/22/2009",
	},
	{
		"name": "BOFIN",
		"latitude": "48-43-4 N",
		"longitude": "93-31-40 W",
		"state": "",
		"artcc": "ZMP",
		"type": "RP",
		"updated": "BDE*VOR/DME*086.00",
	},
	{
		"name": "BOGSO",
		"latitude": "45-1-32.85 N",
		"longitude": "82-25-53.4 W",
		"state": "",
		"artcc": "ZMP",
		"type": "WP",
		"updated": "07/10/2001",
	},
	{
		"name": "BOKYA",
		"latitude": "45-8-36.79 N",
		"longitude": "93-4-52.09 W",
		"state": "MINNESOTA",
		"artcc": "ZMP",
		"type": "RP",
		"updated": "ANE*LD*E CRS/6.07",
	},
	{
		"name": "BOLPE",
		"latitude": "40-40-24.02 N",
		"longitude": "97-34-17.17 W",
		"state": "NEBRASKA",
		"artcc": "ZMP",
		"type": "RNAV",
		"updated": "06/16/2009",
	},
	{
		"name": "BOMBR",
		"latitude": "40-50-57.51 N",
		"longitude": "95-28-42.55 W",
		"state": "IOWA",
		"artcc": "ZMP",
		"type": "MR",
		"updated": "OFF*TACAN*124.85/25.00",
	},
	{
		"name": "BOMGE",
		"latitude": "45-5-26.5 N",
		"longitude": "95-48-52.61 W",
		"state": "MINNESOTA",
		"artcc": "ZMP",
		"type": "RNAV",
		"updated": "09/04/2010",
	},
	{
		"name": "BONGE",
		"latitude": "45-55-31.69 N",
		"longitude": "84-37-6.85 W",
		"state": "MICHIGAN",
		"artcc": "ZMP",
		"type": "RNAV",
		"updated": "06/19/2002",
	},
	{
		"name": "BONIL",
		"latitude": "41-20-34.31 N",
		"longitude": "98-56-53.31 W",
		"state": "NEBRASKA",
		"artcc": "ZMP",
		"type": "RP",
		"updated": "ODX*NDB*175.02",
	},
	{
		"name": "BONNA",
		"latitude": "44-46-8.17 N",
		"longitude": "92-56-9.02 W",
		"state": "MINNESOTA",
		"artcc": "ZMP",
		"type": "RP",
		"updated": "INN*LD*121.35/13.12",
	},
	{
		"name": "BOOMS",
		"latitude": "47-56-3.49 N",
		"longitude": "96-20-50.3 W",
		"state": "MINNESOTA",
		"artcc": "ZMP",
		"type": "RNAV",
		"updated": "09/26/2014",
	},
	{
		"name": "BOOTY",
		"latitude": "43-48-19.44 N",
		"longitude": "90-56-55.49 W",
		"state": "WISCONSIN",
		"artcc": "ZMP",
		"type": "RP",
		"updated": "LSE*VOR/DME*105.54/14.00",
	},
	{
		"name": "BOPKE",
		"latitude": "41-30-28.04 N",
		"longitude": "94-53-10.67 W",
		"state": "IOWA",
		"artcc": "ZMP",
		"type": "RNAV",
		"updated": "12/13/2001",
	},
	{
		"name": "BOPMY",
		"latitude": "44-19-34.36 N",
		"longitude": "95-37-4.75 W",
		"state": "MINNESOTA",
		"artcc": "ZMP",
		"type": "RNAV",
		"updated": "02/22/2011",
	},
	{
		"name": "BORAC",
		"latitude": "46-57-28.62 N",
		"longitude": "98-43-11.68 W",
		"state": "NORTH DAKOTA",
		"artcc": "ZMP",
		"type": "RP",
		"updated": "JMS*VOR/DME*307.69/2.26",
	},
	{
		"name": "BORIN",
		"latitude": "44-33-15.44 N",
		"longitude": "85-23-56.51 W",
		"state": "MICHIGAN",
		"artcc": "ZMP",
		"type": "RP",
		"updated": "TVC*VOR/DME*138.44/9.40",
	},
	{
		"name": "BORPE",
		"latitude": "47-43-34.38 N",
		"longitude": "97-18-58.2 W",
		"state": "NORTH DAKOTA",
		"artcc": "ZMP",
		"type": "RNAV",
		"updated": "08/24/2004",
	},
	{
		"name": "BOSEN",
		"latitude": "45-4-0.26 N",
		"longitude": "92-8-29.36 W",
		"state": "WISCONSIN",
		"artcc": "ZMP",
		"type": "RP",
		"updated": "EAU*VORTAC*286.00/30.00",
	},
	{
		"name": "BOTNE",
		"latitude": "44-56-3 N",
		"longitude": "94-1-31 W",
		"state": "MINNESOTA",
		"artcc": "ZMP",
		"type": "RNAV",
		"updated": "03/16/2007",
	},
	{
		"name": "BOUGH",
		"latitude": "44-48-27.12 N",
		"longitude": "94-10-44.86 W",
		"state": "MINNESOTA",
		"artcc": "ZMP",
		"type": "RNAV",
		"updated": "12/14/2017",
	},
	{
		"name": "BOVNE",
		"latitude": "43-35-31.91 N",
		"longitude": "92-53-0.93 W",
		"state": "MINNESOTA",
		"artcc": "ZMP",
		"type": "RNAV",
		"updated": "02/07/2008",
	},
	{
		"name": "BOWIS",
		"latitude": "47-44-2.04 N",
		"longitude": "103-9-40.77 W",
		"state": "NORTH DAKOTA",
		"artcc": "ZMP",
		"type": "RNAV",
		"updated": "05/05/2015",
	},
	{
		"name": "BOXIC",
		"latitude": "40-59-16.21 N",
		"longitude": "97-38-2.6 W",
		"state": "NEBRASKA",
		"artcc": "ZMP",
		"type": "CN",
		"updated": "06/11/2002",
	},
	{
		"name": "BOXOW",
		"latitude": "44-49-55.37 N",
		"longitude": "91-46-1.69 W",
		"state": "WISCONSIN",
		"artcc": "ZMP",
		"type": "RNAV",
		"updated": "02/12/2008",
	},
	{
		"name": "BOYAC",
		"latitude": "47-21-29.93 N",
		"longitude": "92-47-37.26 W",
		"state": "MINNESOTA",
		"artcc": "ZMP",
		"type": "RP",
		"updated": "HIB*VOR/DME*/5.00",
	},
	{
		"name": "BOYAY",
		"latitude": "43-52-1.88 N",
		"longitude": "93-25-20.7 W",
		"state": "MINNESOTA",
		"artcc": "ZMP",
		"type": "RNAV",
		"updated": "10/03/2011",
	},
	{
		"name": "BOYKI",
		"latitude": "47-56-4.61 N",
		"longitude": "93-46-36.89 W",
		"state": "MINNESOTA",
		"artcc": "ZMP",
		"type": "RNAV",
		"updated": "11/07/2011",
	},
	{
		"name": "BOYSS",
		"latitude": "41-15-52.5 N",
		"longitude": "96-16-25.25 W",
		"state": "NEBRASKA",
		"artcc": "ZMP",
		"type": "RP",
		"updated": "OVR*VORTAC*275.69/25.00",
	},
	{
		"name": "BRADY",
		"latitude": "40-56-43.03 N",
		"longitude": "97-59-45.01 W",
		"state": "NEBRASKA",
		"artcc": "ZMP",
		"type": "RP",
		"updated": "GRI*VOR/DME*092.00/14.68",
	},
	{
		"name": "BRAIN",
		"latitude": "43-39-0.24 N",
		"longitude": "96-26-12.58 W",
		"state": "MINNESOTA",
		"artcc": "ZMP",
		"type": "RP",
		"updated": "FSD*VORTAC*080.75/15.00",
	},
	{
		"name": "BRAVA",
		"latitude": "41-36-6.04 N",
		"longitude": "96-4-14.44 W",
		"state": "IOWA",
		"artcc": "ZMP",
		"type": "RNAV",
		"updated": "02/16/2017",
	},
	{
		"name": "BRGER",
		"latitude": "45-9-51.4 N",
		"longitude": "83-34-53.38 W",
		"state": "MICHIGAN",
		"artcc": "ZMP",
		"type": "MR",
		"updated": "APN*VORTAC*355.00/5.00",
	},
	{
		"name": "BRIDJ",
		"latitude": "41-21-53.34 N",
		"longitude": "94-14-20.18 W",
		"state": "IOWA",
		"artcc": "ZMP",
		"type": "RP",
		"updated": "DSM*VORTAC*253.97/27.00",
	},
	{
		"name": "BRIKK",
		"latitude": "41-20-28.97 N",
		"longitude": "95-47-38.93 W",
		"state": "IOWA",
		"artcc": "ZMP",
		"type": "RNAV",
		"updated": "08/13/2012",
	},
	{
		"name": "BRNRD",
		"latitude": "46-20-53.81 N",
		"longitude": "94-1-33.54 W",
		"state": "MINNESOTA",
		"artcc": "ZMP",
		"type": "RNAV",
		"updated": "06/16/2017",
	},
	{
		"name": "BRNVL",
		"latitude": "44-48-16.38 N",
		"longitude": "93-18-59.44 W",
		"state": "MINNESOTA",
		"artcc": "ZMP",
		"type": "RNAV",
		"updated": "01/12/2015",
	},
	{
		"name": "BRUKS",
		"latitude": "46-7-30.98 N",
		"longitude": "96-17-17.61 W",
		"state": "MINNESOTA",
		"artcc": "ZMP",
		"type": "RNAV",
		"updated": "11/01/2012",
	},
	{
		"name": "BRULE",
		"latitude": "44-17-50.71 N",
		"longitude": "100-11-38.4 W",
		"state": "SOUTH DAKOTA",
		"artcc": "ZMP",
		"type": "RP",
		"updated": "PIR*VORTAC*181.96",
	},
	{
		"name": "BRUNR",
		"latitude": "44-20-46.84 N",
		"longitude": "89-20-36.83 W",
		"state": "WISCONSIN",
		"artcc": "ZMP",
		"type": "RNAV",
		"updated": "03/30/2011",
	},
	{
		"name": "BUCAG",
		"latitude": "42-17-35.45 N",
		"longitude": "96-53-3.86 W",
		"state": "NEBRASKA",
		"artcc": "ZMP",
		"type": "RNAV",
		"updated": "09/12/2011",
	},
	{
		"name": "BUCAN",
		"latitude": "47-28-25.29 N",
		"longitude": "94-38-5.45 W",
		"state": "MINNESOTA",
		"artcc": "ZMP",
		"type": "RP",
		"updated": "GPZ*VOR/DME*286.13/50.35",
	},
	{
		"name": "BUCCA",
		"latitude": "44-50-35.27 N",
		"longitude": "96-35-16.21 W",
		"state": "SOUTH DAKOTA",
		"artcc": "ZMP",
		"type": "RP",
		"updated": "ATY*VORTAC*099.93/25.00",
	},
	{
		"name": "BUFFT",
		"latitude": "41-22-17.38 N",
		"longitude": "95-57-19.94 W",
		"state": "NEBRASKA",
		"artcc": "ZMP",
		"type": "RP",
		"updated": "RAY*LD*NW CRS/5.85",
	},
	{
		"name": "BUHZZ",
		"latitude": "44-36-39.77 N",
		"longitude": "93-13-27.94 W",
		"state": "MINNESOTA",
		"artcc": "ZMP",
		"type": "RNAV",
		"updated": "03/24/2015",
	},
	{
		"name": "BUKAC",
		"latitude": "44-13-53.99 N",
		"longitude": "95-19-18.33 W",
		"state": "MINNESOTA",
		"artcc": "ZMP",
		"type": "RNAV",
		"updated": "12/28/2004",
	},
	{
		"name": "BULAY",
		"latitude": "44-2-4.49 N",
		"longitude": "87-39-33.71 W",
		"state": "WISCONSIN",
		"artcc": "ZMP",
		"type": "RNAV",
		"updated": "01/12/2009",
	},
	{
		"name": "BUMBE",
		"latitude": "41-7-17.11 N",
		"longitude": "96-42-2.17 W",
		"state": "NEBRASKA",
		"artcc": "ZMP",
		"type": "MR",
		"updated": "LNK*VORTAC*360.00/12.00",
	},
	{
		"name": "BUMGE",
		"latitude": "46-10-42.09 N",
		"longitude": "97-37-33.6 W",
		"state": "NORTH DAKOTA",
		"artcc": "ZMP",
		"type": "RNAV",
		"updated": "07/08/2014",
	},
	{
		"name": "BUNAN",
		"latitude": "47-26-42.3 N",
		"longitude": "94-50-5.56 W",
		"state": "MINNESOTA",
		"artcc": "ZMP",
		"type": "RP",
		"updated": "MDI*LS*133.01",
	},
	{
		"name": "BUNKI",
		"latitude": "45-50-11.35 N",
		"longitude": "97-2-49.93 W",
		"state": "SOUTH DAKOTA",
		"artcc": "ZMP",
		"type": "RNAV",
		"updated": "06/15/2016",
	},
	{
		"name": "BUNPE",
		"latitude": "40-54-22.14 N",
		"longitude": "98-13-3.37 W",
		"state": "NEBRASKA",
		"artcc": "ZMP",
		"type": "RNAV",
		"updated": "10/31/2005",
	},
	{
		"name": "BUNSE",
		"latitude": "43-43-1.57 N",
		"longitude": "93-22-44.32 W",
		"state": "MINNESOTA",
		"artcc": "ZMP",
		"type": "RNAV",
		"updated": "10/03/2011",
	},
	{
		"name": "BUPAY",
		"latitude": "48-16-31.81 N",
		"longitude": "101-18-8.59 W",
		"state": "NORTH DAKOTA",
		"artcc": "ZMP",
		"type": "RP",
		"updated": "MOT*LD*NW CRS/0.49",
	},
	{
		"name": "BURDS",
		"latitude": "45-0-36.78 N",
		"longitude": "97-9-1.82 W",
		"state": "SOUTH DAKOTA",
		"artcc": "ZMP",
		"type": "RP",
		"updated": "ATY*LD*354.24/5.12",
	},
	{
		"name": "BURET",
		"latitude": "45-30-0.43 N",
		"longitude": "84-41-53.56 W",
		"state": "MICHIGAN",
		"artcc": "ZMP",
		"type": "RP",
		"updated": "PLN*VORTAC*196.41",
	},
	{
		"name": "BURPS",
		"latitude": "45-30-14.52 N",
		"longitude": "91-41-32.77 W",
		"state": "WISCONSIN",
		"artcc": "ZMP",
		"type": "RNAV",
		"updated": "02/25/2016",
	},
	{
		"name": "BUSIE",
		"latitude": "44-3-31.68 N",
		"longitude": "91-45-27.91 W",
		"state": "MINNESOTA",
		"artcc": "ZMP",
		"type": "RNAV",
		"updated": "04/07/2008",
	},
	{
		"name": "BUUBU",
		"latitude": "47-50-27.96 N",
		"longitude": "97-23-16.5 W",
		"state": "NORTH DAKOTA",
		"artcc": "ZMP",
		"type": "MR",
		"updated": "RDR*TACAN*168.00/7.00",
	},
	{
		"name": "BUVNE",
		"latitude": "45-28-8.07 N",
		"longitude": "89-55-54.74 W",
		"state": "WISCONSIN",
		"artcc": "ZMP",
		"type": "RNAV",
		"updated": "03/20/2012",
	},
	{
		"name": "BUWBI",
		"latitude": "48-45-55.99 N",
		"longitude": "97-51-39.2 W",
		"state": "NORTH DAKOTA",
		"artcc": "ZMP",
		"type": "RNAV",
		"updated": "01/29/2002",
	},
	{
		"name": "BUXBI",
		"latitude": "40-6-1.91 N",
		"longitude": "97-10-12.32 W",
		"state": "NEBRASKA",
		"artcc": "ZMP",
		"type": "RNAV",
		"updated": "05/30/2008",
	},
	{
		"name": "BYIES",
		"latitude": "41-25-41.93 N",
		"longitude": "95-14-37.54 W",
		"state": "IOWA",
		"artcc": "ZMP",
		"type": "RNAV",
		"updated": "02/09/2018",
	},
	{
		"name": "BYPOR",
		"latitude": "47-48-6.56 N",
		"longitude": "90-19-44.37 W",
		"state": "MINNESOTA",
		"artcc": "ZMP",
		"type": "RP",
		"updated": "CKC*NDB*136.08",
	},
	{
		"name": "BYSON",
		"latitude": "47-16-11.27 N",
		"longitude": "97-2-20.06 W",
		"state": "NORTH DAKOTA",
		"artcc": "ZMP",
		"type": "RNAV",
		"updated": "11/26/2014",
	},
	{
		"name": "BYZIN",
		"latitude": "47-29-3.97 N",
		"longitude": "96-13-28.09 W",
		"state": "MINNESOTA",
		"artcc": "ZMP",
		"type": "RNAV",
		"updated": "06/13/2017",
	},
