	{
		"name": "CABKA",
		"latitude": "46-22-48.04 N",
		"longitude": "96-49-36.02 W",
		"state": "NORTH DAKOTA",
		"artcc": "ZMP",
		"type": "RNAV",
		"updated": "10/31/2005",
	},
	{
		"name": "CABKU",
		"latitude": "44-19-36.19 N",
		"longitude": "100-28-26.72 W",
		"state": "SOUTH DAKOTA",
		"artcc": "ZMP",
		"type": "RP",
		"updated": "PIR*VORTAC*242.22/14.00",
	},
	{
		"name": "CABOX",
		"latitude": "41-45-16.19 N",
		"longitude": "93-29-5.35 W",
		"state": "IOWA",
		"artcc": "ZMP",
		"type": "RNAV",
		"updated": "11/29/2016",
	},
	{
		"name": "CABTU",
		"latitude": "41-28-17.27 N",
		"longitude": "94-30-8.01 W",
		"state": "IOWA",
		"artcc": "ZMP",
		"type": "RNAV",
		"updated": "05/24/2011",
	},
	{
		"name": "CABUD",
		"latitude": "44-25-29.56 N",
		"longitude": "92-10-5.4 W",
		"state": "MINNESOTA",
		"artcc": "ZMP",
		"type": "RNAV",
		"updated": "04/07/2008",
	},
	{
		"name": "CABUR",
		"latitude": "41-31-8.64 N",
		"longitude": "93-52-45.85 W",
		"state": "IOWA",
		"artcc": "ZMP",
		"type": "RNAV",
		"updated": "05/24/2011",
	},
	{
		"name": "CACNO",
		"latitude": "44-16-19.41 N",
		"longitude": "86-13-46.41 W",
		"state": "MICHIGAN",
		"artcc": "ZMP",
		"type": "WP",
		"updated": "01/24/1996",
	},
	{
		"name": "CADAD",
		"latitude": "39-39-51.45 N",
		"longitude": "98-7-53.44 W",
		"state": "KANSAS",
		"artcc": "ZMP",
		"type": "RNAV",
		"updated": "03/09/2009",
	},
	{
		"name": "CADAK",
		"latitude": "44-1-36.74 N",
		"longitude": "94-35-29.03 W",
		"state": "MINNESOTA",
		"artcc": "ZMP",
		"type": "RNAV",
		"updated": "02/22/2016",
	},
	{
		"name": "CADAR",
		"latitude": "47-34-20.1 N",
		"longitude": "94-36-22.77 W",
		"state": "MINNESOTA",
		"artcc": "ZMP",
		"type": "RP",
		"updated": "BJI*LD*073.00/14.44",
	},
	{
		"name": "CADDI",
		"latitude": "48-32-15.91 N",
		"longitude": "97-19-46.27 W",
		"state": "NORTH DAKOTA",
		"artcc": "ZMP",
		"type": "MR",
		"updated": "RDR*TACAN*359.00/35.00",
	},
	{
		"name": "CADGI",
		"latitude": "44-23-11.5 N",
		"longitude": "91-28-38.32 W",
		"state": "WISCONSIN",
		"artcc": "ZMP",
		"type": "RNAV",
		"updated": "12/15/2008",
	},
	{
		"name": "CADJU",
		"latitude": "43-10-29.65 N",
		"longitude": "91-49-25.61 W",
		"state": "IOWA",
		"artcc": "ZMP",
		"type": "RNAV",
		"updated": "02/04/2016",
	},
	{
		"name": "CADLO",
		"latitude": "43-56-29.51 N",
		"longitude": "94-31-15.8 W",
		"state": "MINNESOTA",
		"artcc": "ZMP",
		"type": "RNAV",
		"updated": "02/22/2016",
	},
	{
		"name": "CAFDE",
		"latitude": "46-47-28.82 N",
		"longitude": "98-28-32.51 W",
		"state": "NORTH DAKOTA",
		"artcc": "ZMP",
		"type": "RNAV",
		"updated": "09/20/2017",
	},
	{
		"name": "CAGAL",
		"latitude": "42-21-8.95 N",
		"longitude": "96-46-26.05 W",
		"state": "NEBRASKA",
		"artcc": "ZMP",
		"type": "RNAV",
		"updated": "09/21/2004",
	},
	{
		"name": "CAGNA",
		"latitude": "39-54-36.22 N",
		"longitude": "98-28-21.12 W",
		"state": "KANSAS",
		"artcc": "ZMP",
		"type": "RNAV",
		"updated": "05/23/2012",
	},
	{
		"name": "CAGNI",
		"latitude": "46-59-56.48 N",
		"longitude": "98-46-49.65 W",
		"state": "NORTH DAKOTA",
		"artcc": "ZMP",
		"type": "RP",
		"updated": "JMS*VOR/DME*309.58/5.76",
	},
	{
		"name": "CAGNO",
		"latitude": "45-30-22.53 N",
		"longitude": "92-2-11.29 W",
		"state": "WISCONSIN",
		"artcc": "ZMP",
		"type": "RNAV",
		"updated": "02/24/2016",
	},
	{
		"name": "CAGOB",
		"latitude": "48-15-37.91 N",
		"longitude": "99-9-18.53 W",
		"state": "NORTH DAKOTA",
		"artcc": "ZMP",
		"type": "RNAV",
		"updated": "06/29/2015",
	},
	{
		"name": "CAGOD",
		"latitude": "41-56-27.12 N",
		"longitude": "98-12-14.85 W",
		"state": "NEBRASKA",
		"artcc": "ZMP",
		"type": "RNAV",
		"updated": "09/28/2009",
	},
	{
		"name": "CAGOS",
		"latitude": "47-48-34.19 N",
		"longitude": "97-19-2.16 W",
		"state": "NORTH DAKOTA",
		"artcc": "ZMP",
		"type": "RNAV",
		"updated": "08/24/2004",
	},
	{
		"name": "CAGTA",
		"latitude": "48-26-44.89 N",
		"longitude": "103-0-10.13 W",
		"state": "NORTH DAKOTA",
		"artcc": "ZMP",
		"type": "RNAV",
		"updated": "09/30/2016",
	},
	{
		"name": "CAGUR",
		"latitude": "42-50-37.95 N",
		"longitude": "97-18-6.73 W",
		"state": "NEBRASKA",
		"artcc": "ZMP",
		"type": "RP",
		"updated": "YKN*VOR/DME*/5.78",
	},
	{
		"name": "CAGUX",
		"latitude": "44-35-42.86 N",
		"longitude": "97-58-47.06 W",
		"state": "SOUTH DAKOTA",
		"artcc": "ZMP",
		"type": "RP",
		"updated": "HON*VORTAC*046.68/17.00",
	},
	{
		"name": "CAKAY",
		"latitude": "40-55-57.48 N",
		"longitude": "98-0-16.64 W",
		"state": "NEBRASKA",
		"artcc": "ZMP",
		"type": "RNAV",
		"updated": "07/07/2008",
	},
	{
		"name": "CAKDU",
		"latitude": "48-31-11.29 N",
		"longitude": "103-7-18 W",
		"state": "NORTH DAKOTA",
		"artcc": "ZMP",
		"type": "RNAV",
		"updated": "09/30/2016",
	},
	{
		"name": "CAKEV",
		"latitude": "40-32-24.05 N",
		"longitude": "95-21-56.47 W",
		"state": "MISSOURI",
		"artcc": "ZMP",
		"type": "RNAV",
		"updated": "07/03/2008",
	},
	{
		"name": "CAKFI",
		"latitude": "41-37-55.08 N",
		"longitude": "97-29-6.87 W",
		"state": "NEBRASKA",
		"artcc": "ZMP",
		"type": "RNAV",
		"updated": "07/17/2007",
	},
	{
		"name": "CAKIV",
		"latitude": "44-54-41.76 N",
		"longitude": "93-10-58.62 W",
		"state": "MINNESOTA",
		"artcc": "ZMP",
		"type": "RNAV",
		"updated": "01/18/2002",
	},
	{
		"name": "CAKRU",
		"latitude": "46-10-9.16 N",
		"longitude": "84-24-20.41 W",
		"state": "MICHIGAN",
		"artcc": "ZMP",
		"type": "RNAV",
		"updated": "09/14/2009",
	},
	{
		"name": "CAKTA",
		"latitude": "46-33-13.35 N",
		"longitude": "84-28-23.38 W",
		"state": "",
		"artcc": "ZMP",
		"type": "RNAV",
		"updated": "06/13/2011",
	},
	{
		"name": "CAKUD",
		"latitude": "47-56-44.91 N",
		"longitude": "98-17-33.92 W",
		"state": "NORTH DAKOTA",
		"artcc": "ZMP",
		"type": "RNAV",
		"updated": "04/13/2017",
	},
	{
		"name": "CAKUK",
		"latitude": "45-48-8.74 N",
		"longitude": "93-15-11.23 W",
		"state": "MINNESOTA",
		"artcc": "ZMP",
		"type": "RNAV",
		"updated": "08/18/2015",
	},
	{
		"name": "CALAG",
		"latitude": "45-10-8.17 N",
		"longitude": "97-39-56.02 W",
		"state": "SOUTH DAKOTA",
		"artcc": "ZMP",
		"type": "RP",
		"updated": "ATY*VORTAC*288.21/25.00",
	},
	{
		"name": "CALIX",
		"latitude": "45-1-49.85 N",
		"longitude": "84-8-24.57 W",
		"state": "MICHIGAN",
		"artcc": "ZMP",
		"type": "MR",
		"updated": "APN*VORTAC*270.00/25.00",
	},
	{
		"name": "CALLN",
		"latitude": "41-30-52.44 N",
		"longitude": "96-34-5.37 W",
		"state": "NEBRASKA",
		"artcc": "ZMP",
		"type": "RP",
		"updated": "SCB*VOR/DME*147.17/6.06",
	},
	{
		"name": "CALMS",
		"latitude": "44-18-44.57 N",
		"longitude": "91-28-19.26 W",
		"state": "WISCONSIN",
		"artcc": "ZMP",
		"type": "RP",
		"updated": "RST*VOR/DME*051.48",
	},
	{
		"name": "CALOG",
		"latitude": "45-10-48.61 N",
		"longitude": "100-48-29.96 W",
		"state": "SOUTH DAKOTA",
		"artcc": "ZMP",
		"type": "RP",
		"updated": "DPR*VOR/DME*070.65/39.00",
	},
	{
		"name": "CALOT",
		"latitude": "47-4-19.7 N",
		"longitude": "98-28-22.2 W",
		"state": "NORTH DAKOTA",
		"artcc": "ZMP",
		"type": "RNAV",
		"updated": "07/20/2007",
	},
	{
		"name": "CALPI",
		"latitude": "43-5-46.13 N",
		"longitude": "91-21-43.57 W",
		"state": "IOWA",
		"artcc": "ZMP",
		"type": "RNAV",
		"updated": "10/23/2008",
	},
	{
		"name": "CALUL",
		"latitude": "48-24-38.38 N",
		"longitude": "102-56-47.61 W",
		"state": "NORTH DAKOTA",
		"artcc": "ZMP",
		"type": "RNAV",
		"updated": "09/30/2016",
	},
	{
		"name": "CALUM",
		"latitude": "41-52-19.42 N",
		"longitude": "93-42-21.42 W",
		"state": "IOWA",
		"artcc": "ZMP",
		"type": "RNAV",
		"updated": "06/12/2013",
	},
	{
		"name": "CALUR",
		"latitude": "41-35-52.52 N",
		"longitude": "94-41-58.33 W",
		"state": "IOWA",
		"artcc": "ZMP",
		"type": "RNAV",
		"updated": "12/13/2001",
	},
	{
		"name": "CALYN",
		"latitude": "43-8-38.31 N",
		"longitude": "94-45-2.97 W",
		"state": "IOWA",
		"artcc": "ZMP",
		"type": "RP",
		"updated": "EGQ*NDB*319.33",
	},
	{
		"name": "CAMAG",
		"latitude": "46-31-49.7 N",
		"longitude": "97-47-49.28 W",
		"state": "NORTH DAKOTA",
		"artcc": "ZMP",
		"type": "RNAV",
		"updated": "11/22/2016",
	},
	{
		"name": "CAMEM",
		"latitude": "45-40-22.31 N",
		"longitude": "90-24-32.38 W",
		"state": "WISCONSIN",
		"artcc": "ZMP",
		"type": "RNAV",
		"updated": "10/16/2017",
	},
	{
		"name": "CAMOD",
		"latitude": "48-39-17.83 N",
		"longitude": "95-45-16.76 W",
		"state": "MINNESOTA",
		"artcc": "ZMP",
		"type": "RNAV",
		"updated": "06/28/2007",
	},
	{
		"name": "CAMOG",
		"latitude": "43-51-52.34 N",
		"longitude": "83-1-2.83 W",
		"state": "MICHIGAN",
		"artcc": "ZMP",
		"type": "RNAV",
		"updated": "06/25/2007",
	},
	{
		"name": "CAMPG",
		"latitude": "48-3-42.7 N",
		"longitude": "98-58-19.41 W",
		"state": "NORTH DAKOTA",
		"artcc": "ZMP",
		"type": "RP",
		"updated": "DVL*VOR/DME*209.81/4.00",
	},
	{
		"name": "CAMPY",
		"latitude": "44-19-48.47 N",
		"longitude": "87-43-55.19 W",
		"state": "WISCONSIN",
		"artcc": "ZMP",
		"type": "RP",
		"updated": "MTW*VOR/DME*/12.30",
	},
	{
		"name": "CANAK",
		"latitude": "43-52-33.48 N",
		"longitude": "94-38-19.92 W",
		"state": "MINNESOTA",
		"artcc": "ZMP",
		"type": "RNAV",
		"updated": "10/16/2014",
	},
	{
		"name": "CANDD",
		"latitude": "44-36-22.81 N",
		"longitude": "93-0-50.94 W",
		"state": "MINNESOTA",
		"artcc": "ZMP",
		"type": "RNAV",
		"updated": "11/09/2016",
	},
	{
		"name": "CANEB",
		"latitude": "43-52-25.14 N",
		"longitude": "92-31-26.5 W",
		"state": "MINNESOTA",
		"artcc": "ZMP",
		"type": "RP",
		"updated": "RST*VOR/DME*025.14/6.30",
	},
	{
		"name": "CANIO",
		"latitude": "41-38-48.07 N",
		"longitude": "95-58-23.03 W",
		"state": "IOWA",
		"artcc": "ZMP",
		"type": "RP",
		"updated": "OVR*VORTAC*331.73/30.67",
	},
	{
		"name": "CANLI",
		"latitude": "47-51-25.25 N",
		"longitude": "97-24-2.93 W",
		"state": "NORTH DAKOTA",
		"artcc": "ZMP",
		"type": "MR",
		"updated": "RDR*TACAN*/6.01",
	},
	{
		"name": "CAPLO",
		"latitude": "42-41-13.46 N",
		"longitude": "95-33-30.53 W",
		"state": "IOWA",
		"artcc": "ZMP",
		"type": "RNAV",
		"updated": "04/14/2009",
	},
	{
		"name": "CARAX",
		"latitude": "40-42-15.6 N",
		"longitude": "96-55-27.43 W",
		"state": "NEBRASKA",
		"artcc": "ZMP",
		"type": "RNAV",
		"updated": "05/30/2008",
	},
	{
		"name": "CAREV",
		"latitude": "47-27-1.06 N",
		"longitude": "102-51-48.52 W",
		"state": "NORTH DAKOTA",
		"artcc": "ZMP",
		"type": "RNAV",
		"updated": "11/01/2017",
	},
	{
		"name": "CAREW",
		"latitude": "48-9-28.37 N",
		"longitude": "99-31-52.77 W",
		"state": "NORTH DAKOTA",
		"artcc": "ZMP",
		"type": "RP",
		"updated": "DVL*VOR/DME*269.11/25.00",
	},
	{
		"name": "CARGA",
		"latitude": "44-38-28.29 N",
		"longitude": "84-58-15.15 W",
		"state": "MICHIGAN",
		"artcc": "ZMP",
		"type": "RP",
		"updated": "MOP*VOR/DME*355.70",
	},
	{
		"name": "CARIT",
		"latitude": "44-28-4.78 N",
		"longitude": "96-12-11.5 W",
		"state": "MINNESOTA",
		"artcc": "ZMP",
		"type": "RP",
		"updated": "RWF*VOR/DME*263.43/46.19",
	},
	{
		"name": "CARSY",
		"latitude": "41-53-15.15 N",
		"longitude": "97-28-47.89 W",
		"state": "NEBRASKA",
		"artcc": "ZMP",
		"type": "RP",
		"updated": "OFK*VOR/DME*/6.35",
	},
	{
		"name": "CARUV",
		"latitude": "48-46-34.4 N",
		"longitude": "95-7-43.79 W",
		"state": "MINNESOTA",
		"artcc": "ZMP",
		"type": "RP",
		"updated": "BDE*VOR/DME*275.00",
	},
	{
		"name": "CASDI",
		"latitude": "43-35-48.81 N",
		"longitude": "93-58-59.01 W",
		"state": "MINNESOTA",
		"artcc": "ZMP",
		"type": "RNAV",
		"updated": "09/29/2014",
	},
	{
		"name": "CASMU",
		"latitude": "43-10-8.55 N",
		"longitude": "96-7-45.9 W",
		"state": "IOWA",
		"artcc": "ZMP",
		"type": "RNAV",
		"updated": "11/02/2015",
	},
	{
		"name": "CASNS",
		"latitude": "44-46-17.13 N",
		"longitude": "94-33-3.1 W",
		"state": "MINNESOTA",
		"artcc": "ZMP",
		"type": "RNAV",
		"updated": "07/11/2005",
	},
	{
		"name": "CASVU",
		"latitude": "43-20-49.98 N",
		"longitude": "96-35-17.13 W",
		"state": "SOUTH DAKOTA",
		"artcc": "ZMP",
		"type": "RP",
		"updated": "FSD*VORTAC*146.46/20.00",
	},
	{
		"name": "CATAP",
		"latitude": "45-39-14.32 N",
		"longitude": "84-39-20.28 W",
		"state": "MICHIGAN",
		"artcc": "ZMP",
		"type": "RNAV",
		"updated": "03/01/2011",
	},
	{
		"name": "CATID",
		"latitude": "43-24-30.55 N",
		"longitude": "96-11-4.56 W",
		"state": "IOWA",
		"artcc": "ZMP",
		"type": "RP",
		"updated": "FSD*VORTAC*109.84/29.78",
	},
	{
		"name": "CATPI",
		"latitude": "48-56-39.9 N",
		"longitude": "95-43-45.92 W",
		"state": "MINNESOTA",
		"artcc": "ZMP",
		"type": "RNAV",
		"updated": "06/28/2007",
	},
	{
		"name": "CATSA",
		"latitude": "48-1-45.84 N",
		"longitude": "96-13-55.49 W",
		"state": "MINNESOTA",
		"artcc": "ZMP",
		"type": "RNAV",
		"updated": "09/26/2014",
	},
	{
		"name": "CATUX",
		"latitude": "44-18-29.58 N",
		"longitude": "94-26-54.11 W",
		"state": "MINNESOTA",
		"artcc": "ZMP",
		"type": "RNAV",
		"updated": "04/07/2008",
	},
	{
		"name": "CATVA",
		"latitude": "44-46-29.2 N",
		"longitude": "96-22-14.39 W",
		"state": "MINNESOTA",
		"artcc": "ZMP",
		"type": "RNAV",
		"updated": "06/01/2010",
	},
	{
		"name": "CAVIP",
		"latitude": "41-4-11.16 N",
		"longitude": "95-54-23.01 W",
		"state": "NEBRASKA",
		"artcc": "ZMP",
		"type": "RNAV",
		"updated": "09/10/2014",
	},
	{
		"name": "CAVKA",
		"latitude": "44-12-53.55 N",
		"longitude": "91-8-54.44 W",
		"state": "WISCONSIN",
		"artcc": "ZMP",
		"type": "RNAV",
		"updated": "06/26/2012",
	},
	{
		"name": "CAVOR",
		"latitude": "44-19-37.91 N",
		"longitude": "98-7-31.88 W",
		"state": "SOUTH DAKOTA",
		"artcc": "ZMP",
		"type": "RP",
		"updated": "HON*LD*SE CRS/4.97",
	},
	{
		"name": "CAVPI",
		"latitude": "41-13-57.96 N",
		"longitude": "95-43-56.22 W",
		"state": "IOWA",
		"artcc": "ZMP",
		"type": "RNAV",
		"updated": "02/05/2018",
	},
	{
		"name": "CAVSU",
		"latitude": "46-2-42.71 N",
		"longitude": "90-25-4.13 W",
		"state": "WISCONSIN",
		"artcc": "ZMP",
		"type": "RNAV",
		"updated": "03/22/2006",
	},
	{
		"name": "CAVUX",
		"latitude": "44-53-50.63 N",
		"longitude": "91-26-20.92 W",
		"state": "WISCONSIN",
		"artcc": "ZMP",
		"type": "RP",
		"updated": "EAU*LD*043.98/3.29",
	},
	{
		"name": "CAWVI",
		"latitude": "48-23-14.25 N",
		"longitude": "100-1-6.56 W",
		"state": "NORTH DAKOTA",
		"artcc": "ZMP",
		"type": "WP",
		"updated": "12/21/1995",
	},
	{
		"name": "CAXOL",
		"latitude": "46-54-29.58 N",
		"longitude": "98-59-34.18 W",
		"state": "NORTH DAKOTA",
		"artcc": "ZMP",
		"type": "RP",
		"updated": "JMS*VOR/DME*259.57/13.00",
	},
	{
		"name": "CAXOT",
		"latitude": "46-3-33.73 N",
		"longitude": "92-46-48.8 W",
		"state": "MINNESOTA",
		"artcc": "ZMP",
		"type": "RNAV",
		"updated": "01/02/2008",
	},
	{
		"name": "CAYAN",
		"latitude": "45-41-32.87 N",
		"longitude": "89-2-16.92 W",
		"state": "WISCONSIN",
		"artcc": "ZMP",
		"type": "RP",
		"updated": "RHI*VOR/DME*076.57/18.01",
	},
	{
		"name": "CCJAY",
		"latitude": "45-3-30.66 N",
		"longitude": "93-36-22.44 W",
		"state": "MINNESOTA",
		"artcc": "ZMP",
		"type": "RP",
		"updated": "PJL*LD*301.33/20.33",
	},
	{
		"name": "CCREL",
		"latitude": "48-5-27.22 N",
		"longitude": "98-56-40.7 W",
		"state": "NORTH DAKOTA",
		"artcc": "ZMP",
		"type": "RNAV",
		"updated": "11/04/2013",
	},
	{
		"name": "CDSCC",
		"latitude": "49-0-1.2 N",
		"longitude": "95-53-56.1 W",
		"state": "MINNESOTA",
		"artcc": "ZMP",
		"type": "CN",
		"updated": "06/03/2002",
	},
	{
		"name": "CEBOS",
		"latitude": "43-43-13.54 N",
		"longitude": "93-16-53.08 W",
		"state": "MINNESOTA",
		"artcc": "ZMP",
		"type": "RNAV",
		"updated": "03/10/2015",
	},
	{
		"name": "CEBOT",
		"latitude": "43-38-18.4 N",
		"longitude": "92-51-26.99 W",
		"state": "MINNESOTA",
		"artcc": "ZMP",
		"type": "RNAV",
		"updated": "03/10/2015",
	},
	{
		"name": "CECIL",
		"latitude": "44-49-28.89 N",
		"longitude": "88-30-16.11 W",
		"state": "WISCONSIN",
		"artcc": "ZMP",
		"type": "RP",
		"updated": "MNM*VOR/DME*240.00",
	},
	{
		"name": "CECYA",
		"latitude": "47-17-56.33 N",
		"longitude": "98-57-49.16 W",
		"state": "NORTH DAKOTA",
		"artcc": "ZMP",
		"type": "RNAV",
		"updated": "04/29/2013",
	},
	{
		"name": "CEDAG",
		"latitude": "47-7-39.03 N",
		"longitude": "88-37-28.78 W",
		"state": "MICHIGAN",
		"artcc": "ZMP",
		"type": "RNAV",
		"updated": "07/01/2013",
	},
	{
		"name": "CEDIP",
		"latitude": "41-30-27.41 N",
		"longitude": "93-42-20.75 W",
		"state": "IOWA",
		"artcc": "ZMP",
		"type": "RP",
		"updated": "DSM*VORTAC*321.44",
	},
	{
		"name": "CEDIR",
		"latitude": "41-21-16.7 N",
		"longitude": "95-56-41.54 W",
		"state": "NEBRASKA",
		"artcc": "ZMP",
		"type": "RNAV",
		"updated": "08/14/2012",
	},
	{
		"name": "CEDOS",
		"latitude": "45-21-57.72 N",
		"longitude": "84-58-40.34 W",
		"state": "MICHIGAN",
		"artcc": "ZMP",
		"type": "RNAV",
		"updated": "12/05/2007",
	},
	{
		"name": "CEDPA",
		"latitude": "44-20-23.36 N",
		"longitude": "83-38-38.87 W",
		"state": "MICHIGAN",
		"artcc": "ZMP",
		"type": "RNAV",
		"updated": "03/29/2010",
	},
	{
		"name": "CEGIT",
		"latitude": "41-4-39.41 N",
		"longitude": "98-2-33.67 W",
		"state": "NEBRASKA",
		"artcc": "ZMP",
		"type": "RNAV",
		"updated": "07/07/2008",
	},
	{
		"name": "CEGLA",
		"latitude": "45-51-54.72 N",
		"longitude": "90-25-51.52 W",
		"state": "WISCONSIN",
		"artcc": "ZMP",
		"type": "RNAV",
		"updated": "03/11/2003",
	},
	{
		"name": "CEGOP",
		"latitude": "41-11-27.55 N",
		"longitude": "96-37-25.28 W",
		"state": "NEBRASKA",
		"artcc": "ZMP",
		"type": "RNAV",
		"updated": "05/08/2008",
	},
	{
		"name": "CEGSI",
		"latitude": "44-25-9.94 N",
		"longitude": "85-35-18.08 W",
		"state": "MICHIGAN",
		"artcc": "ZMP",
		"type": "RP",
		"updated": "MBL*VOR/DME*077.47",
	},
	{
		"name": "CEGTU",
		"latitude": "45-13-30.27 N",
		"longitude": "92-37-11.21 W",
		"state": "WISCONSIN",
		"artcc": "ZMP",
		"type": "RNAV",
		"updated": "08/05/2011",
	},
	{
		"name": "CEGUL",
		"latitude": "44-29-1.59 N",
		"longitude": "95-52-26.97 W",
		"state": "MINNESOTA",
		"artcc": "ZMP",
		"type": "RP",
		"updated": "MML*VOR/DME*310.00/3.00",
	},
	{
		"name": "CEGUY",
		"latitude": "44-30-8.17 N",
		"longitude": "92-26-36.05 W",
		"state": "MINNESOTA",
		"artcc": "ZMP",
		"type": "RNAV",
		"updated": "04/24/2008",
	},
	{
		"name": "CEKAC",
		"latitude": "42-8-38.55 N",
		"longitude": "97-9-39.23 W",
		"state": "NEBRASKA",
		"artcc": "ZMP",
		"type": "RNAV",
		"updated": "09/21/2004",
	},
	{
		"name": "CEKDA",
		"latitude": "46-25-3.42 N",
		"longitude": "91-16-8.36 W",
		"state": "WISCONSIN",
		"artcc": "ZMP",
		"type": "RP",
		"updated": "DLH*VORTAC*115.52/45.00",
	},
	{
		"name": "CEKEG",
		"latitude": "42-27-34.14 N",
		"longitude": "96-9-38.61 W",
		"state": "IOWA",
		"artcc": "ZMP",
		"type": "RP",
		"updated": "SUX*VORTAC*037.35/10.00",
	},
	{
		"name": "CEKLO",
		"latitude": "46-42-19.1 N",
		"longitude": "90-51-37.43 W",
		"state": "WISCONSIN",
		"artcc": "ZMP",
		"type": "RNAV",
		"updated": "03/17/2008",
	},
	{
		"name": "CEKSA",
		"latitude": "47-14-0.72 N",
		"longitude": "92-35-32.63 W",
		"state": "MINNESOTA",
		"artcc": "ZMP",
		"type": "RNAV",
		"updated": "06/20/2011",
	},
	{
		"name": "CEKUS",
		"latitude": "43-59-3.11 N",
		"longitude": "90-49-15.01 W",
		"state": "WISCONSIN",
		"artcc": "ZMP",
		"type": "RNAV",
		"updated": "04/26/2011",
	},
	{
		"name": "CELIS",
		"latitude": "47-23-50.55 N",
		"longitude": "95-2-13.14 W",
		"state": "MINNESOTA",
		"artcc": "ZMP",
		"type": "RP",
		"updated": "PKD*VOR/DME*358.64/30.00",
	},
	{
		"name": "CELKU",
		"latitude": "44-30-59.79 N",
		"longitude": "98-27-48.89 W",
		"state": "SOUTH DAKOTA",
		"artcc": "ZMP",
		"type": "RNAV",
		"updated": "07/09/2009",
	},
	{
		"name": "CELNA",
		"latitude": "44-39-32.88 N",
		"longitude": "87-56-35.78 W",
		"state": "WISCONSIN",
		"artcc": "ZMP",
		"type": "RNAV",
		"updated": "08/25/2009",
	},
	{
		"name": "CELTA",
		"latitude": "40-46-30.51 N",
		"longitude": "97-34-18.6 W",
		"state": "NEBRASKA",
		"artcc": "ZMP",
		"type": "RNAV",
		"updated": "06/16/2009",
	},
	{
		"name": "CELUN",
		"latitude": "44-30-21.72 N",
		"longitude": "92-24-41.05 W",
		"state": "MINNESOTA",
		"artcc": "ZMP",
		"type": "RNAV",
		"updated": "04/24/2008",
	},
	{
		"name": "CEMAT",
		"latitude": "48-31-5.84 N",
		"longitude": "101-17-1.35 W",
		"state": "NORTH DAKOTA",
		"artcc": "ZMP",
		"type": "RP",
		"updated": "MIB*TACAN*021.01/7.00",
	},
	{
		"name": "CEMOB",
		"latitude": "44-23-41.68 N",
		"longitude": "86-2-8.56 W",
		"state": "MICHIGAN",
		"artcc": "ZMP",
		"type": "RP",
		"updated": "MBL*VOR/DME*056.51/12.00",
	},
	{
		"name": "CEMPU",
		"latitude": "45-34-9.52 N",
		"longitude": "93-46-10.87 W",
		"state": "MINNESOTA",
		"artcc": "ZMP",
		"type": "RNAV",
		"updated": "12/19/2003",
	},
	{
		"name": "CEMSE",
		"latitude": "44-25-33.66 N",
		"longitude": "93-19-49.7 W",
		"state": "MINNESOTA",
		"artcc": "ZMP",
		"type": "RNAV",
		"updated": "03/18/2008",
	},
	{
		"name": "CENEB",
		"latitude": "45-0-45.88 N",
		"longitude": "87-14-50.42 W",
		"state": "WISCONSIN",
		"artcc": "ZMP",
		"type": "RNAV",
		"updated": "09/23/2004",
	},
	{
		"name": "CENLI",
		"latitude": "41-36-36.99 N",
		"longitude": "93-37-26.48 W",
		"state": "IOWA",
		"artcc": "ZMP",
		"type": "RNAV",
		"updated": "03/29/2011",
	},
	{
		"name": "CENOS",
		"latitude": "45-14-2.34 N",
		"longitude": "91-56-49.68 W",
		"state": "WISCONSIN",
		"artcc": "ZMP",
		"type": "RNAV",
		"updated": "07/25/2005",
	},
	{
		"name": "CENTR",
		"latitude": "47-0-33.36 N",
		"longitude": "101-9-14.22 W",
		"state": "NORTH DAKOTA",
		"artcc": "ZMP",
		"type": "RP",
		"updated": "BIS*VOR/DME*294.64/25.00",
	},
	{
		"name": "CEPKA",
		"latitude": "43-53-42.32 N",
		"longitude": "96-18-27.81 W",
		"state": "MINNESOTA",
		"artcc": "ZMP",
		"type": "RNAV",
		"updated": "03/14/2013",
	},
	{
		"name": "CEPMU",
		"latitude": "45-50-40.31 N",
		"longitude": "89-43-49.93 W",
		"state": "WISCONSIN",
		"artcc": "ZMP",
		"type": "RNAV",
		"updated": "10/27/2009",
	},
	{
		"name": "CEPOL",
		"latitude": "43-45-58.36 N",
		"longitude": "96-51-27.98 W",
		"state": "SOUTH DAKOTA",
		"artcc": "ZMP",
		"type": "RNAV",
		"updated": "12/17/2013",
	},
	{
		"name": "CEPUT",
		"latitude": "41-24-19.74 N",
		"longitude": "95-53-38.62 W",
		"state": "IOWA",
		"artcc": "ZMP",
		"type": "RP",
		"updated": "PPY*LD*358.21/7.03",
	},
	{
		"name": "CERAK",
		"latitude": "43-51-9.91 N",
		"longitude": "92-24-33.14 W",
		"state": "MINNESOTA",
		"artcc": "ZMP",
		"type": "RNAV",
		"updated": "03/28/2012",
	},
	{
		"name": "CERCA",
		"latitude": "45-46-27.11 N",
		"longitude": "91-58-38.68 W",
		"state": "WISCONSIN",
		"artcc": "ZMP",
		"type": "RNAV",
		"updated": "11/19/2007",
	},
	{
		"name": "CERHI",
		"latitude": "41-54-56.59 N",
		"longitude": "97-21-46.02 W",
		"state": "NEBRASKA",
		"artcc": "ZMP",
		"type": "RNAV",
		"updated": "10/06/2009",
	},
	{
		"name": "CERIB",
		"latitude": "44-8-42.88 N",
		"longitude": "93-51-59.66 W",
		"state": "MINNESOTA",
		"artcc": "ZMP",
		"type": "RNAV",
		"updated": "08/19/2009",
	},
	{
		"name": "CERPI",
		"latitude": "44-27-58.99 N",
		"longitude": "91-23-36.01 W",
		"state": "WISCONSIN",
		"artcc": "ZMP",
		"type": "RNAV",
		"updated": "12/15/2008",
	},
	{
		"name": "CESAY",
		"latitude": "43-52-32.3 N",
		"longitude": "95-6-34.98 W",
		"state": "MINNESOTA",
		"artcc": "ZMP",
		"type": "RNAV",
		"updated": "07/10/2003",
	},
	{
		"name": "CESNA",
		"latitude": "45-52-14 N",
		"longitude": "92-10-59 W",
		"state": "WISCONSIN",
		"artcc": "ZMP",
		"type": "RNAV",
		"updated": "09/20/2014",
	},
	{
		"name": "CESOT",
		"latitude": "43-43-21.47 N",
		"longitude": "98-2-0.22 W",
		"state": "SOUTH DAKOTA",
		"artcc": "ZMP",
		"type": "RNAV",
		"updated": "11/02/2015",
	},
	{
		"name": "CESSI",
		"latitude": "45-56-30.75 N",
		"longitude": "89-41-2.77 W",
		"state": "WISCONSIN",
		"artcc": "ZMP",
		"type": "RP",
		"updated": "RHI*VOR/DME*330.88/20.79",
	},
	{
		"name": "CESYA",
		"latitude": "45-22-10.4 N",
		"longitude": "85-33-20.95 W",
		"state": "MICHIGAN",
		"artcc": "ZMP",
		"type": "RNAV",
		"updated": "11/15/2004",
	},
	{
		"name": "CESZI",
		"latitude": "42-21-19.07 N",
		"longitude": "96-58-35.14 W",
		"state": "NEBRASKA",
		"artcc": "ZMP",
		"type": "RNAV",
		"updated": "09/12/2011",
	},
	{
		"name": "CETBO",
		"latitude": "48-20-38.49 N",
		"longitude": "102-50-24.8 W",
		"state": "NORTH DAKOTA",
		"artcc": "ZMP",
		"type": "RNAV",
		"updated": "11/30/2012",
	},
	{
		"name": "CETOT",
		"latitude": "44-14-40.56 N",
		"longitude": "94-26-40.41 W",
		"state": "MINNESOTA",
		"artcc": "ZMP",
		"type": "RNAV",
		"updated": "03/21/2013",
	},
	{
		"name": "CETRI",
		"latitude": "40-53-56.94 N",
		"longitude": "97-6-48.18 W",
		"state": "NEBRASKA",
		"artcc": "ZMP",
		"type": "RNAV",
		"updated": "05/08/2008",
	},
	{
		"name": "CETUB",
		"latitude": "40-51-16.06 N",
		"longitude": "94-45-9.22 W",
		"state": "IOWA",
		"artcc": "ZMP",
		"type": "RP",
		"updated": "LMN*VOR/DME*286.60/39.00",
	},
	{
		"name": "CETVI",
		"latitude": "42-48-49.97 N",
		"longitude": "93-49-37.37 W",
		"state": "IOWA",
		"artcc": "ZMP",
		"type": "RNAV",
		"updated": "11/04/2015",
	},
	{
		"name": "CEVEP",
		"latitude": "46-42-18.73 N",
		"longitude": "100-49-48.42 W",
		"state": "NORTH DAKOTA",
		"artcc": "ZMP",
		"type": "RNAV",
		"updated": "03/24/2014",
	},
	{
		"name": "CEVER",
		"latitude": "40-46-31.21 N",
		"longitude": "97-27-43.72 W",
		"state": "NEBRASKA",
		"artcc": "ZMP",
		"type": "RNAV",
		"updated": "06/23/2009",
	},
	{
		"name": "CEVLU",
		"latitude": "46-35-50.43 N",
		"longitude": "90-35-58.69 W",
		"state": "WISCONSIN",
		"artcc": "ZMP",
		"type": "RP",
		"updated": "IWD*VORTAC*280.44/20.00",
	},
	{
		"name": "CEVOX",
		"latitude": "47-29-47.64 N",
		"longitude": "98-23-28.78 W",
		"state": "NORTH DAKOTA",
		"artcc": "ZMP",
		"type": "RNAV",
		"updated": "09/03/2010",
	},
	{
		"name": "CEVYA",
		"latitude": "48-13-8.45 N",
		"longitude": "97-29-26.15 W",
		"state": "NORTH DAKOTA",
		"artcc": "ZMP",
		"type": "RNAV",
		"updated": "05/14/2010",
	},
	{
		"name": "CEWDA",
		"latitude": "44-48-32 N",
		"longitude": "88-33-0 W",
		"state": "WISCONSIN",
		"artcc": "ZMP",
		"type": "RNAV",
		"updated": "01/13/2015",
	},
	{
		"name": "CEXOG",
		"latitude": "41-57-2.67 N",
		"longitude": "93-38-15.06 W",
		"state": "IOWA",
		"artcc": "ZMP",
		"type": "RNAV",
		"updated": "04/04/2010",
	},
	{
		"name": "CEXUP",
		"latitude": "40-45-39.93 N",
		"longitude": "95-0-11.62 W",
		"state": "IOWA",
		"artcc": "ZMP",
		"type": "RNAV",
		"updated": "12/19/2009",
	},
	{
		"name": "CEXUV",
		"latitude": "41-20-16.27 N",
		"longitude": "94-22-19.24 W",
		"state": "IOWA",
		"artcc": "ZMP",
		"type": "RNAV",
		"updated": "11/16/2010",
	},
	{
		"name": "CEYDA",
		"latitude": "45-13-54.93 N",
		"longitude": "89-35-39.86 W",
		"state": "WISCONSIN",
		"artcc": "ZMP",
		"type": "RNAV",
		"updated": "07/19/2007",
	},
	{
		"name": "CEYMU",
		"latitude": "44-55-18.11 N",
		"longitude": "101-9-45.61 W",
		"state": "SOUTH DAKOTA",
		"artcc": "ZMP",
		"type": "WP",
		"updated": "04/08/2002",
	},
	{
		"name": "CEYNA",
		"latitude": "43-58-51.43 N",
		"longitude": "86-19-34.15 W",
		"state": "MICHIGAN",
		"artcc": "ZMP",
		"type": "RNAV",
		"updated": "02/27/2008",
	},
	{
		"name": "CFBJG",
		"latitude": "46-19-7.98 N",
		"longitude": "91-14-56.08 W",
		"state": "WISCONSIN",
		"artcc": "ZMP",
		"type": "CN",
		"updated": "07/09/2015",
	},
	{
		"name": "CFBJM",
		"latitude": "41-14-25.29 N",
		"longitude": "95-50-27.4 W",
		"state": "IOWA",
		"artcc": "ZMP",
		"type": "CN",
		"updated": "08/13/2012",
	},
	{
		"name": "CFBJV",
		"latitude": "41-21-47.36 N",
		"longitude": "95-50-27.81 W",
		"state": "IOWA",
		"artcc": "ZMP",
		"type": "CN",
		"updated": "08/13/2012",
	},
	{
		"name": "CFBJW",
		"latitude": "41-21-48.41 N",
		"longitude": "95-56-50.39 W",
		"state": "NEBRASKA",
		"artcc": "ZMP",
		"type": "CN",
		"updated": "08/09/2012",
	},
	{
		"name": "CFBKC",
		"latitude": "44-9-57.36 N",
		"longitude": "89-56-7.58 W",
		"state": "WISCONSIN",
		"artcc": "ZMP",
		"type": "CN",
		"updated": "11/15/2012",
	},
	{
		"name": "CFBKJ",
		"latitude": "45-2-32.24 N",
		"longitude": "92-59-53.36 W",
		"state": "MINNESOTA",
		"artcc": "ZMP",
		"type": "CN",
		"updated": "03/21/2013",
	},
	{
		"name": "CFBKK",
		"latitude": "44-42-1.38 N",
		"longitude": "93-28-44.19 W",
		"state": "MINNESOTA",
		"artcc": "ZMP",
		"type": "CN",
		"updated": "03/21/2013",
	},
	{
		"name": "CFBKL",
		"latitude": "44-41-53.91 N",
		"longitude": "93-15-10.91 W",
		"state": "MINNESOTA",
		"artcc": "ZMP",
		"type": "CN",
		"updated": "06/07/2013",
	},
	{
		"name": "CFBQB",
		"latitude": "41-19-51.32 N",
		"longitude": "95-59-19.47 W",
		"state": "NEBRASKA",
		"artcc": "ZMP",
		"type": "CN",
		"updated": "08/09/2012",
	},
	{
		"name": "CFBQC",
		"latitude": "41-22-45.52 N",
		"longitude": "95-53-57.01 W",
		"state": "IOWA",
		"artcc": "ZMP",
		"type": "CN",
		"updated": "08/13/2012",
	},
	{
		"name": "CFBQD",
		"latitude": "41-19-50.74 N",
		"longitude": "95-58-59.57 W",
		"state": "NEBRASKA",
		"artcc": "ZMP",
		"type": "CN",
		"updated": "08/09/2012",
	},
	{
		"name": "CFBQF",
		"latitude": "41-22-41.79 N",
		"longitude": "95-53-42.94 W",
		"state": "IOWA",
		"artcc": "ZMP",
		"type": "CN",
		"updated": "08/13/2012",
	},
	{
		"name": "CFBQG",
		"latitude": "41-16-34.57 N",
		"longitude": "95-48-5.01 W",
		"state": "IOWA",
		"artcc": "ZMP",
		"type": "CN",
		"updated": "08/13/2012",
	},
	{
		"name": "CFBQH",
		"latitude": "41-13-40.66 N",
		"longitude": "95-53-27.24 W",
		"state": "IOWA",
		"artcc": "ZMP",
		"type": "CN",
		"updated": "08/14/2012",
	},
	{
		"name": "CFBQJ",
		"latitude": "41-16-37.84 N",
		"longitude": "95-47-58.56 W",
		"state": "IOWA",
		"artcc": "ZMP",
		"type": "CN",
		"updated": "08/14/2012",
	},
	{
		"name": "CFBQK",
		"latitude": "41-13-47.42 N",
		"longitude": "95-53-14.32 W",
		"state": "IOWA",
		"artcc": "ZMP",
		"type": "CN",
		"updated": "08/14/2012",
	},
	{
		"name": "CFBQM",
		"latitude": "41-21-48.54 N",
		"longitude": "95-50-28.11 W",
		"state": "IOWA",
		"artcc": "ZMP",
		"type": "CN",
		"updated": "08/14/2012",
	},
	{
		"name": "CFBQN",
		"latitude": "41-14-26.31 N",
		"longitude": "95-56-53.93 W",
		"state": "NEBRASKA",
		"artcc": "ZMP",
		"type": "CN",
		"updated": "08/09/2012",
	},
	{
		"name": "CFBQP",
		"latitude": "41-21-49.6 N",
		"longitude": "95-56-50.59 W",
		"state": "NEBRASKA",
		"artcc": "ZMP",
		"type": "CN",
		"updated": "08/09/2012",
	},
	{
		"name": "CFBQQ",
		"latitude": "41-11-25.01 N",
		"longitude": "95-50-30.03 W",
		"state": "IOWA",
		"artcc": "ZMP",
		"type": "CN",
		"updated": "08/14/2012",
	},
	{
		"name": "CFBSJ",
		"latitude": "46-50-54.6 N",
		"longitude": "92-27-8.08 W",
		"state": "MINNESOTA",
		"artcc": "ZMP",
		"type": "CN",
		"updated": "09/19/2013",
	},
	{
		"name": "CFBSL",
		"latitude": "44-10-25.53 N",
		"longitude": "88-33-14.28 W",
		"state": "WISCONSIN",
		"artcc": "ZMP",
		"type": "CN",
		"updated": "07/12/2013",
	},
	{
		"name": "CFBTW",
		"latitude": "44-43-44.02 N",
		"longitude": "85-19-42.15 W",
		"state": "MICHIGAN",
		"artcc": "ZMP",
		"type": "CN",
		"updated": "11/04/2013",
	},
	{
		"name": "CFBTX",
		"latitude": "45-43-26.82 N",
		"longitude": "87-28-13.02 W",
		"state": "MICHIGAN",
		"artcc": "ZMP",
		"type": "CN",
		"updated": "01/22/2015",
	},
	{
		"name": "CFBWS",
		"latitude": "43-12-2.91 N",
		"longitude": "92-51-31.55 W",
		"state": "IOWA",
		"artcc": "ZMP",
		"type": "CN",
		"updated": "02/17/2016",
	},
	{
		"name": "CFBXF",
		"latitude": "40-31-36.82 N",
		"longitude": "99-2-33.95 W",
		"state": "NEBRASKA",
		"artcc": "ZMP",
		"type": "CN",
		"updated": "08/09/2012",
	},
	{
		"name": "CFBXM",
		"latitude": "43-26-21.74 N",
		"longitude": "96-52-52.15 W",
		"state": "SOUTH DAKOTA",
		"artcc": "ZMP",
		"type": "CN",
		"updated": "08/13/2013",
	},
	{
		"name": "CFBXS",
		"latitude": "45-0-52.83 N",
		"longitude": "84-57-30.4 W",
		"state": "MICHIGAN",
		"artcc": "ZMP",
		"type": "CN",
		"updated": "05/08/2014",
	},
	{
		"name": "CFBZM",
		"latitude": "40-59-37.35 N",
		"longitude": "95-46-1.59 W",
		"state": "IOWA",
		"artcc": "ZMP",
		"type": "CN",
		"updated": "02/04/2015",
	},
	{
		"name": "CFCHN",
		"latitude": "46-15-54.03 N",
		"longitude": "84-29-7.1 W",
		"state": "MICHIGAN",
		"artcc": "ZMP",
		"type": "CN",
		"updated": "01/27/2015",
	},
	{
		"name": "CFCJD",
		"latitude": "46-29-49.01 N",
		"longitude": "93-56-44.13 W",
		"state": "MINNESOTA",
		"artcc": "ZMP",
		"type": "CN",
		"updated": "02/20/2018",
	},
	{
		"name": "CFCJR",
		"latitude": "40-17-39.93 N",
		"longitude": "96-45-14.75 W",
		"state": "NEBRASKA",
		"artcc": "ZMP",
		"type": "CN",
		"updated": "11/07/2017",
	},
	{
		"name": "CFDSX",
		"latitude": "40-6-29.27 N",
		"longitude": "96-44-21.63 W",
		"state": "NEBRASKA",
		"artcc": "ZMP",
		"type": "CN",
		"updated": "11/07/2017",
	},
	{
		"name": "CFFSJ",
		"latitude": "45-8-36.72 N",
		"longitude": "97-8-58.98 W",
		"state": "SOUTH DAKOTA",
		"artcc": "ZMP",
		"type": "CN",
		"updated": "08/03/2017",
	},
	{
		"name": "CFFWW",
		"latitude": "47-7-22.13 N",
		"longitude": "95-20-50.96 W",
		"state": "MINNESOTA",
		"artcc": "ZMP",
		"type": "CN",
		"updated": "05/23/2016",
	},
	{
		"name": "CFMBB",
		"latitude": "44-59-37.43 N",
		"longitude": "93-18-59.78 W",
		"state": "MINNESOTA",
		"artcc": "ZMP",
		"type": "CN",
		"updated": "03/24/2015",
	},
	{
		"name": "CFMDC",
		"latitude": "44-55-44.23 N",
		"longitude": "93-28-0.05 W",
		"state": "MINNESOTA",
		"artcc": "ZMP",
		"type": "CN",
		"updated": "11/25/2016",
	},
	{
		"name": "CFMDF",
		"latitude": "44-55-42.58 N",
		"longitude": "93-28-0.12 W",
		"state": "MINNESOTA",
		"artcc": "ZMP",
		"type": "CN",
		"updated": "11/25/2016",
	},
	{
		"name": "CFMDG",
		"latitude": "44-44-42.07 N",
		"longitude": "93-2-30.26 W",
		"state": "MINNESOTA",
		"artcc": "ZMP",
		"type": "CN",
		"updated": "11/25/2016",
	},
	{
		"name": "CFMDH",
		"latitude": "44-44-42.12 N",
		"longitude": "93-2-30.17 W",
		"state": "MINNESOTA",
		"artcc": "ZMP",
		"type": "CN",
		"updated": "11/25/2016",
	},
	{
		"name": "CFMDJ",
		"latitude": "44-52-0.67 N",
		"longitude": "93-1-26.32 W",
		"state": "MINNESOTA",
		"artcc": "ZMP",
		"type": "CN",
		"updated": "03/24/2015",
	},
	{
		"name": "CFMDK",
		"latitude": "44-41-54.31 N",
		"longitude": "93-15-10.96 W",
		"state": "MINNESOTA",
		"artcc": "ZMP",
		"type": "CN",
		"updated": "03/23/2015",
	},
	{
		"name": "CFMDL",
		"latitude": "44-41-54.32 N",
		"longitude": "93-15-10.97 W",
		"state": "MINNESOTA",
		"artcc": "ZMP",
		"type": "CN",
		"updated": "03/23/2015",
	},
	{
		"name": "CFPGS",
		"latitude": "41-5-56.06 N",
		"longitude": "96-45-36.57 W",
		"state": "NEBRASKA",
		"artcc": "ZMP",
		"type": "CN",
		"updated": "11/02/2015",
	},
	{
		"name": "CFPJX",
		"latitude": "46-36-5.86 N",
		"longitude": "102-38-25.15 W",
		"state": "NORTH DAKOTA",
		"artcc": "ZMP",
		"type": "CN",
		"updated": "03/16/2017",
	},
	{
		"name": "CFPTQ",
		"latitude": "46-21-25.59 N",
		"longitude": "91-1-30.9 W",
		"state": "WISCONSIN",
		"artcc": "ZMP",
		"type": "CN",
		"updated": "08/16/2013",
	},
	{
		"name": "CFTZP",
		"latitude": "41-27-10.12 N",
		"longitude": "96-1-58 W",
		"state": "NEBRASKA",
		"artcc": "ZMP",
		"type": "CN",
		"updated": "04/20/2018",
	},
	{
		"name": "CFVBM",
		"latitude": "43-37-45.83 N",
		"longitude": "97-50-48.21 W",
		"state": "SOUTH DAKOTA",
		"artcc": "ZMP",
		"type": "CN",
		"updated": "11/02/2015",
	},
	{
		"name": "CFVCT",
		"latitude": "41-8-17.03 N",
		"longitude": "95-44-2.96 W",
		"state": "IOWA",
		"artcc": "ZMP",
		"type": "CN",
		"updated": "04/19/2018",
	},
	{
		"name": "CFVFD",
		"latitude": "46-25-8.45 N",
		"longitude": "84-36-50.43 W",
		"state": "MICHIGAN",
		"artcc": "ZMP",
		"type": "CN",
		"updated": "01/27/2015",
	},
	{
		"name": "CFVLJ",
		"latitude": "46-45-47.52 N",
		"longitude": "94-52-22.66 W",
		"state": "MINNESOTA",
		"artcc": "ZMP",
		"type": "CN",
		"updated": "05/23/2016",
	},
	{
		"name": "CFVPH",
		"latitude": "45-37-18.93 N",
		"longitude": "88-9-4.8 W",
		"state": "WISCONSIN",
		"artcc": "ZMP",
		"type": "CN",
		"updated": "11/23/2015",
	},
	{
		"name": "CFVPV",
		"latitude": "47-0-8.02 N",
		"longitude": "88-12-25.03 W",
		"state": "MICHIGAN",
		"artcc": "ZMP",
		"type": "CN",
		"updated": "11/17/2016",
	},
	{
		"name": "CHAAD",
		"latitude": "41-19-43.54 N",
		"longitude": "95-44-51.53 W",
		"state": "IOWA",
		"artcc": "ZMP",
		"type": "RNAV",
		"updated": "08/14/2012",
	},
	{
		"name": "CHACE",
		"latitude": "47-16-40.91 N",
		"longitude": "100-0-41.2 W",
		"state": "NORTH DAKOTA",
		"artcc": "ZMP",
		"type": "RP",
		"updated": "BIS*VOR/DME*028.78/41.00",
	},
	{
		"name": "CHAFE",
		"latitude": "46-48-33.87 N",
		"longitude": "97-23-24.46 W",
		"state": "NORTH DAKOTA",
		"artcc": "ZMP",
		"type": "RP",
		"updated": "FAR*VOR/DME*269.81/22.47",
	},
	{
		"name": "CHAFY",
		"latitude": "46-23-14.03 N",
		"longitude": "92-15-19.15 W",
		"state": "WISCONSIN",
		"artcc": "ZMP",
		"type": "MR",
		"updated": "DLH*VORTAC*180.00/25.00",
	},
	{
		"name": "CHALS",
		"latitude": "40-28-3.72 N",
		"longitude": "98-4-49.55 W",
		"state": "NEBRASKA",
		"artcc": "ZMP",
		"type": "RNAV",
		"updated": "12/17/2012",
	},
	{
		"name": "CHANS",
		"latitude": "44-24-59.04 N",
		"longitude": "99-25-10.29 W",
		"state": "SOUTH DAKOTA",
		"artcc": "ZMP",
		"type": "RP",
		"updated": "PIR*VORTAC*076.39/32.00",
	},
	{
		"name": "CHARG",
		"latitude": "44-21-2.01 N",
		"longitude": "93-21-11.88 W",
		"state": "MINNESOTA",
		"artcc": "ZMP",
		"type": "RNAV",
		"updated": "02/28/2013",
	},
	{
		"name": "CHAZU",
		"latitude": "41-17-24.9 N",
		"longitude": "95-47-12.22 W",
		"state": "IOWA",
		"artcc": "ZMP",
		"type": "RNAV",
		"updated": "08/14/2012",
	},
	{
		"name": "CHEKK",
		"latitude": "43-27-28.52 N",
		"longitude": "99-56-5.46 W",
		"state": "SOUTH DAKOTA",
		"artcc": "ZMP",
		"type": "RNAV",
		"updated": "03/27/2009",
	},
	{
		"name": "CHERL",
		"latitude": "47-2-1.58 N",
		"longitude": "92-3-57.43 W",
		"state": "MINNESOTA",
		"artcc": "ZMP",
		"type": "RP",
		"updated": "DLH*VORTAC*017.00/15.00",
	},
	{
		"name": "CHERR",
		"latitude": "48-5-39.87 N",
		"longitude": "96-13-43.22 W",
		"state": "MINNESOTA",
		"artcc": "ZMP",
		"type": "RNAV",
		"updated": "09/26/2014",
	},
	{
		"name": "CHETZ",
		"latitude": "44-59-1.8 N",
		"longitude": "93-16-2.17 W",
		"state": "MINNESOTA",
		"artcc": "ZMP",
		"type": "RP",
		"updated": "FCM*VOR/DME*037.13",
	},
	{
		"name": "CHEWY",
		"latitude": "41-37-18.54 N",
		"longitude": "97-28-38.63 W",
		"state": "NEBRASKA",
		"artcc": "ZMP",
		"type": "RP",
		"updated": "OLU*VOR/DME*/12.00",
	},
	{
		"name": "CHING",
		"latitude": "44-5-29.16 N",
		"longitude": "88-13-27.07 W",
		"state": "WISCONSIN",
		"artcc": "ZMP",
		"type": "RP",
		"updated": "OSH*VORTAC*065.00",
	},
	{
		"name": "CHRIS",
		"latitude": "41-28-59.02 N",
		"longitude": "97-22-53.4 W",
		"state": "NEBRASKA",
		"artcc": "ZMP",
		"type": "RP",
		"updated": "OLU*VOR/DME*309.20/2.70",
	},
	{
		"name": "CHRLZ",
		"latitude": "44-21-16.27 N",
		"longitude": "96-56-48.56 W",
		"state": "SOUTH DAKOTA",
		"artcc": "ZMP",
		"type": "RP",
		"updated": "BKX*LD*295.51/7.02",
	},
	{
		"name": "CHRMR",
		"latitude": "44-41-15.82 N",
		"longitude": "93-11-46.04 W",
		"state": "MINNESOTA",
		"artcc": "ZMP",
		"type": "RNAV",
		"updated": "03/23/2015",
	},
	{
		"name": "CHUKK",
		"latitude": "43-8-3.45 N",
		"longitude": "92-43-40.19 W",
		"state": "IOWA",
		"artcc": "ZMP",
		"type": "RNAV",
		"updated": "02/17/2016",
	},
	{
		"name": "CHUKL",
		"latitude": "45-21-6.52 N",
		"longitude": "85-0-9.02 W",
		"state": "MICHIGAN",
		"artcc": "ZMP",
		"type": "RP",
		"updated": "GLR*VOR/DME*334.24",
	},
	{
		"name": "CHURP",
		"latitude": "44-42-54.82 N",
		"longitude": "88-56-48.69 W",
		"state": "WISCONSIN",
		"artcc": "ZMP",
		"type": "RP",
		"updated": "OSH*VORTAC*336.98/46.63",
	},
	{
		"name": "CHUUI",
		"latitude": "41-46-34.5 N",
		"longitude": "95-20-7.86 W",
		"state": "IOWA",
		"artcc": "ZMP",
		"type": "RNAV",
		"updated": "02/09/2018",
	},
	{
		"name": "CHYMP",
		"latitude": "44-51-35.55 N",
		"longitude": "93-24-16.58 W",
		"state": "MINNESOTA",
		"artcc": "ZMP",
		"type": "RP",
		"updated": "MSP*VOR/DME*251.00/7.50",
	},
	{
		"name": "CIBAR",
		"latitude": "40-35-37.15 N",
		"longitude": "96-55-30.17 W",
		"state": "NEBRASKA",
		"artcc": "ZMP",
		"type": "RNAV",
		"updated": "05/30/2008",
	},
	{
		"name": "CIBAY",
		"latitude": "43-51-50.7 N",
		"longitude": "93-23-50.08 W",
		"state": "MINNESOTA",
		"artcc": "ZMP",
		"type": "RP",
		"updated": "AEL*VOR/DME*343.00/11.00",
	},
	{
		"name": "CIBDE",
		"latitude": "45-28-43.38 N",
		"longitude": "85-5-36.71 W",
		"state": "MICHIGAN",
		"artcc": "ZMP",
		"type": "RNAV",
		"updated": "07/11/2009",
	},
	{
		"name": "CIBNA",
		"latitude": "46-59-37.52 N",
		"longitude": "92-52-34.66 W",
		"state": "MINNESOTA",
		"artcc": "ZMP",
		"type": "RP",
		"updated": "DLH*VORTAC*287.79/30.00",
	},
	{
		"name": "CIBPA",
		"latitude": "46-56-28.45 N",
		"longitude": "88-25-15.3 W",
		"state": "MICHIGAN",
		"artcc": "ZMP",
		"type": "RP",
		"updated": "CMX*VOR/DME*171.09/14.00",
	},
	{
		"name": "CIBSA",
		"latitude": "40-41-3.12 N",
		"longitude": "98-59-58.6 W",
		"state": "NEBRASKA",
		"artcc": "ZMP",
		"type": "RNAV",
		"updated": "07/07/2009",
	},
	{
		"name": "CIBVI",
		"latitude": "40-55-23.71 N",
		"longitude": "95-14-55.7 W",
		"state": "IOWA",
		"artcc": "ZMP",
		"type": "RNAV",
		"updated": "10/27/2009",
	},
	{
		"name": "CIBVO",
		"latitude": "44-57-5.65 N",
		"longitude": "89-21-9.1 W",
		"state": "WISCONSIN",
		"artcc": "ZMP",
		"type": "RNAV",
		"updated": "06/10/2013",
	},
	{
		"name": "CICAY",
		"latitude": "44-17-45.89 N",
		"longitude": "95-43-36.49 W",
		"state": "MINNESOTA",
		"artcc": "ZMP",
		"type": "RNAV",
		"updated": "12/28/2004",
	},
	{
		"name": "CIDAM",
		"latitude": "43-39-38.02 N",
		"longitude": "96-47-22.2 W",
		"state": "SOUTH DAKOTA",
		"artcc": "ZMP",
		"type": "RNAV",
		"updated": "12/17/2013",
	},
	{
		"name": "CIDEB",
		"latitude": "45-42-47.87 N",
		"longitude": "89-31-57.78 W",
		"state": "WISCONSIN",
		"artcc": "ZMP",
		"type": "RNAV",
		"updated": "02/15/2010",
	},
	{
		"name": "CIDIM",
		"latitude": "41-36-51.5 N",
		"longitude": "98-56-22.55 W",
		"state": "NEBRASKA",
		"artcc": "ZMP",
		"type": "RNAV",
		"updated": "03/10/2009",
	},
	{
		"name": "CIDRE",
		"latitude": "44-20-15.99 N",
		"longitude": "93-7-19.91 W",
		"state": "MINNESOTA",
		"artcc": "ZMP",
		"type": "RNAV",
		"updated": "02/11/2008",
	},
	{
		"name": "CIDVA",
		"latitude": "48-38-4.22 N",
		"longitude": "98-36-16.4 W",
		"state": "NORTH DAKOTA",
		"artcc": "ZMP",
		"type": "RNAV",
		"updated": "02/04/2010",
	},
	{
		"name": "CIGEN",
		"latitude": "48-22-5.15 N",
		"longitude": "101-35-36.93 W",
		"state": "NORTH DAKOTA",
		"artcc": "ZMP",
		"type": "RNAV",
		"updated": "01/19/2006",
	},
	{
		"name": "CIGIM",
		"latitude": "43-28-54.64 N",
		"longitude": "93-38-37.11 W",
		"state": "IOWA",
		"artcc": "ZMP",
		"type": "RNAV",
		"updated": "04/12/2012",
	},
	{
		"name": "CIGNA",
		"latitude": "48-3-15.49 N",
		"longitude": "97-24-2.93 W",
		"state": "NORTH DAKOTA",
		"artcc": "ZMP",
		"type": "MR",
		"updated": "RDR*TACAN*/5.84",
	},
	{
		"name": "CIGOD",
		"latitude": "44-12-24.25 N",
		"longitude": "95-29-57.42 W",
		"state": "MINNESOTA",
		"artcc": "ZMP",
		"type": "RNAV",
		"updated": "12/28/2004",
	},
	{
		"name": "CIGOL",
		"latitude": "40-4-1.71 N",
		"longitude": "97-10-13.52 W",
		"state": "NEBRASKA",
		"artcc": "ZMP",
		"type": "RNAV",
		"updated": "05/30/2008",
	},
	{
		"name": "CIJOT",
		"latitude": "44-51-47.96 N",
		"longitude": "93-9-9.38 W",
		"state": "MINNESOTA",
		"artcc": "ZMP",
		"type": "RP",
		"updated": "INN*LD*121.35/2.27",
	},
	{
		"name": "CIKEG",
		"latitude": "47-46-19.1 N",
		"longitude": "102-20-30.84 W",
		"state": "NORTH DAKOTA",
		"artcc": "ZMP",
		"type": "RNAV",
		"updated": "11/01/2017",
	},
	{
		"name": "CIKOK",
		"latitude": "44-51-55.49 N",
		"longitude": "91-53-0.49 W",
		"state": "WISCONSIN",
		"artcc": "ZMP",
		"type": "RNAV",
		"updated": "02/12/2008",
	},
	{
		"name": "CILSO",
		"latitude": "43-38-53.74 N",
		"longitude": "93-21-23.98 W",
		"state": "MINNESOTA",
		"artcc": "ZMP",
		"type": "RP",
		"updated": "AEL*VOR/DME*162.00/2.10",
	},
	{
		"name": "CILSU",
		"latitude": "44-54-10.83 N",
		"longitude": "89-34-54.44 W",
		"state": "WISCONSIN",
		"artcc": "ZMP",
		"type": "RNAV",
		"updated": "08/30/2012",
	},
	{
		"name": "CIMAK",
		"latitude": "41-4-3.53 N",
		"longitude": "95-50-27.72 W",
		"state": "IOWA",
		"artcc": "ZMP",
		"type": "MR",
		"updated": "OFF*TACAN*133.00/4.00",
	},
	{
		"name": "CINCH",
		"latitude": "46-11-52.16 N",
		"longitude": "96-35-16.62 W",
		"state": "NORTH DAKOTA",
		"artcc": "ZMP",
		"type": "RP",
		"updated": "FFM*VOR/DME*248.16",
	},
	{
		"name": "CINCI",
		"latitude": "45-23-12.56 N",
		"longitude": "92-51-14.24 W",
		"state": "MINNESOTA",
		"artcc": "ZMP",
		"type": "RP",
		"updated": "GEP*VORTAC*050.48/26.33",
	},
	{
		"name": "CINEX",
		"latitude": "45-46-35.11 N",
		"longitude": "89-46-43.64 W",
		"state": "WISCONSIN",
		"artcc": "ZMP",
		"type": "RP",
		"updated": "RHI*VOR/DME*300.50/15.98",
	},
	{
		"name": "CINGO",
		"latitude": "48-37-53.03 N",
		"longitude": "94-22-2.9 W",
		"state": "MINNESOTA",
		"artcc": "ZMP",
		"type": "RP",
		"updated": "BDE*VOR/DME*115.83/11.00",
	},
	{
		"name": "CINOP",
		"latitude": "46-5-23.71 N",
		"longitude": "88-51-51.56 W",
		"state": "MICHIGAN",
		"artcc": "ZMP",
		"type": "RP",
		"updated": "IMT*VOR/DME*299.83/35.52",
	},
	{
		"name": "CINUK",
		"latitude": "47-25-22.5 N",
		"longitude": "92-26-4.73 W",
		"state": "MINNESOTA",
		"artcc": "ZMP",
		"type": "RP",
		"updated": "EVM*VOR/DME*/2.61",
	},
	{
		"name": "CINUX",
		"latitude": "46-57-16.28 N",
		"longitude": "96-48-57.05 W",
		"state": "NORTH DAKOTA",
		"artcc": "ZMP",
		"type": "RNAV",
		"updated": "02/02/2010",
	},
	{
		"name": "CIPAR",
		"latitude": "48-2-8.4 N",
		"longitude": "102-35-22.4 W",
		"state": "NORTH DAKOTA",
		"artcc": "ZMP",
		"type": "RNAV",
		"updated": "11/01/2017",
	},
	{
		"name": "CIPGO",
		"latitude": "47-39-47.66 N",
		"longitude": "103-3-22.03 W",
		"state": "NORTH DAKOTA",
		"artcc": "ZMP",
		"type": "RNAV",
		"updated": "04/12/2010",
	},
	{
		"name": "CIPMI",
		"latitude": "47-3-25.15 N",
		"longitude": "88-47-2.46 W",
		"state": "MICHIGAN",
		"artcc": "ZMP",
		"type": "RP",
		"updated": "CMX*VOR/DME*243.05/14.00",
	},
	{
		"name": "CIPOS",
		"latitude": "44-31-43.54 N",
		"longitude": "95-2-53.81 W",
		"state": "MINNESOTA",
		"artcc": "ZMP",
		"type": "RNAV",
		"updated": "01/21/2009",
	},
	{
		"name": "CIRAP",
		"latitude": "45-8-45.12 N",
		"longitude": "93-20-59.39 W",
		"state": "MINNESOTA",
		"artcc": "ZMP",
		"type": "RNAV",
		"updated": "01/23/2018",
	},
	{
		"name": "CIREK",
		"latitude": "44-51-57.87 N",
		"longitude": "93-44-30.46 W",
		"state": "MINNESOTA",
		"artcc": "ZMP",
		"type": "RP",
		"updated": "FCM*VOR/DME*279.94/13.00",
	},
	{
		"name": "CIREN",
		"latitude": "45-27-30.05 N",
		"longitude": "89-18-2.94 W",
		"state": "WISCONSIN",
		"artcc": "ZMP",
		"type": "RNAV",
		"updated": "02/15/2010",
	},
	{
		"name": "CIRLA",
		"latitude": "46-40-40.38 N",
		"longitude": "92-12-25.28 W",
		"state": "MINNESOTA",
		"artcc": "ZMP",
		"type": "MW",
		"updated": "LKI*TACAN*185.00/10.00",
	},
	{
		"name": "CIRLU",
		"latitude": "40-43-52.84 N",
		"longitude": "98-38-51.72 W",
		"state": "NEBRASKA",
		"artcc": "ZMP",
		"type": "RNAV",
		"updated": "05/17/2005",
	},
	{
		"name": "CIRTI",
		"latitude": "46-12-37.74 N",
		"longitude": "95-52-0.27 W",
		"state": "MINNESOTA",
		"artcc": "ZMP",
		"type": "RNAV",
		"updated": "06/28/2009",
	},
	{
		"name": "CIRUS",
		"latitude": "46-50-15.77 N",
		"longitude": "92-2-59.79 W",
		"state": "MINNESOTA",
		"artcc": "ZMP",
		"type": "RNAV",
		"updated": "09/29/2006",
	},
	{
		"name": "CISAC",
		"latitude": "42-53-51.83 N",
		"longitude": "95-31-51.75 W",
		"state": "IOWA",
		"artcc": "ZMP",
		"type": "RP",
		"updated": "SUX*VORTAC*037.35/48.31",
	},
	{
		"name": "CISGI",
		"latitude": "47-4-21.67 N",
		"longitude": "98-12-45.35 W",
		"state": "NORTH DAKOTA",
		"artcc": "ZMP",
		"type": "RNAV",
		"updated": "06/11/2010",
	},
	{
		"name": "CISOD",
		"latitude": "45-22-53.92 N",
		"longitude": "98-19-25.97 W",
		"state": "SOUTH DAKOTA",
		"artcc": "ZMP",
		"type": "RNAV",
		"updated": "07/09/2009",
	},
	{
		"name": "CISOS",
		"latitude": "43-11-22 N",
		"longitude": "95-14-49.43 W",
		"state": "IOWA",
		"artcc": "ZMP",
		"type": "RNAV",
		"updated": "04/08/2010",
	},
	{
		"name": "CISOT",
		"latitude": "40-38-4.77 N",
		"longitude": "98-26-55.82 W",
		"state": "NEBRASKA",
		"artcc": "ZMP",
		"type": "RNAV",
		"updated": "05/17/2005",
	},
	{
		"name": "CISOX",
		"latitude": "46-12-27.38 N",
		"longitude": "100-10-51.55 W",
		"state": "NORTH DAKOTA",
		"artcc": "ZMP",
		"type": "RNAV",
		"updated": "06/14/2013",
	},
	{
		"name": "CISPI",
		"latitude": "44-37-55.73 N",
		"longitude": "93-16-56.62 W",
		"state": "MINNESOTA",
		"artcc": "ZMP",
		"type": "RP",
		"updated": "FGT*VORTAC*264.99/4.30",
	},
	{
		"name": "CITID",
		"latitude": "43-56-29.71 N",
		"longitude": "91-15-34.26 W",
		"state": "WISCONSIN",
		"artcc": "ZMP",
		"type": "RNAV",
		"updated": "08/12/2008",
	},
	{
		"name": "CITOT",
		"latitude": "46-36-40.01 N",
		"longitude": "90-25-6.44 W",
		"state": "WISCONSIN",
		"artcc": "ZMP",
		"type": "RNAV",
		"updated": "03/30/2009",
	},
	{
		"name": "CIVCA",
		"latitude": "44-2-35.72 N",
		"longitude": "91-15-39.14 W",
		"state": "WISCONSIN",
		"artcc": "ZMP",
		"type": "RNAV",
		"updated": "08/12/2008",
	},
	{
		"name": "CIVID",
		"latitude": "41-11-33.36 N",
		"longitude": "97-5-15.53 W",
		"state": "NEBRASKA",
		"artcc": "ZMP",
		"type": "RNAV",
		"updated": "10/02/2009",
	},
	{
		"name": "CIVIM",
		"latitude": "41-6-42.45 N",
		"longitude": "94-23-46.53 W",
		"state": "IOWA",
		"artcc": "ZMP",
		"type": "RNAV",
		"updated": "05/03/2011",
	},
	{
		"name": "CIVIV",
		"latitude": "41-5-27.11 N",
		"longitude": "95-53-44.11 W",
		"state": "NEBRASKA",
		"artcc": "ZMP",
		"type": "RP",
		"updated": "OVR*VORTAC*229.61/8.53",
	},
	{
		"name": "CIVLU",
		"latitude": "48-37-0.71 N",
		"longitude": "93-3-45.84 W",
		"state": "MINNESOTA",
		"artcc": "ZMP",
		"type": "RP",
		"updated": "INL*VOR/DME*071.22/14.00",
	},
	{
		"name": "CIVMI",
		"latitude": "43-46-46.09 N",
		"longitude": "91-15-26.53 W",
		"state": "MINNESOTA",
		"artcc": "ZMP",
		"type": "RNAV",
		"updated": "08/12/2008",
	},
	{
		"name": "CIVOL",
		"latitude": "45-47-20.08 N",
		"longitude": "93-24-32.37 W",
		"state": "MINNESOTA",
		"artcc": "ZMP",
		"type": "RP",
		"updated": "GEP*VORTAC*351.77/38.63",
	},
	{
		"name": "CIVTU",
		"latitude": "41-59-3.66 N",
		"longitude": "95-47-15.66 W",
		"state": "IOWA",
		"artcc": "ZMP",
		"type": "RNAV",
		"updated": "02/02/2010",
	},
	{
		"name": "CIVUD",
		"latitude": "45-31-17.3 N",
		"longitude": "90-35-5.57 W",
		"state": "WISCONSIN",
		"artcc": "ZMP",
		"type": "RNAV",
		"updated": "10/24/2011",
	},
	{
		"name": "CIWYY",
		"latitude": "41-57-24.05 N",
		"longitude": "97-24-20.53 W",
		"state": "NEBRASKA",
		"artcc": "ZMP",
		"type": "RNAV",
		"updated": "10/06/2009",
	},
	{
		"name": "CLANN",
		"latitude": "44-41-3.63 N",
		"longitude": "99-2-53.02 W",
		"state": "SOUTH DAKOTA",
		"artcc": "ZMP",
		"type": "RNAV",
		"updated": "07/06/2011",
	},
	{
		"name": "CLAPS",
		"latitude": "45-3-34.5 N",
		"longitude": "95-19-23.36 W",
		"state": "MINNESOTA",
		"artcc": "ZMP",
		"type": "RP",
		"updated": "RWF*VOR/DME*339.87",
	},
	{
		"name": "CLIDE",
		"latitude": "44-46-13.78 N",
		"longitude": "89-31-24.81 W",
		"state": "WISCONSIN",
		"artcc": "ZMP",
		"type": "RNAV",
		"updated": "04/13/2017",
	},
	{
		"name": "CLIKR",
		"latitude": "44-44-58.99 N",
		"longitude": "93-21-21.86 W",
		"state": "MINNESOTA",
		"artcc": "ZMP",
		"type": "RNAV",
		"updated": "06/04/2012",
	},
	{
		"name": "CLINS",
		"latitude": "44-4-36.38 N",
		"longitude": "87-58-59.36 W",
		"state": "WISCONSIN",
		"artcc": "ZMP",
		"type": "RP",
		"updated": "OSH*VORTAC*076.00/25.33",
	},
	{
		"name": "CLIPH",
		"latitude": "47-0-44.05 N",
		"longitude": "92-1-46.81 W",
		"state": "MINNESOTA",
		"artcc": "ZMP",
		"type": "RNAV",
		"updated": "04/08/2010",
	},
	{
		"name": "CLIVE",
		"latitude": "41-36-11.21 N",
		"longitude": "93-45-30.9 W",
		"state": "IOWA",
		"artcc": "ZMP",
		"type": "RP",
		"updated": "VGU*LD*311.34/6.77",
	},
	{
		"name": "CLOAK",
		"latitude": "41-2-34.18 N",
		"longitude": "95-21-5.38 W",
		"state": "IOWA",
		"artcc": "ZMP",
		"type": "RP",
		"updated": "OVR*VORTAC*105.00/19.00",
	},
	{
		"name": "CLOAT",
		"latitude": "40-41-49.11 N",
		"longitude": "96-52-51.29 W",
		"state": "NEBRASKA",
		"artcc": "ZMP",
		"type": "RP",
		"updated": "LNK*VORTAC*196.00/15.00",
	},
	{
		"name": "CLONE",
		"latitude": "40-56-41.62 N",
		"longitude": "96-45-40.13 W",
		"state": "NEBRASKA",
		"artcc": "ZMP",
		"type": "MR",
		"updated": "LNK*VORTAC*316.48",
	},
	{
		"name": "CMAAC",
		"latitude": "44-46-6 N",
		"longitude": "91-52-25 W",
		"state": "WISCONSIN",
		"artcc": "ZMP",
		"type": "RNAV",
		"updated": "11/09/2016",
	},
	{
		"name": "CMARO",
		"latitude": "44-56-34.79 N",
		"longitude": "90-41-35.78 W",
		"state": "WISCONSIN",
		"artcc": "ZMP",
		"type": "RNAV",
		"updated": "11/20/2016",
	},
	{
		"name": "CMMOE",
		"latitude": "44-57-45.48 N",
		"longitude": "93-6-22.3 W",
		"state": "MINNESOTA",
		"artcc": "ZMP",
		"type": "RNAV",
		"updated": "01/12/2015",
	},
	{
		"name": "COBCA",
		"latitude": "41-13-3.6 N",
		"longitude": "95-48-33.98 W",
		"state": "IOWA",
		"artcc": "ZMP",
		"type": "RNAV",
		"updated": "08/14/2012",
	},
	{
		"name": "COBED",
		"latitude": "41-18-26.99 N",
		"longitude": "97-31-38.24 W",
		"state": "NEBRASKA",
		"artcc": "ZMP",
		"type": "RP",
		"updated": "OLU*VOR/DME*216.64/12.00",
	},
	{
		"name": "COBIB",
		"latitude": "45-0-50 N",
		"longitude": "84-27-1.38 W",
		"state": "MICHIGAN",
		"artcc": "ZMP",
		"type": "RNAV",
		"updated": "03/26/2012",
	},
	{
		"name": "COBIT",
		"latitude": "41-10-51.73 N",
		"longitude": "95-53-42.55 W",
		"state": "NEBRASKA",
		"artcc": "ZMP",
		"type": "RP",
		"updated": "OVR*VORTAC*268.67",
	},
	{
		"name": "COBOS",
		"latitude": "43-40-26.8 N",
		"longitude": "93-22-3.16 W",
		"state": "MINNESOTA",
		"artcc": "ZMP",
		"type": "RP",
		"updated": "AEL*VOR/DME*162.00/0.48",
	},
	{
		"name": "COCOA",
		"latitude": "43-36-53.85 N",
		"longitude": "99-9-11.31 W",
		"state": "SOUTH DAKOTA",
		"artcc": "ZMP",
		"type": "RNAV",
		"updated": "04/16/2018",
	},
	{
		"name": "CODDE",
		"latitude": "43-40-22.88 N",
		"longitude": "96-13-27.95 W",
		"state": "MINNESOTA",
		"artcc": "ZMP",
		"type": "RNAV",
		"updated": "02/09/2018",
	},
	{
		"name": "CODIL",
		"latitude": "46-16-14.17 N",
		"longitude": "92-59-10.5 W",
		"state": "MINNESOTA",
		"artcc": "ZMP",
		"type": "RNAV",
		"updated": "11/14/2012",
	},
	{
		"name": "CODKI",
		"latitude": "44-42-39.97 N",
		"longitude": "89-42-14.94 W",
		"state": "WISCONSIN",
		"artcc": "ZMP",
		"type": "RNAV",
		"updated": "12/21/2009",
	},
	{
		"name": "CODTO",
		"latitude": "45-47-35.49 N",
		"longitude": "101-51-24.95 W",
		"state": "SOUTH DAKOTA",
		"artcc": "ZMP",
		"type": "RNAV",
		"updated": "05/28/2013",
	},
	{
		"name": "COGAC",
		"latitude": "44-24-21.31 N",
		"longitude": "98-15-55.78 W",
		"state": "SOUTH DAKOTA",
		"artcc": "ZMP",
		"type": "RNAV",
		"updated": "05/31/2005",
	},
	{
		"name": "COGIV",
		"latitude": "45-7-41.1 N",
		"longitude": "89-24-41.87 W",
		"state": "WISCONSIN",
		"artcc": "ZMP",
		"type": "RNAV",
		"updated": "06/12/2013",
	},
	{
		"name": "COHGI",
		"latitude": "41-53-19.32 N",
		"longitude": "94-35-23.8 W",
		"state": "IOWA",
		"artcc": "ZMP",
		"type": "RNAV",
		"updated": "09/11/2012",
	},
	{
		"name": "COINS",
		"latitude": "45-59-59.28 N",
		"longitude": "96-41-33.65 W",
		"state": "NORTH DAKOTA",
		"artcc": "ZMP",
		"type": "RNAV",
		"updated": "12/04/2012",
	},
	{
		"name": "COJXO",
		"latitude": "43-58-37.06 N",
		"longitude": "92-26-47.16 W",
		"state": "MINNESOTA",
		"artcc": "ZMP",
		"type": "RNAV",
		"updated": "03/09/2017",
	},
	{
		"name": "COKET",
		"latitude": "40-46-3.95 N",
		"longitude": "97-5-47.69 W",
		"state": "NEBRASKA",
		"artcc": "ZMP",
		"type": "RNAV",
		"updated": "05/08/2008",
	},
	{
		"name": "COKOS",
		"latitude": "45-19-34.15 N",
		"longitude": "84-56-53.83 W",
		"state": "MICHIGAN",
		"artcc": "ZMP",
		"type": "RNAV",
		"updated": "11/15/2004",
	},
	{
		"name": "COKVO",
		"latitude": "44-40-52.75 N",
		"longitude": "88-49-16.16 W",
		"state": "WISCONSIN",
		"artcc": "ZMP",
		"type": "RNAV",
		"updated": "03/27/2017",
	},
	{
		"name": "COLAL",
		"latitude": "43-43-7.38 N",
		"longitude": "83-54-38.15 W",
		"state": "MICHIGAN",
		"artcc": "ZMP",
		"type": "RNAV",
		"updated": "11/19/2002",
	},
	{
		"name": "COLCA",
		"latitude": "42-47-2.01 N",
		"longitude": "95-15-51.48 W",
		"state": "IOWA",
		"artcc": "ZMP",
		"type": "RNAV",
		"updated": "08/23/2005",
	},
	{
		"name": "COLDD",
		"latitude": "46-44-40 N",
		"longitude": "92-17-48 W",
		"state": "MINNESOTA",
		"artcc": "ZMP",
		"type": "RNAV",
		"updated": "01/12/2015",
	},
	{
		"name": "COLFX",
		"latitude": "46-28-25.12 N",
		"longitude": "96-48-22.94 W",
		"state": "NORTH DAKOTA",
		"artcc": "ZMP",
		"type": "RNAV",
		"updated": "04/27/2010",
	},
	{
		"name": "COLGO",
		"latitude": "46-4-57.27 N",
		"longitude": "84-20-2.15 W",
		"state": "MICHIGAN",
		"artcc": "ZMP",
		"type": "RNAV",
		"updated": "09/14/2009",
	},
	{
		"name": "COLIB",
		"latitude": "41-6-17.42 N",
		"longitude": "95-53-6.93 W",
		"state": "NEBRASKA",
		"artcc": "ZMP",
		"type": "MR",
		"updated": "OFF*TACAN*133.00/1.00",
	},
	{
		"name": "COLLS",
		"latitude": "47-24-31.32 N",
		"longitude": "92-12-38.93 W",
		"state": "MINNESOTA",
		"artcc": "ZMP",
		"type": "RNAV",
		"updated": "01/08/2013",
	},
	{
		"name": "COLOG",
		"latitude": "44-10-31.3 N",
		"longitude": "92-29-38.69 W",
		"state": "MINNESOTA",
		"artcc": "ZMP",
		"type": "RNAV",
		"updated": "05/08/2011",
	},
	{
		"name": "COLPU",
		"latitude": "47-26-58.43 N",
		"longitude": "98-8-44.97 W",
		"state": "NORTH DAKOTA",
		"artcc": "ZMP",
		"type": "RNAV",
		"updated": "09/03/2010",
	},
	{
		"name": "COLTU",
		"latitude": "49-8-30.57 N",
		"longitude": "96-5-55.41 W",
		"state": "",
		"artcc": "ZMP",
		"type": "RP",
		"updated": "ROX*VOR/DME*312.37/23.49",
	},
	{
		"name": "COLUMBUS",
		"latitude": "41-29-47.64 N",
		"longitude": "97-22-54.34 W",
		"state": "NEBRASKA",
		"artcc": "ZMP",
		"type": "RP",
		"updated": "OLU*VOR/DME*/3.35",
	},
	{
		"name": "COMDA",
		"latitude": "43-39-45.07 N",
		"longitude": "96-13-10.03 W",
		"state": "MINNESOTA",
		"artcc": "ZMP",
		"type": "RNAV",
		"updated": "05/20/2010",
	},
	{
		"name": "COMIN",
		"latitude": "46-11-28.09 N",
		"longitude": "94-9-35.69 W",
		"state": "MINNESOTA",
		"artcc": "ZMP",
		"type": "RNAV",
		"updated": "03/02/2009",
	},
	{
		"name": "COMOS",
		"latitude": "44-37-14.46 N",
		"longitude": "94-44-27.56 W",
		"state": "MINNESOTA",
		"artcc": "ZMP",
		"type": "RP",
		"updated": "RWF*VOR/DME*053.88/19.00",
	},
	{
		"name": "COMTS",
		"latitude": "44-33-8.35 N",
		"longitude": "88-43-14.18 W",
		"state": "WISCONSIN",
		"artcc": "ZMP",
		"type": "RP",
		"updated": "GRB*VORTAC*268.75/22.56",
	},
	{
		"name": "COMUL",
		"latitude": "45-31-23.49 N",
		"longitude": "91-1-51.25 W",
		"state": "WISCONSIN",
		"artcc": "ZMP",
		"type": "RNAV",
		"updated": "04/26/2011",
	},
	{
		"name": "COMVA",
		"latitude": "44-37-17.11 N",
		"longitude": "86-12-5.28 W",
		"state": "MICHIGAN",
		"artcc": "ZMP",
		"type": "RP",
		"updated": "MBL*VOR/DME*011.11/21.17",
	},
	{
		"name": "CONEI",
		"latitude": "48-31-5.82 N",
		"longitude": "101-17-1.39 W",
		"state": "NORTH DAKOTA",
		"artcc": "ZMP",
		"type": "RNAV",
		"updated": "04/24/2017",
	},
	{
		"name": "CONIA",
		"latitude": "44-45-10.46 N",
		"longitude": "93-53-17.06 W",
		"state": "MINNESOTA",
		"artcc": "ZMP",
		"type": "RNAV",
		"updated": "01/16/2015",
	},
	{
		"name": "CONIG",
		"latitude": "45-41-14.32 N",
		"longitude": "91-51-44.59 W",
		"state": "WISCONSIN",
		"artcc": "ZMP",
		"type": "RNAV",
		"updated": "11/19/2007",
	},
	{
		"name": "COOCH",
		"latitude": "41-23-34.5 N",
		"longitude": "96-35-12 W",
		"state": "NEBRASKA",
		"artcc": "ZMP",
		"type": "MR",
		"updated": "LNK*VORTAC*005.00/29.00",
	},
	{
		"name": "COOOK",
		"latitude": "46-56-58.87 N",
		"longitude": "102-55-40.81 W",
		"state": "NORTH DAKOTA",
		"artcc": "ZMP",
		"type": "RP",
		"updated": "DIK*VORTAC*296.33/8.33",
	},
	{
		"name": "COPDO",
		"latitude": "46-53-41.64 N",
		"longitude": "95-58-11.79 W",
		"state": "MINNESOTA",
		"artcc": "ZMP",
		"type": "RNAV",
		"updated": "06/28/2007",
	},
	{
		"name": "COPKA",
		"latitude": "47-6-59.56 N",
		"longitude": "88-23-57.73 W",
		"state": "MICHIGAN",
		"artcc": "ZMP",
		"type": "RNAV",
		"updated": "08/08/2008",
	},
	{
		"name": "COPLU",
		"latitude": "47-44-56.55 N",
		"longitude": "92-35-4.15 W",
		"state": "MINNESOTA",
		"artcc": "ZMP",
		"type": "RNAV",
		"updated": "12/21/2011",
	},
	{
		"name": "COPNO",
		"latitude": "41-22-45.87 N",
		"longitude": "96-26-46.05 W",
		"state": "NEBRASKA",
		"artcc": "ZMP",
		"type": "WP",
		"updated": "11/02/1998",
	},
	{
		"name": "COPTI",
		"latitude": "43-37-22.9 N",
		"longitude": "84-52-20.68 W",
		"state": "MICHIGAN",
		"artcc": "ZMP",
		"type": "RNAV",
		"updated": "06/19/2009",
	},
	{
		"name": "COPUV",
		"latitude": "44-45-14.22 N",
		"longitude": "88-32-55.86 W",
		"state": "WISCONSIN",
		"artcc": "ZMP",
		"type": "RNAV",
		"updated": "01/23/2007",
	},
	{
		"name": "COPYE",
		"latitude": "42-58-57.63 N",
		"longitude": "95-57-52.2 W",
		"state": "IOWA",
		"artcc": "ZMP",
		"type": "RP",
		"updated": "SOY*NDB*127.24",
	},
	{
		"name": "CORAE",
		"latitude": "44-21-20.07 N",
		"longitude": "94-20-34.88 W",
		"state": "MINNESOTA",
		"artcc": "ZMP",
		"type": "RNAV",
		"updated": "04/07/2008",
	},
	{
		"name": "CORDY",
		"latitude": "44-7-25.38 N",
		"longitude": "92-49-47.21 W",
		"state": "MINNESOTA",
		"artcc": "ZMP",
		"type": "RP",
		"updated": "RST*VOR/DME*328.81/22.80",
	},
	{
		"name": "CORNO",
		"latitude": "40-37-25.89 N",
		"longitude": "99-1-34.62 W",
		"state": "NEBRASKA",
		"artcc": "ZMP",
		"type": "RNAV",
		"updated": "06/29/2005",
	},
	{
		"name": "CORWN",
		"latitude": "46-7-46.97 N",
		"longitude": "97-36-20.61 W",
		"state": "NORTH DAKOTA",
		"artcc": "ZMP",
		"type": "RNAV",
		"updated": "07/10/2014",
	},
	{
		"name": "COSBO",
		"latitude": "41-30-0.57 N",
		"longitude": "98-45-7.72 W",
		"state": "NEBRASKA",
		"artcc": "ZMP",
		"type": "RNAV",
		"updated": "03/10/2009",
	},
	{
		"name": "COSED",
		"latitude": "41-49-34.59 N",
		"longitude": "93-33-56.57 W",
		"state": "IOWA",
		"artcc": "ZMP",
		"type": "RNAV",
		"updated": "11/29/2016",
	},
	{
		"name": "COSPU",
		"latitude": "44-13-12.55 N",
		"longitude": "88-21-55.58 W",
		"state": "WISCONSIN",
		"artcc": "ZMP",
		"type": "RNAV",
		"updated": "10/10/2008",
	},
	{
		"name": "COSRU",
		"latitude": "45-46-7.58 N",
		"longitude": "84-18-54.96 W",
		"state": "MICHIGAN",
		"artcc": "ZMP",
		"type": "RNAV",
		"updated": "02/20/2014",
	},
	{
		"name": "COSUT",
		"latitude": "43-51-42.27 N",
		"longitude": "91-13-52.9 W",
		"state": "WISCONSIN",
		"artcc": "ZMP",
		"type": "RNAV",
		"updated": "08/12/2008",
	},
	{
		"name": "COSVO",
		"latitude": "47-18-42 N",
		"longitude": "94-37-57.21 W",
		"state": "MINNESOTA",
		"artcc": "ZMP",
		"type": "RP",
		"updated": "PKD*VOR/DME*031.74",
	},
	{
		"name": "COTEX",
		"latitude": "44-28-48.21 N",
		"longitude": "92-17-31.43 W",
		"state": "MINNESOTA",
		"artcc": "ZMP",
		"type": "RP",
		"updated": "04/24/2008",
	},
	{
		"name": "COTGO",
		"latitude": "41-7-59.1 N",
		"longitude": "95-55-51.95 W",
		"state": "NEBRASKA",
		"artcc": "ZMP",
		"type": "MR",
		"updated": "OFF*TACAN*299.00/1.70",
	},
	{
		"name": "COTMO",
		"latitude": "46-30-14.06 N",
		"longitude": "89-35-53.96 W",
		"state": "MICHIGAN",
		"artcc": "ZMP",
		"type": "RP",
		"updated": "IWD*VORTAC*093.26/21.92",
	},
	{
		"name": "COTOV",
		"latitude": "42-20-32.68 N",
		"longitude": "94-58-47.87 W",
		"state": "IOWA",
		"artcc": "ZMP",
		"type": "RNAV",
		"updated": "04/12/2012",
	},
	{
		"name": "COTPO",
		"latitude": "42-27-46.49 N",
		"longitude": "97-5-58.4 W",
		"state": "NEBRASKA",
		"artcc": "ZMP",
		"type": "RNAV",
		"updated": "06/28/2011",
	},
	{
		"name": "COTTG",
		"latitude": "44-50-28.21 N",
		"longitude": "92-57-45.05 W",
		"state": "MINNESOTA",
		"artcc": "ZMP",
		"type": "RNAV",
		"updated": "03/23/2015",
	},
	{
		"name": "COTTU",
		"latitude": "40-31-50.51 N",
		"longitude": "96-55-31.73 W",
		"state": "NEBRASKA",
		"artcc": "ZMP",
		"type": "RNAV",
		"updated": "05/30/2008",
	},
	{
		"name": "COTUN",
		"latitude": "44-28-4.92 N",
		"longitude": "100-34-12.19 W",
		"state": "SOUTH DAKOTA",
		"artcc": "ZMP",
		"type": "RNAV",
		"updated": "06/28/2007",
	},
	{
		"name": "COULT",
		"latitude": "44-33-23.85 N",
		"longitude": "92-12-30.38 W",
		"state": "WISCONSIN",
		"artcc": "ZMP",
		"type": "RP",
		"updated": "GEP*VORTAC*119.00/61.00",
	},
	{
		"name": "COVIL",
		"latitude": "42-44-1.02 N",
		"longitude": "97-23-41.84 W",
		"state": "NEBRASKA",
		"artcc": "ZMP",
		"type": "RNAV",
		"updated": "06/28/2011",
	},
	{
		"name": "COVIV",
		"latitude": "46-47-38.07 N",
		"longitude": "91-1-5.89 W",
		"state": "WISCONSIN",
		"artcc": "ZMP",
		"type": "RNAV",
		"updated": "03/21/2013",
	},
	{
		"name": "COVLA",
		"latitude": "44-21-47.77 N",
		"longitude": "84-31-34.54 W",
		"state": "MICHIGAN",
		"artcc": "ZMP",
		"type": "RNAV",
		"updated": "01/10/2013",
	},
	{
		"name": "COVPA",
		"latitude": "43-41-13.22 N",
		"longitude": "92-13-35.6 W",
		"state": "MINNESOTA",
		"artcc": "ZMP",
		"type": "RNAV",
		"updated": "05/18/2012",
	},
	{
		"name": "COVUP",
		"latitude": "43-11-6.97 N",
		"longitude": "94-58-12.7 W",
		"state": "IOWA",
		"artcc": "ZMP",
		"type": "RNAV",
		"updated": "12/28/2009",
	},
	{
		"name": "COVUT",
		"latitude": "40-17-3.37 N",
		"longitude": "95-45-15.03 W",
		"state": "NEBRASKA",
		"artcc": "ZMP",
		"type": "RP",
		"updated": "RBA*VOR/DME*325.70",
	},
	{
		"name": "COWAY",
		"latitude": "45-29-24.85 N",
		"longitude": "91-50-30.91 W",
		"state": "WISCONSIN",
		"artcc": "ZMP",
		"type": "RNAV",
		"updated": "10/19/2015",
	},
	{
		"name": "COXET",
		"latitude": "45-55-17.3 N",
		"longitude": "95-18-5.55 W",
		"state": "MINNESOTA",
		"artcc": "ZMP",
		"type": "RNAV",
		"updated": "03/22/2010",
	},
	{
		"name": "COXUD",
		"latitude": "41-8-58.99 N",
		"longitude": "97-2-33.23 W",
		"state": "NEBRASKA",
		"artcc": "ZMP",
		"type": "RP",
		"updated": "OLU*VOR/DME*135.07/22.50",
	},
	{
		"name": "COYAD",
		"latitude": "41-18-44.2 N",
		"longitude": "97-11-46.9 W",
		"state": "NEBRASKA",
		"artcc": "ZMP",
		"type": "RNAV",
		"updated": "10/02/2009",
	},
	{
		"name": "COZFO",
		"latitude": "43-32-0.8 N",
		"longitude": "94-35-30.78 W",
		"state": "MINNESOTA",
		"artcc": "ZMP",
		"type": "RP",
		"updated": "FRM*VOR/DME*220.65/10.00",
	},
	{
		"name": "COZZZ",
		"latitude": "45-3-15.64 N",
		"longitude": "93-19-10.42 W",
		"state": "MINNESOTA",
		"artcc": "ZMP",
		"type": "RNAV",
		"updated": "01/12/2015",
	},
	{
		"name": "CRAAG",
		"latitude": "46-31-37.4 N",
		"longitude": "89-59-25.37 W",
		"state": "MICHIGAN",
		"artcc": "ZMP",
		"type": "RNAV",
		"updated": "03/30/2009",
	},
	{
		"name": "CRAZE",
		"latitude": "45-18-31.23 N",
		"longitude": "88-8-45.04 W",
		"state": "WISCONSIN",
		"artcc": "ZMP",
		"type": "RP",
		"updated": "IMT*VOR/DME*184.69",
	},
	{
		"name": "CREEC",
		"latitude": "42-52-29.82 N",
		"longitude": "96-10-30.75 W",
		"state": "IOWA",
		"artcc": "ZMP",
		"type": "RNAV",
		"updated": "02/19/2013",
	},
	{
		"name": "CROII",
		"latitude": "44-58-35.97 N",
		"longitude": "92-53-16.15 W",
		"state": "MINNESOTA",
		"artcc": "ZMP",
		"type": "RP",
		"updated": "GEP*VORTAC*110.00/23.00",
	},
	{
		"name": "CRPET",
		"latitude": "41-16-6.67 N",
		"longitude": "96-2-56.08 W",
		"state": "NEBRASKA",
		"artcc": "ZMP",
		"type": "RNAV",
		"updated": "08/09/2012",
	},
	{
		"name": "CRRZY",
		"latitude": "41-12-31.43 N",
		"longitude": "95-58-51.73 W",
		"state": "NEBRASKA",
		"artcc": "ZMP",
		"type": "RNAV",
		"updated": "08/09/2012",
	},
	{
		"name": "CRUMS",
		"latitude": "45-9-41.67 N",
		"longitude": "88-53-49.12 W",
		"state": "WISCONSIN",
		"artcc": "ZMP",
		"type": "RP",
		"updated": "AUW*VORTAC*055.00",
	},
	{
		"name": "CUBEX",
		"latitude": "43-23-11.94 N",
		"longitude": "96-14-21 W",
		"state": "IOWA",
		"artcc": "ZMP",
		"type": "RP",
		"updated": "OTG*VOR/DME*233.67/32.67",
	},
	{
		"name": "CUBKO",
		"latitude": "44-54-44.21 N",
		"longitude": "85-53-56.16 W",
		"state": "MICHIGAN",
		"artcc": "ZMP",
		"type": "RP",
		"updated": "TVC*VOR/DME*316.65/20.91",
	},
	{
		"name": "CUCAC",
		"latitude": "46-33-46.47 N",
		"longitude": "94-25-45.23 W",
		"state": "MINNESOTA",
		"artcc": "ZMP",
		"type": "RP",
		"updated": "BRD*VORTAC*304.75/21.12",
	},
	{
		"name": "CUCAT",
		"latitude": "45-15-51.75 N",
		"longitude": "95-34-47.27 W",
		"state": "MINNESOTA",
		"artcc": "ZMP",
		"type": "RNAV",
		"updated": "01/21/2009",
	},
	{
		"name": "CUCAY",
		"latitude": "46-44-29.56 N",
		"longitude": "100-42-19.58 W",
		"state": "NORTH DAKOTA",
		"artcc": "ZMP",
		"type": "RNAV",
		"updated": "03/29/2011",
	},
	{
		"name": "CUCGA",
		"latitude": "41-9-56.22 N",
		"longitude": "95-45-44.54 W",
		"state": "IOWA",
		"artcc": "ZMP",
		"type": "RNAV",
		"updated": "08/14/2012",
	},
	{
		"name": "CUCPA",
		"latitude": "43-43-4.74 N",
		"longitude": "95-4-10.44 W",
		"state": "MINNESOTA",
		"artcc": "ZMP",
		"type": "RNAV",
		"updated": "06/28/2013",
	},
	{
		"name": "CUDET",
		"latitude": "43-43-33.43 N",
		"longitude": "95-21-27.63 W",
		"state": "MINNESOTA",
		"artcc": "ZMP",
		"type": "RP",
		"updated": "OTG*VOR/DME*056.02/10.85",
	},
	{
		"name": "CUDGA",
		"latitude": "43-50-52.27 N",
		"longitude": "98-8-45.38 W",
		"state": "SOUTH DAKOTA",
		"artcc": "ZMP",
		"type": "RNAV",
		"updated": "07/19/2006",
	},
	{
		"name": "CUDRI",
		"latitude": "48-15-44.82 N",
		"longitude": "101-36-40.74 W",
		"state": "NORTH DAKOTA",
		"artcc": "ZMP",
		"type": "RP",
		"updated": "MOT*VORTAC*257.68/13.00",
	},
	{
		"name": "CUEBE",
		"latitude": "40-12-28.66 N",
		"longitude": "96-44-50.03 W",
		"state": "NEBRASKA",
		"artcc": "ZMP",
		"type": "RP",
		"updated": "BIE*VOR*169.52",
	},
	{
		"name": "CUGOD",
		"latitude": "44-50-4.77 N",
		"longitude": "83-35-59.35 W",
		"state": "MICHIGAN",
		"artcc": "ZMP",
		"type": "MR",
		"updated": "APN*VORTAC*194.00/15.00",
	},
	{
		"name": "CUGUG",
		"latitude": "44-15-28.29 N",
		"longitude": "90-47-46.74 W",
		"state": "WISCONSIN",
		"artcc": "ZMP",
		"type": "RNAV",
		"updated": "06/26/2012",
	},
	{
		"name": "CUGUX",
		"latitude": "42-27-1.18 N",
		"longitude": "98-14-14.7 W",
		"state": "NEBRASKA",
		"artcc": "ZMP",
		"type": "RP",
		"updated": "ONL*VORTAC*083.32/20.00",
	},
	{
		"name": "CUITE",
		"latitude": "46-10-2.17 N",
		"longitude": "84-24-12.5 W",
		"state": "MICHIGAN",
		"artcc": "ZMP",
		"type": "RP",
		"updated": "SSM*VOR/DME*198.11",
	},
	{
		"name": "CUJZU",
		"latitude": "48-45-9.06 N",
		"longitude": "97-59-7.01 W",
		"state": "NORTH DAKOTA",
		"artcc": "ZMP",
		"type": "RNAV",
		"updated": "04/08/2002",
	},
	{
		"name": "CUKCA",
		"latitude": "44-9-32.24 N",
		"longitude": "93-50-44.01 W",
		"state": "MINNESOTA",
		"artcc": "ZMP",
		"type": "RNAV",
		"updated": "03/26/2015",
	},
	{
		"name": "CUKMA",
		"latitude": "45-30-14.65 N",
		"longitude": "91-50-2.52 W",
		"state": "WISCONSIN",
		"artcc": "ZMP",
		"type": "RNAV",
		"updated": "03/05/2008",
	},
	{
		"name": "CUKMO",
		"latitude": "43-34-15.48 N",
		"longitude": "95-19-38.24 W",
		"state": "MINNESOTA",
		"artcc": "ZMP",
		"type": "RP",
		"updated": "OTG*VOR/DME*/12.00",
	},
	{
		"name": "CUKOB",
		"latitude": "46-15-14.23 N",
		"longitude": "97-34-0.65 W",
		"state": "NORTH DAKOTA",
		"artcc": "ZMP",
		"type": "RNAV",
		"updated": "11/22/2016",
	},
	{
		"name": "CUKUP",
		"latitude": "45-24-12.91 N",
		"longitude": "95-43-33.08 W",
		"state": "MINNESOTA",
		"artcc": "ZMP",
		"type": "RNAV",
		"updated": "01/21/2009",
	},
	{
		"name": "CUKVU",
		"latitude": "46-25-7.74 N",
		"longitude": "96-21-42.85 W",
		"state": "MINNESOTA",
		"artcc": "ZMP",
		"type": "RNAV",
		"updated": "02/14/2011",
	},
	{
		"name": "CULBI",
		"latitude": "44-48-24.35 N",
		"longitude": "91-31-50.88 W",
		"state": "WISCONSIN",
		"artcc": "ZMP",
		"type": "RNAV",
		"updated": "07/28/2015",
	},
	{
		"name": "CULIV",
		"latitude": "44-28-27.49 N",
		"longitude": "99-21-26.81 W",
		"state": "SOUTH DAKOTA",
		"artcc": "ZMP",
		"type": "RNAV",
		"updated": "08/05/2016",
	},
	{
		"name": "CULOG",
		"latitude": "45-3-36.73 N",
		"longitude": "89-54-57.7 W",
		"state": "WISCONSIN",
		"artcc": "ZMP",
		"type": "RP",
		"updated": "AUW*VORTAC*310.49/19.00",
	},
	{
		"name": "CULUB",
		"latitude": "42-36-27.08 N",
		"longitude": "99-8-49.87 W",
		"state": "NEBRASKA",
		"artcc": "ZMP",
		"type": "RNAV",
		"updated": "03/13/2012",
	},
	{
		"name": "CULUX",
		"latitude": "41-6-21.57 N",
		"longitude": "95-53-12.71 W",
		"state": "NEBRASKA",
		"artcc": "ZMP",
		"type": "MR",
		"updated": "OFF*TACAN*/0.90",
	},
	{
		"name": "CUMAM",
		"latitude": "47-51-14.02 N",
		"longitude": "90-40-15.5 W",
		"state": "MINNESOTA",
		"artcc": "ZMP",
		"type": "RNAV",
		"updated": "03/27/2017",
	},
	{
		"name": "CUMEK",
		"latitude": "39-57-17.37 N",
		"longitude": "96-40-32.83 W",
		"state": "KANSAS",
		"artcc": "ZMP",
		"type": "RNAV",
		"updated": "02/08/2011",
	},
	{
		"name": "CUMRO",
		"latitude": "43-41-48.86 N",
		"longitude": "91-14-7.51 W",
		"state": "WISCONSIN",
		"artcc": "ZMP",
		"type": "RNAV",
		"updated": "02/09/2018",
	},
	{
		"name": "CUNGI",
		"latitude": "44-49-52.91 N",
		"longitude": "94-21-41.86 W",
		"state": "MINNESOTA",
		"artcc": "ZMP",
		"type": "RNAV",
		"updated": "04/27/2011",
	},
	{
		"name": "CUNKU",
		"latitude": "41-45-39.46 N",
		"longitude": "94-5-13.22 W",
		"state": "IOWA",
		"artcc": "ZMP",
		"type": "RNAV",
		"updated": "12/30/2011",
	},
	{
		"name": "CUNOS",
		"latitude": "45-48-32.58 N",
		"longitude": "90-9-21.23 W",
		"state": "WISCONSIN",
		"artcc": "ZMP",
		"type": "RNAV",
		"updated": "10/24/2011",
	},
	{
		"name": "CUNUN",
		"latitude": "42-43-30.16 N",
		"longitude": "94-36-31.5 W",
		"state": "IOWA",
		"artcc": "ZMP",
		"type": "RNAV",
		"updated": "06/30/2011",
	},
	{
		"name": "CUNYE",
		"latitude": "41-47-49.22 N",
		"longitude": "80-34-8.22 W",
		"state": "OHIO",
		"artcc": "ZMP",
		"type": "RNAV",
		"updated": "07/19/2017",
	},
	{
		"name": "CUPLO",
		"latitude": "46-14-6.92 N",
		"longitude": "94-33-58.77 W",
		"state": "MINNESOTA",
		"artcc": "ZMP",
		"type": "RNAV",
		"updated": "05/06/2013",
	},
	{
		"name": "CUPOD",
		"latitude": "41-6-58.49 N",
		"longitude": "95-43-8.68 W",
		"state": "IOWA",
		"artcc": "ZMP",
		"type": "RNAV",
		"updated": "01/22/2003",
	},
	{
		"name": "CUPSA",
		"latitude": "44-16-18.06 N",
		"longitude": "86-11-31.55 W",
		"state": "MICHIGAN",
		"artcc": "ZMP",
		"type": "RNAV",
		"updated": "03/01/2013",
	},
	{
		"name": "CURAN",
		"latitude": "48-38-15.57 N",
		"longitude": "101-44-22.48 W",
		"state": "NORTH DAKOTA",
		"artcc": "ZMP",
		"type": "MR",
		"updated": "MIB*TACAN*302.00/20.00",
	},
	{
		"name": "CURIR",
		"latitude": "42-44-31.42 N",
		"longitude": "98-15-32.01 W",
		"state": "NEBRASKA",
		"artcc": "ZMP",
		"type": "RP",
		"updated": "ONL*VORTAC*039.20/25.00",
	},
	{
		"name": "CURLU",
		"latitude": "44-20-37.82 N",
		"longitude": "95-50-57.07 W",
		"state": "MINNESOTA",
		"artcc": "ZMP",
		"type": "RNAV",
		"updated": "12/28/2004",
	},
	{
		"name": "CURNS",
		"latitude": "42-17-58.95 N",
		"longitude": "96-23-1.51 W",
		"state": "NEBRASKA",
		"artcc": "ZMP",
		"type": "RNAV",
		"updated": "04/13/2016",
	},
	{
		"name": "CUROR",
		"latitude": "46-39-30.77 N",
		"longitude": "92-3-55.03 W",
		"state": "WISCONSIN",
		"artcc": "ZMP",
		"type": "RNAV",
		"updated": "08/01/2012",
	},
	{
		"name": "CUSAC",
		"latitude": "45-1-26.28 N",
		"longitude": "93-1-27.07 W",
		"state": "MINNESOTA",
		"artcc": "ZMP",
		"type": "RP",
		"updated": "GEP*VORTAC*110.09",
	},
	{
		"name": "CUSAS",
		"latitude": "46-0-58.14 N",
		"longitude": "89-13-17.04 W",
		"state": "WISCONSIN",
		"artcc": "ZMP",
		"type": "RP",
		"updated": "RHI*VOR/DME*021.29/25.00",
	},
	{
		"name": "CUSET",
		"latitude": "43-8-19.37 N",
		"longitude": "94-21-58.49 W",
		"state": "IOWA",
		"artcc": "ZMP",
		"type": "RNAV",
		"updated": "03/30/2011",
	},
	{
		"name": "CUSHO",
		"latitude": "42-25-15.39 N",
		"longitude": "95-46-15.42 W",
		"state": "IOWA",
		"artcc": "ZMP",
		"type": "RP",
		"updated": "SUX*VORTAC*070.25/25.00",
	},
	{
		"name": "CUSIR",
		"latitude": "46-16-58.26 N",
		"longitude": "85-20-22.22 W",
		"state": "MICHIGAN",
		"artcc": "ZMP",
		"type": "RNAV",
		"updated": "07/06/2010",
	},
	{
		"name": "CUSKI",
		"latitude": "48-53-6.72 N",
		"longitude": "100-29-59.73 W",
		"state": "NORTH DAKOTA",
		"artcc": "ZMP",
		"type": "RNAV",
		"updated": "04/12/2010",
	},
	{
		"name": "CUSUP",
		"latitude": "41-2-55.53 N",
		"longitude": "96-52-14.23 W",
		"state": "NEBRASKA",
		"artcc": "ZMP",
		"type": "RNAV",
		"updated": "07/07/2008",
	},
	{
		"name": "CUTBO",
		"latitude": "41-7-5.42 N",
		"longitude": "95-42-55.9 W",
		"state": "IOWA",
		"artcc": "ZMP",
		"type": "RNAV",
		"updated": "03/07/2006",
	},
	{
		"name": "CUTTL",
		"latitude": "48-50-54.65 N",
		"longitude": "93-8-22.51 W",
		"state": "",
		"artcc": "ZMP",
		"type": "RP",
		"updated": "INL*VOR/DME*025.82/20.00",
	},
	{
		"name": "CUTUP",
		"latitude": "45-38-40.41 N",
		"longitude": "84-35-0.17 W",
		"state": "MICHIGAN",
		"artcc": "ZMP",
		"type": "RP",
		"updated": "PLN*VORTAC*082.17/3.50",
	},
	{
		"name": "CUVEM",
		"latitude": "40-33-16.85 N",
		"longitude": "95-30-13.32 W",
		"state": "MISSOURI",
		"artcc": "ZMP",
		"type": "RNAV",
		"updated": "07/31/2006",
	},
	{
		"name": "CUVLA",
		"latitude": "43-7-40.79 N",
		"longitude": "95-4-23.17 W",
		"state": "IOWA",
		"artcc": "ZMP",
		"type": "RP",
		"updated": "SPW*VOR/DME*105.00/5.98",
	},
	{
		"name": "CUVPO",
		"latitude": "42-39-59.56 N",
		"longitude": "94-23-47.85 W",
		"state": "IOWA",
		"artcc": "ZMP",
		"type": "RNAV",
		"updated": "10/14/2009",
	},
	{
		"name": "CUXER",
		"latitude": "46-51-36.78 N",
		"longitude": "92-4-37.89 W",
		"state": "MINNESOTA",
		"artcc": "ZMP",
		"type": "RNAV",
		"updated": "02/07/2008",
	},
	{
		"name": "CUXIG",
		"latitude": "46-27-14.67 N",
		"longitude": "84-19-59.29 W",
		"state": "MICHIGAN",
		"artcc": "ZMP",
		"type": "RNAV",
		"updated": "06/13/2011",
	},
	{
		"name": "CUXUG",
		"latitude": "45-38-11.81 N",
		"longitude": "87-5-18.79 W",
		"state": "MICHIGAN",
		"artcc": "ZMP",
		"type": "RNAV",
		"updated": "06/07/2013",
	},
	{
		"name": "CUXUR",
		"latitude": "46-27-29.08 N",
		"longitude": "94-1-19.05 W",
		"state": "MINNESOTA",
		"artcc": "ZMP",
		"type": "RNAV",
		"updated": "05/02/2007",
	},
	{
		"name": "CUYAK",
		"latitude": "48-19-33.29 N",
		"longitude": "99-54-11.26 W",
		"state": "NORTH DAKOTA",
		"artcc": "ZMP",
		"type": "RNAV",
		"updated": "07/14/2011",
	},
	{
		"name": "CUYDA",
		"latitude": "43-37-12.88 N",
		"longitude": "94-23-1.79 W",
		"state": "MINNESOTA",
		"artcc": "ZMP",
		"type": "RNAV",
		"updated": "03/30/2009",
	},
	{
		"name": "CYETT",
		"latitude": "46-1-42.65 N",
		"longitude": "91-10-54.84 W",
		"state": "WISCONSIN",
		"artcc": "ZMP",
		"type": "RNAV",
		"updated": "10/29/2015",
	},
	{
		"name": "CYMOL",
		"latitude": "44-23-57.15 N",
		"longitude": "97-3-43.66 W",
		"state": "SOUTH DAKOTA",
		"artcc": "ZMP",
		"type": "RNAV",
		"updated": "08/01/2014",
	},
