	{
		"name": "DABLE",
		"latitude": "44-28-47.75 N",
		"longitude": "95-52-25.73 W",
		"state": "MINNESOTA",
		"artcc": "ZMP",
		"type": "RNAV",
		"updated": "03/13/2012",
	},
	{
		"name": "DABOY",
		"latitude": "41-53-19.05 N",
		"longitude": "94-27-34.27 W",
		"state": "IOWA",
		"artcc": "ZMP",
		"type": "RP",
		"updated": "OVR*VORTAC*044.65/72.01",
	},
	{
		"name": "DACAB",
		"latitude": "43-34-14.36 N",
		"longitude": "92-54-55.58 W",
		"state": "MINNESOTA",
		"artcc": "ZMP",
		"type": "RP",
		"updated": "RST*VOR/DME*222.55",
	},
	{
		"name": "DACAN",
		"latitude": "46-15-14.54 N",
		"longitude": "84-13-10.51 W",
		"state": "MICHIGAN",
		"artcc": "ZMP",
		"type": "RNAV",
		"updated": "11/19/2002",
	},
	{
		"name": "DACAP",
		"latitude": "46-15-19.45 N",
		"longitude": "84-45-3.4 W",
		"state": "MICHIGAN",
		"artcc": "ZMP",
		"type": "RNAV",
		"updated": "11/19/2002",
	},
	{
		"name": "DADAC",
		"latitude": "40-32-30.89 N",
		"longitude": "96-48-2.49 W",
		"state": "NEBRASKA",
		"artcc": "ZMP",
		"type": "RNAV",
		"updated": "05/23/2011",
	},
	{
		"name": "DADYE",
		"latitude": "45-31-39.53 N",
		"longitude": "89-1-15.74 W",
		"state": "WISCONSIN",
		"artcc": "ZMP",
		"type": "RP",
		"updated": "RHI*VOR/DME*106.93/19.48",
	},
	{
		"name": "DAFHY",
		"latitude": "43-31-46.43 N",
		"longitude": "100-2-0.52 W",
		"state": "SOUTH DAKOTA",
		"artcc": "ZMP",
		"type": "RNAV",
		"updated": "03/23/2009",
	},
	{
		"name": "DAGAC",
		"latitude": "46-37-38.57 N",
		"longitude": "90-57-18.2 W",
		"state": "WISCONSIN",
		"artcc": "ZMP",
		"type": "RNAV",
		"updated": "03/17/2008",
	},
	{
		"name": "DAHRL",
		"latitude": "44-21-53.52 N",
		"longitude": "93-22-0.75 W",
		"state": "MINNESOTA",
		"artcc": "ZMP",
		"type": "RNAV",
		"updated": "01/16/2015",
	},
	{
		"name": "DAHVO",
		"latitude": "45-54-35.65 N",
		"longitude": "90-29-14.68 W",
		"state": "WISCONSIN",
		"artcc": "ZMP",
		"type": "RNAV",
		"updated": "08/09/2007",
	},
	{
		"name": "DAIVE",
		"latitude": "46-12-15.68 N",
		"longitude": "91-19-31.94 W",
		"state": "WISCONSIN",
		"artcc": "ZMP",
		"type": "RP",
		"updated": "HTY*LD*024.78/12.29",
	},
	{
		"name": "DAKHI",
		"latitude": "48-26-21.01 N",
		"longitude": "100-6-58.82 W",
		"state": "NORTH DAKOTA",
		"artcc": "ZMP",
		"type": "WP",
		"updated": "12/21/1995",
	},
	{
		"name": "DAKLE",
		"latitude": "42-27-47.72 N",
		"longitude": "99-18-22.69 W",
		"state": "NEBRASKA",
		"artcc": "ZMP",
		"type": "RNAV",
		"updated": "02/10/2010",
	},
	{
		"name": "DAKME",
		"latitude": "47-38-34.57 N",
		"longitude": "97-18-53.4 W",
		"state": "NORTH DAKOTA",
		"artcc": "ZMP",
		"type": "RNAV",
		"updated": "08/24/2004",
	},
	{
		"name": "DAKPE",
		"latitude": "44-25-58.37 N",
		"longitude": "98-42-23.05 W",
		"state": "SOUTH DAKOTA",
		"artcc": "ZMP",
		"type": "RP",
		"updated": "HON*VORTAC*258.68/17.00",
	},
	{
		"name": "DAKRY",
		"latitude": "45-6-55.36 N",
		"longitude": "83-34-0.45 W",
		"state": "MICHIGAN",
		"artcc": "ZMP",
		"type": "RP",
		"updated": "APN*VORTAC*355.00/2.00",
	},
	{
		"name": "DAKVE",
		"latitude": "46-0-32.98 N",
		"longitude": "90-25-13.64 W",
		"state": "WISCONSIN",
		"artcc": "ZMP",
		"type": "RNAV",
		"updated": "03/22/2006",
	},
	{
		"name": "DAMPY",
		"latitude": "46-1-9.83 N",
		"longitude": "88-4-29.18 W",
		"state": "MICHIGAN",
		"artcc": "ZMP",
		"type": "RNAV",
		"updated": "01/21/2009",
	},
	{
		"name": "DANHI",
		"latitude": "45-43-11.92 N",
		"longitude": "93-14-9.65 W",
		"state": "MINNESOTA",
		"artcc": "ZMP",
		"type": "RNAV",
		"updated": "08/18/2015",
	},
	{
		"name": "DAPAC",
		"latitude": "45-35-45.75 N",
		"longitude": "89-13-35.38 W",
		"state": "WISCONSIN",
		"artcc": "ZMP",
		"type": "RP",
		"updated": "RHI*VOR/DME*101.00/10.00",
	},
	{
		"name": "DARLL",
		"latitude": "48-8-5.07 N",
		"longitude": "96-6-13.61 W",
		"state": "MINNESOTA",
		"artcc": "ZMP",
		"type": "RNAV",
		"updated": "09/26/2014",
	},
	{
		"name": "DASHL",
		"latitude": "45-30-24.79 N",
		"longitude": "98-30-32.87 W",
		"state": "SOUTH DAKOTA",
		"artcc": "ZMP",
		"type": "RP",
		"updated": "ABR*VOR/DME*305.23/8.00",
	},
	{
		"name": "DAVIE",
		"latitude": "42-27-31.89 N",
		"longitude": "96-27-17.03 W",
		"state": "NEBRASKA",
		"artcc": "ZMP",
		"type": "RP",
		"updated": "SUX*VORTAC*310.69/9.00",
	},
	{
		"name": "DAWOP",
		"latitude": "45-36-59.64 N",
		"longitude": "91-46-55.56 W",
		"state": "WISCONSIN",
		"artcc": "ZMP",
		"type": "RNAV",
		"updated": "03/05/2008",
	},
	{
		"name": "DAWSN",
		"latitude": "43-55-23.71 N",
		"longitude": "99-29-53.24 W",
		"state": "SOUTH DAKOTA",
		"artcc": "ZMP",
		"type": "RNAV",
		"updated": "04/17/2018",
	},
	{
		"name": "DAWSO",
		"latitude": "45-1-24.62 N",
		"longitude": "96-13-39.89 W",
		"state": "MINNESOTA",
		"artcc": "ZMP",
		"type": "RP",
		"updated": "ATY*VORTAC*076.81/39.00",
	},
	{
		"name": "DAXZU",
		"latitude": "41-6-10.16 N",
		"longitude": "95-57-43.81 W",
		"state": "NEBRASKA",
		"artcc": "ZMP",
		"type": "RNAV",
		"updated": "07/31/2006",
	},
	{
		"name": "DAYAL",
		"latitude": "48-46-17.38 N",
		"longitude": "95-40-1.85 W",
		"state": "MINNESOTA",
		"artcc": "ZMP",
		"type": "RNAV",
		"updated": "06/28/2007",
	},
	{
		"name": "DAYAR",
		"latitude": "46-33-14.77 N",
		"longitude": "92-14-48.58 W",
		"state": "WISCONSIN",
		"artcc": "ZMP",
		"type": "RP",
		"updated": "DLH*VORTAC*181.97/15.00",
	},
	{
		"name": "DAYAV",
		"latitude": "46-39-45.05 N",
		"longitude": "96-57-27.49 W",
		"state": "NORTH DAKOTA",
		"artcc": "ZMP",
		"type": "RP",
		"updated": "FAR*VOR/DME*209.88/7.00",
	},
	{
		"name": "DAYLE",
		"latitude": "45-37-24.75 N",
		"longitude": "93-55-34.2 W",
		"state": "MINNESOTA",
		"artcc": "ZMP",
		"type": "RP",
		"updated": "GEP*VORTAC*315.00/37.00",
	},
	{
		"name": "DAYYY",
		"latitude": "44-10-10 N",
		"longitude": "84-22-23 W",
		"state": "MICHIGAN",
		"artcc": "ZMP",
		"type": "RNAV",
		"updated": "03/29/2018",
	},
	{
		"name": "DBLEM",
		"latitude": "44-42-0.42 N",
		"longitude": "92-54-42.85 W",
		"state": "MINNESOTA",
		"artcc": "ZMP",
		"type": "RNAV",
		"updated": "03/23/2015",
	},
	{
		"name": "DEANI",
		"latitude": "43-43-7.36 N",
		"longitude": "85-46-29.2 W",
		"state": "MICHIGAN",
		"artcc": "ZMP",
		"type": "RP",
		"updated": "HIC*VOR/DME*344.54/9.00",
	},
	{
		"name": "DEBBA",
		"latitude": "45-32-59.23 N",
		"longitude": "89-23-1.3 W",
		"state": "WISCONSIN",
		"artcc": "ZMP",
		"type": "RNAV",
		"updated": "02/15/2010",
	},
	{
		"name": "DECET",
		"latitude": "45-48-20.59 N",
		"longitude": "89-37-2.25 W",
		"state": "WISCONSIN",
		"artcc": "ZMP",
		"type": "RNAV",
		"updated": "01/28/2004",
	},
	{
		"name": "DECGA",
		"latitude": "42-16-45.45 N",
		"longitude": "96-31-49.36 W",
		"state": "NEBRASKA",
		"artcc": "ZMP",
		"type": "RP",
		"updated": "SUX*VORTAC*238.04/10.00",
	},
	{
		"name": "DECKA",
		"latitude": "41-56-10.45 N",
		"longitude": "96-15-58.17 W",
		"state": "NEBRASKA",
		"artcc": "ZMP",
		"type": "RP",
		"updated": "OFK*VOR/DME*085.00",
	},
	{
		"name": "DECKY",
		"latitude": "40-59-47.54 N",
		"longitude": "98-39-57.6 W",
		"state": "NEBRASKA",
		"artcc": "ZMP",
		"type": "RP",
		"updated": "GRI*VOR/DME*265.81/15.98",
	},
	{
		"name": "DECNE",
		"latitude": "40-38-40.74 N",
		"longitude": "98-22-12.07 W",
		"state": "NEBRASKA",
		"artcc": "ZMP",
		"type": "RNAV",
		"updated": "10/04/2011",
	},
	{
		"name": "DEEBO",
		"latitude": "48-27-29.27 N",
		"longitude": "101-26-55.34 W",
		"state": "NORTH DAKOTA",
		"artcc": "ZMP",
		"type": "RNAV",
		"updated": "02/22/2018",
	},
	{
		"name": "DEEJY",
		"latitude": "46-50-31.94 N",
		"longitude": "96-30-40.4 W",
		"state": "MINNESOTA",
		"artcc": "ZMP",
		"type": "RP",
		"updated": "FAR*VOR/DME*060.05/15.00",
	},
	{
		"name": "DEELE",
		"latitude": "43-35-0.99 N",
		"longitude": "94-54-19.88 W",
		"state": "MINNESOTA",
		"artcc": "ZMP",
		"type": "RNAV",
		"updated": "06/28/2013",
	},
	{
		"name": "DEFYA",
		"latitude": "46-21-53.75 N",
		"longitude": "94-12-15.69 W",
		"state": "MINNESOTA",
		"artcc": "ZMP",
		"type": "WP",
		"updated": "11/02/1998",
	},
	{
		"name": "DEGCE",
		"latitude": "40-21-2.83 N",
		"longitude": "95-22-8.22 W",
		"state": "MISSOURI",
		"artcc": "ZMP",
		"type": "RNAV",
		"updated": "07/03/2008",
	},
	{
		"name": "DEGOY",
		"latitude": "45-21-10.71 N",
		"longitude": "91-3-41.73 W",
		"state": "WISCONSIN",
		"artcc": "ZMP",
		"type": "RNAV",
		"updated": "03/05/2008",
	},
	{
		"name": "DEHBU",
		"latitude": "46-38-14.66 N",
		"longitude": "92-13-23.56 W",
		"state": "WISCONSIN",
		"artcc": "ZMP",
		"type": "RNAV",
		"updated": "04/08/2010",
	},
	{
		"name": "DELAY",
		"latitude": "41-24-32.18 N",
		"longitude": "93-53-4.55 W",
		"state": "IOWA",
		"artcc": "ZMP",
		"type": "RP",
		"updated": "DSM*VORTAC*253.92/10.79",
	},
	{
		"name": "DELDE",
		"latitude": "44-48-9.36 N",
		"longitude": "96-55-32.25 W",
		"state": "SOUTH DAKOTA",
		"artcc": "ZMP",
		"type": "RNAV",
		"updated": "07/21/2007",
	},
	{
		"name": "DELZY",
		"latitude": "44-13-54.94 N",
		"longitude": "93-13-16.33 W",
		"state": "MINNESOTA",
		"artcc": "ZMP",
		"type": "RP",
		"updated": "RST*VOR/DME*310.12/38.16",
	},
	{
		"name": "DEMES",
		"latitude": "43-5-30.64 N",
		"longitude": "96-24-46.2 W",
		"state": "IOWA",
		"artcc": "ZMP",
		"type": "RP",
		"updated": "SUX*VORTAC*346.00/45.00",
	},
	{
		"name": "DEMKY",
		"latitude": "48-46-42.44 N",
		"longitude": "97-44-11.16 W",
		"state": "NORTH DAKOTA",
		"artcc": "ZMP",
		"type": "RNAV",
		"updated": "01/29/2002",
	},
	{
		"name": "DEMLL",
		"latitude": "43-57-55 N",
		"longitude": "93-29-29 W",
		"state": "MINNESOTA",
		"artcc": "ZMP",
		"type": "RNAV",
		"updated": "11/14/2016",
	},
	{
		"name": "DENBE",
		"latitude": "46-19-59.28 N",
		"longitude": "85-30-56.71 W",
		"state": "MICHIGAN",
		"artcc": "ZMP",
		"type": "RNAV",
		"updated": "ERY*VOR/DME*305.78",
	},
	{
		"name": "DENKY",
		"latitude": "46-18-10.99 N",
		"longitude": "85-24-18.03 W",
		"state": "MICHIGAN",
		"artcc": "ZMP",
		"type": "RP",
		"updated": "ERY*VOR/DME*109.03",
	},
	{
		"name": "DENTE",
		"latitude": "39-39-56.82 N",
		"longitude": "98-1-25.01 W",
		"state": "KANSAS",
		"artcc": "ZMP",
		"type": "RNAV",
		"updated": "03/09/2009",
	},
	{
		"name": "DEPRE",
		"latitude": "44-23-54.69 N",
		"longitude": "88-8-0.5 W",
		"state": "WISCONSIN",
		"artcc": "ZMP",
		"type": "RP",
		"updated": "SGZ*LS*181.92",
	},
	{
		"name": "DESTE",
		"latitude": "45-30-25.86 N",
		"longitude": "92-16-9.24 W",
		"state": "WISCONSIN",
		"artcc": "ZMP",
		"type": "RNAV",
		"updated": "02/24/2016",
	},
	{
		"name": "DETRO",
		"latitude": "42-7-37.23 N",
		"longitude": "93-54-31.78 W",
		"state": "IOWA",
		"artcc": "ZMP",
		"type": "RNAV",
		"updated": "05/24/2013",
	},
	{
		"name": "DEVLL",
		"latitude": "48-6-54.81 N",
		"longitude": "98-54-45.07 W",
		"state": "NORTH DAKOTA",
		"artcc": "ZMP",
		"type": "WP",
		"updated": "05/19/1998",
	},
	{
		"name": "DEWOR",
		"latitude": "44-0-22.32 N",
		"longitude": "93-1-12.91 W",
		"state": "MINNESOTA",
		"artcc": "ZMP",
		"type": "RNAV",
		"updated": "04/10/2012",
	},
	{
		"name": "DEYSY",
		"latitude": "43-58-49.5 N",
		"longitude": "84-23-1.74 W",
		"state": "MICHIGAN",
		"artcc": "ZMP",
		"type": "CN",
		"updated": "02/16/2001",
	},
	{
		"name": "DEYYY",
		"latitude": "45-1-0.57 N",
		"longitude": "84-39-2.13 W",
		"state": "MICHIGAN",
		"artcc": "ZMP",
		"type": "RP",
		"updated": "GLR*VOR/DME*089.48/2.30",
	},
	{
		"name": "DIAZO",
		"latitude": "45-0-0.34 N",
		"longitude": "83-34-16.73 W",
		"state": "MICHIGAN",
		"artcc": "ZMP",
		"type": "MR",
		"updated": "APN*VORTAC*194.00/5.00",
	},
	{
		"name": "DIBQE",
		"latitude": "43-4-0.87 N",
		"longitude": "98-49-5.96 W",
		"state": "SOUTH DAKOTA",
		"artcc": "ZMP",
		"type": "RNAV",
		"updated": "09/03/2013",
	},
	{
		"name": "DIGCE",
		"latitude": "42-21-35.62 N",
		"longitude": "97-42-26.71 W",
		"state": "NEBRASKA",
		"artcc": "ZMP",
		"type": "RNAV",
		"updated": "04/01/2011",
	},
	{
		"name": "DIGVE",
		"latitude": "46-2-22.81 N",
		"longitude": "84-31-58 W",
		"state": "MICHIGAN",
		"artcc": "ZMP",
		"type": "RNAV",
		"updated": "06/19/2002",
	},
	{
		"name": "DIHZE",
		"latitude": "46-14-50.9 N",
		"longitude": "85-12-7.93 W",
		"state": "MICHIGAN",
		"artcc": "ZMP",
		"type": "RNAV",
		"updated": "06/05/2010",
	},
	{
		"name": "DIJMU",
		"latitude": "45-58-23.41 N",
		"longitude": "86-7-24.37 W",
		"state": "MICHIGAN",
		"artcc": "ZMP",
		"type": "RP",
		"updated": "ISQ*VOR/DME*100.00/2.10",
	},
	{
		"name": "DIJZE",
		"latitude": "44-1-58.97 N",
		"longitude": "94-1-43 W",
		"state": "MINNESOTA",
		"artcc": "ZMP",
		"type": "RNAV",
		"updated": "10/14/2009",
	},
	{
		"name": "DIKGO",
		"latitude": "44-18-16.99 N",
		"longitude": "93-58-19.27 W",
		"state": "MINNESOTA",
		"artcc": "ZMP",
		"type": "RNAV",
		"updated": "08/19/2009",
	},
	{
		"name": "DIKKA",
		"latitude": "47-7-30.31 N",
		"longitude": "93-28-46.3 W",
		"state": "MINNESOTA",
		"artcc": "ZMP",
		"type": "RNAV",
		"updated": "03/22/2009",
	},
	{
		"name": "DILTS",
		"latitude": "41-24-9.62 N",
		"longitude": "95-51-6.95 W",
		"state": "IOWA",
		"artcc": "ZMP",
		"type": "RNAV",
		"updated": "08/14/2012",
	},
	{
		"name": "DIMMY",
		"latitude": "43-52-9.37 N",
		"longitude": "91-51-17.55 W",
		"state": "MINNESOTA",
		"artcc": "ZMP",
		"type": "RP",
		"updated": "ODI*VORTAC*260.39/17.00",
	},
	{
		"name": "DIMNI",
		"latitude": "46-31-47.74 N",
		"longitude": "90-8-41.73 W",
		"state": "MICHIGAN",
		"artcc": "ZMP",
		"type": "RP",
		"updated": "IWD*VORTAC*259.00/0.80",
	},
	{
		"name": "DINER",
		"latitude": "46-12-9.22 N",
		"longitude": "89-10-48.3 W",
		"state": "MICHIGAN",
		"artcc": "ZMP",
		"type": "RP",
		"updated": "IMT*VOR/DME*299.83/50.33",
	},
	{
		"name": "DIPLE",
		"latitude": "45-46-21.19 N",
		"longitude": "85-16-15.98 W",
		"state": "MICHIGAN",
		"artcc": "ZMP",
		"type": "RP",
		"updated": "PLN*VORTAC*294.67/26.91",
	},
	{
		"name": "DIPPO",
		"latitude": "41-35-7.87 N",
		"longitude": "93-32-48.83 W",
		"state": "IOWA",
		"artcc": "ZMP",
		"type": "RP",
		"updated": "TNU*VOR/DME*236.01/23.00",
	},
	{
		"name": "DISCI",
		"latitude": "43-52-3.74 N",
		"longitude": "85-41-31.88 W",
		"state": "MICHIGAN",
		"artcc": "ZMP",
		"type": "RNAV",
		"updated": "06/06/2016",
	},
	{
		"name": "DITRE",
		"latitude": "47-59-2.65 N",
		"longitude": "97-28-47.28 W",
		"state": "NORTH DAKOTA",
		"artcc": "ZMP",
		"type": "RP",
		"updated": "GFK*VOR/DME*269.52/12.00",
	},
	{
		"name": "DITRY",
		"latitude": "40-15-52.74 N",
		"longitude": "97-10-6.4 W",
		"state": "NEBRASKA",
		"artcc": "ZMP",
		"type": "RNAV",
		"updated": "05/30/2008",
	},
	{
		"name": "DIVEN",
		"latitude": "44-14-4.3 N",
		"longitude": "90-59-19 W",
		"state": "WISCONSIN",
		"artcc": "ZMP",
		"type": "RNAV",
		"updated": "06/26/2012",
	},
	{
		"name": "DIXFO",
		"latitude": "46-5-10.06 N",
		"longitude": "96-9-26.12 W",
		"state": "MINNESOTA",
		"artcc": "ZMP",
		"type": "RNAV",
		"updated": "06/28/2009",
	},
	{
		"name": "DIXGY",
		"latitude": "46-32-5.54 N",
		"longitude": "95-14-51.99 W",
		"state": "MINNESOTA",
		"artcc": "ZMP",
		"type": "RNAV",
		"updated": "06/21/2013",
	},
	{
		"name": "DIXLE",
		"latitude": "45-27-44.24 N",
		"longitude": "102-53-32.12 W",
		"state": "SOUTH DAKOTA",
		"artcc": "ZMP",
		"type": "RP",
		"updated": "DPR*VOR/DME*285.22/54.95",
	},
	{
		"name": "DIYEN",
		"latitude": "45-36-43.96 N",
		"longitude": "100-43-59.82 W",
		"state": "SOUTH DAKOTA",
		"artcc": "ZMP",
		"type": "RNAV",
		"updated": "07/21/2007",
	},
	{
		"name": "DIYEV",
		"latitude": "44-34-33.37 N",
		"longitude": "92-29-51.61 W",
		"state": "WISCONSIN",
		"artcc": "ZMP",
		"type": "RNAV",
		"updated": "03/21/2013",
	},
	{
		"name": "DKOTA",
		"latitude": "45-22-17 N",
		"longitude": "97-37-27 W",
		"state": "SOUTH DAKOTA",
		"artcc": "ZMP",
		"type": "RNAV",
		"updated": "09/20/2014",
	},
	{
		"name": "DLANY",
		"latitude": "43-50-38.32 N",
		"longitude": "92-4-37.36 W",
		"state": "MINNESOTA",
		"artcc": "ZMP",
		"type": "RP",
		"updated": "RST*VOR/DME*075.61/22.88",
	},
	{
		"name": "DMDZE",
		"latitude": "43-4-43.03 N",
		"longitude": "94-58-41.36 W",
		"state": "IOWA",
		"artcc": "ZMP",
		"type": "CN",
		"updated": "02/06/2012",
	},
	{
		"name": "DMEJO",
		"latitude": "45-19-9.36 N",
		"longitude": "98-12-27.98 W",
		"state": "SOUTH DAKOTA",
		"artcc": "ZMP",
		"type": "RP",
		"updated": "ABR*VOR/DME*123.79/9.00",
	},
	{
		"name": "DMGEZ",
		"latitude": "44-21-34.15 N",
		"longitude": "95-11-26.68 W",
		"state": "MINNESOTA",
		"artcc": "ZMP",
		"type": "RP",
		"updated": "RWF*VOR/DME*195.57/7.00",
	},
	{
		"name": "DMLOV",
		"latitude": "43-55-55.9 N",
		"longitude": "93-24-25.85 W",
		"state": "MINNESOTA",
		"artcc": "ZMP",
		"type": "CN",
		"updated": "09/28/2011",
	},
	{
		"name": "DMLPI",
		"latitude": "43-57-23.35 N",
		"longitude": "93-24-38.63 W",
		"state": "MINNESOTA",
		"artcc": "ZMP",
		"type": "CN",
		"updated": "09/28/2011",
	},
	{
		"name": "DMMUM",
		"latitude": "44-16-32.03 N",
		"longitude": "93-27-58.28 W",
		"state": "MINNESOTA",
		"artcc": "ZMP",
		"type": "CN",
		"updated": "02/24/2000",
	},
	{
		"name": "DMMWT",
		"latitude": "46-58-43.25 N",
		"longitude": "93-23-29.05 W",
		"state": "MINNESOTA",
		"artcc": "ZMP",
		"type": "CN",
		"updated": "03/22/2009",
	},
	{
		"name": "DMYDM",
		"latitude": "45-14-59.89 N",
		"longitude": "85-7-29.68 W",
		"state": "MICHIGAN",
		"artcc": "ZMP",
		"type": "CN",
		"updated": "11/22/2011",
	},
	{
		"name": "DNDIS",
		"latitude": "44-24-37.21 N",
		"longitude": "93-11-43.55 W",
		"state": "MINNESOTA",
		"artcc": "ZMP",
		"type": "RNAV",
		"updated": "11/14/2016",
	},
	{
		"name": "DOBDE",
		"latitude": "44-40-59.35 N",
		"longitude": "88-15-2.98 W",
		"state": "WISCONSIN",
		"artcc": "ZMP",
		"type": "RNAV",
		"updated": "11/28/2006",
	},
	{
		"name": "DOBRE",
		"latitude": "43-55-32.15 N",
		"longitude": "94-37-49.59 W",
		"state": "MINNESOTA",
		"artcc": "ZMP",
		"type": "RNAV",
		"updated": "05/22/2009",
	},
	{
		"name": "DOCAN",
		"latitude": "46-53-41.51 N",
		"longitude": "98-43-45.7 W",
		"state": "NORTH DAKOTA",
		"artcc": "ZMP",
		"type": "RNAV",
		"updated": "07/20/2007",
	},
	{
		"name": "DOCBA",
		"latitude": "41-38-15.73 N",
		"longitude": "98-58-41.31 W",
		"state": "NEBRASKA",
		"artcc": "ZMP",
		"type": "RNAV",
		"updated": "03/10/2009",
	},
	{
		"name": "DOCEL",
		"latitude": "43-36-50.44 N",
		"longitude": "94-2-51.78 W",
		"state": "MINNESOTA",
		"artcc": "ZMP",
		"type": "RNAV",
		"updated": "02/14/2008",
	},
	{
		"name": "DOCKN",
		"latitude": "45-27-43.57 N",
		"longitude": "93-23-26.63 W",
		"state": "MINNESOTA",
		"artcc": "ZMP",
		"type": "RP",
		"updated": "GEP*VORTAC*351.76/19.00",
	},
	{
		"name": "DODAC",
		"latitude": "45-29-33.8 N",
		"longitude": "84-54-27.81 W",
		"state": "MICHIGAN",
		"artcc": "ZMP",
		"type": "RNAV",
		"updated": "07/09/2009",
	},
	{
		"name": "DODYE",
		"latitude": "43-49-41.58 N",
		"longitude": "95-6-36.42 W",
		"state": "MINNESOTA",
		"artcc": "ZMP",
		"type": "RNAV",
		"updated": "07/10/2003",
	},
	{
		"name": "DOGGO",
		"latitude": "43-30-44.51 N",
		"longitude": "94-3-14.92 W",
		"state": "MINNESOTA",
		"artcc": "ZMP",
		"type": "RNAV",
		"updated": "02/25/2016",
	},
	{
		"name": "DOGSY",
		"latitude": "44-25-8.26 N",
		"longitude": "83-28-38.15 W",
		"state": "MICHIGAN",
		"artcc": "ZMP",
		"type": "RP",
		"updated": "ASP*VOR/DME*250.12/4.00",
	},
	{
		"name": "DOHRI",
		"latitude": "45-24-34.46 N",
		"longitude": "83-41-48.17 W",
		"state": "MICHIGAN",
		"artcc": "ZMP",
		"type": "RNAV",
		"updated": "07/25/2005",
	},
	{
		"name": "DOKAY",
		"latitude": "48-20-58.05 N",
		"longitude": "101-13-0.14 W",
		"state": "NORTH DAKOTA",
		"artcc": "ZMP",
		"type": "RNAV",
		"updated": "02/22/2018",
	},
	{
		"name": "DOKTR",
		"latitude": "44-15-29.08 N",
		"longitude": "92-55-20.92 W",
		"state": "MINNESOTA",
		"artcc": "ZMP",
		"type": "RP",
		"updated": "FOW*VOR/DME*078.39",
	},
	{
		"name": "DOKXE",
		"latitude": "44-31-46.99 N",
		"longitude": "100-2-36.38 W",
		"state": "SOUTH DAKOTA",
		"artcc": "ZMP",
		"type": "RNAV",
		"updated": "06/28/2007",
	},
	{
		"name": "DOLDY",
		"latitude": "44-24-59.73 N",
		"longitude": "89-46-0.91 W",
		"state": "WISCONSIN",
		"artcc": "ZMP",
		"type": "RNAV",
		"updated": "01/21/2009",
	},
	{
		"name": "DOLEC",
		"latitude": "46-57-29.57 N",
		"longitude": "98-38-16.73 W",
		"state": "NORTH DAKOTA",
		"artcc": "ZMP",
		"type": "RNAV",
		"updated": "07/20/2007",
	},
	{
		"name": "DOLEE",
		"latitude": "44-54-2.69 N",
		"longitude": "93-32-36.02 W",
		"state": "MINNESOTA",
		"artcc": "ZMP",
		"type": "RNAV",
		"updated": "01/12/2015",
	},
	{
		"name": "DOLSE",
		"latitude": "43-57-24.84 N",
		"longitude": "90-32-50.96 W",
		"state": "WISCONSIN",
		"artcc": "ZMP",
		"type": "RNAV",
		"updated": "11/03/2015",
	},
	{
		"name": "DOLTE",
		"latitude": "43-49-47.5 N",
		"longitude": "84-5-20.69 W",
		"state": "MICHIGAN",
		"artcc": "ZMP",
		"type": "RNAV",
		"updated": "04/06/2009",
	},
	{
		"name": "DOLTS",
		"latitude": "43-23-39.34 N",
		"longitude": "97-12-16.11 W",
		"state": "SOUTH DAKOTA",
		"artcc": "ZMP",
		"type": "RP",
		"updated": "FSD*VORTAC*221.50/24.00",
	},
	{
		"name": "DOOZY",
		"latitude": "43-39-9.3 N",
		"longitude": "86-12-41.56 W",
		"state": "MICHIGAN",
		"artcc": "ZMP",
		"type": "RNAV",
		"updated": "11/03/2015",
	},
	{
		"name": "DOPEQ",
		"latitude": "48-29-6.27 N",
		"longitude": "97-21-57.04 W",
		"state": "NORTH DAKOTA",
		"artcc": "ZMP",
		"type": "RNAV",
		"updated": "05/14/2010",
	},
	{
		"name": "DOPLE",
		"latitude": "42-49-26.25 N",
		"longitude": "96-0-5.7 W",
		"state": "IOWA",
		"artcc": "ZMP",
		"type": "RNAV",
		"updated": "11/02/2015",
	},
	{
		"name": "DORNE",
		"latitude": "43-41-4.08 N",
		"longitude": "93-19-45.51 W",
		"state": "MINNESOTA",
		"artcc": "ZMP",
		"type": "RNAV",
		"updated": "02/07/2008",
	},
	{
		"name": "DOSCA",
		"latitude": "45-29-1.87 N",
		"longitude": "95-48-37.7 W",
		"state": "MINNESOTA",
		"artcc": "ZMP",
		"type": "RNAV",
		"updated": "01/27/2009",
	},
	{
		"name": "DOSEL",
		"latitude": "44-16-22.41 N",
		"longitude": "88-1-2.07 W",
		"state": "WISCONSIN",
		"artcc": "ZMP",
		"type": "RNAV",
		"updated": "08/25/2009",
	},
	{
		"name": "DOSGE",
		"latitude": "42-4-39.94 N",
		"longitude": "84-38-30.97 W",
		"state": "MICHIGAN",
		"artcc": "ZMP",
		"type": "RNAV",
		"updated": "09/11/2017",
	},
	{
		"name": "DOSJO",
		"latitude": "41-31-45.61 N",
		"longitude": "97-24-20.05 W",
		"state": "NEBRASKA",
		"artcc": "ZMP",
		"type": "RNAV",
		"updated": "07/11/2005",
	},
	{
		"name": "DOSNY",
		"latitude": "43-17-55.65 N",
		"longitude": "94-56-32.06 W",
		"state": "IOWA",
		"artcc": "ZMP",
		"type": "RP",
		"updated": "FRM*VOR/DME*220.65/30.81",
	},
	{
		"name": "DOTAY",
		"latitude": "41-10-59.8 N",
		"longitude": "96-0-45.98 W",
		"state": "NEBRASKA",
		"artcc": "ZMP",
		"type": "MR",
		"updated": "OFF*TACAN*/6.47",
	},
	{
		"name": "DOTBE",
		"latitude": "48-46-25.3 N",
		"longitude": "94-43-37.62 W",
		"state": "MINNESOTA",
		"artcc": "ZMP",
		"type": "RNAV",
		"updated": "05/05/2010",
	},
	{
		"name": "DOUGY",
		"latitude": "45-50-4.96 N",
		"longitude": "89-43-48.94 W",
		"state": "WISCONSIN",
		"artcc": "ZMP",
		"type": "RP",
		"updated": "DOF*LE*S CRS/6.45",
	},
	{
		"name": "DOURS",
		"latitude": "43-30-6.7 N",
		"longitude": "91-8-32.47 W",
		"state": "WISCONSIN",
		"artcc": "ZMP",
		"type": "RP",
		"updated": "LNR*VOR/DME*286.09/45.87",
	},
	{
		"name": "DOVEC",
		"latitude": "43-39-28.89 N",
		"longitude": "92-55-15.11 W",
		"state": "MINNESOTA",
		"artcc": "ZMP",
		"type": "RNAV",
		"updated": "02/07/2008",
	},
	{
		"name": "DOVVA",
		"latitude": "42-24-40.97 N",
		"longitude": "93-50-40.92 W",
		"state": "IOWA",
		"artcc": "ZMP",
		"type": "RNAV",
		"updated": "07/31/2014",
	},
	{
		"name": "DOXCU",
		"latitude": "45-18-34.41 N",
		"longitude": "98-13-20.09 W",
		"state": "SOUTH DAKOTA",
		"artcc": "ZMP",
		"type": "RNAV",
		"updated": "07/09/2009",
	},
	{
		"name": "DOXNO",
		"latitude": "41-58-25.44 N",
		"longitude": "94-41-49.55 W",
		"state": "IOWA",
		"artcc": "ZMP",
		"type": "RNAV",
		"updated": "09/11/2012",
	},
	{
		"name": "DOYAB",
		"latitude": "48-25-25.03 N",
		"longitude": "101-30-1.42 W",
		"state": "NORTH DAKOTA",
		"artcc": "ZMP",
		"type": "RP",
		"updated": "MOT*VORTAC*306.02/13.00",
	},
	{
		"name": "DOYBA",
		"latitude": "40-38-20.59 N",
		"longitude": "95-15-16.23 W",
		"state": "IOWA",
		"artcc": "ZMP",
		"type": "RNAV",
		"updated": "07/01/2008",
	},
	{
		"name": "DOYPA",
		"latitude": "42-26-0.79 N",
		"longitude": "96-51-10.7 W",
		"state": "NEBRASKA",
		"artcc": "ZMP",
		"type": "RNAV",
		"updated": "09/12/2011",
	},
	{
		"name": "DOZXO",
		"latitude": "44-0-55.17 N",
		"longitude": "92-28-45.35 W",
		"state": "MINNESOTA",
		"artcc": "ZMP",
		"type": "RNAV",
		"updated": "03/09/2017",
	},
	{
		"name": "DOZXU",
		"latitude": "45-12-40.17 N",
		"longitude": "93-12-31.98 W",
		"state": "MINNESOTA",
		"artcc": "ZMP",
		"type": "RNAV",
		"updated": "03/30/2009",
	},
	{
		"name": "DRABS",
		"latitude": "40-45-33.04 N",
		"longitude": "98-22-28.92 W",
		"state": "NEBRASKA",
		"artcc": "ZMP",
		"type": "RP",
		"updated": "LNK*VORTAC*254.00/75.00",
	},
	{
		"name": "DRAIL",
		"latitude": "44-49-29.16 N",
		"longitude": "93-55-26.19 W",
		"state": "MINNESOTA",
		"artcc": "ZMP",
		"type": "RP",
		"updated": "RWF*VOR/DME*060.00/55.87",
	},
	{
		"name": "DRAVE",
		"latitude": "44-32-44.99 N",
		"longitude": "96-57-5.26 W",
		"state": "SOUTH DAKOTA",
		"artcc": "ZMP",
		"type": "RNAV",
		"updated": "08/01/2014",
	},
	{
		"name": "DRAWG",
		"latitude": "46-14-26.26 N",
		"longitude": "93-55-50.64 W",
		"state": "MINNESOTA",
		"artcc": "ZMP",
		"type": "RNAV",
		"updated": "03/03/2009",
	},
	{
		"name": "DREST",
		"latitude": "46-4-41.96 N",
		"longitude": "102-44-37.7 W",
		"state": "NORTH DAKOTA",
		"artcc": "ZMP",
		"type": "RNAV",
		"updated": "03/29/2016",
	},
	{
		"name": "DRIPE",
		"latitude": "45-18-19.84 N",
		"longitude": "84-41-6.53 W",
		"state": "MICHIGAN",
		"artcc": "ZMP",
		"type": "RP",
		"updated": "APN*VORTAC*293.00",
	},
	{
		"name": "DUBKE",
		"latitude": "45-11-45.38 N",
		"longitude": "92-35-19.43 W",
		"state": "WISCONSIN",
		"artcc": "ZMP",
		"type": "RNAV",
		"updated": "08/05/2011",
	},
	{
		"name": "DUBWY",
		"latitude": "42-17-49.99 N",
		"longitude": "84-20-41.5 W",
		"state": "MICHIGAN",
		"artcc": "ZMP",
		"type": "RP",
		"updated": "JXN*VOR/DME*/5.55",
	},
	{
		"name": "DUCAV",
		"latitude": "43-18-54.69 N",
		"longitude": "91-51-28.43 W",
		"state": "IOWA",
		"artcc": "ZMP",
		"type": "RNAV",
		"updated": "03/30/2011",
	},
	{
		"name": "DUCDO",
		"latitude": "47-52-45.58 N",
		"longitude": "93-55-21.06 W",
		"state": "MINNESOTA",
		"artcc": "ZMP",
		"type": "RNAV",
		"updated": "11/07/2011",
	},
	{
		"name": "DUCER",
		"latitude": "45-58-27.21 N",
		"longitude": "85-52-15.74 W",
		"state": "MICHIGAN",
		"artcc": "ZMP",
		"type": "RNAV",
		"updated": "03/27/2012",
	},
	{
		"name": "DUCEV",
		"latitude": "47-57-7.26 N",
		"longitude": "97-27-55.06 W",
		"state": "NORTH DAKOTA",
		"artcc": "ZMP",
		"type": "RNAV",
		"updated": "06/26/2007",
	},
	{
		"name": "DUCKX",
		"latitude": "41-24-14.92 N",
		"longitude": "95-51-12.98 W",
		"state": "IOWA",
		"artcc": "ZMP",
		"type": "RNAV",
		"updated": "08/14/2012",
	},
	{
		"name": "DUCXU",
		"latitude": "44-26-24.93 N",
		"longitude": "100-35-28.27 W",
		"state": "SOUTH DAKOTA",
		"artcc": "ZMP",
		"type": "RNAV",
		"updated": "06/28/2007",
	},
	{
		"name": "DUFOE",
		"latitude": "44-48-53.76 N",
		"longitude": "90-17-17.83 W",
		"state": "WISCONSIN",
		"artcc": "ZMP",
		"type": "RNAV",
		"updated": "08/02/2006",
	},
	{
		"name": "DUGTE",
		"latitude": "44-58-23.12 N",
		"longitude": "89-43-22.99 W",
		"state": "WISCONSIN",
		"artcc": "ZMP",
		"type": "RNAV",
		"updated": "03/22/2011",
	},
	{
		"name": "DUKTE",
		"latitude": "46-48-28.26 N",
		"longitude": "92-5-36.31 W",
		"state": "MINNESOTA",
		"artcc": "ZMP",
		"type": "RNAV",
		"updated": "02/07/2008",
	},
	{
		"name": "DULAH",
		"latitude": "41-42-21.86 N",
		"longitude": "95-32-14.9 W",
		"state": "IOWA",
		"artcc": "ZMP",
		"type": "RNAV",
		"updated": "02/09/2018",
	},
	{
		"name": "DULEC",
		"latitude": "47-27-30.05 N",
		"longitude": "92-57-22.32 W",
		"state": "MINNESOTA",
		"artcc": "ZMP",
		"type": "RNAV",
		"updated": "06/20/2011",
	},
	{
		"name": "DULLY",
		"latitude": "44-2-13.85 N",
		"longitude": "85-9-15.81 W",
		"state": "MICHIGAN",
		"artcc": "ZMP",
		"type": "RNAV",
		"updated": "03/11/2014",
	},
	{
		"name": "DULMY",
		"latitude": "42-46-38.72 N",
		"longitude": "95-33-9.56 W",
		"state": "IOWA",
		"artcc": "ZMP",
		"type": "RNAV",
		"updated": "04/17/2009",
	},
	{
		"name": "DULPE",
		"latitude": "48-51-43.87 N",
		"longitude": "95-14-32.16 W",
		"state": "MINNESOTA",
		"artcc": "ZMP",
		"type": "RNAV",
		"updated": "02/11/2008",
	},
	{
		"name": "DUMBE",
		"latitude": "47-42-29.36 N",
		"longitude": "97-26-17.82 W",
		"state": "NORTH DAKOTA",
		"artcc": "ZMP",
		"type": "MR",
		"updated": "RDR*TACAN*179.00/15.00",
	},
	{
		"name": "DUMLE",
		"latitude": "41-31-27.71 N",
		"longitude": "94-28-9.95 W",
		"state": "IOWA",
		"artcc": "ZMP",
		"type": "RNAV",
		"updated": "05/24/2011",
	},
	{
		"name": "DUNAC",
		"latitude": "45-17-47.08 N",
		"longitude": "85-24-4.72 W",
		"state": "MICHIGAN",
		"artcc": "ZMP",
		"type": "RNAV",
		"updated": "08/11/2008",
	},
	{
		"name": "DUNEC",
		"latitude": "47-43-52.19 N",
		"longitude": "93-15-50.62 W",
		"state": "MINNESOTA",
		"artcc": "ZMP",
		"type": "RP",
		"updated": "HIB*VOR/DME*316.76/34.41",
	},
	{
		"name": "DUNSE",
		"latitude": "44-59-52.04 N",
		"longitude": "91-27-39.98 W",
		"state": "WISCONSIN",
		"artcc": "ZMP",
		"type": "RNAV",
		"updated": "03/05/2008",
	},
	{
		"name": "DUPME",
		"latitude": "46-26-35.28 N",
		"longitude": "89-50-46.67 W",
		"state": "MICHIGAN",
		"artcc": "ZMP",
		"type": "RNAV",
		"updated": "03/30/2009",
	},
	{
		"name": "DUPPA",
		"latitude": "44-9-30.96 N",
		"longitude": "95-22-38.9 W",
		"state": "MINNESOTA",
		"artcc": "ZMP",
		"type": "RNAV",
		"updated": "12/28/2004",
	},
	{
		"name": "DURBN",
		"latitude": "46-44-15.68 N",
		"longitude": "97-14-31.56 W",
		"state": "NORTH DAKOTA",
		"artcc": "ZMP",
		"type": "RNAV",
		"updated": "05/05/2010",
	},
	{
		"name": "DUSEC",
		"latitude": "49-0-28.83 N",
		"longitude": "95-26-14.76 W",
		"state": "",
		"artcc": "ZMP",
		"type": "RNAV",
		"updated": "02/23/2016",
	},
	{
		"name": "DUSRE",
		"latitude": "44-38-3.01 N",
		"longitude": "100-1-11.01 W",
		"state": "SOUTH DAKOTA",
		"artcc": "ZMP",
		"type": "RNAV",
		"updated": "12/19/2017",
	},
	{
		"name": "DUSRY",
		"latitude": "46-37-51.53 N",
		"longitude": "92-30-59.27 W",
		"state": "MINNESOTA",
		"artcc": "ZMP",
		"type": "CN",
		"updated": "02/24/2000",
	},
	{
		"name": "DUVAS",
		"latitude": "42-31-31.87 N",
		"longitude": "96-59-38.86 W",
		"state": "NEBRASKA",
		"artcc": "ZMP",
		"type": "RNAV",
		"updated": "06/28/2011",
	},
	{
		"name": "DUVJU",
		"latitude": "46-51-14.9 N",
		"longitude": "95-54-54.38 W",
		"state": "MINNESOTA",
		"artcc": "ZMP",
		"type": "RP",
		"updated": "DTL*VOR/DME*321.33/2.06",
	},
	{
		"name": "DUVRE",
		"latitude": "44-56-2.32 N",
		"longitude": "85-0-56.09 W",
		"state": "MICHIGAN",
		"artcc": "ZMP",
		"type": "RNAV",
		"updated": "12/05/2007",
	},
	{
		"name": "DUWIZ",
		"latitude": "46-47-33.3 N",
		"longitude": "95-50-21.34 W",
		"state": "MINNESOTA",
		"artcc": "ZMP",
		"type": "RP",
		"updated": "DTL*VOR/DME*129.94/2.80",
	},
	{
		"name": "DUXHO",
		"latitude": "46-53-59.29 N",
		"longitude": "98-19-3.47 W",
		"state": "NORTH DAKOTA",
		"artcc": "ZMP",
		"type": "RP",
		"updated": "JMS*VOR/DME*093.48/14.99",
	},
	{
		"name": "DUXRA",
		"latitude": "45-43-27.97 N",
		"longitude": "96-30-7.91 W",
		"state": "MINNESOTA",
		"artcc": "ZMP",
		"type": "CN",
		"updated": "02/24/2000",
	},
	{
		"name": "DUYAR",
		"latitude": "46-39-44.96 N",
		"longitude": "92-7-45.56 W",
		"state": "WISCONSIN",
		"artcc": "ZMP",
		"type": "RNAV",
		"updated": "08/01/2012",
	},
	{
		"name": "DUZZI",
		"latitude": "44-22-54.96 N",
		"longitude": "93-24-40.41 W",
		"state": "MINNESOTA",
		"artcc": "ZMP",
		"type": "RNAV",
		"updated": "02/28/2013",
	},
	{
		"name": "DWELL",
		"latitude": "41-5-23.23 N",
		"longitude": "96-55-46.19 W",
		"state": "NEBRASKA",
		"artcc": "ZMP",
		"type": "RP",
		"updated": "OVR*VORTAC*257.48/54.27",
	},
	{
		"name": "DWITT",
		"latitude": "41-11-25.98 N",
		"longitude": "95-54-43.5 W",
		"state": "IOWA",
		"artcc": "ZMP",
		"type": "RNAV",
		"updated": "08/14/2012",
	},
	{
		"name": "DWIYT",
		"latitude": "45-18-12.16 N",
		"longitude": "92-17-15.24 W",
		"state": "WISCONSIN",
		"artcc": "ZMP",
		"type": "RP",
		"updated": "GEP*VORTAC*072.00/47.00",
	},
