[
	{
		"name": "EAGAN",
		"latitude": "44-51-19.08 N",
		"longitude": "93-9-33 W",
		"state": "MINNESOTA",
		"artcc": "ZMP",
		"type": "RP",
		"updated": "MSP*LD*121.36/2.29"
	},
	{
		"name": "EBABY",
		"latitude": "46-18-9.16 N",
		"longitude": "96-11-24.83 W",
		"state": "MINNESOTA",
		"artcc": "ZMP",
		"type": "RP",
		"updated": "FFM*VOR/DME*294.67/1.60"
	},
	{
		"name": "EBAGE",
		"latitude": "49-3-39.36 N",
		"longitude": "95-38-28.94 W",
		"state": "",
		"artcc": "ZMP",
		"type": "RNAV",
		"updated": "06/28/2007"
	},
	{
		"name": "EBAYI",
		"latitude": "45-22-9.78 N",
		"longitude": "92-22-44.15 W",
		"state": "WISCONSIN",
		"artcc": "ZMP",
		"type": "RNAV",
		"updated": "08/01/2013"
	},
	{
		"name": "EBIKE",
		"latitude": "40-50-43.75 N",
		"longitude": "98-23-6.05 W",
		"state": "NEBRASKA",
		"artcc": "ZMP",
		"type": "RNAV",
		"updated": "05/17/2005"
	},
	{
		"name": "EBIWE",
		"latitude": "45-53-55.02 N",
		"longitude": "89-43-55.13 W",
		"state": "WISCONSIN",
		"artcc": "ZMP",
		"type": "RNAV",
		"updated": "DOF*LE*179.93/2.61"
	},
	{
		"name": "EBNOW",
		"latitude": "45-5-18.91 N",
		"longitude": "95-5-33.2 W",
		"state": "MINNESOTA",
		"artcc": "ZMP",
		"type": "RP",
		"updated": "BDH*VOR/DME*135.93/2.28"
	},
	{
		"name": "EBSOW",
		"latitude": "43-13-16.83 N",
		"longitude": "91-39-43.84 W",
		"state": "IOWA",
		"artcc": "ZMP",
		"type": "RNAV",
		"updated": "04/23/2007"
	},
	{
		"name": "EBUHE",
		"latitude": "44-16-48.49 N",
		"longitude": "93-49-37.52 W",
		"state": "MINNESOTA",
		"artcc": "ZMP",
		"type": "RNAV",
		"updated": "10/14/2009"
	},
	{
		"name": "EBUVE",
		"latitude": "45-15-57.69 N",
		"longitude": "91-37-48.22 W",
		"state": "WISCONSIN",
		"artcc": "ZMP",
		"type": "RNAV",
		"updated": "08/20/2003"
	},
	{
		"name": "EBVOF",
		"latitude": "45-1-49.43 N",
		"longitude": "94-25-25.95 W",
		"state": "MINNESOTA",
		"artcc": "ZMP",
		"type": "RNAV",
		"updated": "08/04/2010"
	},
	{
		"name": "EBWIX",
		"latitude": "40-42-37.12 N",
		"longitude": "97-56-47.69 W",
		"state": "NEBRASKA",
		"artcc": "ZMP",
		"type": "RNAV",
		"updated": "07/08/2008"
	},
	{
		"name": "EBXIB",
		"latitude": "44-15-21.02 N",
		"longitude": "93-56-45.88 W",
		"state": "MINNESOTA",
		"artcc": "ZMP",
		"type": "RP",
		"updated": "MKT*VOR/DME*319.00/2.60"
	},
	{
		"name": "EBYEX",
		"latitude": "45-38-46.94 N",
		"longitude": "96-3-3.11 W",
		"state": "MINNESOTA",
		"artcc": "ZMP",
		"type": "RNAV",
		"updated": "04/29/2013"
	},
	{
		"name": "EBZAN",
		"latitude": "45-0-7.02 N",
		"longitude": "95-45-13.63 W",
		"state": "MINNESOTA",
		"artcc": "ZMP",
		"type": "RP",
		"updated": "MVE*VOR/DME*309.78/2.49"
	},
	{
		"name": "ECAFO",
		"latitude": "45-39-4.24 N",
		"longitude": "84-31-1.14 W",
		"state": "MICHIGAN",
		"artcc": "ZMP",
		"type": "RNAV",
		"updated": "07/11/2009"
	},
	{
		"name": "ECANA",
		"latitude": "45-37-26.04 N",
		"longitude": "89-46-17.2 W",
		"state": "WISCONSIN",
		"artcc": "ZMP",
		"type": "RNAV",
		"updated": "01/28/2004"
	},
	{
		"name": "ECBOF",
		"latitude": "43-41-10.7 N",
		"longitude": "95-37-27.76 W",
		"state": "MINNESOTA",
		"artcc": "ZMP",
		"type": "RP",
		"updated": "OTG*VOR/DME*314.00/3.00"
	},
	{
		"name": "ECELI",
		"latitude": "43-17-30.19 N",
		"longitude": "95-53-8.12 W",
		"state": "IOWA",
		"artcc": "ZMP",
		"type": "RNAV",
		"updated": "04/12/2012"
	},
	{
		"name": "ECEYO",
		"latitude": "40-40-30.32 N",
		"longitude": "97-11-41.33 W",
		"state": "NEBRASKA",
		"artcc": "ZMP",
		"type": "RNAV",
		"updated": "05/08/2008"
	},
	{
		"name": "ECHER",
		"latitude": "40-56-59.08 N",
		"longitude": "97-7-11.54 W",
		"state": "NEBRASKA",
		"artcc": "ZMP",
		"type": "RNAV",
		"updated": "05/08/2008"
	},
	{
		"name": "ECIPO",
		"latitude": "40-23-51.67 N",
		"longitude": "95-22-5.3 W",
		"state": "MISSOURI",
		"artcc": "ZMP",
		"type": "RNAV",
		"updated": "07/03/2008"
	},
	{
		"name": "ECIWO",
		"latitude": "48-49-5.83 N",
		"longitude": "95-41-20.95 W",
		"state": "MINNESOTA",
		"artcc": "ZMP",
		"type": "RP",
		"updated": "06/28/2007"
	},
	{
		"name": "ECLEY",
		"latitude": "45-15-28.06 N",
		"longitude": "92-23-54.68 W",
		"state": "WISCONSIN",
		"artcc": "ZMP",
		"type": "RNAV",
		"updated": "06/10/2013"
	},
	{
		"name": "ECTAJ",
		"latitude": "46-55-32.56 N",
		"longitude": "92-7-47.98 W",
		"state": "MINNESOTA",
		"artcc": "ZMP",
		"type": "RP",
		"updated": "DLH*VORTAC*017.00/8.00"
	},
	{
		"name": "ECUCE",
		"latitude": "45-53-3.32 N",
		"longitude": "92-27-25.42 W",
		"state": "WISCONSIN",
		"artcc": "ZMP",
		"type": "RNAV",
		"updated": "03/16/2015"
	},
	{
		"name": "ECUTU",
		"latitude": "42-44-16.22 N",
		"longitude": "96-12-4.76 W",
		"state": "IOWA",
		"artcc": "ZMP",
		"type": "RNAV",
		"updated": "02/19/2013"
	},
	{
		"name": "EDAYU",
		"latitude": "44-49-35.91 N",
		"longitude": "96-29-27.58 W",
		"state": "SOUTH DAKOTA",
		"artcc": "ZMP",
		"type": "RNAV",
		"updated": "06/01/2010"
	},
	{
		"name": "EDCIR",
		"latitude": "42-42-21.57 N",
		"longitude": "96-49-25.54 W",
		"state": "NEBRASKA",
		"artcc": "ZMP",
		"type": "RNAV",
		"updated": "04/25/2013"
	},
	{
		"name": "EDDIS",
		"latitude": "45-24-47.63 N",
		"longitude": "84-34-26.12 W",
		"state": "MICHIGAN",
		"artcc": "ZMP",
		"type": "RP",
		"updated": "PLN*VORTAC*169.71/13.59"
	},
	{
		"name": "EDEGE",
		"latitude": "43-57-31.27 N",
		"longitude": "94-37-29.36 W",
		"state": "MINNESOTA",
		"artcc": "ZMP",
		"type": "RNAV",
		"updated": "10/16/2014"
	},
	{
		"name": "EDGRR",
		"latitude": "44-51-31.83 N",
		"longitude": "89-56-43.06 W",
		"state": "WISCONSIN",
		"artcc": "ZMP",
		"type": "RP",
		"updated": "EAU*VORTAC*087.50/65.46"
	},
	{
		"name": "EDHUC",
		"latitude": "47-43-57.36 N",
		"longitude": "101-31-55.34 W",
		"state": "NORTH DAKOTA",
		"artcc": "ZMP",
		"type": "RNAV",
		"updated": "06/27/2017"
	},
	{
		"name": "EDIJU",
		"latitude": "42-4-42.85 N",
		"longitude": "93-35-11.02 W",
		"state": "IOWA",
		"artcc": "ZMP",
		"type": "RNAV",
		"updated": "05/24/2000"
	},
	{
		"name": "EDILE",
		"latitude": "45-24-9.76 N",
		"longitude": "91-38-54.56 W",
		"state": "WISCONSIN",
		"artcc": "ZMP",
		"type": "RNAV",
		"updated": "08/20/2003"
	},
	{
		"name": "EDJIT",
		"latitude": "42-2-26.48 N",
		"longitude": "94-46-54.09 W",
		"state": "IOWA",
		"artcc": "ZMP",
		"type": "WP",
		"updated": "10/16/1995"
	},
	{
		"name": "EDLUC",
		"latitude": "45-58-29.02 N",
		"longitude": "86-2-8.99 W",
		"state": "MICHIGAN",
		"artcc": "ZMP",
		"type": "RNAV",
		"updated": "03/27/2012"
	},
	{
		"name": "EDMIF",
		"latitude": "44-1-59 N",
		"longitude": "92-15-39.91 W",
		"state": "MINNESOTA",
		"artcc": "ZMP",
		"type": "RNAV",
		"updated": "03/09/2017"
	},
	{
		"name": "EDSIQ",
		"latitude": "48-1-56.88 N",
		"longitude": "97-59-7.04 W",
		"state": "NORTH DAKOTA",
		"artcc": "ZMP",
		"type": "RP",
		"updated": "GFK*VOR/DME*269.52/32.57"
	},
	{
		"name": "EDUBE",
		"latitude": "44-41-0.08 N",
		"longitude": "88-1-2.01 W",
		"state": "WISCONSIN",
		"artcc": "ZMP",
		"type": "RNAV",
		"updated": "11/28/2006"
	},
	{
		"name": "EDUCU",
		"latitude": "46-36-40.02 N",
		"longitude": "92-30-13.41 W",
		"state": "MINNESOTA",
		"artcc": "ZMP",
		"type": "RNAV",
		"updated": "05/18/2012"
	},
	{
		"name": "EDUHU",
		"latitude": "41-23-1 N",
		"longitude": "95-53-13.43 W",
		"state": "IOWA",
		"artcc": "ZMP",
		"type": "RNAV",
		"updated": "08/14/2012"
	},
	{
		"name": "EDULE",
		"latitude": "45-21-45.36 N",
		"longitude": "96-11-37.43 W",
		"state": "MINNESOTA",
		"artcc": "ZMP",
		"type": "RNAV",
		"updated": "09/04/2010"
	},
	{
		"name": "EEDDN",
		"latitude": "44-53-5.01 N",
		"longitude": "93-30-12.65 W",
		"state": "MINNESOTA",
		"artcc": "ZMP",
		"type": "RNAV",
		"updated": "11/25/2016"
	},
	{
		"name": "EEGEE",
		"latitude": "45-8-53 N",
		"longitude": "88-45-58 W",
		"state": "WISCONSIN",
		"artcc": "ZMP",
		"type": "RNAV",
		"updated": "04/05/2012"
	},
	{
		"name": "EFAGU",
		"latitude": "41-19-25.01 N",
		"longitude": "96-32-43.51 W",
		"state": "NEBRASKA",
		"artcc": "ZMP",
		"type": "RNAV",
		"updated": "05/08/2008"
	},
	{
		"name": "EFECU",
		"latitude": "41-22-25.76 N",
		"longitude": "95-56-57.04 W",
		"state": "NEBRASKA",
		"artcc": "ZMP",
		"type": "RNAV",
		"updated": "08/09/2012"
	},
	{
		"name": "EFEXX",
		"latitude": "44-58-56.48 N",
		"longitude": "93-35-42.53 W",
		"state": "MINNESOTA",
		"artcc": "ZMP",
		"type": "RNAV",
		"updated": "03/26/2015"
	},
	{
		"name": "EFFIT",
		"latitude": "44-52-47.64 N",
		"longitude": "84-50-31.77 W",
		"state": "MICHIGAN",
		"artcc": "ZMP",
		"type": "RNAV",
		"updated": "12/02/2008"
	},
	{
		"name": "EFIQU",
		"latitude": "46-55-40.01 N",
		"longitude": "96-57-15.2 W",
		"state": "NORTH DAKOTA",
		"artcc": "ZMP",
		"type": "RNAV",
		"updated": "06/10/2013"
	},
	{
		"name": "EFJAG",
		"latitude": "42-44-14.94 N",
		"longitude": "93-57-7.04 W",
		"state": "IOWA",
		"artcc": "ZMP",
		"type": "RNAV",
		"updated": "06/21/2013"
	},
	{
		"name": "EFJAM",
		"latitude": "45-12-54.58 N",
		"longitude": "98-21-23.87 W",
		"state": "SOUTH DAKOTA",
		"artcc": "ZMP",
		"type": "RP",
		"updated": "ABR*VOR/DME*170.58/12.14"
	},
	{
		"name": "EGACE",
		"latitude": "43-38-35.98 N",
		"longitude": "92-22-5.9 W",
		"state": "MINNESOTA",
		"artcc": "ZMP",
		"type": "RP",
		"updated": "RST*VOR/DME*125.00/13.00"
	},
	{
		"name": "EGELE",
		"latitude": "44-48-23.32 N",
		"longitude": "85-2-29.11 W",
		"state": "MICHIGAN",
		"artcc": "ZMP",
		"type": "RNAV",
		"updated": "12/16/2008"
	},
	{
		"name": "EGHAB",
		"latitude": "41-39-20.3 N",
		"longitude": "94-26-7.03 W",
		"state": "IOWA",
		"artcc": "ZMP",
		"type": "RNAV",
		"updated": "06/26/2013"
	},
	{
		"name": "EGIGY",
		"latitude": "45-5-1.93 N",
		"longitude": "83-33-23.01 W",
		"state": "MICHIGAN",
		"artcc": "ZMP",
		"type": "RNAV",
		"updated": "02/09/2018"
	},
	{
		"name": "EGIPE",
		"latitude": "43-37-31.52 N",
		"longitude": "94-5-27 W",
		"state": "MINNESOTA",
		"artcc": "ZMP",
		"type": "RNAV",
		"updated": "09/29/2014"
	},
	{
		"name": "EGIRE",
		"latitude": "42-40-5.16 N",
		"longitude": "93-41-32.02 W",
		"state": "IOWA",
		"artcc": "ZMP",
		"type": "RNAV",
		"updated": "12/24/2009"
	},
	{
		"name": "EGKUP",
		"latitude": "47-17-31.29 N",
		"longitude": "95-56-22.13 W",
		"state": "MINNESOTA",
		"artcc": "ZMP",
		"type": "RNAV",
		"updated": "07/13/2015"
	},
	{
		"name": "EGOCE",
		"latitude": "48-20-30.32 N",
		"longitude": "101-34-4.69 W",
		"state": "NORTH DAKOTA",
		"artcc": "ZMP",
		"type": "RNAV",
		"updated": "12/18/2009"
	},
	{
		"name": "EGOLE",
		"latitude": "46-7-53.29 N",
		"longitude": "94-25-4.44 W",
		"state": "MINNESOTA",
		"artcc": "ZMP",
		"type": "RNAV",
		"updated": "05/06/2013"
	},
	{
		"name": "EGUPE",
		"latitude": "43-56-2.36 N",
		"longitude": "92-48-19.54 W",
		"state": "MINNESOTA",
		"artcc": "ZMP",
		"type": "RP",
		"updated": "RST*VOR/DME*310.12/12.81"
	},
	{
		"name": "EHAFY",
		"latitude": "43-40-49.44 N",
		"longitude": "84-13-1.47 W",
		"state": "MICHIGAN",
		"artcc": "ZMP",
		"type": "RNAV",
		"updated": "04/06/2009"
	},
	{
		"name": "EHJAM",
		"latitude": "41-5-6.98 N",
		"longitude": "97-38-46.16 W",
		"state": "NEBRASKA",
		"artcc": "ZMP",
		"type": "RNAV",
		"updated": "02/09/2006"
	},
	{
		"name": "EHLEL",
		"latitude": "48-40-33.52 N",
		"longitude": "98-17-48.1 W",
		"state": "NORTH DAKOTA",
		"artcc": "ZMP",
		"type": "RNAV",
		"updated": "02/04/2010"
	},
	{
		"name": "EHOBI",
		"latitude": "47-46-31.48 N",
		"longitude": "96-31-33.78 W",
		"state": "MINNESOTA",
		"artcc": "ZMP",
		"type": "RNAV",
		"updated": "08/08/2007"
	},
	{
		"name": "EHOSI",
		"latitude": "46-54-32.76 N",
		"longitude": "92-3-43.25 W",
		"state": "MINNESOTA",
		"artcc": "ZMP",
		"type": "RNAV",
		"updated": "02/07/2008"
	},
	{
		"name": "EHRUX",
		"latitude": "46-55-34.25 N",
		"longitude": "96-40-31.4 W",
		"state": "MINNESOTA",
		"artcc": "ZMP",
		"type": "RNAV",
		"updated": "06/10/2013"
	},
	{
		"name": "EHTIP",
		"latitude": "46-51-12.41 N",
		"longitude": "100-38-27.72 W",
		"state": "NORTH DAKOTA",
		"artcc": "ZMP",
		"type": "RNAV",
		"updated": "03/30/2011"
	},
	{
		"name": "EHZEJ",
		"latitude": "47-22-21.1 N",
		"longitude": "101-38-36.77 W",
		"state": "NORTH DAKOTA",
		"artcc": "ZMP",
		"type": "RNAV",
		"updated": "05/30/2010"
	},
	{
		"name": "EHZET",
		"latitude": "42-54-25.93 N",
		"longitude": "94-36-36.97 W",
		"state": "IOWA",
		"artcc": "ZMP",
		"type": "RNAV",
		"updated": "12/28/2009"
	},
	{
		"name": "EIEIO",
		"latitude": "41-53-44.45 N",
		"longitude": "93-53-51.98 W",
		"state": "IOWA",
		"artcc": "ZMP",
		"type": "RP",
		"updated": "DSM*VORTAC*330.89/29.67"
	},
	{
		"name": "EJEHO",
		"latitude": "42-4-52.02 N",
		"longitude": "97-23-18.88 W",
		"state": "NEBRASKA",
		"artcc": "ZMP",
		"type": "RNAV",
		"updated": "06/22/2005"
	},
	{
		"name": "EJFIF",
		"latitude": "43-21-21.08 N",
		"longitude": "95-10-36.5 W",
		"state": "IOWA",
		"artcc": "ZMP",
		"type": "RNAV",
		"updated": "05/24/2013"
	},
	{
		"name": "EJIVY",
		"latitude": "44-0-8.5 N",
		"longitude": "90-52-58.44 W",
		"state": "WISCONSIN",
		"artcc": "ZMP",
		"type": "RNAV",
		"updated": "04/26/2011"
	},
	{
		"name": "EJKOW",
		"latitude": "48-42-2.02 N",
		"longitude": "101-27-1.93 W",
		"state": "NORTH DAKOTA",
		"artcc": "ZMP",
		"type": "RNAV",
		"updated": "10/03/2000"
	},
	{
		"name": "EJOPY",
		"latitude": "45-6-15 N",
		"longitude": "90-10-32.6 W",
		"state": "WISCONSIN",
		"artcc": "ZMP",
		"type": "RNAV",
		"updated": "12/22/2008"
	},
	{
		"name": "EJRIQ",
		"latitude": "47-12-30.88 N",
		"longitude": "101-31-10.37 W",
		"state": "NORTH DAKOTA",
		"artcc": "ZMP",
		"type": "RNAV",
		"updated": "05/30/2010"
	},
	{
		"name": "EKABE",
		"latitude": "41-20-34.3 N",
		"longitude": "96-1-14.22 W",
		"state": "NEBRASKA",
		"artcc": "ZMP",
		"type": "RNAV",
		"updated": "04/05/2016"
	},
	{
		"name": "EKADE",
		"latitude": "43-39-37.77 N",
		"longitude": "93-21-40.39 W",
		"state": "MINNESOTA",
		"artcc": "ZMP",
		"type": "RNAV",
		"updated": "03/10/2015"
	},
	{
		"name": "EKASE",
		"latitude": "45-40-24.42 N",
		"longitude": "91-12-28.3 W",
		"state": "WISCONSIN",
		"artcc": "ZMP",
		"type": "RNAV",
		"updated": "04/26/2011"
	},
	{
		"name": "EKEGE",
		"latitude": "40-59-39.62 N",
		"longitude": "95-32-28.22 W",
		"state": "IOWA",
		"artcc": "ZMP",
		"type": "RP",
		"updated": "02/27/2012"
	},
	{
		"name": "EKHOK",
		"latitude": "44-1-25.37 N",
		"longitude": "92-29-15.6 W",
		"state": "MINNESOTA",
		"artcc": "ZMP",
		"type": "RNAV",
		"updated": "03/09/2017"
	},
	{
		"name": "EKIMY",
		"latitude": "40-15-1.4 N",
		"longitude": "98-36-32.35 W",
		"state": "NEBRASKA",
		"artcc": "ZMP",
		"type": "RNAV",
		"updated": "06/05/2012"
	},
	{
		"name": "EKOJO",
		"latitude": "48-33-21.2 N",
		"longitude": "93-23-16.44 W",
		"state": "MINNESOTA",
		"artcc": "ZMP",
		"type": "RP",
		"updated": "INL*VOR/DME*/0.93"
	},
	{
		"name": "EKOPE",
		"latitude": "46-19-44.28 N",
		"longitude": "85-31-11.03 W",
		"state": "MICHIGAN",
		"artcc": "ZMP",
		"type": "RNAV",
		"updated": "02/28/2011"
	},
	{
		"name": "EKTEY",
		"latitude": "44-51-41.56 N",
		"longitude": "90-9-1.77 W",
		"state": "WISCONSIN",
		"artcc": "ZMP",
		"type": "RNAV",
		"updated": "05/16/2017"
	},
	{
		"name": "EKUCE",
		"latitude": "42-13-45.1 N",
		"longitude": "96-9-41.3 W",
		"state": "IOWA",
		"artcc": "ZMP",
		"type": "RP",
		"updated": "SUX*VORTAC*/10.00"
	},
	{
		"name": "ELADE",
		"latitude": "43-40-15.81 N",
		"longitude": "92-57-47.28 W",
		"state": "MINNESOTA",
		"artcc": "ZMP",
		"type": "RNAV",
		"updated": "03/10/2015"
	},
	{
		"name": "ELANE",
		"latitude": "44-13-38.18 N",
		"longitude": "91-15-47.13 W",
		"state": "WISCONSIN",
		"artcc": "ZMP",
		"type": "RP",
		"updated": "EAU*VORTAC*162.98/41.27"
	},
	{
		"name": "ELARE",
		"latitude": "43-57-53.4 N",
		"longitude": "83-3-19.03 W",
		"state": "MICHIGAN",
		"artcc": "ZMP",
		"type": "RNAV",
		"updated": "06/25/2007"
	},
	{
		"name": "ELAWA",
		"latitude": "39-40-28.92 N",
		"longitude": "98-47-40.27 W",
		"state": "KANSAS",
		"artcc": "ZMP",
		"type": "RNAV",
		"updated": "07/27/2017"
	},
	{
		"name": "ELAZY",
		"latitude": "46-31-39.84 N",
		"longitude": "90-16-24.55 W",
		"state": "MICHIGAN",
		"artcc": "ZMP",
		"type": "RNAV",
		"updated": "03/30/2009"
	},
	{
		"name": "ELBOT",
		"latitude": "44-56-3.69 N",
		"longitude": "84-53-53.78 W",
		"state": "MICHIGAN",
		"artcc": "ZMP",
		"type": "RP",
		"updated": "CGG*VOR*340.53"
	},
	{
		"name": "ELECI",
		"latitude": "48-17-24.56 N",
		"longitude": "97-24-2.91 W",
		"state": "NORTH DAKOTA",
		"artcc": "ZMP",
		"type": "MR",
		"updated": "RDR*TACAN*/20.00"
	},
	{
		"name": "ELELE",
		"latitude": "45-52-25.38 N",
		"longitude": "84-48-0.92 W",
		"state": "MICHIGAN",
		"artcc": "ZMP",
		"type": "RNAV",
		"updated": "06/19/2002"
	},
	{
		"name": "ELICU",
		"latitude": "46-26-9.11 N",
		"longitude": "90-58-55.35 W",
		"state": "WISCONSIN",
		"artcc": "ZMP",
		"type": "RNAV",
		"updated": "03/21/2013"
	},
	{
		"name": "ELIJY",
		"latitude": "46-6-27.76 N",
		"longitude": "91-23-23.7 W",
		"state": "WISCONSIN",
		"artcc": "ZMP",
		"type": "RNAV",
		"updated": "02/09/2018"
	},
	{
		"name": "ELIKE",
		"latitude": "44-20-49.39 N",
		"longitude": "92-36-25.56 W",
		"state": "MINNESOTA",
		"artcc": "ZMP",
		"type": "RP",
		"updated": "FGT*VORTAC*118.40/30.00"
	},
	{
		"name": "ELLIE",
		"latitude": "43-57-46.44 N",
		"longitude": "92-34-39.41 W",
		"state": "MINNESOTA",
		"artcc": "ZMP",
		"type": "RP",
		"updated": "RST*VOR/DME*359.79"
	},
	{
		"name": "ELLKO",
		"latitude": "44-35-42.49 N",
		"longitude": "93-12-26.32 W",
		"state": "MINNESOTA",
		"artcc": "ZMP",
		"type": "RNAV",
		"updated": "01/16/2015"
	},
	{
		"name": "ELOIT",
		"latitude": "44-48-53.75 N",
		"longitude": "93-22-8.93 W",
		"state": "MINNESOTA",
		"artcc": "ZMP",
		"type": "RNAV",
		"updated": "11/15/2012"
	},
	{
		"name": "ELONE",
		"latitude": "45-30-20.42 N",
		"longitude": "91-55-41.82 W",
		"state": "WISCONSIN",
		"artcc": "ZMP",
		"type": "RNAV",
		"updated": "02/24/2016"
	},
	{
		"name": "ELPAS",
		"latitude": "44-46-6.7 N",
		"longitude": "92-19-33.27 W",
		"state": "WISCONSIN",
		"artcc": "ZMP",
		"type": "RP",
		"updated": "EAU*VORTAC*254.21/37.00"
	},
	{
		"name": "ELREE",
		"latitude": "44-9-44.71 N",
		"longitude": "99-20-33.43 W",
		"state": "SOUTH DAKOTA",
		"artcc": "ZMP",
		"type": "RP",
		"updated": "PIR*VORTAC*100.21/38.00"
	},
	{
		"name": "ELUPE",
		"latitude": "46-51-40.46 N",
		"longitude": "94-2-11.04 W",
		"state": "MINNESOTA",
		"artcc": "ZMP",
		"type": "RNAV",
		"updated": "01/15/2002"
	},
	{
		"name": "ELUTY",
		"latitude": "43-28-56.65 N",
		"longitude": "92-20-18.04 W",
		"state": "IOWA",
		"artcc": "ZMP",
		"type": "RNAV",
		"updated": "02/09/2018"
	},
	{
		"name": "ELVAW",
		"latitude": "47-54-54.44 N",
		"longitude": "97-10-42.73 W",
		"state": "NORTH DAKOTA",
		"artcc": "ZMP",
		"type": "RP",
		"updated": "GFK*VOR/DME*164.40/2.40"
	},
	{
		"name": "EMCEC",
		"latitude": "46-57-17 N",
		"longitude": "98-43-18.25 W",
		"state": "NORTH DAKOTA",
		"artcc": "ZMP",
		"type": "RP",
		"updated": "JMS*VOR/DME*302.61/2.20"
	},
	{
		"name": "EMDEW",
		"latitude": "48-15-5.89 N",
		"longitude": "101-21-38.69 W",
		"state": "NORTH DAKOTA",
		"artcc": "ZMP",
		"type": "RP",
		"updated": "MOT*VORTAC*247.00/3.00"
	},
	{
		"name": "EMEBY",
		"latitude": "48-15-10.78 N",
		"longitude": "101-11-52.63 W",
		"state": "NORTH DAKOTA",
		"artcc": "ZMP",
		"type": "RP",
		"updated": "MOT*VORTAC*084.00/3.60"
	},
	{
		"name": "EMEND",
		"latitude": "41-4-19.58 N",
		"longitude": "95-26-0.59 W",
		"state": "IOWA",
		"artcc": "ZMP",
		"type": "RP",
		"updated": "OVR*VORTAC*104.44/14.89"
	},
	{
		"name": "EMGEF",
		"latitude": "43-55-55.67 N",
		"longitude": "86-31-20.98 W",
		"state": "MICHIGAN",
		"artcc": "ZMP",
		"type": "RNAV",
		"updated": "02/27/2008"
	},
	{
		"name": "EMHUR",
		"latitude": "45-32-46.79 N",
		"longitude": "84-45-52.37 W",
		"state": "MICHIGAN",
		"artcc": "ZMP",
		"type": "RP",
		"updated": "PLN*VORTAC*225.94"
	},
	{
		"name": "EMIBY",
		"latitude": "44-33-57.78 N",
		"longitude": "89-49-8.74 W",
		"state": "WISCONSIN",
		"artcc": "ZMP",
		"type": "RNAV",
		"updated": "12/21/2009"
	},
	{
		"name": "EMIDY",
		"latitude": "47-23-34.1 N",
		"longitude": "93-34-49.62 W",
		"state": "MINNESOTA",
		"artcc": "ZMP",
		"type": "RNAV",
		"updated": "03/23/2009"
	},
	{
		"name": "EMILS",
		"latitude": "44-7-14.77 N",
		"longitude": "92-0-54.38 W",
		"state": "MINNESOTA",
		"artcc": "ZMP",
		"type": "RP",
		"updated": "RST*VOR/DME*046.00"
	},
	{
		"name": "EMITT",
		"latitude": "46-25-44.11 N",
		"longitude": "92-14-18.33 W",
		"state": "WISCONSIN",
		"artcc": "ZMP",
		"type": "MR",
		"updated": "LKI*TACAN*185.00/25.00"
	},
	{
		"name": "EMORE",
		"latitude": "43-42-20.34 N",
		"longitude": "92-11-9.07 W",
		"state": "MINNESOTA",
		"artcc": "ZMP",
		"type": "RP",
		"updated": "RST*VOR/DME*099.40/18.47"
	},
	{
		"name": "EMQIF",
		"latitude": "46-4-40.67 N",
		"longitude": "88-10-58.25 W",
		"state": "MICHIGAN",
		"artcc": "ZMP",
		"type": "RP",
		"updated": "IMT*VOR/DME*351.36/16.00"
	},
	{
		"name": "EMTUW",
		"latitude": "41-57-8.42 N",
		"longitude": "93-38-12.77 W",
		"state": "IOWA",
		"artcc": "ZMP",
		"type": "RP",
		"updated": "TNU*VOR/DME*290.30"
	},
	{
		"name": "EMUSE",
		"latitude": "44-40-55.82 N",
		"longitude": "89-55-21.59 W",
		"state": "WISCONSIN",
		"artcc": "ZMP",
		"type": "RNAV",
		"updated": "08/13/2013"
	},
	{
		"name": "ENCEE",
		"latitude": "44-35-12.19 N",
		"longitude": "95-25-59.89 W",
		"state": "MINNESOTA",
		"artcc": "ZMP",
		"type": "RNAV",
		"updated": "FSD*VORTAC*/80.97"
	},
	{
		"name": "ENDIW",
		"latitude": "40-57-32.92 N",
		"longitude": "98-0-5.15 W",
		"state": "NEBRASKA",
		"artcc": "ZMP",
		"type": "CN",
		"updated": "06/21/2000"
	},
	{
		"name": "ENDSS",
		"latitude": "43-45-22.1 N",
		"longitude": "92-59-12.01 W",
		"state": "MINNESOTA",
		"artcc": "ZMP",
		"type": "RP",
		"updated": "RST*VOR/DME*259.73/17.02"
	},
	{
		"name": "ENEPE",
		"latitude": "45-18-27.68 N",
		"longitude": "92-42-28.98 W",
		"state": "WISCONSIN",
		"artcc": "ZMP",
		"type": "RNAV",
		"updated": "10/05/2007"
	},
	{
		"name": "ENEPY",
		"latitude": "47-59-44.31 N",
		"longitude": "93-36-54.92 W",
		"state": "MINNESOTA",
		"artcc": "ZMP",
		"type": "RP",
		"updated": "HIB*VOR/DME*316.76"
	},
	{
		"name": "ENETE",
		"latitude": "45-2-2.73 N",
		"longitude": "89-33-22.5 W",
		"state": "WISCONSIN",
		"artcc": "ZMP",
		"type": "RP",
		"updated": "AUW*VORTAC*004.55/11.31"
	},
	{
		"name": "ENEYA",
		"latitude": "42-16-50.65 N",
		"longitude": "97-52-23.17 W",
		"state": "NEBRASKA",
		"artcc": "ZMP",
		"type": "RNAV",
		"updated": "09/28/2009"
	},
	{
		"name": "ENOPE",
		"latitude": "41-39-12.93 N",
		"longitude": "93-39-26.54 W",
		"state": "IOWA",
		"artcc": "ZMP",
		"type": "RNAV",
		"updated": "03/29/2011"
	},
	{
		"name": "ENTAF",
		"latitude": "45-25-46.59 N",
		"longitude": "91-40-32.65 W",
		"state": "WISCONSIN",
		"artcc": "ZMP",
		"type": "RP",
		"updated": "EAU*VORTAC*341.37/33.00"
	},
	{
		"name": "ENUSE",
		"latitude": "47-0-3.5 N",
		"longitude": "98-34-34.03 W",
		"state": "NORTH DAKOTA",
		"artcc": "ZMP",
		"type": "RNAV",
		"updated": "09/20/2017"
	},
	{
		"name": "EPAJO",
		"latitude": "40-34-25.61 N",
		"longitude": "98-28-7.8 W",
		"state": "NEBRASKA",
		"artcc": "ZMP",
		"type": "RNAV",
		"updated": "10/17/2011"
	},
	{
		"name": "EPAME",
		"latitude": "48-47-12.88 N",
		"longitude": "95-8-31.71 W",
		"state": "MINNESOTA",
		"artcc": "ZMP",
		"type": "RNAV",
		"updated": "02/11/2008"
	},
	{
		"name": "EPHIZ",
		"latitude": "42-0-5.15 N",
		"longitude": "93-48-31.24 W",
		"state": "IOWA",
		"artcc": "ZMP",
		"type": "RNAV",
		"updated": "05/24/2013"
	},
	{
		"name": "EPUQY",
		"latitude": "42-59-2.89 N",
		"longitude": "93-12-49.92 W",
		"state": "IOWA",
		"artcc": "ZMP",
		"type": "RNAV",
		"updated": "12/13/2001"
	},
	{
		"name": "EQNAC",
		"latitude": "44-53-31.04 N",
		"longitude": "91-43-19.72 W",
		"state": "WISCONSIN",
		"artcc": "ZMP",
		"type": "RNAV",
		"updated": "06/26/2007"
	},
	{
		"name": "ERAYE",
		"latitude": "45-3-17.48 N",
		"longitude": "87-33-29.65 W",
		"state": "WISCONSIN",
		"artcc": "ZMP",
		"type": "WP",
		"updated": "08/05/2013"
	},
	{
		"name": "ERBUH",
		"latitude": "46-15-57.08 N",
		"longitude": "90-3-4.29 W",
		"state": "WISCONSIN",
		"artcc": "ZMP",
		"type": "RNAV",
		"updated": "04/02/2010"
	},
	{
		"name": "ERENE",
		"latitude": "44-53-58.12 N",
		"longitude": "100-59-57.52 W",
		"state": "SOUTH DAKOTA",
		"artcc": "ZMP",
		"type": "RNAV",
		"updated": "03/20/2002"
	},
	{
		"name": "ERGUC",
		"latitude": "41-46-23.38 N",
		"longitude": "97-45-36.87 W",
		"state": "NEBRASKA",
		"artcc": "ZMP",
		"type": "RP",
		"updated": "OFK*VOR/DME*220.68/19.47"
	},
	{
		"name": "ERHOS",
		"latitude": "42-2-56.84 N",
		"longitude": "96-59-13.16 W",
		"state": "NEBRASKA",
		"artcc": "ZMP",
		"type": "RNAV",
		"updated": "05/31/2005"
	},
	{
		"name": "ERICX",
		"latitude": "44-27-27 N",
		"longitude": "95-11-3 W",
		"state": "MINNESOTA",
		"artcc": "ZMP",
		"type": "RNAV",
		"updated": "01/13/2015"
	},
	{
		"name": "ERIXE",
		"latitude": "47-45-5.56 N",
		"longitude": "97-10-52.8 W",
		"state": "NORTH DAKOTA",
		"artcc": "ZMP",
		"type": "RNAV",
		"updated": "06/08/2006"
	},
	{
		"name": "ERIYI",
		"latitude": "46-5-27.85 N",
		"longitude": "90-30-0.5 W",
		"state": "WISCONSIN",
		"artcc": "ZMP",
		"type": "RP",
		"updated": "DLH*VORTAC*115.52/82.53"
	},
	{
		"name": "ERLUY",
		"latitude": "46-21-51.73 N",
		"longitude": "95-10-25.39 W",
		"state": "MINNESOTA",
		"artcc": "ZMP",
		"type": "RNAV",
		"updated": "06/21/2013"
	},
	{
		"name": "ERSEZ",
		"latitude": "45-44-55.18 N",
		"longitude": "97-27-3.71 W",
		"state": "SOUTH DAKOTA",
		"artcc": "ZMP",
		"type": "RNAV",
		"updated": "11/29/2012"
	},
	{
		"name": "ERUDE",
		"latitude": "44-46-35.64 N",
		"longitude": "94-7-13.41 W",
		"state": "MINNESOTA",
		"artcc": "ZMP",
		"type": "RNAV",
		"updated": "04/28/2015"
	},
	{
		"name": "ERUVE",
		"latitude": "48-15-48.6 N",
		"longitude": "102-31-9.46 W",
		"state": "NORTH DAKOTA",
		"artcc": "ZMP",
		"type": "RP",
		"updated": "ISN*VOR/DME*076.84/49.37"
	},
	{
		"name": "ESACO",
		"latitude": "41-0-27.88 N",
		"longitude": "96-45-38.67 W",
		"state": "NEBRASKA",
		"artcc": "ZMP",
		"type": "RP",
		"updated": "LNK*VORTAC*341.41"
	},
	{
		"name": "ESACU",
		"latitude": "42-3-54.62 N",
		"longitude": "97-31-10.95 W",
		"state": "NEBRASKA",
		"artcc": "ZMP",
		"type": "RNAV",
		"updated": "10/06/2009"
	},
	{
		"name": "ESCAF",
		"latitude": "44-27-50.39 N",
		"longitude": "89-35-44.64 W",
		"state": "WISCONSIN",
		"artcc": "ZMP",
		"type": "RNAV",
		"updated": "01/21/2009"
	},
	{
		"name": "ESIVE",
		"latitude": "42-26-20.77 N",
		"longitude": "94-58-42.99 W",
		"state": "IOWA",
		"artcc": "ZMP",
		"type": "RNAV",
		"updated": "04/04/2010"
	},
	{
		"name": "ESOKY",
		"latitude": "44-3-8.25 N",
		"longitude": "91-3-15.35 W",
		"state": "WISCONSIN",
		"artcc": "ZMP",
		"type": "RNAV",
		"updated": "04/26/2011"
	},
	{
		"name": "ESTIS",
		"latitude": "42-49-47.77 N",
		"longitude": "96-33-49.62 W",
		"state": "SOUTH DAKOTA",
		"artcc": "ZMP",
		"type": "RP",
		"updated": "SUX*VORTAC*331.00/31.00"
	},
	{
		"name": "ESUVE",
		"latitude": "46-46-43.07 N",
		"longitude": "98-27-25.79 W",
		"state": "NORTH DAKOTA",
		"artcc": "ZMP",
		"type": "RP",
		"updated": "JMS*VOR/DME*131.33/13.00"
	},
	{
		"name": "ESVIW",
		"latitude": "44-59-18.98 N",
		"longitude": "88-55-2.08 W",
		"state": "WISCONSIN",
		"artcc": "ZMP",
		"type": "RNAV",
		"updated": "02/28/2008"
	},
	{
		"name": "ESXAZ",
		"latitude": "43-41-6.45 N",
		"longitude": "96-6-38.93 W",
		"state": "MINNESOTA",
		"artcc": "ZMP",
		"type": "RNAV",
		"updated": "02/09/2018"
	},
	{
		"name": "ETAHE",
		"latitude": "46-38-29.59 N",
		"longitude": "95-39-30.42 W",
		"state": "MINNESOTA",
		"artcc": "ZMP",
		"type": "RNAV",
		"updated": "07/10/2013"
	},
	{
		"name": "ETCIR",
		"latitude": "46-47-54.71 N",
		"longitude": "96-32-39.01 W",
		"state": "MINNESOTA",
		"artcc": "ZMP",
		"type": "RNAV",
		"updated": "09/10/2012"
	},
	{
		"name": "ETEXY",
		"latitude": "44-35-41.41 N",
		"longitude": "92-37-53.47 W",
		"state": "MINNESOTA",
		"artcc": "ZMP",
		"type": "RNAV",
		"updated": "10/24/2011"
	},
	{
		"name": "ETGIQ",
		"latitude": "43-14-0.38 N",
		"longitude": "94-35-12.53 W",
		"state": "IOWA",
		"artcc": "ZMP",
		"type": "RNAV",
		"updated": "05/10/2007"
	},
	{
		"name": "ETNOE",
		"latitude": "42-58-44.51 N",
		"longitude": "96-9-19.14 W",
		"state": "IOWA",
		"artcc": "ZMP",
		"type": "RNAV",
		"updated": "02/19/2013"
	},
	{
		"name": "ETVEW",
		"latitude": "39-46-31.23 N",
		"longitude": "97-28-59.87 W",
		"state": "KANSAS",
		"artcc": "ZMP",
		"type": "RNAV",
		"updated": "01/23/2012"
	},
	{
		"name": "EVADE",
		"latitude": "47-4-13.63 N",
		"longitude": "98-53-9.96 W",
		"state": "NORTH DAKOTA",
		"artcc": "ZMP",
		"type": "RP",
		"updated": "09/20/2017"
	},
	{
		"name": "EVDEQ",
		"latitude": "45-55-22.62 N",
		"longitude": "95-36-35.91 W",
		"state": "MINNESOTA",
		"artcc": "ZMP",
		"type": "RNAV",
		"updated": "03/22/2010"
	},
	{
		"name": "EVESE",
		"latitude": "46-44-59.63 N",
		"longitude": "92-3-49.53 W",
		"state": "MINNESOTA",
		"artcc": "ZMP",
		"type": "RNAV",
		"updated": "05/18/2017"
	},
	{
		"name": "EVHAP",
		"latitude": "41-5-53.31 N",
		"longitude": "95-35-17.68 W",
		"state": "IOWA",
		"artcc": "ZMP",
		"type": "RNAV",
		"updated": "02/05/2018"
	},
	{
		"name": "EVICT",
		"latitude": "46-10-24.12 N",
		"longitude": "102-52-41.56 W",
		"state": "NORTH DAKOTA",
		"artcc": "ZMP",
		"type": "RNAV",
		"updated": "03/29/2016"
	},
	{
		"name": "EVIFI",
		"latitude": "42-50-53.35 N",
		"longitude": "94-52-57.66 W",
		"state": "IOWA",
		"artcc": "ZMP",
		"type": "RNAV",
		"updated": "06/30/2011"
	},
	{
		"name": "EVUKY",
		"latitude": "46-3-37.34 N",
		"longitude": "97-39-1.29 W",
		"state": "NORTH DAKOTA",
		"artcc": "ZMP",
		"type": "RP",
		"updated": "ABR*VOR/DME*030.78/48.99"
	},
	{
		"name": "EVXAG",
		"latitude": "44-36-36.8 N",
		"longitude": "90-13-28.79 W",
		"state": "WISCONSIN",
		"artcc": "ZMP",
		"type": "RNAV",
		"updated": "06/21/2013"
	},
	{
		"name": "EVYIP",
		"latitude": "46-4-15.72 N",
		"longitude": "87-27-33.35 W",
		"state": "MICHIGAN",
		"artcc": "ZMP",
		"type": "RP",
		"updated": "SAW*VOR/DME*192.50/17.47"
	},
	{
		"name": "EWAFY",
		"latitude": "39-51-32.4 N",
		"longitude": "98-47-35.27 W",
		"state": "KANSAS",
		"artcc": "ZMP",
		"type": "RNAV",
		"updated": "07/27/2017"
	},
	{
		"name": "EWHIF",
		"latitude": "43-5-7.65 N",
		"longitude": "93-56-34.08 W",
		"state": "IOWA",
		"artcc": "ZMP",
		"type": "RNAV",
		"updated": "03/30/2011"
	},
	{
		"name": "EWIRU",
		"latitude": "48-40-2.2 N",
		"longitude": "101-47-15 W",
		"state": "NORTH DAKOTA",
		"artcc": "ZMP",
		"type": "RNAV",
		"updated": "12/26/2001"
	},
	{
		"name": "EWRAF",
		"latitude": "48-40-2.2 N",
		"longitude": "102-18-25.87 W",
		"state": "NORTH DAKOTA",
		"artcc": "ZMP",
		"type": "RNAV",
		"updated": "12/26/2001"
	},
	{
		"name": "EWXUR",
		"latitude": "48-21-16.06 N",
		"longitude": "102-39-11.1 W",
		"state": "NORTH DAKOTA",
		"artcc": "ZMP",
		"type": "RNAV",
		"updated": "11/06/2001"
	},
	{
		"name": "EXHOS",
		"latitude": "46-41-5.83 N",
		"longitude": "102-42-31.43 W",
		"state": "NORTH DAKOTA",
		"artcc": "ZMP",
		"type": "RNAV",
		"updated": "05/05/2015"
	},
	{
		"name": "EXIHO",
		"latitude": "48-14-47.43 N",
		"longitude": "102-9-34.79 W",
		"state": "NORTH DAKOTA",
		"artcc": "ZMP",
		"type": "RNAV",
		"updated": "11/06/2001"
	},
	{
		"name": "EXJUP",
		"latitude": "45-22-29.13 N",
		"longitude": "95-46-13.62 W",
		"state": "MINNESOTA",
		"artcc": "ZMP",
		"type": "RNAV",
		"updated": "04/29/2013"
	},
	{
		"name": "EXLIJ",
		"latitude": "44-46-50.34 N",
		"longitude": "89-58-20.5 W",
		"state": "WISCONSIN",
		"artcc": "ZMP",
		"type": "RNAV",
		"updated": "06/21/2013"
	},
	{
		"name": "EXOLE",
		"latitude": "45-12-8.69 N",
		"longitude": "89-7-39.73 W",
		"state": "WISCONSIN",
		"artcc": "ZMP",
		"type": "RNAV",
		"updated": "06/12/2013"
	},
	{
		"name": "EXPOW",
		"latitude": "41-41-47.06 N",
		"longitude": "94-0-59.68 W",
		"state": "IOWA",
		"artcc": "ZMP",
		"type": "RNAV",
		"updated": "12/30/2011"
	},
	{
		"name": "EYAGE",
		"latitude": "40-31-11.74 N",
		"longitude": "98-43-36.16 W",
		"state": "NEBRASKA",
		"artcc": "ZMP",
		"type": "RNAV",
		"updated": "10/04/2011"
	},
	{
		"name": "EYAKE",
		"latitude": "44-31-9.93 N",
		"longitude": "89-45-29.8 W",
		"state": "WISCONSIN",
		"artcc": "ZMP",
		"type": "WP",
		"updated": "11/02/1998"
	},
	{
		"name": "EYATE",
		"latitude": "44-2-17.74 N",
		"longitude": "92-15-57.25 W",
		"state": "MINNESOTA",
		"artcc": "ZMP",
		"type": "RP",
		"updated": "ODI*VORTAC*281.59/35.40"
	},
	{
		"name": "EYEZU",
		"latitude": "46-52-47.46 N",
		"longitude": "102-52-11.57 W",
		"state": "NORTH DAKOTA",
		"artcc": "ZMP",
		"type": "RNAV",
		"updated": "05/17/2005"
	},
	{
		"name": "EYHUX",
		"latitude": "42-26-8.02 N",
		"longitude": "95-1-9.77 W",
		"state": "IOWA",
		"artcc": "ZMP",
		"type": "RP",
		"updated": "OVR*VORTAC*014.70/82.60"
	},
	{
		"name": "EYITI",
		"latitude": "44-20-33.64 N",
		"longitude": "88-44-40.71 W",
		"state": "WISCONSIN",
		"artcc": "ZMP",
		"type": "RP",
		"updated": "OSH*VORTAC*336.98/22.65"
	},
	{
		"name": "EYMOV",
		"latitude": "47-35-5.61 N",
		"longitude": "101-21-2.16 W",
		"state": "NORTH DAKOTA",
		"artcc": "ZMP",
		"type": "RNAV",
		"updated": "06/27/2017"
	},
	{
		"name": "EYNEW",
		"latitude": "41-22-54.28 N",
		"longitude": "96-14-33.54 W",
		"state": "NEBRASKA",
		"artcc": "ZMP",
		"type": "RNAV",
		"updated": "01/22/2007"
	},
	{
		"name": "EYNOR",
		"latitude": "41-12-53.84 N",
		"longitude": "95-23-21.11 W",
		"state": "IOWA",
		"artcc": "ZMP",
		"type": "RP",
		"updated": "OVR*VORTAC*071.57/16.01"
	},
	{
		"name": "EYOJE",
		"latitude": "48-8-6.44 N",
		"longitude": "96-36-48.2 W",
		"state": "MINNESOTA",
		"artcc": "ZMP",
		"type": "RNAV",
		"updated": "12/20/2005"
	},
	{
		"name": "EYOSE",
		"latitude": "45-25-10.87 N",
		"longitude": "84-50-12.27 W",
		"state": "MICHIGAN",
		"artcc": "ZMP",
		"type": "RNAV",
		"updated": "01/18/2008"
	},
	{
		"name": "EYOTI",
		"latitude": "44-2-43.02 N",
		"longitude": "93-32-2.34 W",
		"state": "MINNESOTA",
		"artcc": "ZMP",
		"type": "RNAV",
		"updated": "07/10/2013"
	},
	{
		"name": "EYROV",
		"latitude": "42-30-40.45 N",
		"longitude": "94-18-39.91 W",
		"state": "IOWA",
		"artcc": "ZMP",
		"type": "RNAV",
		"updated": "10/14/2009"
	},
	{
		"name": "EYUPO",
		"latitude": "46-31-6.44 N",
		"longitude": "93-54-11.14 W",
		"state": "MINNESOTA",
		"artcc": "ZMP",
		"type": "RNAV",
		"updated": "04/27/2007"
	},
	{
		"name": "EYWUS",
		"latitude": "48-8-3.2 N",
		"longitude": "96-53-41.9 W",
		"state": "MINNESOTA",
		"artcc": "ZMP",
		"type": "RP",
		"updated": "TVF*VOR/DME*270.05/28.76"
	}
]
