	{
		"name": "FABAU",
		"latitude": "44-27-7.51 N",
		"longitude": "93-32-28.21 W",
		"state": "MINNESOTA",
		"artcc": "ZMP",
		"type": "RNAV",
		"updated": "02/28/2013",
	},
	{
		"name": "FABIN",
		"latitude": "41-41-48.87 N",
		"longitude": "93-41-26.68 W",
		"state": "IOWA",
		"artcc": "ZMP",
		"type": "RNAV",
		"updated": "03/29/2011",
	},
	{
		"name": "FABIT",
		"latitude": "43-11-55.1 N",
		"longitude": "93-19-39.93 W",
		"state": "IOWA",
		"artcc": "ZMP",
		"type": "RP",
		"updated": "MCW*VOR/DME*/6.23",
	},
	{
		"name": "FABRO",
		"latitude": "41-7-7.51 N",
		"longitude": "96-45-36.08 W",
		"state": "NEBRASKA",
		"artcc": "ZMP",
		"type": "MR",
		"updated": "LNK*VORTAC*347.00/11.72",
	},
	{
		"name": "FABUK",
		"latitude": "43-37-10.25 N",
		"longitude": "96-59-35.78 W",
		"state": "SOUTH DAKOTA",
		"artcc": "ZMP",
		"type": "RNAV",
		"updated": "06/04/2003",
	},
	{
		"name": "FAHHO",
		"latitude": "40-40-54.32 N",
		"longitude": "95-3-1.71 W",
		"state": "IOWA",
		"artcc": "ZMP",
		"type": "RNAV",
		"updated": "12/19/2009",
	},
	{
		"name": "FAHTU",
		"latitude": "46-41-12.27 N",
		"longitude": "98-37-38.03 W",
		"state": "NORTH DAKOTA",
		"artcc": "ZMP",
		"type": "RP",
		"updated": "JMS*VOR/DME*167.80/14.93",
	},
	{
		"name": "FAINS",
		"latitude": "43-41-33.83 N",
		"longitude": "99-14-23.09 W",
		"state": "SOUTH DAKOTA",
		"artcc": "ZMP",
		"type": "RNAV",
		"updated": "04/17/2018",
	},
	{
		"name": "FAKTI",
		"latitude": "39-45-33.14 N",
		"longitude": "97-39-17.8 W",
		"state": "KANSAS",
		"artcc": "ZMP",
		"type": "RNAV",
		"updated": "01/23/2012",
	},
	{
		"name": "FALAR",
		"latitude": "43-34-26.04 N",
		"longitude": "91-30-18.32 W",
		"state": "MINNESOTA",
		"artcc": "ZMP",
		"type": "RP",
		"updated": "RST*VOR/DME*099.40/49.17",
	},
	{
		"name": "FALEN",
		"latitude": "44-38-44.06 N",
		"longitude": "91-6-49.55 W",
		"state": "WISCONSIN",
		"artcc": "ZMP",
		"type": "RP",
		"updated": "EAU*VORTAC*130.00/22.00",
	},
	{
		"name": "FALET",
		"latitude": "45-2-50.46 N",
		"longitude": "89-53-0.44 W",
		"state": "WISCONSIN",
		"artcc": "ZMP",
		"type": "RNAV",
		"updated": "08/30/2012",
	},
	{
		"name": "FALPA",
		"latitude": "48-39-18.16 N",
		"longitude": "96-1-59.16 W",
		"state": "MINNESOTA",
		"artcc": "ZMP",
		"type": "RP",
		"updated": "ROX*VOR/DME*223.36/18.00",
	},
	{
		"name": "FALSO",
		"latitude": "44-25-33.89 N",
		"longitude": "91-26-4.89 W",
		"state": "WISCONSIN",
		"artcc": "ZMP",
		"type": "RNAV",
		"updated": "03/11/2015",
	},
	{
		"name": "FALUK",
		"latitude": "41-16-2.17 N",
		"longitude": "95-55-41.15 W",
		"state": "NEBRASKA",
		"artcc": "ZMP",
		"type": "RNAV",
		"updated": "05/06/2009",
	},
	{
		"name": "FAMDA",
		"latitude": "47-37-26.19 N",
		"longitude": "97-24-2.91 W",
		"state": "NORTH DAKOTA",
		"artcc": "ZMP",
		"type": "MR",
		"updated": "RDR*TACAN*/20.00",
	},
	{
		"name": "FAMDU",
		"latitude": "46-46-42.96 N",
		"longitude": "98-27-25.89 W",
		"state": "NORTH DAKOTA",
		"artcc": "ZMP",
		"type": "RNAV",
		"updated": "09/20/2017",
	},
	{
		"name": "FAMED",
		"latitude": "43-45-27.22 N",
		"longitude": "84-1-54.66 W",
		"state": "MICHIGAN",
		"artcc": "ZMP",
		"type": "RNAV",
		"updated": "04/06/2009",
	},
	{
		"name": "FAMIK",
		"latitude": "43-34-18.39 N",
		"longitude": "96-41-25.68 W",
		"state": "SOUTH DAKOTA",
		"artcc": "ZMP",
		"type": "RNAV",
		"updated": "07/29/2003",
	},
	{
		"name": "FAMIR",
		"latitude": "46-48-50.78 N",
		"longitude": "102-40-2.19 W",
		"state": "NORTH DAKOTA",
		"artcc": "ZMP",
		"type": "RNAV",
		"updated": "07/02/2013",
	},
	{
		"name": "FAMIS",
		"latitude": "44-26-26.36 N",
		"longitude": "88-14-21.63 W",
		"state": "WISCONSIN",
		"artcc": "ZMP",
		"type": "RP",
		"updated": "GRB*VORTAC*194.52",
	},
	{
		"name": "FAMMS",
		"latitude": "46-24-50.69 N",
		"longitude": "96-43-0.47 W",
		"state": "NORTH DAKOTA",
		"artcc": "ZMP",
		"type": "RNAV",
		"updated": "10/31/2005",
	},
	{
		"name": "FANEB",
		"latitude": "40-29-35.8 N",
		"longitude": "95-21-59.36 W",
		"state": "MISSOURI",
		"artcc": "ZMP",
		"type": "RNAV",
		"updated": "07/03/2008",
	},
	{
		"name": "FANOB",
		"latitude": "48-37-18.21 N",
		"longitude": "99-17-21.07 W",
		"state": "NORTH DAKOTA",
		"artcc": "ZMP",
		"type": "RNAV",
		"updated": "06/29/2015",
	},
	{
		"name": "FANUM",
		"latitude": "46-7-42.23 N",
		"longitude": "90-24-42.13 W",
		"state": "WISCONSIN",
		"artcc": "ZMP",
		"type": "RNAV",
		"updated": "03/22/2006",
	},
	{
		"name": "FAPAK",
		"latitude": "48-43-55.09 N",
		"longitude": "95-14-12.41 W",
		"state": "MINNESOTA",
		"artcc": "ZMP",
		"type": "RNAV",
		"updated": "02/11/2008",
	},
	{
		"name": "FAPJU",
		"latitude": "41-24-59.42 N",
		"longitude": "96-29-25.41 W",
		"state": "NEBRASKA",
		"artcc": "ZMP",
		"type": "RNAV",
		"updated": "05/08/2008",
	},
	{
		"name": "FAPON",
		"latitude": "41-15-50.98 N",
		"longitude": "95-51-32.16 W",
		"state": "IOWA",
		"artcc": "ZMP",
		"type": "RP",
		"updated": "ENF*LD*142.40/3.85",
	},
	{
		"name": "FAPOS",
		"latitude": "46-13-10.58 N",
		"longitude": "96-3-19.67 W",
		"state": "MINNESOTA",
		"artcc": "ZMP",
		"type": "RNAV",
		"updated": "06/28/2009",
	},
	{
		"name": "FAPVU",
		"latitude": "47-41-56.66 N",
		"longitude": "96-24-47.18 W",
		"state": "MINNESOTA",
		"artcc": "ZMP",
		"type": "RNAV",
		"updated": "08/08/2007",
	},
	{
		"name": "FARBA",
		"latitude": "47-43-30.82 N",
		"longitude": "97-27-51.41 W",
		"state": "NORTH DAKOTA",
		"artcc": "ZMP",
		"type": "RNAV",
		"updated": "08/24/2004",
	},
	{
		"name": "FARBO",
		"latitude": "44-22-28.13 N",
		"longitude": "93-12-26.22 W",
		"state": "MINNESOTA",
		"artcc": "ZMP",
		"type": "RNAV",
		"updated": "01/12/2015",
	},
	{
		"name": "FARDU",
		"latitude": "42-46-11.87 N",
		"longitude": "99-38-38.57 W",
		"state": "NEBRASKA",
		"artcc": "ZMP",
		"type": "RNAV",
		"updated": "02/10/2010",
	},
	{
		"name": "FAREG",
		"latitude": "48-24-0.16 N",
		"longitude": "101-19-28.4 W",
		"state": "NORTH DAKOTA",
		"artcc": "ZMP",
		"type": "RP",
		"updated": "MIB*TACAN*/1.90",
	},
	{
		"name": "FARIM",
		"latitude": "45-46-55.18 N",
		"longitude": "90-26-13.32 W",
		"state": "WISCONSIN",
		"artcc": "ZMP",
		"type": "RNAV",
		"updated": "03/11/2003",
	},
	{
		"name": "FARIP",
		"latitude": "44-32-23.72 N",
		"longitude": "92-33-23.14 W",
		"state": "MINNESOTA",
		"artcc": "ZMP",
		"type": "RNAV",
		"updated": "05/22/2008",
	},
	{
		"name": "FARKS",
		"latitude": "47-24-26.35 N",
		"longitude": "97-2-18.99 W",
		"state": "NORTH DAKOTA",
		"artcc": "ZMP",
		"type": "RP",
		"updated": "FAR*VOR/DME*340.00/40.00",
	},
	{
		"name": "FAROD",
		"latitude": "41-34-39.56 N",
		"longitude": "96-37-13.53 W",
		"state": "NEBRASKA",
		"artcc": "ZMP",
		"type": "RP",
		"updated": "SCB*VOR/DME*161.00/1.70",
	},
	{
		"name": "FARRM",
		"latitude": "47-29-14.17 N",
		"longitude": "99-1-34.5 W",
		"state": "NORTH DAKOTA",
		"artcc": "ZMP",
		"type": "RP",
		"updated": "DVL*VOR/DME*180.00/37.98",
	},
	{
		"name": "FARSA",
		"latitude": "46-51-35.83 N",
		"longitude": "98-46-46.52 W",
		"state": "NORTH DAKOTA",
		"artcc": "ZMP",
		"type": "RNAV",
		"updated": "07/20/2007",
	},
	{
		"name": "FARUB",
		"latitude": "44-5-46.6 N",
		"longitude": "86-7-4.39 W",
		"state": "MICHIGAN",
		"artcc": "ZMP",
		"type": "RP",
		"updated": "MBL*VOR/DME*155.62/12.00",
	},
	{
		"name": "FARUN",
		"latitude": "43-28-11.32 N",
		"longitude": "92-53-46.79 W",
		"state": "IOWA",
		"artcc": "ZMP",
		"type": "RP",
		"updated": "MCW*VOR/DME*034.03",
	},
	{
		"name": "FARVA",
		"latitude": "44-15-35.51 N",
		"longitude": "98-0-22.8 W",
		"state": "SOUTH DAKOTA",
		"artcc": "ZMP",
		"type": "RP",
		"updated": "HON*LD*SE CRS/11.50",
	},
	{
		"name": "FASAP",
		"latitude": "44-36-33.2 N",
		"longitude": "93-25-17.52 W",
		"state": "MINNESOTA",
		"artcc": "ZMP",
		"type": "RP",
		"updated": "FCM*VOR/DME*175.00/13.00",
	},
	{
		"name": "FASDO",
		"latitude": "44-28-39.08 N",
		"longitude": "92-10-31.28 W",
		"state": "MINNESOTA",
		"artcc": "ZMP",
		"type": "RP",
		"updated": "GEP*VORTAC*121.66/65.00",
	},
	{
		"name": "FASEX",
		"latitude": "44-52-21.57 N",
		"longitude": "89-41-53.39 W",
		"state": "WISCONSIN",
		"artcc": "ZMP",
		"type": "RNAV",
		"updated": "03/22/2011",
	},
	{
		"name": "FASGO",
		"latitude": "43-56-27.07 N",
		"longitude": "90-40-23.91 W",
		"state": "WISCONSIN",
		"artcc": "ZMP",
		"type": "RNAV",
		"updated": "06/24/2011",
	},
	{
		"name": "FASIP",
		"latitude": "44-31-53.99 N",
		"longitude": "100-27-44.16 W",
		"state": "SOUTH DAKOTA",
		"artcc": "ZMP",
		"type": "RNAV",
		"updated": "06/28/2007",
	},
	{
		"name": "FASMA",
		"latitude": "44-2-29.05 N",
		"longitude": "94-36-38.62 W",
		"state": "MINNESOTA",
		"artcc": "ZMP",
		"type": "RNAV",
		"updated": "05/22/2009",
	},
	{
		"name": "FASUX",
		"latitude": "45-31-29.1 N",
		"longitude": "89-46-0.09 W",
		"state": "WISCONSIN",
		"artcc": "ZMP",
		"type": "RP",
		"updated": "RHI*VOR/DME*241.43/14.57",
	},
	{
		"name": "FATAR",
		"latitude": "44-48-57.74 N",
		"longitude": "93-22-0.76 W",
		"state": "MINNESOTA",
		"artcc": "ZMP",
		"type": "RNAV",
		"updated": "11/04/2013",
	},
	{
		"name": "FATES",
		"latitude": "45-1-31.06 N",
		"longitude": "93-1-20.34 W",
		"state": "MINNESOTA",
		"artcc": "ZMP",
		"type": "RNAV",
		"updated": "08/29/2005",
	},
	{
		"name": "FATEV",
		"latitude": "44-16-18.44 N",
		"longitude": "86-11-52.42 W",
		"state": "MICHIGAN",
		"artcc": "ZMP",
		"type": "RP",
		"updated": "MBL*VOR/DME*/2.42",
	},
	{
		"name": "FATIK",
		"latitude": "48-24-55.75 N",
		"longitude": "94-43-15.63 W",
		"state": "MINNESOTA",
		"artcc": "ZMP",
		"type": "RP",
		"updated": "BDE*VOR/DME*189.84/19.00",
	},
	{
		"name": "FATIT",
		"latitude": "44-5-12.67 N",
		"longitude": "93-42-0.71 W",
		"state": "MINNESOTA",
		"artcc": "ZMP",
		"type": "RNAV",
		"updated": "08/19/2009",
	},
	{
		"name": "FATPA",
		"latitude": "46-20-2.95 N",
		"longitude": "84-32-34.75 W",
		"state": "MICHIGAN",
		"artcc": "ZMP",
		"type": "RNAV",
		"updated": "09/14/2009",
	},
	{
		"name": "FATRE",
		"latitude": "48-47-45.34 N",
		"longitude": "103-5-51.2 W",
		"state": "NORTH DAKOTA",
		"artcc": "ZMP",
		"type": "RNAV",
		"updated": "04/22/2010",
	},
	{
		"name": "FATSA",
		"latitude": "40-46-29.43 N",
		"longitude": "97-40-53.48 W",
		"state": "NEBRASKA",
		"artcc": "ZMP",
		"type": "RNAV",
		"updated": "06/16/2009",
	},
	{
		"name": "FAVBU",
		"latitude": "44-10-18.45 N",
		"longitude": "88-33-14.37 W",
		"state": "WISCONSIN",
		"artcc": "ZMP",
		"type": "RNAV",
		"updated": "12/07/2010",
	},
	{
		"name": "FAVDO",
		"latitude": "41-22-17.24 N",
		"longitude": "97-17-0.73 W",
		"state": "NEBRASKA",
		"artcc": "ZMP",
		"type": "RNAV",
		"updated": "07/11/2005",
	},
	{
		"name": "FAVID",
		"latitude": "43-39-13.68 N",
		"longitude": "94-11-55.45 W",
		"state": "MINNESOTA",
		"artcc": "ZMP",
		"type": "RNAV",
		"updated": "02/14/2008",
	},
	{
		"name": "FAVKI",
		"latitude": "45-9-55.76 N",
		"longitude": "88-58-45.92 W",
		"state": "WISCONSIN",
		"artcc": "ZMP",
		"type": "RNAV",
		"updated": "06/12/2013",
	},
	{
		"name": "FAVOD",
		"latitude": "46-26-40.23 N",
		"longitude": "90-25-6.28 W",
		"state": "WISCONSIN",
		"artcc": "ZMP",
		"type": "RNAV",
		"updated": "03/30/2009",
	},
	{
		"name": "FAVRE",
		"latitude": "44-34-40.02 N",
		"longitude": "88-8-1.68 W",
		"state": "WISCONSIN",
		"artcc": "ZMP",
		"type": "RNAV",
		"updated": "11/28/2006",
	},
	{
		"name": "FAXAK",
		"latitude": "42-16-41.25 N",
		"longitude": "96-42-5.76 W",
		"state": "NEBRASKA",
		"artcc": "ZMP",
		"type": "RNAV",
		"updated": "09/12/2011",
	},
	{
		"name": "FAXET",
		"latitude": "47-5-16.88 N",
		"longitude": "88-45-32.94 W",
		"state": "MICHIGAN",
		"artcc": "ZMP",
		"type": "RNAV",
		"updated": "07/01/2013",
	},
	{
		"name": "FAXIR",
		"latitude": "41-29-58.99 N",
		"longitude": "94-23-56.57 W",
		"state": "IOWA",
		"artcc": "ZMP",
		"type": "RNAV",
		"updated": "05/24/2011",
	},
	{
		"name": "FAXUD",
		"latitude": "41-51-20.25 N",
		"longitude": "94-26-1.65 W",
		"state": "IOWA",
		"artcc": "ZMP",
		"type": "RNAV",
		"updated": "06/26/2013",
	},
	{
		"name": "FAXUV",
		"latitude": "45-53-23.67 N",
		"longitude": "89-28-5.43 W",
		"state": "WISCONSIN",
		"artcc": "ZMP",
		"type": "RNAV",
		"updated": "10/27/2009",
	},
	{
		"name": "FAYNE",
		"latitude": "43-11-37.92 N",
		"longitude": "91-29-49.69 W",
		"state": "IOWA",
		"artcc": "ZMP",
		"type": "RNAV",
		"updated": "05/30/2008",
	},
	{
		"name": "FAYYE",
		"latitude": "44-22-31.94 N",
		"longitude": "89-39-56.79 W",
		"state": "WISCONSIN",
		"artcc": "ZMP",
		"type": "RNAV",
		"updated": "01/21/2009",
	},
	{
		"name": "FAZED",
		"latitude": "39-55-26.68 N",
		"longitude": "97-40-5.9 W",
		"state": "KANSAS",
		"artcc": "ZMP",
		"type": "RP",
		"updated": "TKO*VORTAC*065.34/28.23",
	},
	{
		"name": "FEBID",
		"latitude": "43-36-1.68 N",
		"longitude": "93-26-26.98 W",
		"state": "MINNESOTA",
		"artcc": "ZMP",
		"type": "RNAV",
		"updated": "02/07/2008",
	},
	{
		"name": "FEBIS",
		"latitude": "47-8-54.23 N",
		"longitude": "98-35-7.57 W",
		"state": "NORTH DAKOTA",
		"artcc": "ZMP",
		"type": "RNAV",
		"updated": "09/21/2017",
	},
	{
		"name": "FEBKY",
		"latitude": "40-52-50.19 N",
		"longitude": "93-41-54.61 W",
		"state": "IOWA",
		"artcc": "ZMP",
		"type": "RNAV",
		"updated": "02/22/2012",
	},
	{
		"name": "FEBNO",
		"latitude": "40-0-43.57 N",
		"longitude": "97-39-13.27 W",
		"state": "NEBRASKA",
		"artcc": "ZMP",
		"type": "RNAV",
		"updated": "09/09/2011",
	},
	{
		"name": "FEDES",
		"latitude": "41-17-43.03 N",
		"longitude": "95-45-23.3 W",
		"state": "IOWA",
		"artcc": "ZMP",
		"type": "RNAV",
		"updated": "09/10/2014",
	},
	{
		"name": "FEDMU",
		"latitude": "45-28-46.62 N",
		"longitude": "92-39-6.97 W",
		"state": "WISCONSIN",
		"artcc": "ZMP",
		"type": "RP",
		"updated": "GEP*VORTAC*050.47/36.53",
	},
	{
		"name": "FEDPO",
		"latitude": "48-58-22.69 N",
		"longitude": "95-57-39.35 W",
		"state": "MINNESOTA",
		"artcc": "ZMP",
		"type": "RNAV",
		"updated": "09/12/2012",
	},
	{
		"name": "FEDVO",
		"latitude": "42-59-0.98 N",
		"longitude": "95-24-21.6 W",
		"state": "IOWA",
		"artcc": "ZMP",
		"type": "RP",
		"updated": "SUX*VORTAC*037.35/55.85",
	},
	{
		"name": "FEEDR",
		"latitude": "41-25-16.62 N",
		"longitude": "95-54-24.19 W",
		"state": "IOWA",
		"artcc": "ZMP",
		"type": "RNAV",
		"updated": "08/14/2012",
	},
	{
		"name": "FEEGS",
		"latitude": "43-44-3.81 N",
		"longitude": "91-47-33.72 W",
		"state": "MINNESOTA",
		"artcc": "ZMP",
		"type": "RNAV",
		"updated": "02/09/2018",
	},
	{
		"name": "FEGED",
		"latitude": "44-57-37.65 N",
		"longitude": "85-35-12.52 W",
		"state": "MICHIGAN",
		"artcc": "ZMP",
		"type": "RNAV",
		"updated": "12/17/2013",
	},
	{
		"name": "FEGNU",
		"latitude": "42-35-2.31 N",
		"longitude": "93-36-53.2 W",
		"state": "IOWA",
		"artcc": "ZMP",
		"type": "RNAV",
		"updated": "12/24/2009",
	},
	{
		"name": "FEGOD",
		"latitude": "47-14-7.62 N",
		"longitude": "88-36-3.81 W",
		"state": "MICHIGAN",
		"artcc": "ZMP",
		"type": "RNAV",
		"updated": "07/01/2013",
	},
	{
		"name": "FEGOG",
		"latitude": "46-7-5.88 N",
		"longitude": "89-37-5.02 W",
		"state": "WISCONSIN",
		"artcc": "ZMP",
		"type": "RNAV",
		"updated": "10/27/2009",
	},
	{
		"name": "FEHEV",
		"latitude": "41-11-20.17 N",
		"longitude": "95-41-7.09 W",
		"state": "IOWA",
		"artcc": "ZMP",
		"type": "RNAV",
		"updated": "02/05/2018",
	},
	{
		"name": "FEKHO",
		"latitude": "42-2-44.25 N",
		"longitude": "93-35-58.53 W",
		"state": "IOWA",
		"artcc": "ZMP",
		"type": "RNAV",
		"updated": "04/04/2010",
	},
	{
		"name": "FEKIR",
		"latitude": "43-43-25.95 N",
		"longitude": "94-52-52.12 W",
		"state": "MINNESOTA",
		"artcc": "ZMP",
		"type": "RNAV",
		"updated": "07/10/2003",
	},
	{
		"name": "FEKKY",
		"latitude": "46-43-21.76 N",
		"longitude": "96-16-17.62 W",
		"state": "MINNESOTA",
		"artcc": "ZMP",
		"type": "WP",
		"updated": "12/28/2006",
	},
	{
		"name": "FEKSU",
		"latitude": "44-53-52.49 N",
		"longitude": "96-25-49.42 W",
		"state": "MINNESOTA",
		"artcc": "ZMP",
		"type": "RNAV",
		"updated": "05/03/2007",
	},
	{
		"name": "FELBA",
		"latitude": "40-38-28.45 N",
		"longitude": "95-28-24.33 W",
		"state": "IOWA",
		"artcc": "ZMP",
		"type": "RNAV",
		"updated": "07/03/2008",
	},
	{
		"name": "FELDA",
		"latitude": "41-22-48.68 N",
		"longitude": "95-45-55.16 W",
		"state": "IOWA",
		"artcc": "ZMP",
		"type": "RNAV",
		"updated": "04/05/2016",
	},
	{
		"name": "FELET",
		"latitude": "44-50-22.76 N",
		"longitude": "87-17-39.3 W",
		"state": "WISCONSIN",
		"artcc": "ZMP",
		"type": "RNAV",
		"updated": "09/23/2004",
	},
	{
		"name": "FELGU",
		"latitude": "42-46-35.13 N",
		"longitude": "95-22-37.22 W",
		"state": "IOWA",
		"artcc": "ZMP",
		"type": "RNAV",
		"updated": "08/23/2005",
	},
	{
		"name": "FELNO",
		"latitude": "45-39-14.74 N",
		"longitude": "84-35-46.16 W",
		"state": "MICHIGAN",
		"artcc": "ZMP",
		"type": "RNAV",
		"updated": "04/25/2011",
	},
	{
		"name": "FELPS",
		"latitude": "44-57-38.78 N",
		"longitude": "83-33-39.09 W",
		"state": "MICHIGAN",
		"artcc": "ZMP",
		"type": "MR",
		"updated": "APN*VORTAC*188.28/7.32",
	},
	{
		"name": "FEMAT",
		"latitude": "47-40-31.58 N",
		"longitude": "97-21-43.9 W",
		"state": "NORTH DAKOTA",
		"artcc": "ZMP",
		"type": "MR",
		"updated": "RDR*TACAN*168.00/17.00",
	},
	{
		"name": "FEMAV",
		"latitude": "46-55-3.57 N",
		"longitude": "96-9-26.13 W",
		"state": "MINNESOTA",
		"artcc": "ZMP",
		"type": "RNAV",
		"updated": "06/28/2007",
	},
	{
		"name": "FEMDO",
		"latitude": "42-55-25.74 N",
		"longitude": "96-2-18.33 W",
		"state": "IOWA",
		"artcc": "ZMP",
		"type": "RNAV",
		"updated": "11/02/2015",
	},
	{
		"name": "FEMER",
		"latitude": "45-38-24.53 N",
		"longitude": "91-49-55.17 W",
		"state": "WISCONSIN",
		"artcc": "ZMP",
		"type": "RNAV",
		"updated": "12/28/2007",
	},
	{
		"name": "FEMOK",
		"latitude": "47-27-27.29 N",
		"longitude": "88-44-0.16 W",
		"state": "MICHIGAN",
		"artcc": "ZMP",
		"type": "RP",
		"updated": "CMX*VOR/DME*331.68/20.00",
	},
	{
		"name": "FEMUG",
		"latitude": "46-49-26.92 N",
		"longitude": "92-5-18.14 W",
		"state": "MINNESOTA",
		"artcc": "ZMP",
		"type": "RNAV",
		"updated": "02/07/2008",
	},
	{
		"name": "FENIG",
		"latitude": "41-31-37.63 N",
		"longitude": "96-37-28.45 W",
		"state": "NEBRASKA",
		"artcc": "ZMP",
		"type": "RNAV",
		"updated": "07/11/2013",
	},
	{
		"name": "FENIN",
		"latitude": "44-57-58.31 N",
		"longitude": "97-15-34.12 W",
		"state": "SOUTH DAKOTA",
		"artcc": "ZMP",
		"type": "RNAV",
		"updated": "07/21/2007",
	},
	{
		"name": "FENKI",
		"latitude": "43-33-49.1 N",
		"longitude": "96-24-56.93 W",
		"state": "MINNESOTA",
		"artcc": "ZMP",
		"type": "RNAV",
		"updated": "06/04/2003",
	},
	{
		"name": "FENOK",
		"latitude": "47-32-11.44 N",
		"longitude": "93-5-1.96 W",
		"state": "MINNESOTA",
		"artcc": "ZMP",
		"type": "RNAV",
		"updated": "05/05/2015",
	},
	{
		"name": "FEPAP",
		"latitude": "43-18-2.48 N",
		"longitude": "97-56-15.32 W",
		"state": "SOUTH DAKOTA",
		"artcc": "ZMP",
		"type": "RNAV",
		"updated": "08/30/2013",
	},
	{
		"name": "FEPEX",
		"latitude": "44-39-20.38 N",
		"longitude": "85-55-30.02 W",
		"state": "MICHIGAN",
		"artcc": "ZMP",
		"type": "RP",
		"updated": "TVC*VOR/DME*269.51/16.08",
	},
	{
		"name": "FEPOB",
		"latitude": "40-26-30.59 N",
		"longitude": "98-18-17.66 W",
		"state": "NEBRASKA",
		"artcc": "ZMP",
		"type": "RNAV",
		"updated": "05/17/2005",
	},
	{
		"name": "FERIS",
		"latitude": "43-39-40.1 N",
		"longitude": "85-35-28.72 W",
		"state": "MICHIGAN",
		"artcc": "ZMP",
		"type": "RP",
		"updated": "HIC*VOR/DME*047.39/7.51",
	},
	{
		"name": "FEROM",
		"latitude": "42-26-37.28 N",
		"longitude": "84-16-49.27 W",
		"state": "MICHIGAN",
		"artcc": "ZMP",
		"type": "RNAV",
		"updated": "09/11/2017",
	},
	{
		"name": "FERTI",
		"latitude": "43-12-12.46 N",
		"longitude": "93-33-33.16 W",
		"state": "IOWA",
		"artcc": "ZMP",
		"type": "RP",
		"updated": "MCW*VOR/DME*297.00/12.00",
	},
	{
		"name": "FERUG",
		"latitude": "42-1-30.74 N",
		"longitude": "98-3-52.72 W",
		"state": "NEBRASKA",
		"artcc": "ZMP",
		"type": "RNAV",
		"updated": "09/28/2009",
	},
	{
		"name": "FERVI",
		"latitude": "44-38-18.26 N",
		"longitude": "88-41-54.78 W",
		"state": "WISCONSIN",
		"artcc": "ZMP",
		"type": "RNAV",
		"updated": "12/09/2009",
	},
	{
		"name": "FESIG",
		"latitude": "40-10-14.51 N",
		"longitude": "98-34-36.86 W",
		"state": "NEBRASKA",
		"artcc": "ZMP",
		"type": "RNAV",
		"updated": "06/05/2012",
	},
	{
		"name": "FETGI",
		"latitude": "43-47-38.67 N",
		"longitude": "95-9-46.48 W",
		"state": "MINNESOTA",
		"artcc": "ZMP",
		"type": "RNAV",
		"updated": "06/28/2013",
	},
	{
		"name": "FETNU",
		"latitude": "43-23-25.14 N",
		"longitude": "96-44-25.56 W",
		"state": "SOUTH DAKOTA",
		"artcc": "ZMP",
		"type": "RNAV",
		"updated": "07/12/2013",
	},
	{
		"name": "FETUD",
		"latitude": "45-10-48.24 N",
		"longitude": "95-29-30.39 W",
		"state": "MINNESOTA",
		"artcc": "ZMP",
		"type": "RNAV",
		"updated": "01/21/2009",
	},
	{
		"name": "FEVLA",
		"latitude": "48-10-30.73 N",
		"longitude": "101-34-5.16 W",
		"state": "NORTH DAKOTA",
		"artcc": "ZMP",
		"type": "RNAV",
		"updated": "12/18/2009",
	},
	{
		"name": "FEXAT",
		"latitude": "42-33-45.91 N",
		"longitude": "96-0-48.91 W",
		"state": "IOWA",
		"artcc": "ZMP",
		"type": "RP",
		"updated": "SUX*VORTAC*037.35/19.00",
	},
	{
		"name": "FEXOL",
		"latitude": "44-23-45.67 N",
		"longitude": "91-22-44.21 W",
		"state": "WISCONSIN",
		"artcc": "ZMP",
		"type": "RNAV",
		"updated": "12/15/2008",
	},
	{
		"name": "FEXUP",
		"latitude": "43-52-17.8 N",
		"longitude": "85-46-10.45 W",
		"state": "MICHIGAN",
		"artcc": "ZMP",
		"type": "RNAV",
		"updated": "06/06/2016",
	},
	{
		"name": "FEXUX",
		"latitude": "41-40-55.3 N",
		"longitude": "71-27-41.88 W",
		"state": "RHODE ISLAND",
		"artcc": "ZMP",
		"type": "RP",
		"updated": "PVD*LD*227.16/3.55",
	},
	{
		"name": "FGHRN",
		"latitude": "44-6-8 N",
		"longitude": "87-48-9 W",
		"state": "WISCONSIN",
		"artcc": "ZMP",
		"type": "RNAV",
		"updated": "08/20/2015",
	},
	{
		"name": "FIBDA",
		"latitude": "45-19-26.78 N",
		"longitude": "98-6-9.42 W",
		"state": "SOUTH DAKOTA",
		"artcc": "ZMP",
		"type": "RP",
		"updated": "ABR*VOR/DME*109.34/12.57",
	},
	{
		"name": "FIBDO",
		"latitude": "46-48-21.16 N",
		"longitude": "94-7-37.52 W",
		"state": "MINNESOTA",
		"artcc": "ZMP",
		"type": "RNAV",
		"updated": "01/15/2002",
	},
	{
		"name": "FIBGU",
		"latitude": "41-20-39.27 N",
		"longitude": "94-19-41.84 W",
		"state": "IOWA",
		"artcc": "ZMP",
		"type": "RNAV",
		"updated": "11/16/2010",
	},
	{
		"name": "FIBIK",
		"latitude": "43-23-25.47 N",
		"longitude": "96-8-25.4 W",
		"state": "IOWA",
		"artcc": "ZMP",
		"type": "RP",
		"updated": "FSD*VORTAC*109.84/32.00",
	},
	{
		"name": "FIBIT",
		"latitude": "43-38-19.74 N",
		"longitude": "84-32-43.21 W",
		"state": "MICHIGAN",
		"artcc": "ZMP",
		"type": "RNAV",
		"updated": "04/06/2009",
	},
	{
		"name": "FIDOG",
		"latitude": "45-39-15.35 N",
		"longitude": "84-23-49.89 W",
		"state": "MICHIGAN",
		"artcc": "ZMP",
		"type": "RNAV",
		"updated": "03/28/2012",
	},
	{
		"name": "FIDUP",
		"latitude": "46-30-39.98 N",
		"longitude": "92-30-6.14 W",
		"state": "MINNESOTA",
		"artcc": "ZMP",
		"type": "RNAV",
		"updated": "05/18/2012",
	},
	{
		"name": "FIDVI",
		"latitude": "43-50-16.38 N",
		"longitude": "99-24-7.91 W",
		"state": "SOUTH DAKOTA",
		"artcc": "ZMP",
		"type": "RNAV",
		"updated": "04/17/2018",
	},
	{
		"name": "FIGPO",
		"latitude": "43-42-12.6 N",
		"longitude": "93-4-8.13 W",
		"state": "MINNESOTA",
		"artcc": "ZMP",
		"type": "RNAV",
		"updated": "02/07/2008",
	},
	{
		"name": "FIITZ",
		"latitude": "47-27-57.39 N",
		"longitude": "92-7-2 W",
		"state": "MINNESOTA",
		"artcc": "ZMP",
		"type": "RP",
		"updated": "DLH*VORTAC*360.00/40.00",
	},
	{
		"name": "FIKAG",
		"latitude": "46-55-20.2 N",
		"longitude": "100-43-48.91 W",
		"state": "NORTH DAKOTA",
		"artcc": "ZMP",
		"type": "RP",
		"updated": "BIS*VOR/DME*332.53/10.00",
	},
	{
		"name": "FIKAM",
		"latitude": "45-39-15.02 N",
		"longitude": "84-15-17.07 W",
		"state": "MICHIGAN",
		"artcc": "ZMP",
		"type": "RNAV",
		"updated": "03/01/2011",
	},
	{
		"name": "FIKIG",
		"latitude": "45-3-30.61 N",
		"longitude": "95-1-54.67 W",
		"state": "MINNESOTA",
		"artcc": "ZMP",
		"type": "RNAV",
		"updated": "02/14/2013",
	},
	{
		"name": "FILER",
		"latitude": "41-20-46.95 N",
		"longitude": "95-56-13.23 W",
		"state": "IOWA",
		"artcc": "ZMP",
		"type": "RP",
		"updated": "OMA*LD*322.39/4.13",
	},
	{
		"name": "FILIM",
		"latitude": "48-0-4.4 N",
		"longitude": "102-31-58.41 W",
		"state": "NORTH DAKOTA",
		"artcc": "ZMP",
		"type": "RNAV",
		"updated": "11/01/2017",
	},
	{
		"name": "FILLY",
		"latitude": "44-8-0.47 N",
		"longitude": "93-28-7.79 W",
		"state": "MINNESOTA",
		"artcc": "ZMP",
		"type": "RP",
		"updated": "FOW*VOR/DME*222.96/6.01",
	},
	{
		"name": "FILON",
		"latitude": "46-23-51.18 N",
		"longitude": "97-43-4.06 W",
		"state": "NORTH DAKOTA",
		"artcc": "ZMP",
		"type": "RNAV",
		"updated": "07/10/2014",
	},
	{
		"name": "FILTA",
		"latitude": "44-10-28.42 N",
		"longitude": "100-3-16.08 W",
		"state": "SOUTH DAKOTA",
		"artcc": "ZMP",
		"type": "RP",
		"updated": "PIR*VORTAC*149.46/14.00",
	},
	{
		"name": "FIMAV",
		"latitude": "44-38-45.75 N",
		"longitude": "88-46-29.66 W",
		"state": "WISCONSIN",
		"artcc": "ZMP",
		"type": "RNAV",
		"updated": "12/09/2009",
	},
	{
		"name": "FIMBU",
		"latitude": "46-40-50.67 N",
		"longitude": "91-2-52.62 W",
		"state": "WISCONSIN",
		"artcc": "ZMP",
		"type": "RNAV",
		"updated": "03/24/2008",
	},
	{
		"name": "FIMEK",
		"latitude": "45-8-15.6 N",
		"longitude": "90-19-54.81 W",
		"state": "WISCONSIN",
		"artcc": "ZMP",
		"type": "RNAV",
		"updated": "07/11/2012",
	},
	{
		"name": "FIMIM",
		"latitude": "43-25-5.67 N",
		"longitude": "96-19-28.94 W",
		"state": "IOWA",
		"artcc": "ZMP",
		"type": "RNAV",
		"updated": "05/30/2010",
	},
	{
		"name": "FIMOG",
		"latitude": "45-19-7.29 N",
		"longitude": "90-47-31.61 W",
		"state": "WISCONSIN",
		"artcc": "ZMP",
		"type": "RNAV",
		"updated": "04/26/2011",
	},
	{
		"name": "FIMPU",
		"latitude": "48-25-53.1 N",
		"longitude": "101-23-29.65 W",
		"state": "NORTH DAKOTA",
		"artcc": "ZMP",
		"type": "MR",
		"updated": "MIB*TACAN*303.42/1.40",
	},
	{
		"name": "FIMUK",
		"latitude": "40-56-53.44 N",
		"longitude": "96-45-40.05 W",
		"state": "NEBRASKA",
		"artcc": "ZMP",
		"type": "RNAV",
		"updated": "07/08/2008",
	},
	{
		"name": "FINBA",
		"latitude": "44-23-8.6 N",
		"longitude": "100-17-57.6 W",
		"state": "SOUTH DAKOTA",
		"artcc": "ZMP",
		"type": "RP",
		"updated": "PIR*VORTAC*253.92/5.89",
	},
	{
		"name": "FINEY",
		"latitude": "43-3-13.42 N",
		"longitude": "91-43-48.3 W",
		"state": "IOWA",
		"artcc": "ZMP",
		"type": "RP",
		"updated": "UKN*VOR/DME*207.00/16.00",
	},
	{
		"name": "FINOB",
		"latitude": "43-53-25.59 N",
		"longitude": "86-41-18.86 W",
		"state": "MICHIGAN",
		"artcc": "ZMP",
		"type": "RNAV",
		"updated": "02/27/2008",
	},
	{
		"name": "FINVO",
		"latitude": "40-35-7.02 N",
		"longitude": "98-58-5.66 W",
		"state": "NEBRASKA",
		"artcc": "ZMP",
		"type": "RNAV",
		"updated": "07/07/2009",
	},
	{
		"name": "FIPAV",
		"latitude": "44-22-55.14 N",
		"longitude": "91-21-10.64 W",
		"state": "WISCONSIN",
		"artcc": "ZMP",
		"type": "RNAV",
		"updated": "12/15/2008",
	},
	{
		"name": "FIRAG",
		"latitude": "42-24-49.22 N",
		"longitude": "97-47-33.47 W",
		"state": "NEBRASKA",
		"artcc": "ZMP",
		"type": "RNAV",
		"updated": "04/01/2011",
	},
	{
		"name": "FIRAX",
		"latitude": "45-6-7.84 N",
		"longitude": "90-25-10.49 W",
		"state": "WISCONSIN",
		"artcc": "ZMP",
		"type": "RNAV",
		"updated": "12/22/2008",
	},
	{
		"name": "FIRGU",
		"latitude": "42-17-14.5 N",
		"longitude": "94-58-50.66 W",
		"state": "IOWA",
		"artcc": "ZMP",
		"type": "RNAV",
		"updated": "04/12/2012",
	},
	{
		"name": "FIRIL",
		"latitude": "47-50-47.62 N",
		"longitude": "92-43-28 W",
		"state": "MINNESOTA",
		"artcc": "ZMP",
		"type": "RNAV",
		"updated": "12/21/2011",
	},
	{
		"name": "FIROX",
		"latitude": "43-27-14.92 N",
		"longitude": "98-2-31.2 W",
		"state": "SOUTH DAKOTA",
		"artcc": "ZMP",
		"type": "RNAV",
		"updated": "08/30/2013",
	},
	{
		"name": "FIRSO",
		"latitude": "40-48-55.65 N",
		"longitude": "96-55-24.67 W",
		"state": "NEBRASKA",
		"artcc": "ZMP",
		"type": "RNAV",
		"updated": "05/30/2008",
	},
	{
		"name": "FISET",
		"latitude": "44-9-3.22 N",
		"longitude": "93-19-2.24 W",
		"state": "MINNESOTA",
		"artcc": "ZMP",
		"type": "RNAV",
		"updated": "04/10/2012",
	},
	{
		"name": "FISIN",
		"latitude": "44-13-17.48 N",
		"longitude": "92-26-44.37 W",
		"state": "MINNESOTA",
		"artcc": "ZMP",
		"type": "RP",
		"updated": "GEP*VORTAC*138.07/68.20",
	},
	{
		"name": "FISOB",
		"latitude": "43-4-12.9 N",
		"longitude": "98-24-34.1 W",
		"state": "SOUTH DAKOTA",
		"artcc": "ZMP",
		"type": "RNAV",
		"updated": "09/03/2013",
	},
	{
		"name": "FISOM",
		"latitude": "45-5-32.75 N",
		"longitude": "92-22-4.12 W",
		"state": "WISCONSIN",
		"artcc": "ZMP",
		"type": "RNAV",
		"updated": "12/28/2004",
	},
	{
		"name": "FISPO",
		"latitude": "45-38-26.22 N",
		"longitude": "98-25-39.4 W",
		"state": "SOUTH DAKOTA",
		"artcc": "ZMP",
		"type": "RNAV",
		"updated": "12/23/2016",
	},
	{
		"name": "FISTS",
		"latitude": "48-11-57.03 N",
		"longitude": "96-1-29.84 W",
		"state": "MINNESOTA",
		"artcc": "ZMP",
		"type": "RNAV",
		"updated": "09/25/2014",
	},
	{
		"name": "FISTU",
		"latitude": "44-21-24.32 N",
		"longitude": "84-57-36.34 W",
		"state": "MICHIGAN",
		"artcc": "ZMP",
		"type": "RNAV",
		"updated": "01/08/2013",
	},
	{
		"name": "FITAN",
		"latitude": "46-6-5.03 N",
		"longitude": "92-38-49.96 W",
		"state": "MINNESOTA",
		"artcc": "ZMP",
		"type": "RNAV",
		"updated": "12/31/2007",
	},
	{
		"name": "FITAS",
		"latitude": "45-3-54 N",
		"longitude": "95-10-10.15 W",
		"state": "MINNESOTA",
		"artcc": "ZMP",
		"type": "RP",
		"updated": "RWF*VOR/DME*350.20/35.91",
	},
	{
		"name": "FITMA",
		"latitude": "46-42-20.71 N",
		"longitude": "92-1-46.83 W",
		"state": "WISCONSIN",
		"artcc": "ZMP",
		"type": "RNAV",
		"updated": "05/18/2017",
	},
	{
		"name": "FIXER",
		"latitude": "46-36-6.42 N",
		"longitude": "96-52-17.81 W",
		"state": "NORTH DAKOTA",
		"artcc": "ZMP",
		"type": "RNAV",
		"updated": "06/14/2013",
	},
	{
		"name": "FLANA",
		"latitude": "44-17-7.59 N",
		"longitude": "88-22-45.52 W",
		"state": "WISCONSIN",
		"artcc": "ZMP",
		"type": "RNAV",
		"updated": "08/25/2009",
	},
	{
		"name": "FLAUN",
		"latitude": "39-46-14.65 N",
		"longitude": "98-41-23.9 W",
		"state": "KANSAS",
		"artcc": "ZMP",
		"type": "RP",
		"updated": "TKO*VORTAC*254.00/20.00",
	},
	{
		"name": "FLIPN",
		"latitude": "41-23-6.37 N",
		"longitude": "95-47-45.96 W",
		"state": "IOWA",
		"artcc": "ZMP",
		"type": "RNAV",
		"updated": "08/14/2012",
	},
	{
		"name": "FLOGG",
		"latitude": "47-48-47.93 N",
		"longitude": "92-25-48.06 W",
		"state": "MINNESOTA",
		"artcc": "ZMP",
		"type": "RNAV",
		"updated": "05/07/2009",
	},
	{
		"name": "FLPPR",
		"latitude": "46-50-5.55 N",
		"longitude": "92-25-42.06 W",
		"state": "MINNESOTA",
		"artcc": "ZMP",
		"type": "MR",
		"updated": "LKI*TACAN*267.00/10.00",
	},
	{
		"name": "FLWER",
		"latitude": "47-49-22.1 N",
		"longitude": "92-8-32.63 W",
		"state": "MINNESOTA",
		"artcc": "ZMP",
		"type": "RNAV",
		"updated": "05/07/2009",
	},
	{
		"name": "FNDRY",
		"latitude": "44-19-35.7 N",
		"longitude": "88-52-41.07 W",
		"state": "WISCONSIN",
		"artcc": "ZMP",
		"type": "RNAV",
		"updated": "02/24/2017",
	},
	{
		"name": "FOBDO",
		"latitude": "40-58-43.77 N",
		"longitude": "98-1-0.23 W",
		"state": "NEBRASKA",
		"artcc": "ZMP",
		"type": "RNAV",
		"updated": "07/08/2008",
	},
	{
		"name": "FOBLU",
		"latitude": "39-59-53.15 N",
		"longitude": "97-3-45.62 W",
		"state": "KANSAS",
		"artcc": "ZMP",
		"type": "RNAV",
		"updated": "05/30/2008",
	},
	{
		"name": "FOBUG",
		"latitude": "44-25-19.96 N",
		"longitude": "93-2-10.66 W",
		"state": "MINNESOTA",
		"artcc": "ZMP",
		"type": "RP",
		"updated": "FOW*VOR/DME*045.66/19.44",
	},
	{
		"name": "FODAR",
		"latitude": "45-35-53.61 N",
		"longitude": "84-50-53.98 W",
		"state": "MICHIGAN",
		"artcc": "ZMP",
		"type": "RP",
		"updated": "PLN*VORTAC*261.99/8.00",
	},
	{
		"name": "FODIB",
		"latitude": "48-9-7.02 N",
		"longitude": "97-10-52.06 W",
		"state": "NORTH DAKOTA",
		"artcc": "ZMP",
		"type": "RNAV",
		"updated": "06/08/2006",
	},
	{
		"name": "FODUP",
		"latitude": "44-55-58.63 N",
		"longitude": "97-9-3.53 W",
		"state": "SOUTH DAKOTA",
		"artcc": "ZMP",
		"type": "RP",
		"updated": "ATY*LD*354.24/0.49",
	},
	{
		"name": "FOFEP",
		"latitude": "42-7-2.98 N",
		"longitude": "94-52-45.01 W",
		"state": "IOWA",
		"artcc": "ZMP",
		"type": "RNAV",
		"updated": "09/12/2012",
	},
	{
		"name": "FOFGU",
		"latitude": "43-3-34.1 N",
		"longitude": "98-11-3.41 W",
		"state": "SOUTH DAKOTA",
		"artcc": "ZMP",
		"type": "RNAV",
		"updated": "09/03/2013",
	},
	{
		"name": "FOFZE",
		"latitude": "45-9-35.5 N",
		"longitude": "96-18-37.63 W",
		"state": "MINNESOTA",
		"artcc": "ZMP",
		"type": "RNAV",
		"updated": "01/14/2003",
	},
	{
		"name": "FOGEY",
		"latitude": "41-20-2.03 N",
		"longitude": "96-2-33.28 W",
		"state": "NEBRASKA",
		"artcc": "ZMP",
		"type": "RNAV",
		"updated": "08/09/2012",
	},
	{
		"name": "FOGFI",
		"latitude": "43-26-38.14 N",
		"longitude": "92-11-7.4 W",
		"state": "IOWA",
		"artcc": "ZMP",
		"type": "RNAV",
		"updated": "02/09/2018",
	},
	{
		"name": "FOGIK",
		"latitude": "44-22-19.36 N",
		"longitude": "88-2-8.51 W",
		"state": "WISCONSIN",
		"artcc": "ZMP",
		"type": "RNAV",
		"updated": "02/02/2006",
	},
	{
		"name": "FOLGO",
		"latitude": "44-51-15.84 N",
		"longitude": "87-41-16.27 W",
		"state": "WISCONSIN",
		"artcc": "ZMP",
		"type": "RNAV",
		"updated": "08/20/2015",
	},
	{
		"name": "FOLIC",
		"latitude": "41-16-38.78 N",
		"longitude": "96-34-21.75 W",
		"state": "NEBRASKA",
		"artcc": "ZMP",
		"type": "RNAV",
		"updated": "05/08/2008",
	},
	{
		"name": "FOLIK",
		"latitude": "44-5-41.8 N",
		"longitude": "93-12-7.47 W",
		"state": "MINNESOTA",
		"artcc": "ZMP",
		"type": "RNAV",
		"updated": "11/03/2015",
	},
	{
		"name": "FOLIM",
		"latitude": "47-37-58.13 N",
		"longitude": "93-31-32.06 W",
		"state": "MINNESOTA",
		"artcc": "ZMP",
		"type": "RNAV",
		"updated": "11/07/2011",
	},
	{
		"name": "FOLUK",
		"latitude": "46-15-39.06 N",
		"longitude": "87-24-59.22 W",
		"state": "MICHIGAN",
		"artcc": "ZMP",
		"type": "RNAV",
		"updated": "12/21/2012",
	},
	{
		"name": "FOMLI",
		"latitude": "44-50-35.97 N",
		"longitude": "97-9-5.51 W",
		"state": "SOUTH DAKOTA",
		"artcc": "ZMP",
		"type": "RNAV",
		"updated": "06/19/2009",
	},
	{
		"name": "FOMLO",
		"latitude": "46-20-38.58 N",
		"longitude": "91-1-55.86 W",
		"state": "WISCONSIN",
		"artcc": "ZMP",
		"type": "RNAV",
		"updated": "03/24/2008",
	},
	{
		"name": "FOMRU",
		"latitude": "44-46-4.77 N",
		"longitude": "92-54-14.72 W",
		"state": "MINNESOTA",
		"artcc": "ZMP",
		"type": "RNAV",
		"updated": "11/28/2005",
	},
	{
		"name": "FONAD",
		"latitude": "48-11-3.12 N",
		"longitude": "101-10-52.09 W",
		"state": "NORTH DAKOTA",
		"artcc": "ZMP",
		"type": "RP",
		"updated": "MOT*LD*SE CRS/6.84",
	},
	{
		"name": "FONED",
		"latitude": "44-37-17.87 N",
		"longitude": "89-56-54.97 W",
		"state": "WISCONSIN",
		"artcc": "ZMP",
		"type": "RNAV",
		"updated": "08/13/2013",
	},
	{
		"name": "FONOB",
		"latitude": "48-42-39.32 N",
		"longitude": "94-34-4.26 W",
		"state": "MINNESOTA",
		"artcc": "ZMP",
		"type": "RP",
		"updated": "BDE*VOR/DME*/1.72",
	},
	{
		"name": "FOREM",
		"latitude": "41-28-47.67 N",
		"longitude": "93-34-43.03 W",
		"state": "IOWA",
		"artcc": "ZMP",
		"type": "RP",
		"updated": "DSM*VORTAC*044.19",
	},
	{
		"name": "FOROG",
		"latitude": "45-16-13.9 N",
		"longitude": "89-27-14.7 W",
		"state": "WISCONSIN",
		"artcc": "ZMP",
		"type": "RNAV",
		"updated": "07/19/2007",
	},
	{
		"name": "FOROV",
		"latitude": "43-10-8.72 N",
		"longitude": "94-47-31.03 W",
		"state": "IOWA",
		"artcc": "ZMP",
		"type": "RNAV",
		"updated": "12/28/2009",
	},
	{
		"name": "FOSAT",
		"latitude": "43-54-36.63 N",
		"longitude": "90-42-30.36 W",
		"state": "WISCONSIN",
		"artcc": "ZMP",
		"type": "RNAV",
		"updated": "11/03/2015",
	},
	{
		"name": "FOSUP",
		"latitude": "47-2-41.23 N",
		"longitude": "92-6-55.97 W",
		"state": "MINNESOTA",
		"artcc": "ZMP",
		"type": "RP",
		"updated": "DLH*VORTAC*008.82/15.00",
	},
	{
		"name": "FOTOR",
		"latitude": "44-46-34.09 N",
		"longitude": "91-53-0.85 W",
		"state": "WISCONSIN",
		"artcc": "ZMP",
		"type": "RNAV",
		"updated": "02/12/2008",
	},
	{
		"name": "FOVAM",
		"latitude": "42-40-58.2 N",
		"longitude": "95-15-7.43 W",
		"state": "IOWA",
		"artcc": "ZMP",
		"type": "RNAV",
		"updated": "08/23/2005",
	},
	{
		"name": "FOVOB",
		"latitude": "40-50-8.28 N",
		"longitude": "94-17-51.63 W",
		"state": "IOWA",
		"artcc": "ZMP",
		"type": "RNAV",
		"updated": "11/22/2006",
	},
	{
		"name": "FOVRO",
		"latitude": "46-52-45.8 N",
		"longitude": "92-9-26.5 W",
		"state": "MINNESOTA",
		"artcc": "ZMP",
		"type": "RP",
		"updated": "DLH*VORTAC*017.00/5.00",
	},
	{
		"name": "FOVUN",
		"latitude": "46-28-8.03 N",
		"longitude": "90-57-50.49 W",
		"state": "WISCONSIN",
		"artcc": "ZMP",
		"type": "RP",
		"updated": "ASX*LE*S CRS/5.62",
	},
	{
		"name": "FOVUP",
		"latitude": "44-52-11.17 N",
		"longitude": "85-15-2.92 W",
		"state": "MICHIGAN",
		"artcc": "ZMP",
		"type": "RNAV",
		"updated": "06/01/2006",
	},
	{
		"name": "FOXEV",
		"latitude": "41-51-39.04 N",
		"longitude": "94-11-46.87 W",
		"state": "IOWA",
		"artcc": "ZMP",
		"type": "RNAV",
		"updated": "12/30/2011",
	},
	{
		"name": "FOXEX",
		"latitude": "44-4-21.48 N",
		"longitude": "86-12-53.49 W",
		"state": "MICHIGAN",
		"artcc": "ZMP",
		"type": "RP",
		"updated": "MBL*VOR/DME*176.88/12.00",
	},
	{
		"name": "FOXIE",
		"latitude": "45-5-34.87 N",
		"longitude": "94-30-7.63 W",
		"state": "MINNESOTA",
		"artcc": "ZMP",
		"type": "WP",
		"updated": "DWN*VORTAC*272.25/2.08",
	},
	{
		"name": "FOYDE",
		"latitude": "43-11-3.32 N",
		"longitude": "92-29-57.42 W",
		"state": "IOWA",
		"artcc": "ZMP",
		"type": "RP",
		"updated": "RST*VOR/DME*168.19/36.16",
	},
	{
		"name": "FRAKA",
		"latitude": "48-18-9.73 N",
		"longitude": "101-7-3.19 W",
		"state": "NORTH DAKOTA",
		"artcc": "ZMP",
		"type": "RNAV",
		"updated": "02/15/2018",
	},
	{
		"name": "FREDA",
		"latitude": "47-13-52.83 N",
		"longitude": "88-35-38.63 W",
		"state": "MICHIGAN",
		"artcc": "ZMP",
		"type": "RP",
		"updated": "CMX*LD*NW CRS/4.97",
	},
	{
		"name": "FREED",
		"latitude": "43-43-9.44 N",
		"longitude": "93-29-39.38 W",
		"state": "MINNESOTA",
		"artcc": "ZMP",
		"type": "RP",
		"updated": "RST*VOR/DME*259.73/39.21",
	},
	{
		"name": "FRISK",
		"latitude": "48-12-24.69 N",
		"longitude": "97-24-45.15 W",
		"state": "NORTH DAKOTA",
		"artcc": "ZMP",
		"type": "MR",
		"updated": "RDR*TACAN*353.00/15.00",
	},
	{
		"name": "FRMNT",
		"latitude": "41-20-10.52 N",
		"longitude": "96-2-12.13 W",
		"state": "NEBRASKA",
		"artcc": "ZMP",
		"type": "RNAV",
		"updated": "08/09/2012",
	},
	{
		"name": "FRODO",
		"latitude": "44-38-25.74 N",
		"longitude": "99-11-58.32 W",
		"state": "SOUTH DAKOTA",
		"artcc": "ZMP",
		"type": "RNAV",
		"updated": "07/06/2011",
	},
	{
		"name": "FRRAN",
		"latitude": "44-35-13.47 N",
		"longitude": "93-7-5.72 W",
		"state": "MINNESOTA",
		"artcc": "ZMP",
		"type": "RNAV",
		"updated": "03/12/2012",
	},
	{
		"name": "FRYII",
		"latitude": "45-45-23.37 N",
		"longitude": "84-21-50.31 W",
		"state": "MICHIGAN",
		"artcc": "ZMP",
		"type": "RP",
		"updated": "SSM*VOR/DME*187.00/39.40",
	},
	{
		"name": "FRYRE",
		"latitude": "43-41-7.97 N",
		"longitude": "97-7-19.24 W",
		"state": "SOUTH DAKOTA",
		"artcc": "ZMP",
		"type": "RP",
		"updated": "FSD*VORTAC*269.40/15.00",
	},
	{
		"name": "FRZZN",
		"latitude": "44-23-39.04 N",
		"longitude": "88-8-0.47 W",
		"state": "WISCONSIN",
		"artcc": "ZMP",
		"type": "RNAV",
		"updated": "08/25/2009",
	},
	{
		"name": "FSCOT",
		"latitude": "45-0-35.38 N",
		"longitude": "93-12-57.68 W",
		"state": "MINNESOTA",
		"artcc": "ZMP",
		"type": "RNAV",
		"updated": "03/23/2015",
	},
	{
		"name": "FUBAT",
		"latitude": "44-8-15.36 N",
		"longitude": "91-40-20.36 W",
		"state": "WISCONSIN",
		"artcc": "ZMP",
		"type": "RNAV",
		"updated": "04/07/2008",
	},
	{
		"name": "FUBUP",
		"latitude": "45-42-35.81 N",
		"longitude": "84-36-4.44 W",
		"state": "MICHIGAN",
		"artcc": "ZMP",
		"type": "RNAV",
		"updated": "07/09/2009",
	},
	{
		"name": "FUDGE",
		"latitude": "45-4-3.27 N",
		"longitude": "93-34-51.81 W",
		"state": "MINNESOTA",
		"artcc": "ZMP",
		"type": "RP",
		"updated": "GEP*VORTAC*236.12/10.00",
	},
	{
		"name": "FUJRU",
		"latitude": "44-32-55.33 N",
		"longitude": "90-22-49.1 W",
		"state": "WISCONSIN",
		"artcc": "ZMP",
		"type": "RNAV",
		"updated": "06/28/2012",
	},
	{
		"name": "FULLE",
		"latitude": "42-10-28.96 N",
		"longitude": "93-32-52.12 W",
		"state": "IOWA",
		"artcc": "ZMP",
		"type": "RNAV",
		"updated": "04/04/2010",
	},
	{
		"name": "FUNWI",
		"latitude": "44-25-46.61 N",
		"longitude": "85-13-14.54 W",
		"state": "MICHIGAN",
		"artcc": "ZMP",
		"type": "RNAV",
		"updated": "04/28/2009",
	},
	{
		"name": "FUZEE",
		"latitude": "42-51-10 N",
		"longitude": "93-53-4 W",
		"state": "IOWA",
		"artcc": "ZMP",
		"type": "RNAV",
		"updated": "01/14/2015",
	},
