[
	{
		"name": "GABDE",
		"latitude": "43-38-50.04 N",
		"longitude": "92-18-26.46 W",
		"state": "MINNESOTA",
		"artcc": "ZMP",
		"type": "RP",
		"updated": "RST*VOR/DME*117.75/15.00"
	},
	{
		"name": "GABSE",
		"latitude": "47-55-18.39 N",
		"longitude": "96-55-11.41 W",
		"state": "MINNESOTA",
		"artcc": "ZMP",
		"type": "RNAV",
		"updated": "08/06/2007"
	},
	{
		"name": "GACEL",
		"latitude": "45-42-47.12 N",
		"longitude": "93-53-23.09 W",
		"state": "MINNESOTA",
		"artcc": "ZMP",
		"type": "RNAV",
		"updated": "12/19/2003"
	},
	{
		"name": "GACHA",
		"latitude": "44-18-1.17 N",
		"longitude": "85-22-16.45 W",
		"state": "MICHIGAN",
		"artcc": "ZMP",
		"type": "RP",
		"updated": "TVC*VOR/DME*162.75"
	},
	{
		"name": "GADAW",
		"latitude": "44-29-30.42 N",
		"longitude": "92-3-51.9 W",
		"state": "WISCONSIN",
		"artcc": "ZMP",
		"type": "RNAV",
		"updated": "04/07/2008"
	},
	{
		"name": "GADGY",
		"latitude": "44-26-4.42 N",
		"longitude": "93-55-46.19 W",
		"state": "MINNESOTA",
		"artcc": "ZMP",
		"type": "RNAV",
		"updated": "08/19/2009"
	},
	{
		"name": "GADWY",
		"latitude": "40-22-51.27 N",
		"longitude": "97-10-2.19 W",
		"state": "NEBRASKA",
		"artcc": "ZMP",
		"type": "RP",
		"updated": "LNK*VORTAC*201.96"
	},
	{
		"name": "GAKBE",
		"latitude": "48-39-8.62 N",
		"longitude": "98-6-8.21 W",
		"state": "NORTH DAKOTA",
		"artcc": "ZMP",
		"type": "RNAV",
		"updated": "02/04/2010"
	},
	{
		"name": "GALEX",
		"latitude": "47-7-49.02 N",
		"longitude": "93-28-53.31 W",
		"state": "MINNESOTA",
		"artcc": "ZMP",
		"type": "RNAV",
		"updated": "12/23/2014"
	},
	{
		"name": "GALEY",
		"latitude": "47-7-0.48 N",
		"longitude": "88-23-59.4 W",
		"state": "MICHIGAN",
		"artcc": "ZMP",
		"type": "RP",
		"updated": "CMX*LD*132.87/5.54"
	},
	{
		"name": "GAMBL",
		"latitude": "40-54-31 N",
		"longitude": "97-6-32.51 W",
		"state": "NEBRASKA",
		"artcc": "ZMP",
		"type": "RP",
		"updated": "OLU*VOR/DME*154.00"
	},
	{
		"name": "GAMIE",
		"latitude": "44-9-23.64 N",
		"longitude": "88-35-20.57 W",
		"state": "WISCONSIN",
		"artcc": "ZMP",
		"type": "RP",
		"updated": "OSH*VORTAC*349.83"
	},
	{
		"name": "GAMOW",
		"latitude": "45-37-9.21 N",
		"longitude": "100-32-50.06 W",
		"state": "SOUTH DAKOTA",
		"artcc": "ZMP",
		"type": "RNAV",
		"updated": "07/21/2007"
	},
	{
		"name": "GANAC",
		"latitude": "44-4-53.6 N",
		"longitude": "97-7-51.74 W",
		"state": "SOUTH DAKOTA",
		"artcc": "ZMP",
		"type": "RNAV",
		"updated": "05/10/2011"
	},
	{
		"name": "GANEY",
		"latitude": "46-47-15.3 N",
		"longitude": "98-53-0.22 W",
		"state": "NORTH DAKOTA",
		"artcc": "ZMP",
		"type": "RNAV",
		"updated": "07/20/2007"
	},
	{
		"name": "GANKE",
		"latitude": "41-40-18.77 N",
		"longitude": "93-44-54.68 W",
		"state": "IOWA",
		"artcc": "ZMP",
		"type": "RNAV",
		"updated": "03/29/2011"
	},
	{
		"name": "GARCU",
		"latitude": "42-56-58.01 N",
		"longitude": "97-25-18.31 W",
		"state": "SOUTH DAKOTA",
		"artcc": "ZMP",
		"type": "RP",
		"updated": "YKN*VOR/DME*312.00/2.47"
	},
	{
		"name": "GARNO",
		"latitude": "44-30-7.77 N",
		"longitude": "95-54-39.7 W",
		"state": "MINNESOTA",
		"artcc": "ZMP",
		"type": "RP",
		"updated": "MML*VOR/DME*/4.91"
	},
	{
		"name": "GATRE",
		"latitude": "45-37-38.56 N",
		"longitude": "89-37-13.78 W",
		"state": "WISCONSIN",
		"artcc": "ZMP",
		"type": "RNAV",
		"updated": "02/16/2010"
	},
	{
		"name": "GAULT",
		"latitude": "44-4-36.79 N",
		"longitude": "85-5-37.13 W",
		"state": "MICHIGAN",
		"artcc": "ZMP",
		"type": "RNAV",
		"updated": "02/27/2018"
	},
	{
		"name": "GAVGE",
		"latitude": "48-25-55.59 N",
		"longitude": "101-23-38.46 W",
		"state": "NORTH DAKOTA",
		"artcc": "ZMP",
		"type": "MR",
		"updated": "MIB*TACAN*302.00/1.50"
	},
	{
		"name": "GAVTE",
		"latitude": "40-15-5.93 N",
		"longitude": "95-28-46.25 W",
		"state": "MISSOURI",
		"artcc": "ZMP",
		"type": "RNAV",
		"updated": "07/03/2008"
	},
	{
		"name": "GAWTU",
		"latitude": "43-33-19.06 N",
		"longitude": "92-7-56.43 W",
		"state": "MINNESOTA",
		"artcc": "ZMP",
		"type": "RNAV",
		"updated": "02/09/2018"
	},
	{
		"name": "GAYCE",
		"latitude": "48-50-30.39 N",
		"longitude": "95-2-50.26 W",
		"state": "MINNESOTA",
		"artcc": "ZMP",
		"type": "RNAV",
		"updated": "02/11/2008"
	},
	{
		"name": "GAYEB",
		"latitude": "41-7-58.59 N",
		"longitude": "95-55-50.48 W",
		"state": "NEBRASKA",
		"artcc": "ZMP",
		"type": "MR",
		"updated": "OFF*TACAN*/1.68"
	},
	{
		"name": "GAZUH",
		"latitude": "48-19-17.21 N",
		"longitude": "102-48-15.45 W",
		"state": "NORTH DAKOTA",
		"artcc": "ZMP",
		"type": "RNAV",
		"updated": "11/30/2012"
	},
	{
		"name": "GDNEE",
		"latitude": "44-30-41.05 N",
		"longitude": "93-15-58.59 W",
		"state": "MINNESOTA",
		"artcc": "ZMP",
		"type": "RP",
		"updated": "FGT*VORTAC*200.76/8.03"
	},
	{
		"name": "GEBEL",
		"latitude": "43-47-45.66 N",
		"longitude": "98-4-51.11 W",
		"state": "SOUTH DAKOTA",
		"artcc": "ZMP",
		"type": "RP",
		"updated": "MHE*VOR/DME*294.22/2.20"
	},
	{
		"name": "GEBEY",
		"latitude": "46-49-44.5 N",
		"longitude": "102-32-43.52 W",
		"state": "NORTH DAKOTA",
		"artcc": "ZMP",
		"type": "RNAV",
		"updated": "07/02/2013"
	},
	{
		"name": "GEBVE",
		"latitude": "48-15-30.53 N",
		"longitude": "101-34-4.93 W",
		"state": "NORTH DAKOTA",
		"artcc": "ZMP",
		"type": "RNAV",
		"updated": "12/18/2009"
	},
	{
		"name": "GECNU",
		"latitude": "42-5-33.85 N",
		"longitude": "95-35-26.11 W",
		"state": "IOWA",
		"artcc": "ZMP",
		"type": "RNAV",
		"updated": "07/30/2008"
	},
	{
		"name": "GECRE",
		"latitude": "46-53-54.48 N",
		"longitude": "92-32-20.31 W",
		"state": "MINNESOTA",
		"artcc": "ZMP",
		"type": "RP",
		"updated": "DLH*VORTAC*287.79/15.00"
	},
	{
		"name": "GEEKR",
		"latitude": "41-24-49.14 N",
		"longitude": "95-53-38.48 W",
		"state": "IOWA",
		"artcc": "ZMP",
		"type": "RNAV",
		"updated": "08/14/2012"
	},
	{
		"name": "GEEOP",
		"latitude": "44-27-2.77 N",
		"longitude": "92-33-47 W",
		"state": "MINNESOTA",
		"artcc": "ZMP",
		"type": "RNAV",
		"updated": "04/24/2008"
	},
	{
		"name": "GEEQU",
		"latitude": "44-46-14.91 N",
		"longitude": "92-45-19.26 W",
		"state": "WISCONSIN",
		"artcc": "ZMP",
		"type": "RNAV",
		"updated": "01/13/2015"
	},
	{
		"name": "GEEZR",
		"latitude": "41-12-39.15 N",
		"longitude": "95-58-30.36 W",
		"state": "NEBRASKA",
		"artcc": "ZMP",
		"type": "RP",
		"updated": "OVR*VORTAC*275.73/11.11"
	},
	{
		"name": "GEFAW",
		"latitude": "44-34-8.26 N",
		"longitude": "92-18-9.93 W",
		"state": "WISCONSIN",
		"artcc": "ZMP",
		"type": "RNAV",
		"updated": "04/24/2008"
	},
	{
		"name": "GEGGE",
		"latitude": "42-13-12.97 N",
		"longitude": "96-42-57.85 W",
		"state": "NEBRASKA",
		"artcc": "ZMP",
		"type": "RP",
		"updated": "SUX*VORTAC*238.04/19.00"
	},
	{
		"name": "GEGQI",
		"latitude": "42-28-6.54 N",
		"longitude": "94-26-3.59 W",
		"state": "IOWA",
		"artcc": "ZMP",
		"type": "RNAV",
		"updated": "10/14/2009"
	},
	{
		"name": "GEJUV",
		"latitude": "45-44-39.06 N",
		"longitude": "89-43-40.31 W",
		"state": "WISCONSIN",
		"artcc": "ZMP",
		"type": "RNAV",
		"updated": "10/27/2009"
	},
	{
		"name": "GEKPE",
		"latitude": "45-9-53.13 N",
		"longitude": "89-50-11.64 W",
		"state": "WISCONSIN",
		"artcc": "ZMP",
		"type": "RNAV",
		"updated": "07/19/2007"
	},
	{
		"name": "GEMBE",
		"latitude": "48-4-23.54 N",
		"longitude": "97-23-27.09 W",
		"state": "NORTH DAKOTA",
		"artcc": "ZMP",
		"type": "MR",
		"updated": "RDR*TACAN*359.00/7.00"
	},
	{
		"name": "GEMIH",
		"latitude": "47-34-2.59 N",
		"longitude": "97-6-38.26 W",
		"state": "NORTH DAKOTA",
		"artcc": "ZMP",
		"type": "RNAV",
		"updated": "11/26/2014"
	},
	{
		"name": "GENNI",
		"latitude": "48-16-31.22 N",
		"longitude": "100-32-20.36 W",
		"state": "NORTH DAKOTA",
		"artcc": "ZMP",
		"type": "MR",
		"updated": "MOT*VORTAC*075.00/30.00"
	},
	{
		"name": "GEODE",
		"latitude": "42-57-27.09 N",
		"longitude": "96-3-3.2 W",
		"state": "IOWA",
		"artcc": "ZMP",
		"type": "RNAV",
		"updated": "11/12/2015"
	},
	{
		"name": "GEPGY",
		"latitude": "46-53-58.6 N",
		"longitude": "98-38-2.93 W",
		"state": "NORTH DAKOTA",
		"artcc": "ZMP",
		"type": "RP",
		"updated": "JMS*VOR/DME*133.39/2.71"
	},
	{
		"name": "GERCO",
		"latitude": "44-58-44.14 N",
		"longitude": "83-23-22.07 W",
		"state": "MICHIGAN",
		"artcc": "ZMP",
		"type": "RNAV",
		"updated": "02/09/2018"
	},
	{
		"name": "GERKE",
		"latitude": "47-19-15.18 N",
		"longitude": "88-44-48.71 W",
		"state": "MICHIGAN",
		"artcc": "ZMP",
		"type": "RP",
		"updated": "CMX*LD*NW CRS/13.21"
	},
	{
		"name": "GERLD",
		"latitude": "47-8-2.66 N",
		"longitude": "92-9-37.1 W",
		"state": "MINNESOTA",
		"artcc": "ZMP",
		"type": "RP",
		"updated": "DLH*VORTAC*360.00/20.00"
	},
	{
		"name": "GEVGE",
		"latitude": "48-24-0.16 N",
		"longitude": "101-19-28.4 W",
		"state": "NORTH DAKOTA",
		"artcc": "ZMP",
		"type": "RP",
		"updated": "MIB*TACAN*109.00/1.90"
	},
	{
		"name": "GEWIZ",
		"latitude": "44-14-4.57 N",
		"longitude": "85-33-7.96 W",
		"state": "MICHIGAN",
		"artcc": "ZMP",
		"type": "RNAV",
		"updated": "04/28/2009"
	},
	{
		"name": "GEYEK",
		"latitude": "41-0-57.58 N",
		"longitude": "96-54-39.17 W",
		"state": "NEBRASKA",
		"artcc": "ZMP",
		"type": "RP",
		"updated": "OLU*VOR/DME*135.07/32.50"
	},
	{
		"name": "GEYQI",
		"latitude": "41-40-56.94 N",
		"longitude": "80-25-29.88 W",
		"state": "PENNSYLVANIA",
		"artcc": "ZMP",
		"type": "RNAV",
		"updated": "07/19/2017"
	},
	{
		"name": "GEZTO",
		"latitude": "46-40-17.01 N",
		"longitude": "95-42-34.72 W",
		"state": "MINNESOTA",
		"artcc": "ZMP",
		"type": "RNAV",
		"updated": "07/10/2013"
	},
	{
		"name": "GEZUM",
		"latitude": "42-53-35.45 N",
		"longitude": "91-46-28.61 W",
		"state": "IOWA",
		"artcc": "ZMP",
		"type": "RNAV",
		"updated": "02/04/2016"
	},
	{
		"name": "GGULL",
		"latitude": "46-32-2 N",
		"longitude": "94-7-52 W",
		"state": "MINNESOTA",
		"artcc": "ZMP",
		"type": "RNAV",
		"updated": "01/12/2015"
	},
	{
		"name": "GHENT",
		"latitude": "44-28-7.95 N",
		"longitude": "95-49-54.48 W",
		"state": "MINNESOTA",
		"artcc": "ZMP",
		"type": "RP",
		"updated": "MML*VOR/DME*341.17"
	},
	{
		"name": "GIBEY",
		"latitude": "47-0-4.49 N",
		"longitude": "91-52-50.73 W",
		"state": "MINNESOTA",
		"artcc": "ZMP",
		"type": "RNAV",
		"updated": "05/08/2011"
	},
	{
		"name": "GICAY",
		"latitude": "46-3-32.58 N",
		"longitude": "98-29-52.63 W",
		"state": "NORTH DAKOTA",
		"artcc": "ZMP",
		"type": "RP",
		"updated": "ABR*VOR/DME*345.02/38.89"
	},
	{
		"name": "GICLE",
		"latitude": "40-32-26.65 N",
		"longitude": "98-30-53.27 W",
		"state": "NEBRASKA",
		"artcc": "ZMP",
		"type": "RNAV",
		"updated": "10/04/2011"
	},
	{
		"name": "GICNI",
		"latitude": "45-46-7.15 N",
		"longitude": "84-41-8.38 W",
		"state": "MICHIGAN",
		"artcc": "ZMP",
		"type": "RNAV",
		"updated": "07/09/2009"
	},
	{
		"name": "GICYU",
		"latitude": "45-2-57.1 N",
		"longitude": "96-15-11.34 W",
		"state": "MINNESOTA",
		"artcc": "ZMP",
		"type": "RNAV",
		"updated": "09/17/2012"
	},
	{
		"name": "GIGAW",
		"latitude": "41-23-36.06 N",
		"longitude": "95-20-39.5 W",
		"state": "IOWA",
		"artcc": "ZMP",
		"type": "RNAV",
		"updated": "02/09/2018"
	},
	{
		"name": "GIGKE",
		"latitude": "44-28-23.07 N",
		"longitude": "88-32-57.92 W",
		"state": "WISCONSIN",
		"artcc": "ZMP",
		"type": "RNAV",
		"updated": "01/23/2007"
	},
	{
		"name": "GIHJO",
		"latitude": "44-6-32.2 N",
		"longitude": "92-33-37.9 W",
		"state": "MINNESOTA",
		"artcc": "ZMP",
		"type": "RNAV",
		"updated": "02/05/2015"
	},
	{
		"name": "GIJLE",
		"latitude": "42-1-47.26 N",
		"longitude": "93-39-59.82 W",
		"state": "IOWA",
		"artcc": "ZMP",
		"type": "RNAV",
		"updated": "04/04/2010"
	},
	{
		"name": "GIKNE",
		"latitude": "43-35-48.91 N",
		"longitude": "96-51-33.09 W",
		"state": "SOUTH DAKOTA",
		"artcc": "ZMP",
		"type": "RNAV",
		"updated": "06/04/2003"
	},
	{
		"name": "GILSE",
		"latitude": "48-16-26.32 N",
		"longitude": "101-3-25.84 W",
		"state": "NORTH DAKOTA",
		"artcc": "ZMP",
		"type": "MR",
		"updated": "MIB*TACAN*114.36/15.00"
	},
	{
		"name": "GILTE",
		"latitude": "44-40-29.47 N",
		"longitude": "100-13-12.69 W",
		"state": "SOUTH DAKOTA",
		"artcc": "ZMP",
		"type": "RP",
		"updated": "PIR*VORTAC*340.70/17.00"
	},
	{
		"name": "GINGE",
		"latitude": "46-59-44.77 N",
		"longitude": "98-21-37.99 W",
		"state": "NORTH DAKOTA",
		"artcc": "ZMP",
		"type": "RNAV",
		"updated": "09/21/2017"
	},
	{
		"name": "GIRLE",
		"latitude": "44-16-16.84 N",
		"longitude": "89-52-36.93 W",
		"state": "WISCONSIN",
		"artcc": "ZMP",
		"type": "RNAV",
		"updated": "05/16/2013"
	},
	{
		"name": "GISHE",
		"latitude": "43-21-58.9 N",
		"longitude": "96-9-45.12 W",
		"state": "IOWA",
		"artcc": "ZMP",
		"type": "RNAV",
		"updated": "02/09/2018"
	},
	{
		"name": "GITTI",
		"latitude": "46-1-0.68 N",
		"longitude": "93-58-33.67 W",
		"state": "MINNESOTA",
		"artcc": "ZMP",
		"type": "RNAV",
		"updated": "06/22/2017"
	},
	{
		"name": "GIWFI",
		"latitude": "43-24-17.88 N",
		"longitude": "96-37-31.57 W",
		"state": "SOUTH DAKOTA",
		"artcc": "ZMP",
		"type": "RNAV",
		"updated": "12/17/2013"
	},
	{
		"name": "GIYED",
		"latitude": "42-30-22.02 N",
		"longitude": "99-8-5.55 W",
		"state": "NEBRASKA",
		"artcc": "ZMP",
		"type": "RP",
		"updated": "ONL*VORTAC*266.28/20.00"
	},
	{
		"name": "GIZBU",
		"latitude": "43-50-30.69 N",
		"longitude": "96-58-3.01 W",
		"state": "SOUTH DAKOTA",
		"artcc": "ZMP",
		"type": "RNAV",
		"updated": "05/09/2011"
	},
	{
		"name": "GLADY",
		"latitude": "44-40-8.52 N",
		"longitude": "90-0-51.33 W",
		"state": "WISCONSIN",
		"artcc": "ZMP",
		"type": "RNAV",
		"updated": "08/13/2013"
	},
	{
		"name": "GLDON",
		"latitude": "45-1-9.94 N",
		"longitude": "93-22-42.39 W",
		"state": "MINNESOTA",
		"artcc": "ZMP",
		"type": "RNAV",
		"updated": "03/23/2015"
	},
	{
		"name": "GLENE",
		"latitude": "41-27-4.84 N",
		"longitude": "95-30-17.94 W",
		"state": "IOWA",
		"artcc": "ZMP",
		"type": "RP",
		"updated": "OVR*VORTAC*023.52/20.01"
	},
	{
		"name": "GLIIB",
		"latitude": "48-9-24.84 N",
		"longitude": "97-24-2.91 W",
		"state": "NORTH DAKOTA",
		"artcc": "ZMP",
		"type": "MR",
		"updated": "RDR*TACAN*355.00/12.00"
	},
	{
		"name": "GOBBO",
		"latitude": "44-31-33.57 N",
		"longitude": "93-19-40.93 W",
		"state": "MINNESOTA",
		"artcc": "ZMP",
		"type": "RNAV",
		"updated": "03/18/2008"
	},
	{
		"name": "GOBKE",
		"latitude": "44-50-1.57 N",
		"longitude": "93-30-17.29 W",
		"state": "MINNESOTA",
		"artcc": "ZMP",
		"type": "RP",
		"updated": "FCM*VOR/DME*/2.70"
	},
	{
		"name": "GOBLR",
		"latitude": "46-3-4.51 N",
		"longitude": "96-4-13.85 W",
		"state": "MINNESOTA",
		"artcc": "ZMP",
		"type": "RNAV",
		"updated": "09/06/2013"
	},
	{
		"name": "GOCRE",
		"latitude": "41-56-37.99 N",
		"longitude": "96-17-53.51 W",
		"state": "NEBRASKA",
		"artcc": "ZMP",
		"type": "RNAV",
		"updated": "02/17/2017"
	},
	{
		"name": "GODEY",
		"latitude": "48-25-2.11 N",
		"longitude": "101-8-39.27 W",
		"state": "NORTH DAKOTA",
		"artcc": "ZMP",
		"type": "RNAV",
		"updated": "02/16/2018"
	},
	{
		"name": "GODSE",
		"latitude": "46-31-40.12 N",
		"longitude": "90-25-6.36 W",
		"state": "WISCONSIN",
		"artcc": "ZMP",
		"type": "RNAV",
		"updated": "03/30/2009"
	},
	{
		"name": "GOFXO",
		"latitude": "45-37-17.42 N",
		"longitude": "90-25-4.81 W",
		"state": "WISCONSIN",
		"artcc": "ZMP",
		"type": "RNAV",
		"updated": "10/16/2017"
	},
	{
		"name": "GOGNY",
		"latitude": "46-19-27.55 N",
		"longitude": "96-12-58 W",
		"state": "MINNESOTA",
		"artcc": "ZMP",
		"type": "RNAV",
		"updated": "06/28/2009"
	},
	{
		"name": "GOHOX",
		"latitude": "41-22-16.75 N",
		"longitude": "95-59-15.16 W",
		"state": "NEBRASKA",
		"artcc": "ZMP",
		"type": "RNAV",
		"updated": "08/09/2012"
	},
	{
		"name": "GOKPE",
		"latitude": "48-32-56.4 N",
		"longitude": "93-45-21.63 W",
		"state": "",
		"artcc": "ZMP",
		"type": "RP",
		"updated": "INL*VOR/DME*260.00/14.00"
	},
	{
		"name": "GOLDS",
		"latitude": "44-27-34.02 N",
		"longitude": "97-13-5.98 W",
		"state": "SOUTH DAKOTA",
		"artcc": "ZMP",
		"type": "RP",
		"updated": "HON*VORTAC*078.20/46.98"
	},
	{
		"name": "GOLLF",
		"latitude": "45-45-13.09 N",
		"longitude": "93-41-58.21 W",
		"state": "MINNESOTA",
		"artcc": "ZMP",
		"type": "RP",
		"updated": "GEP*VORTAC*333.42/39.00"
	},
	{
		"name": "GOLUY",
		"latitude": "45-14-54.9 N",
		"longitude": "98-25-37.41 W",
		"state": "SOUTH DAKOTA",
		"artcc": "ZMP",
		"type": "RNAV",
		"updated": "12/23/2016"
	},
	{
		"name": "GOLYE",
		"latitude": "45-49-31.55 N",
		"longitude": "89-53-23.75 W",
		"state": "WISCONSIN",
		"artcc": "ZMP",
		"type": "RP",
		"updated": "RHI*VOR/DME*300.50/21.50"
	},
	{
		"name": "GONBE",
		"latitude": "40-38-46.69 N",
		"longitude": "96-45-47.05 W",
		"state": "NEBRASKA",
		"artcc": "ZMP",
		"type": "RNAV",
		"updated": "07/08/2008"
	},
	{
		"name": "GOOLD",
		"latitude": "42-57-30.91 N",
		"longitude": "94-42-51.04 W",
		"state": "IOWA",
		"artcc": "ZMP",
		"type": "RP",
		"updated": "OVR*VORTAC*014.70"
	},
	{
		"name": "GOPEC",
		"latitude": "44-6-38.93 N",
		"longitude": "95-19-37.4 W",
		"state": "MINNESOTA",
		"artcc": "ZMP",
		"type": "RP",
		"updated": "RWF*VOR/DME*194.90/23.04"
	},
	{
		"name": "GORDN",
		"latitude": "44-42-37.88 N",
		"longitude": "84-47-46.72 W",
		"state": "MICHIGAN",
		"artcc": "ZMP",
		"type": "RP",
		"updated": "GYG*NDB*156.00"
	},
	{
		"name": "GOREC",
		"latitude": "45-13-46.06 N",
		"longitude": "95-23-48.67 W",
		"state": "MINNESOTA",
		"artcc": "ZMP",
		"type": "RNAV",
		"updated": "01/21/2009"
	},
	{
		"name": "GORGY",
		"latitude": "47-7-0.7 N",
		"longitude": "96-46-57.87 W",
		"state": "NORTH DAKOTA",
		"artcc": "ZMP",
		"type": "RP",
		"updated": "FAR*VOR/DME*358.34/22.00"
	},
	{
		"name": "GOSDE",
		"latitude": "44-16-36.52 N",
		"longitude": "86-29-26.84 W",
		"state": "MICHIGAN",
		"artcc": "ZMP",
		"type": "RNAV",
		"updated": "03/01/2013"
	},
	{
		"name": "GOSPE",
		"latitude": "41-29-59.04 N",
		"longitude": "94-20-28.96 W",
		"state": "IOWA",
		"artcc": "ZMP",
		"type": "RNAV",
		"updated": "05/24/2011"
	},
	{
		"name": "GOTHE",
		"latitude": "43-32-47.94 N",
		"longitude": "93-17-13.84 W",
		"state": "MINNESOTA",
		"artcc": "ZMP",
		"type": "RP",
		"updated": "RST*VOR/DME*240.00"
	},
	{
		"name": "GOTME",
		"latitude": "44-9-48.05 N",
		"longitude": "93-57-40.19 W",
		"state": "MINNESOTA",
		"artcc": "ZMP",
		"type": "RNAV",
		"updated": "03/10/2015"
	},
	{
		"name": "GOTMY",
		"latitude": "44-46-17.48 N",
		"longitude": "91-38-12.6 W",
		"state": "WISCONSIN",
		"artcc": "ZMP",
		"type": "RNAV",
		"updated": "07/28/2015"
	},
	{
		"name": "GOTTA",
		"latitude": "42-49-39.7 N",
		"longitude": "95-32-57.83 W",
		"state": "IOWA",
		"artcc": "ZMP",
		"type": "RNAV",
		"updated": "04/16/2018"
	},
	{
		"name": "GOVNY",
		"latitude": "48-9-29.85 N",
		"longitude": "93-2-48.79 W",
		"state": "MINNESOTA",
		"artcc": "ZMP",
		"type": "RNAV",
		"updated": "06/21/2011"
	},
	{
		"name": "GOWOB",
		"latitude": "44-14-16.06 N",
		"longitude": "93-7-28.66 W",
		"state": "MINNESOTA",
		"artcc": "ZMP",
		"type": "RNAV",
		"updated": "02/11/2008"
	},
	{
		"name": "GOZGI",
		"latitude": "41-29-2.03 N",
		"longitude": "98-46-19.69 W",
		"state": "NEBRASKA",
		"artcc": "ZMP",
		"type": "RNAV",
		"updated": "03/16/2009"
	},
	{
		"name": "GRAIN",
		"latitude": "41-31-37.54 N",
		"longitude": "96-36-21.55 W",
		"state": "NEBRASKA",
		"artcc": "ZMP",
		"type": "RNAV",
		"updated": "10/16/2013"
	},
	{
		"name": "GRASI",
		"latitude": "41-1-1.91 N",
		"longitude": "97-54-12.41 W",
		"state": "NEBRASKA",
		"artcc": "ZMP",
		"type": "RP",
		"updated": "GRI*VOR/DME*076.79/18.79"
	},
	{
		"name": "GRASS",
		"latitude": "46-21-10.12 N",
		"longitude": "91-6-52.88 W",
		"state": "WISCONSIN",
		"artcc": "ZMP",
		"type": "RP",
		"updated": "DLH*VORTAC*115.52/52.50"
	},
	{
		"name": "GRATZ",
		"latitude": "46-25-44.8 N",
		"longitude": "94-34-58.06 W",
		"state": "MINNESOTA",
		"artcc": "ZMP",
		"type": "RNAV",
		"updated": "05/23/2016"
	},
	{
		"name": "GRAVL",
		"latitude": "44-58-26.13 N",
		"longitude": "93-5-26.34 W",
		"state": "MINNESOTA",
		"artcc": "ZMP",
		"type": "RNAV",
		"updated": "11/10/2011"
	},
	{
		"name": "GREAK",
		"latitude": "44-48-19.4 N",
		"longitude": "93-19-4.57 W",
		"state": "MINNESOTA",
		"artcc": "ZMP",
		"type": "RNAV",
		"updated": "11/14/2016"
	},
	{
		"name": "GRETE",
		"latitude": "47-57-27.05 N",
		"longitude": "98-41-49.77 W",
		"state": "NORTH DAKOTA",
		"artcc": "ZMP",
		"type": "RNAV",
		"updated": "11/04/2013"
	},
	{
		"name": "GRETT",
		"latitude": "41-8-59.39 N",
		"longitude": "96-1-21.55 W",
		"state": "NEBRASKA",
		"artcc": "ZMP",
		"type": "RP",
		"updated": "OVR*VORTAC*257.48/13.00"
	},
	{
		"name": "GROVY",
		"latitude": "43-45-52.64 N",
		"longitude": "93-22-57.99 W",
		"state": "MINNESOTA",
		"artcc": "ZMP",
		"type": "RP",
		"updated": "AEL*VOR/DME*353.00/5.00"
	},
	{
		"name": "GROVZ",
		"latitude": "44-42-50.91 N",
		"longitude": "92-48-38.71 W",
		"state": "MINNESOTA",
		"artcc": "ZMP",
		"type": "RP",
		"updated": "INN*LD*121.35/19.40"
	},
	{
		"name": "GRUVE",
		"latitude": "43-21-16.91 N",
		"longitude": "94-51-33.12 W",
		"state": "IOWA",
		"artcc": "ZMP",
		"type": "RP",
		"updated": "MCW*VOR/DME*277.61/68.88"
	},
	{
		"name": "GUBDE",
		"latitude": "45-30-58.39 N",
		"longitude": "98-30-52.82 W",
		"state": "SOUTH DAKOTA",
		"artcc": "ZMP",
		"type": "RNAV",
		"updated": "01/02/2018"
	},
	{
		"name": "GUBEZ",
		"latitude": "40-51-17.7 N",
		"longitude": "97-37-3.44 W",
		"state": "NEBRASKA",
		"artcc": "ZMP",
		"type": "RNAV",
		"updated": "06/16/2009"
	},
	{
		"name": "GUBGE",
		"latitude": "44-51-18.35 N",
		"longitude": "94-22-42.37 W",
		"state": "MINNESOTA",
		"artcc": "ZMP",
		"type": "RP",
		"updated": "DWN*VORTAC*160.00/14.31"
	},
	{
		"name": "GUCET",
		"latitude": "43-59-39.01 N",
		"longitude": "82-57-33.21 W",
		"state": "MICHIGAN",
		"artcc": "ZMP",
		"type": "RNAV",
		"updated": "10/24/2007"
	},
	{
		"name": "GUDGE",
		"latitude": "41-26-46.96 N",
		"longitude": "96-37-24.14 W",
		"state": "NEBRASKA",
		"artcc": "ZMP",
		"type": "RNAV",
		"updated": "07/11/2013"
	},
	{
		"name": "GUDNE",
		"latitude": "45-15-26.73 N",
		"longitude": "92-48-7.85 W",
		"state": "MINNESOTA",
		"artcc": "ZMP",
		"type": "RNAV",
		"updated": "10/05/2007"
	},
	{
		"name": "GUGDE",
		"latitude": "45-9-31.05 N",
		"longitude": "89-3-36.8 W",
		"state": "WISCONSIN",
		"artcc": "ZMP",
		"type": "RNAV",
		"updated": "06/12/2013"
	},
	{
		"name": "GUGFO",
		"latitude": "45-32-5 N",
		"longitude": "90-35-50.46 W",
		"state": "WISCONSIN",
		"artcc": "ZMP",
		"type": "RNAV",
		"updated": "10/16/2017"
	},
	{
		"name": "GUGPE",
		"latitude": "42-4-32.35 N",
		"longitude": "96-42-15.57 W",
		"state": "NEBRASKA",
		"artcc": "ZMP",
		"type": "RNAV",
		"updated": "12/15/2011"
	},
	{
		"name": "GUHMU",
		"latitude": "44-48-5.37 N",
		"longitude": "88-36-28.21 W",
		"state": "WISCONSIN",
		"artcc": "ZMP",
		"type": "RNAV",
		"updated": "06/13/2012"
	},
	{
		"name": "GUKLE",
		"latitude": "47-1-31.99 N",
		"longitude": "95-58-17.32 W",
		"state": "MINNESOTA",
		"artcc": "ZMP",
		"type": "RNAV",
		"updated": "06/28/2007"
	},
	{
		"name": "GULKE",
		"latitude": "44-35-3.61 N",
		"longitude": "89-44-44.28 W",
		"state": "WISCONSIN",
		"artcc": "ZMP",
		"type": "RNAV",
		"updated": "03/14/2001"
	},
	{
		"name": "GULLY",
		"latitude": "40-27-17.77 N",
		"longitude": "98-55-43.98 W",
		"state": "NEBRASKA",
		"artcc": "ZMP",
		"type": "RP",
		"updated": "EAR*VOR*157.85"
	},
	{
		"name": "GUMBO",
		"latitude": "41-42-23.19 N",
		"longitude": "93-47-40.86 W",
		"state": "IOWA",
		"artcc": "ZMP",
		"type": "RP",
		"updated": "DSM*VORTAC*330.89/17.41"
	},
	{
		"name": "GUMMI",
		"latitude": "47-47-52 N",
		"longitude": "92-4-24.93 W",
		"state": "MINNESOTA",
		"artcc": "ZMP",
		"type": "RP",
		"updated": "DLH*VORTAC*360.00/60.00"
	},
	{
		"name": "GUNNS",
		"latitude": "44-24-10.81 N",
		"longitude": "95-43-38.22 W",
		"state": "MINNESOTA",
		"artcc": "ZMP",
		"type": "RP",
		"updated": "MML*VOR/DME*118.00/5.00"
	},
	{
		"name": "GUNNZ",
		"latitude": "43-44-33.93 N",
		"longitude": "84-8-40.4 W",
		"state": "MICHIGAN",
		"artcc": "ZMP",
		"type": "MR",
		"updated": "MBS*VOR/DME*350.00/13.00"
	},
	{
		"name": "GUNRY",
		"latitude": "43-44-48.88 N",
		"longitude": "91-6-57.58 W",
		"state": "WISCONSIN",
		"artcc": "ZMP",
		"type": "RNAV",
		"updated": "02/09/2018"
	},
	{
		"name": "GUNTE",
		"latitude": "41-11-22.42 N",
		"longitude": "94-45-1.85 W",
		"state": "IOWA",
		"artcc": "ZMP",
		"type": "RNAV",
		"updated": "12/26/2007"
	},
	{
		"name": "GUPEC",
		"latitude": "40-21-49.99 N",
		"longitude": "96-45-1.31 W",
		"state": "NEBRASKA",
		"artcc": "ZMP",
		"type": "RP",
		"updated": "BIE*VOR*356.00"
	},
	{
		"name": "GUPKE",
		"latitude": "46-35-8.08 N",
		"longitude": "93-58-28.58 W",
		"state": "MINNESOTA",
		"artcc": "ZMP",
		"type": "RNAV",
		"updated": "04/27/2007"
	},
	{
		"name": "GURRO",
		"latitude": "44-15-20.31 N",
		"longitude": "94-20-52.38 W",
		"state": "MINNESOTA",
		"artcc": "ZMP",
		"type": "RNAV",
		"updated": "04/07/2008"
	},
	{
		"name": "GUUME",
		"latitude": "45-55-7.51 N",
		"longitude": "91-40-55.8 W",
		"state": "WISCONSIN",
		"artcc": "ZMP",
		"type": "RNAV",
		"updated": "10/02/2014"
	},
	{
		"name": "GUVEY",
		"latitude": "45-54-55.59 N",
		"longitude": "96-59-27.29 W",
		"state": "SOUTH DAKOTA",
		"artcc": "ZMP",
		"type": "RP",
		"updated": "FAR*VOR/DME*177.63/50.63"
	},
	{
		"name": "GUVXI",
		"latitude": "43-12-15.32 N",
		"longitude": "91-43-35.17 W",
		"state": "IOWA",
		"artcc": "ZMP",
		"type": "RNAV",
		"updated": "07/09/2015"
	},
	{
		"name": "GUYBO",
		"latitude": "45-27-14.7 N",
		"longitude": "91-42-39.47 W",
		"state": "WISCONSIN",
		"artcc": "ZMP",
		"type": "RNAV",
		"updated": "03/05/2008"
	},
	{
		"name": "GUYEG",
		"latitude": "44-42-29.15 N",
		"longitude": "84-46-19.41 W",
		"state": "MICHIGAN",
		"artcc": "ZMP",
		"type": "RNAV",
		"updated": "11/28/2008"
	},
	{
		"name": "GUYTE",
		"latitude": "40-13-48.94 N",
		"longitude": "96-5-3.92 W",
		"state": "NEBRASKA",
		"artcc": "ZMP",
		"type": "RNAV",
		"updated": "04/11/2013"
	},
	{
		"name": "GWAIT",
		"latitude": "44-39-33.18 N",
		"longitude": "93-18-36.95 W",
		"state": "MINNESOTA",
		"artcc": "ZMP",
		"type": "RNAV",
		"updated": "01/12/2015"
	},
	{
		"name": "GWALT",
		"latitude": "48-11-8.13 N",
		"longitude": "99-0-8.54 W",
		"state": "NORTH DAKOTA",
		"artcc": "ZMP",
		"type": "RNAV",
		"updated": "11/04/2013"
	},
	{
		"name": "GWENN",
		"latitude": "44-44-1.04 N",
		"longitude": "85-25-45.61 W",
		"state": "MICHIGAN",
		"artcc": "ZMP",
		"type": "RP",
		"updated": "TVC*VOR/DME*054.00"
	},
	{
		"name": "GWIZZ",
		"latitude": "44-20-7.64 N",
		"longitude": "89-4-53.66 W",
		"state": "WISCONSIN",
		"artcc": "ZMP",
		"type": "RNAV",
		"updated": "04/06/2012"
	}
]
