	{
		"name": "JABMO",
		"latitude": "41-15-6.66 N",
		"longitude": "96-7-29.8 W",
		"state": "NEBRASKA",
		"artcc": "ZMP",
		"type": "MR",
		"updated": "OFF*TACAN*303.46/13.00",
	},
	{
		"name": "JABVU",
		"latitude": "46-48-35.19 N",
		"longitude": "100-47-46.17 W",
		"state": "NORTH DAKOTA",
		"artcc": "ZMP",
		"type": "RP",
		"updated": "BIS*VOR/DME*/6.11",
	},
	{
		"name": "JACKO",
		"latitude": "44-49-24.96 N",
		"longitude": "93-3-40.22 W",
		"state": "MINNESOTA",
		"artcc": "ZMP",
		"type": "RP",
		"updated": "INN*LD*SE CRS/6.84",
	},
	{
		"name": "JADAN",
		"latitude": "46-41-53.12 N",
		"longitude": "100-38-52.2 W",
		"state": "NORTH DAKOTA",
		"artcc": "ZMP",
		"type": "RP",
		"updated": "BI*NDB*000.00",
	},
	{
		"name": "JADDU",
		"latitude": "43-38-16.2 N",
		"longitude": "91-44-54.56 W",
		"state": "MINNESOTA",
		"artcc": "ZMP",
		"type": "RNAV",
		"updated": "11/17/2008",
	},
	{
		"name": "JADGA",
		"latitude": "45-24-19.79 N",
		"longitude": "83-53-7.78 W",
		"state": "MICHIGAN",
		"artcc": "ZMP",
		"type": "RNAV",
		"updated": "07/25/2005",
	},
	{
		"name": "JADIB",
		"latitude": "40-44-11.02 N",
		"longitude": "96-4-59.38 W",
		"state": "NEBRASKA",
		"artcc": "ZMP",
		"type": "RNAV",
		"updated": "03/27/2008",
	},
	{
		"name": "JADIP",
		"latitude": "44-25-1.24 N",
		"longitude": "95-47-36.9 W",
		"state": "MINNESOTA",
		"artcc": "ZMP",
		"type": "RNAV",
		"updated": "12/28/2004",
	},
	{
		"name": "JADIX",
		"latitude": "45-23-0.63 N",
		"longitude": "91-47-3.68 W",
		"state": "WISCONSIN",
		"artcc": "ZMP",
		"type": "RNAV",
		"updated": "07/25/2005",
	},
	{
		"name": "JADKU",
		"latitude": "43-53-6.96 N",
		"longitude": "91-8-49.99 W",
		"state": "WISCONSIN",
		"artcc": "ZMP",
		"type": "RNAV",
		"updated": "04/26/2011",
	},
	{
		"name": "JAEDN",
		"latitude": "44-47-20.15 N",
		"longitude": "93-43-35.4 W",
		"state": "MINNESOTA",
		"artcc": "ZMP",
		"type": "RP",
		"updated": "MSP*VOR/DME*251.02/21.89",
	},
	{
		"name": "JAFYU",
		"latitude": "44-31-55.33 N",
		"longitude": "98-26-45.43 W",
		"state": "SOUTH DAKOTA",
		"artcc": "ZMP",
		"type": "RP",
		"updated": "HON*VORTAC*303.65/8.00",
	},
	{
		"name": "JAGBI",
		"latitude": "47-51-5.49 N",
		"longitude": "97-10-52.61 W",
		"state": "NORTH DAKOTA",
		"artcc": "ZMP",
		"type": "RNAV",
		"updated": "06/08/2006",
	},
	{
		"name": "JAGBU",
		"latitude": "42-42-38.7 N",
		"longitude": "96-12-23.28 W",
		"state": "IOWA",
		"artcc": "ZMP",
		"type": "RNAV",
		"updated": "02/19/2013",
	},
	{
		"name": "JAGED",
		"latitude": "45-43-19.14 N",
		"longitude": "87-13-30.29 W",
		"state": "MICHIGAN",
		"artcc": "ZMP",
		"type": "RNAV",
		"updated": "03/22/2009",
	},
	{
		"name": "JAGEK",
		"latitude": "43-26-30.95 N",
		"longitude": "96-47-54.04 W",
		"state": "SOUTH DAKOTA",
		"artcc": "ZMP",
		"type": "RNAV",
		"updated": "07/12/2013",
	},
	{
		"name": "JAGOG",
		"latitude": "45-33-2.85 N",
		"longitude": "86-49-52.62 W",
		"state": "MICHIGAN",
		"artcc": "ZMP",
		"type": "RNAV",
		"updated": "04/19/2012",
	},
	{
		"name": "JAGOW",
		"latitude": "43-30-53.26 N",
		"longitude": "93-17-24.76 W",
		"state": "MINNESOTA",
		"artcc": "ZMP",
		"type": "RP",
		"updated": "MCW*VOR/DME*357.93/25.26",
	},
	{
		"name": "JAGSO",
		"latitude": "44-7-29.24 N",
		"longitude": "100-2-31.56 W",
		"state": "SOUTH DAKOTA",
		"artcc": "ZMP",
		"type": "RP",
		"updated": "PIR*VORTAC*151.12/17.00",
	},
	{
		"name": "JAKDI",
		"latitude": "43-1-3.5 N",
		"longitude": "97-8-45.09 W",
		"state": "SOUTH DAKOTA",
		"artcc": "ZMP",
		"type": "RP",
		"updated": "YKN*VOR/DME*053.44/12.10",
	},
	{
		"name": "JAKEP",
		"latitude": "46-7-26.67 N",
		"longitude": "90-17-31.38 W",
		"state": "WISCONSIN",
		"artcc": "ZMP",
		"type": "RNAV",
		"updated": "03/22/2006",
	},
	{
		"name": "JAKET",
		"latitude": "47-41-20.67 N",
		"longitude": "95-48-19.06 W",
		"state": "MINNESOTA",
		"artcc": "ZMP",
		"type": "RNAV",
		"updated": "03/20/2012",
	},
	{
		"name": "JAKEY",
		"latitude": "44-32-0 N",
		"longitude": "84-19-40 W",
		"state": "MICHIGAN",
		"artcc": "ZMP",
		"type": "RNAV",
		"updated": "02/03/2003",
	},
	{
		"name": "JAKKI",
		"latitude": "41-18-49.87 N",
		"longitude": "96-0-8.79 W",
		"state": "NEBRASKA",
		"artcc": "ZMP",
		"type": "RNAV",
		"updated": "08/09/2012",
	},
	{
		"name": "JAKLI",
		"latitude": "45-28-11.53 N",
		"longitude": "89-32-8.9 W",
		"state": "WISCONSIN",
		"artcc": "ZMP",
		"type": "RNAV",
		"updated": "03/20/2012",
	},
	{
		"name": "JAKOK",
		"latitude": "40-38-24.71 N",
		"longitude": "95-21-50.27 W",
		"state": "IOWA",
		"artcc": "ZMP",
		"type": "RNAV",
		"updated": "07/03/2008",
	},
	{
		"name": "JAKPA",
		"latitude": "45-46-39.73 N",
		"longitude": "90-19-5.24 W",
		"state": "WISCONSIN",
		"artcc": "ZMP",
		"type": "RNAV",
		"updated": "03/17/2003",
	},
	{
		"name": "JAKTI",
		"latitude": "48-46-35.78 N",
		"longitude": "98-47-16.51 W",
		"state": "NORTH DAKOTA",
		"artcc": "ZMP",
		"type": "RNAV",
		"updated": "02/04/2010",
	},
	{
		"name": "JAKVI",
		"latitude": "43-57-37.74 N",
		"longitude": "91-22-16.2 W",
		"state": "WISCONSIN",
		"artcc": "ZMP",
		"type": "RNAV",
		"updated": "08/12/2008",
	},
	{
		"name": "JALAB",
		"latitude": "44-35-42.69 N",
		"longitude": "100-21-15.29 W",
		"state": "SOUTH DAKOTA",
		"artcc": "ZMP",
		"type": "RNAV",
		"updated": "06/28/2007",
	},
	{
		"name": "JALAP",
		"latitude": "40-50-18 N",
		"longitude": "93-33-48 W",
		"state": "IOWA",
		"artcc": "ZMP",
		"type": "RNAV",
		"updated": "05/10/2013",
	},
	{
		"name": "JALER",
		"latitude": "44-57-0.68 N",
		"longitude": "89-40-48.15 W",
		"state": "WISCONSIN",
		"artcc": "ZMP",
		"type": "RNAV",
		"updated": "08/30/2012",
	},
	{
		"name": "JALET",
		"latitude": "45-49-33.56 N",
		"longitude": "96-33-41.73 W",
		"state": "MINNESOTA",
		"artcc": "ZMP",
		"type": "RNAV",
		"updated": "08/02/2012",
	},
	{
		"name": "JALEV",
		"latitude": "45-44-33.24 N",
		"longitude": "89-50-48.6 W",
		"state": "WISCONSIN",
		"artcc": "ZMP",
		"type": "RNAV",
		"updated": "10/27/2009",
	},
	{
		"name": "JALIS",
		"latitude": "46-3-46.13 N",
		"longitude": "96-29-26.68 W",
		"state": "MINNESOTA",
		"artcc": "ZMP",
		"type": "RNAV",
		"updated": "11/01/2012",
	},
	{
		"name": "JALKU",
		"latitude": "41-22-56.75 N",
		"longitude": "96-4-9.01 W",
		"state": "NEBRASKA",
		"artcc": "ZMP",
		"type": "RNAV",
		"updated": "05/06/2009",
	},
	{
		"name": "JALPI",
		"latitude": "45-17-11.87 N",
		"longitude": "85-32-39.57 W",
		"state": "MICHIGAN",
		"artcc": "ZMP",
		"type": "RNAV",
		"updated": "11/15/2004",
	},
	{
		"name": "JALTI",
		"latitude": "45-38-27.43 N",
		"longitude": "93-49-49.02 W",
		"state": "MINNESOTA",
		"artcc": "ZMP",
		"type": "RNAV",
		"updated": "12/19/2003",
	},
	{
		"name": "JALUN",
		"latitude": "44-57-15.2 N",
		"longitude": "93-7-22.21 W",
		"state": "MINNESOTA",
		"artcc": "ZMP",
		"type": "RNAV",
		"updated": "01/18/2002",
	},
	{
		"name": "JAMAC",
		"latitude": "44-14-47.41 N",
		"longitude": "84-3-19.63 W",
		"state": "MICHIGAN",
		"artcc": "ZMP",
		"type": "RNAV",
		"updated": "09/14/2009",
	},
	{
		"name": "JAMAG",
		"latitude": "43-58-8.92 N",
		"longitude": "86-43-35.41 W",
		"state": "MICHIGAN",
		"artcc": "ZMP",
		"type": "RNAV",
		"updated": "01/17/2014",
	},
	{
		"name": "JAMEZ",
		"latitude": "44-32-24.23 N",
		"longitude": "93-9-8.72 W",
		"state": "MINNESOTA",
		"artcc": "ZMP",
		"type": "RP",
		"updated": "BMA*LD*169.53/21.37",
	},
	{
		"name": "JAMRU",
		"latitude": "42-45-59.15 N",
		"longitude": "93-46-59.1 W",
		"state": "IOWA",
		"artcc": "ZMP",
		"type": "RNAV",
		"updated": "11/04/2015",
	},
	{
		"name": "JAMTU",
		"latitude": "48-6-9.26 N",
		"longitude": "102-41-59.92 W",
		"state": "NORTH DAKOTA",
		"artcc": "ZMP",
		"type": "RNAV",
		"updated": "11/01/2017",
	},
	{
		"name": "JANAR",
		"latitude": "45-1-17.15 N",
		"longitude": "92-17-53.82 W",
		"state": "WISCONSIN",
		"artcc": "ZMP",
		"type": "RNAV",
		"updated": "04/21/2005",
	},
	{
		"name": "JANEV",
		"latitude": "42-32-13.58 N",
		"longitude": "93-42-28.9 W",
		"state": "IOWA",
		"artcc": "ZMP",
		"type": "RNAV",
		"updated": "12/24/2009",
	},
	{
		"name": "JANIK",
		"latitude": "43-51-50.76 N",
		"longitude": "82-55-31.27 W",
		"state": "MICHIGAN",
		"artcc": "ZMP",
		"type": "RNAV",
		"updated": "10/24/2007",
	},
	{
		"name": "JANIL",
		"latitude": "45-28-11.5 N",
		"longitude": "92-22-58.88 W",
		"state": "WISCONSIN",
		"artcc": "ZMP",
		"type": "RNAV",
		"updated": "12/28/2004",
	},
	{
		"name": "JANUP",
		"latitude": "44-16-2.97 N",
		"longitude": "85-58-32.74 W",
		"state": "MICHIGAN",
		"artcc": "ZMP",
		"type": "RP",
		"updated": "MBL*VOR/DME*/12.00",
	},
	{
		"name": "JAPDO",
		"latitude": "43-12-37.91 N",
		"longitude": "95-11-46.97 W",
		"state": "IOWA",
		"artcc": "ZMP",
		"type": "RNAV",
		"updated": "05/24/2013",
	},
	{
		"name": "JAPID",
		"latitude": "40-28-35.34 N",
		"longitude": "96-12-31.21 W",
		"state": "NEBRASKA",
		"artcc": "ZMP",
		"type": "RNAV",
		"updated": "04/11/2013",
	},
	{
		"name": "JAPKA",
		"latitude": "43-4-8.71 N",
		"longitude": "94-36-7.88 W",
		"state": "IOWA",
		"artcc": "ZMP",
		"type": "RNAV",
		"updated": "03/30/2011",
	},
	{
		"name": "JAPNU",
		"latitude": "45-22-38.21 N",
		"longitude": "94-13-47.01 W",
		"state": "MINNESOTA",
		"artcc": "ZMP",
		"type": "RNAV",
		"updated": "12/19/2003",
	},
	{
		"name": "JAPSA",
		"latitude": "43-41-49.44 N",
		"longitude": "92-56-19.02 W",
		"state": "MINNESOTA",
		"artcc": "ZMP",
		"type": "RP",
		"updated": "JAY*VOR/DME*350.50/7.29",
	},
	{
		"name": "JAQKU",
		"latitude": "45-6-19.28 N",
		"longitude": "89-59-10.43 W",
		"state": "WISCONSIN",
		"artcc": "ZMP",
		"type": "RNAV",
		"updated": "12/22/2008",
	},
	{
		"name": "JARNS",
		"latitude": "48-26-14.73 N",
		"longitude": "97-21-57.13 W",
		"state": "NORTH DAKOTA",
		"artcc": "ZMP",
		"type": "RNAV",
		"updated": "05/14/2010",
	},
	{
		"name": "JASAK",
		"latitude": "44-47-40.19 N",
		"longitude": "91-35-0.67 W",
		"state": "WISCONSIN",
		"artcc": "ZMP",
		"type": "RP",
		"updated": "EAU*LD*223.96/5.43",
	},
	{
		"name": "JASET",
		"latitude": "45-53-6.81 N",
		"longitude": "84-26-35.24 W",
		"state": "MICHIGAN",
		"artcc": "ZMP",
		"type": "RNAV",
		"updated": "06/19/2002",
	},
	{
		"name": "JASNI",
		"latitude": "45-56-42.21 N",
		"longitude": "93-8-18.09 W",
		"state": "MINNESOTA",
		"artcc": "ZMP",
		"type": "RNAV",
		"updated": "05/04/2010",
	},
	{
		"name": "JASUD",
		"latitude": "43-7-54.8 N",
		"longitude": "92-59-32.43 W",
		"state": "IOWA",
		"artcc": "ZMP",
		"type": "RP",
		"updated": "MCW*VOR/DME*075.34/15.00",
	},
	{
		"name": "JASVA",
		"latitude": "42-47-28.49 N",
		"longitude": "95-9-5.64 W",
		"state": "IOWA",
		"artcc": "ZMP",
		"type": "RNAV",
		"updated": "08/23/2005",
	},
	{
		"name": "JATIN",
		"latitude": "41-10-9.7 N",
		"longitude": "95-45-39.33 W",
		"state": "IOWA",
		"artcc": "ZMP",
		"type": "RP",
		"updated": "OVR*VORTAC*268.89",
	},
	{
		"name": "JATRA",
		"latitude": "45-39-44.2 N",
		"longitude": "84-47-52.9 W",
		"state": "MICHIGAN",
		"artcc": "ZMP",
		"type": "RP",
		"updated": "PLN*VORTAC*294.66/5.95",
	},
	{
		"name": "JATTY",
		"latitude": "43-54-35.62 N",
		"longitude": "94-29-42.13 W",
		"state": "MINNESOTA",
		"artcc": "ZMP",
		"type": "RNAV",
		"updated": "02/22/2016",
	},
	{
		"name": "JAVAM",
		"latitude": "44-20-18.28 N",
		"longitude": "87-34-49.26 W",
		"state": "WISCONSIN",
		"artcc": "ZMP",
		"type": "RP",
		"updated": "GRB*VORTAC*115.00/29.44",
	},
	{
		"name": "JAVEP",
		"latitude": "44-26-0.32 N",
		"longitude": "94-52-33.99 W",
		"state": "MINNESOTA",
		"artcc": "ZMP",
		"type": "RNAV",
		"updated": "01/21/2009",
	},
	{
		"name": "JAVOD",
		"latitude": "44-29-30.22 N",
		"longitude": "83-4-55.61 W",
		"state": "MICHIGAN",
		"artcc": "ZMP",
		"type": "RNAV",
		"updated": "03/29/2010",
	},
	{
		"name": "JAVUT",
		"latitude": "46-41-34.23 N",
		"longitude": "91-9-30.83 W",
		"state": "WISCONSIN",
		"artcc": "ZMP",
		"type": "RNAV",
		"updated": "03/21/2013",
	},
	{
		"name": "JAXIL",
		"latitude": "43-37-28.15 N",
		"longitude": "85-0-44.23 W",
		"state": "MICHIGAN",
		"artcc": "ZMP",
		"type": "RNAV",
		"updated": "06/19/2009",
	},
	{
		"name": "JAXWU",
		"latitude": "41-13-27.57 N",
		"longitude": "93-40-46.96 W",
		"state": "IOWA",
		"artcc": "ZMP",
		"type": "RNAV",
		"updated": "02/13/2012",
	},
	{
		"name": "JAYME",
		"latitude": "45-50-52.11 N",
		"longitude": "89-19-31.12 W",
		"state": "WISCONSIN",
		"artcc": "ZMP",
		"type": "RP",
		"updated": "RHI*VOR/DME*021.38/14.00",
	},
	{
		"name": "JAYZU",
		"latitude": "41-39-2.68 N",
		"longitude": "98-0-16.43 W",
		"state": "NEBRASKA",
		"artcc": "ZMP",
		"type": "RNAV",
		"updated": "07/08/2008",
	},
	{
		"name": "JEBAR",
		"latitude": "43-21-26.64 N",
		"longitude": "91-59-4.37 W",
		"state": "IOWA",
		"artcc": "ZMP",
		"type": "RNAV",
		"updated": "03/30/2011",
	},
	{
		"name": "JEBER",
		"latitude": "45-1-33.2 N",
		"longitude": "97-22-56.22 W",
		"state": "SOUTH DAKOTA",
		"artcc": "ZMP",
		"type": "RNAV",
		"updated": "07/21/2007",
	},
	{
		"name": "JEBIR",
		"latitude": "46-40-53.96 N",
		"longitude": "100-50-37.31 W",
		"state": "NORTH DAKOTA",
		"artcc": "ZMP",
		"type": "RNAV",
		"updated": "03/30/2011",
	},
	{
		"name": "JEBTO",
		"latitude": "46-57-22.85 N",
		"longitude": "90-33-10.39 W",
		"state": "WISCONSIN",
		"artcc": "ZMP",
		"type": "RNAV",
		"updated": "03/18/2008",
	},
	{
		"name": "JEDED",
		"latitude": "41-5-34.88 N",
		"longitude": "97-32-11.12 W",
		"state": "NEBRASKA",
		"artcc": "ZMP",
		"type": "RNAV",
		"updated": "02/09/2006",
	},
	{
		"name": "JEDEN",
		"latitude": "44-58-24.68 N",
		"longitude": "93-5-54.81 W",
		"state": "MINNESOTA",
		"artcc": "ZMP",
		"type": "RP",
		"updated": "FCM*VOR/DME*057.67",
	},
	{
		"name": "JEDET",
		"latitude": "44-27-40.64 N",
		"longitude": "92-43-40.59 W",
		"state": "MINNESOTA",
		"artcc": "ZMP",
		"type": "RP",
		"updated": "MSP*VOR/DME*138.00/34.00",
	},
	{
		"name": "JEDUG",
		"latitude": "43-53-20.35 N",
		"longitude": "92-27-52.18 W",
		"state": "MINNESOTA",
		"artcc": "ZMP",
		"type": "RNAV",
		"updated": "03/28/2012",
	},
	{
		"name": "JEFWY",
		"latitude": "46-55-32.41 N",
		"longitude": "92-6-27.42 W",
		"state": "MINNESOTA",
		"artcc": "ZMP",
		"type": "RNAV",
		"updated": "04/08/2010",
	},
	{
		"name": "JEGLI",
		"latitude": "43-14-23.74 N",
		"longitude": "93-50-44.74 W",
		"state": "IOWA",
		"artcc": "ZMP",
		"type": "RNAV",
		"updated": "12/30/2009",
	},
	{
		"name": "JEGOB",
		"latitude": "44-51-31.57 N",
		"longitude": "83-33-37.3 W",
		"state": "MICHIGAN",
		"artcc": "ZMP",
		"type": "RNAV",
		"updated": "10/16/2008",
	},
	{
		"name": "JEGOL",
		"latitude": "43-25-21.9 N",
		"longitude": "96-5-45.95 W",
		"state": "IOWA",
		"artcc": "ZMP",
		"type": "RNAV",
		"updated": "05/30/2010",
	},
	{
		"name": "JEGRU",
		"latitude": "45-9-49.77 N",
		"longitude": "94-35-27.01 W",
		"state": "MINNESOTA",
		"artcc": "ZMP",
		"type": "RNAV",
		"updated": "08/03/2010",
	},
	{
		"name": "JEGUP",
		"latitude": "47-54-55.31 N",
		"longitude": "96-59-4.5 W",
		"state": "MINNESOTA",
		"artcc": "ZMP",
		"type": "WP",
		"updated": "GFK*VOR/DME*097.23/8.44",
	},
	{
		"name": "JEJAW",
		"latitude": "43-17-11.91 N",
		"longitude": "92-4-51.22 W",
		"state": "IOWA",
		"artcc": "ZMP",
		"type": "RNAV",
		"updated": "02/09/2018",
	},
	{
		"name": "JEKAN",
		"latitude": "46-51-28.69 N",
		"longitude": "101-3-12.15 W",
		"state": "NORTH DAKOTA",
		"artcc": "ZMP",
		"type": "RP",
		"updated": "BIS*VOR/DME*278.00/17.00",
	},
	{
		"name": "JEKRU",
		"latitude": "40-32-12.28 N",
		"longitude": "98-22-32.27 W",
		"state": "NEBRASKA",
		"artcc": "ZMP",
		"type": "RNAV",
		"updated": "10/04/2011",
	},
	{
		"name": "JEKUK",
		"latitude": "41-8-14.24 N",
		"longitude": "96-0-56.46 W",
		"state": "NEBRASKA",
		"artcc": "ZMP",
		"type": "RNAV",
		"updated": "01/22/2007",
	},
	{
		"name": "JELAM",
		"latitude": "42-40-17.69 N",
		"longitude": "94-58-31.06 W",
		"state": "IOWA",
		"artcc": "ZMP",
		"type": "RNAV",
		"updated": "04/12/2012",
	},
	{
		"name": "JELAR",
		"latitude": "46-13-53.02 N",
		"longitude": "89-17-47.84 W",
		"state": "MICHIGAN",
		"artcc": "ZMP",
		"type": "RNAV",
		"updated": "05/02/2005",
	},
	{
		"name": "JELDI",
		"latitude": "45-26-2.85 N",
		"longitude": "95-54-19.68 W",
		"state": "MINNESOTA",
		"artcc": "ZMP",
		"type": "RNAV",
		"updated": "01/21/2009",
	},
	{
		"name": "JELET",
		"latitude": "43-59-54.06 N",
		"longitude": "95-6-31.24 W",
		"state": "MINNESOTA",
		"artcc": "ZMP",
		"type": "RNAV",
		"updated": "07/10/2003",
	},
	{
		"name": "JELKU",
		"latitude": "45-53-27.47 N",
		"longitude": "98-1-18.19 W",
		"state": "SOUTH DAKOTA",
		"artcc": "ZMP",
		"type": "RNAV",
		"updated": "11/29/2012",
	},
	{
		"name": "JELMU",
		"latitude": "47-14-21.85 N",
		"longitude": "101-32-34.07 W",
		"state": "NORTH DAKOTA",
		"artcc": "ZMP",
		"type": "RNAV",
		"updated": "05/30/2010",
	},
	{
		"name": "JELOG",
		"latitude": "43-42-0.85 N",
		"longitude": "92-56-24.36 W",
		"state": "MINNESOTA",
		"artcc": "ZMP",
		"type": "RNAV",
		"updated": "05/30/2013",
	},
	{
		"name": "JELOR",
		"latitude": "46-23-27.57 N",
		"longitude": "91-0-24.12 W",
		"state": "WISCONSIN",
		"artcc": "ZMP",
		"type": "RP",
		"updated": "ASX*LE*S CRS/10.62",
	},
	{
		"name": "JELRO",
		"latitude": "45-48-43.83 N",
		"longitude": "102-51-46.96 W",
		"state": "SOUTH DAKOTA",
		"artcc": "ZMP",
		"type": "RP",
		"updated": "DIK*VORTAC*169.42/63.00",
	},
	{
		"name": "JELUR",
		"latitude": "45-7-36.47 N",
		"longitude": "89-58-20.46 W",
		"state": "WISCONSIN",
		"artcc": "ZMP",
		"type": "RNAV",
		"updated": "07/19/2007",
	},
	{
		"name": "JEMGU",
		"latitude": "41-22-5.79 N",
		"longitude": "95-58-2.37 W",
		"state": "NEBRASKA",
		"artcc": "ZMP",
		"type": "RNAV",
		"updated": "08/09/2012",
	},
	{
		"name": "JEMVI",
		"latitude": "40-47-42.83 N",
		"longitude": "96-45-43.61 W",
		"state": "NEBRASKA",
		"artcc": "ZMP",
		"type": "MR",
		"updated": "LNK*VORTAC*177.78",
	},
	{
		"name": "JENGI",
		"latitude": "45-53-48.97 N",
		"longitude": "85-1-59.42 W",
		"state": "MICHIGAN",
		"artcc": "ZMP",
		"type": "RNAV",
		"updated": "06/19/2002",
	},
	{
		"name": "JENOT",
		"latitude": "46-25-16.23 N",
		"longitude": "84-36-56.96 W",
		"state": "MICHIGAN",
		"artcc": "ZMP",
		"type": "RNAV",
		"updated": "09/15/2009",
	},
	{
		"name": "JENTU",
		"latitude": "43-36-52.03 N",
		"longitude": "95-27-23.64 W",
		"state": "MINNESOTA",
		"artcc": "ZMP",
		"type": "RNAV",
		"updated": "12/03/2012",
	},
	{
		"name": "JENUN",
		"latitude": "44-10-16.65 N",
		"longitude": "89-53-1.23 W",
		"state": "WISCONSIN",
		"artcc": "ZMP",
		"type": "RNAV",
		"updated": "05/23/2013",
	},
	{
		"name": "JEPOT",
		"latitude": "44-16-14.81 N",
		"longitude": "86-8-34.56 W",
		"state": "MICHIGAN",
		"artcc": "ZMP",
		"type": "RP",
		"updated": "MBL*VOR/DME*/4.79",
	},
	{
		"name": "JEQMU",
		"latitude": "44-36-54 N",
		"longitude": "86-11-18.62 W",
		"state": "MICHIGAN",
		"artcc": "ZMP",
		"type": "RNAV",
		"updated": "08/22/2007",
	},
	{
		"name": "JERAS",
		"latitude": "45-14-8.78 N",
		"longitude": "93-41-25.02 W",
		"state": "MINNESOTA",
		"artcc": "ZMP",
		"type": "RP",
		"updated": "GEP*VORTAC*286.00/14.50",
	},
	{
		"name": "JERMN",
		"latitude": "45-0-17.45 N",
		"longitude": "91-27-35.23 W",
		"state": "WISCONSIN",
		"artcc": "ZMP",
		"type": "RNAV",
		"updated": "11/20/2016",
	},
	{
		"name": "JERRO",
		"latitude": "44-18-45.51 N",
		"longitude": "85-18-15.06 W",
		"state": "MICHIGAN",
		"artcc": "ZMP",
		"type": "RNAV",
		"updated": "04/28/2009",
	},
	{
		"name": "JESGA",
		"latitude": "46-49-16.13 N",
		"longitude": "96-36-38.26 W",
		"state": "MINNESOTA",
		"artcc": "ZMP",
		"type": "RNAV",
		"updated": "09/10/2012",
	},
	{
		"name": "JESUR",
		"latitude": "40-38-45.04 N",
		"longitude": "96-39-12.94 W",
		"state": "NEBRASKA",
		"artcc": "ZMP",
		"type": "RNAV",
		"updated": "07/08/2008",
	},
	{
		"name": "JESVA",
		"latitude": "44-47-30.89 N",
		"longitude": "93-27-35.4 W",
		"state": "MINNESOTA",
		"artcc": "ZMP",
		"type": "RNAV",
		"updated": "12/16/2013",
	},
	{
		"name": "JETGO",
		"latitude": "46-22-26.45 N",
		"longitude": "97-39-59.21 W",
		"state": "NORTH DAKOTA",
		"artcc": "ZMP",
		"type": "RNAV",
		"updated": "11/22/2016",
	},
	{
		"name": "JETOM",
		"latitude": "41-16-28.01 N",
		"longitude": "95-53-40.91 W",
		"state": "NEBRASKA",
		"artcc": "ZMP",
		"type": "RNAV",
		"updated": "01/22/2003",
	},
	{
		"name": "JEVBI",
		"latitude": "44-56-27.4 N",
		"longitude": "88-38-21.42 W",
		"state": "WISCONSIN",
		"artcc": "ZMP",
		"type": "RP",
		"updated": "GRB*VORTAC*319.77/29.95",
	},
	{
		"name": "JEVEM",
		"latitude": "47-13-53.56 N",
		"longitude": "91-5-24.31 W",
		"state": "MINNESOTA",
		"artcc": "ZMP",
		"type": "RNAV",
		"updated": "09/04/2010",
	},
	{
		"name": "JEVIP",
		"latitude": "43-53-53.57 N",
		"longitude": "85-30-40.89 W",
		"state": "MICHIGAN",
		"artcc": "ZMP",
		"type": "RNAV",
		"updated": "03/12/2014",
	},
	{
		"name": "JEVLO",
		"latitude": "47-0-44.92 N",
		"longitude": "98-17-49.73 W",
		"state": "NORTH DAKOTA",
		"artcc": "ZMP",
		"type": "RNAV",
		"updated": "06/18/2010",
	},
	{
		"name": "JEVUP",
		"latitude": "42-29-46.37 N",
		"longitude": "94-5-24.65 W",
		"state": "IOWA",
		"artcc": "ZMP",
		"type": "RNAV",
		"updated": "10/14/2009",
	},
	{
		"name": "JEXEG",
		"latitude": "46-2-54.34 N",
		"longitude": "97-52-33.73 W",
		"state": "NORTH DAKOTA",
		"artcc": "ZMP",
		"type": "WP",
		"updated": "04/01/2011",
	},
	{
		"name": "JEXES",
		"latitude": "45-48-59.49 N",
		"longitude": "94-50-39.11 W",
		"state": "MINNESOTA",
		"artcc": "ZMP",
		"type": "RNAV",
		"updated": "08/24/2017",
	},
	{
		"name": "JEXIR",
		"latitude": "45-32-16.98 N",
		"longitude": "95-56-10.37 W",
		"state": "MINNESOTA",
		"artcc": "ZMP",
		"type": "RP",
		"updated": "MOX*VOR/DME*135.10/2.17",
	},
	{
		"name": "JEXIV",
		"latitude": "44-10-14.54 N",
		"longitude": "88-24-29.19 W",
		"state": "WISCONSIN",
		"artcc": "ZMP",
		"type": "RNAV",
		"updated": "07/12/2013",
	},
	{
		"name": "JEYZO",
		"latitude": "43-48-57.59 N",
		"longitude": "95-46-57.4 W",
		"state": "MINNESOTA",
		"artcc": "ZMP",
		"type": "RNAV",
		"updated": "07/10/2013",
	},
	{
		"name": "JGKGR",
		"latitude": "48-35-26.58 N",
		"longitude": "93-28-15.38 W",
		"state": "MINNESOTA",
		"artcc": "ZMP",
		"type": "CN",
		"updated": "06/03/2002",
	},
	{
		"name": "JGKPL",
		"latitude": "48-36-32.16 N",
		"longitude": "93-24-41.38 W",
		"state": "MINNESOTA",
		"artcc": "ZMP",
		"type": "CN",
		"updated": "06/03/2002",
	},
	{
		"name": "JGPTT",
		"latitude": "48-36-21.35 N",
		"longitude": "93-23-20.1 W",
		"state": "MINNESOTA",
		"artcc": "ZMP",
		"type": "CN",
		"updated": "06/03/2002",
	},
	{
		"name": "JGRLN",
		"latitude": "48-36-29.69 N",
		"longitude": "93-21-57.35 W",
		"state": "MINNESOTA",
		"artcc": "ZMP",
		"type": "CN",
		"updated": "06/03/2002",
	},
	{
		"name": "JGTSC",
		"latitude": "48-37-29.35 N",
		"longitude": "93-0-31.59 W",
		"state": "MINNESOTA",
		"artcc": "ZMP",
		"type": "CN",
		"updated": "06/03/2002",
	},
	{
		"name": "JIBAM",
		"latitude": "43-2-17.92 N",
		"longitude": "94-37-22.25 W",
		"state": "IOWA",
		"artcc": "ZMP",
		"type": "RNAV",
		"updated": "12/28/2009",
	},
	{
		"name": "JIBDU",
		"latitude": "48-21-57.97 N",
		"longitude": "93-25-3.96 W",
		"state": "MINNESOTA",
		"artcc": "ZMP",
		"type": "RP",
		"updated": "INL*VOR/DME*176.31/12.00",
	},
	{
		"name": "JIBEG",
		"latitude": "46-50-22.62 N",
		"longitude": "92-17-8.12 W",
		"state": "MINNESOTA",
		"artcc": "ZMP",
		"type": "RNAV",
		"updated": "08/01/2012",
	},
	{
		"name": "JIBID",
		"latitude": "45-27-41.65 N",
		"longitude": "95-6-47.87 W",
		"state": "MINNESOTA",
		"artcc": "ZMP",
		"type": "RNAV",
		"updated": "12/01/2010",
	},
	{
		"name": "JIBLU",
		"latitude": "40-55-11.04 N",
		"longitude": "98-51-53.41 W",
		"state": "NEBRASKA",
		"artcc": "ZMP",
		"type": "RNAV",
		"updated": "06/29/2005",
	},
	{
		"name": "JIBPO",
		"latitude": "47-10-46.55 N",
		"longitude": "101-29-59.56 W",
		"state": "NORTH DAKOTA",
		"artcc": "ZMP",
		"type": "WP",
		"updated": "11/02/1998",
	},
	{
		"name": "JIBQE",
		"latitude": "46-33-58.21 N",
		"longitude": "87-28-8.57 W",
		"state": "MICHIGAN",
		"artcc": "ZMP",
		"type": "RNAV",
		"updated": "04/22/2010",
	},
	{
		"name": "JIBRA",
		"latitude": "46-20-57.7 N",
		"longitude": "89-54-4.62 W",
		"state": "MICHIGAN",
		"artcc": "ZMP",
		"type": "RNAV",
		"updated": "01/18/2017",
	},
	{
		"name": "JIBSU",
		"latitude": "44-31-31.23 N",
		"longitude": "89-28-57.8 W",
		"state": "WISCONSIN",
		"artcc": "ZMP",
		"type": "RNAV",
		"updated": "12/21/2009",
	},
	{
		"name": "JIBTU",
		"latitude": "41-26-46.14 N",
		"longitude": "97-11-2.72 W",
		"state": "NEBRASKA",
		"artcc": "ZMP",
		"type": "RNAV",
		"updated": "10/02/2009",
	},
	{
		"name": "JIBYA",
		"latitude": "46-21-45.91 N",
		"longitude": "94-12-30.91 W",
		"state": "MINNESOTA",
		"artcc": "ZMP",
		"type": "RNAV",
		"updated": "05/20/2010",
	},
	{
		"name": "JIDAP",
		"latitude": "41-18-37.48 N",
		"longitude": "94-33-30.34 W",
		"state": "IOWA",
		"artcc": "ZMP",
		"type": "RNAV",
		"updated": "11/17/2010",
	},
	{
		"name": "JIDEX",
		"latitude": "47-50-28.24 N",
		"longitude": "98-15-4.98 W",
		"state": "NORTH DAKOTA",
		"artcc": "ZMP",
		"type": "RNAV",
		"updated": "04/13/2017",
	},
	{
		"name": "JIDOT",
		"latitude": "44-48-16.57 N",
		"longitude": "91-49-33.16 W",
		"state": "WISCONSIN",
		"artcc": "ZMP",
		"type": "RNAV",
		"updated": "03/11/2015",
	},
	{
		"name": "JIDSI",
		"latitude": "47-50-33.52 N",
		"longitude": "90-27-40.7 W",
		"state": "MINNESOTA",
		"artcc": "ZMP",
		"type": "RNAV",
		"updated": "03/27/2017",
	},
	{
		"name": "JIDUM",
		"latitude": "43-58-33.39 N",
		"longitude": "84-20-8.13 W",
		"state": "MICHIGAN",
		"artcc": "ZMP",
		"type": "RNAV",
		"updated": "10/19/2011",
	},
	{
		"name": "JIGNA",
		"latitude": "45-47-43.49 N",
		"longitude": "92-0-20.1 W",
		"state": "WISCONSIN",
		"artcc": "ZMP",
		"type": "RNAV",
		"updated": "11/19/2007",
	},
	{
		"name": "JIGVO",
		"latitude": "45-40-45.17 N",
		"longitude": "100-39-45.67 W",
		"state": "SOUTH DAKOTA",
		"artcc": "ZMP",
		"type": "RNAV",
		"updated": "07/21/2007",
	},
	{
		"name": "JIKAV",
		"latitude": "45-4-4 N",
		"longitude": "91-28-27 W",
		"state": "WISCONSIN",
		"artcc": "ZMP",
		"type": "RNAV",
		"updated": "08/27/2001",
	},
	{
		"name": "JIKED",
		"latitude": "43-8-50.79 N",
		"longitude": "95-7-50.3 W",
		"state": "IOWA",
		"artcc": "ZMP",
		"type": "RNAV",
		"updated": "03/10/2015",
	},
	{
		"name": "JIKJE",
		"latitude": "42-48-43.6 N",
		"longitude": "93-13-31.78 W",
		"state": "IOWA",
		"artcc": "ZMP",
		"type": "RNAV",
		"updated": "06/21/2013",
	},
	{
		"name": "JIKNU",
		"latitude": "42-18-10.64 N",
		"longitude": "98-56-14.55 W",
		"state": "NEBRASKA",
		"artcc": "ZMP",
		"type": "RP",
		"updated": "ONL*VORTAC*218.02/15.00",
	},
	{
		"name": "JIKPO",
		"latitude": "44-54-43.16 N",
		"longitude": "91-26-30.26 W",
		"state": "WISCONSIN",
		"artcc": "ZMP",
		"type": "RNAV",
		"updated": "09/04/2010",
	},
	{
		"name": "JIKRO",
		"latitude": "46-27-4.64 N",
		"longitude": "93-49-54.33 W",
		"state": "MINNESOTA",
		"artcc": "ZMP",
		"type": "RNAV",
		"updated": "04/27/2007",
	},
	{
		"name": "JILDA",
		"latitude": "44-5-52.13 N",
		"longitude": "91-42-51.9 W",
		"state": "MINNESOTA",
		"artcc": "ZMP",
		"type": "RNAV",
		"updated": "04/19/2018",
	},
	{
		"name": "JILEL",
		"latitude": "45-31-54.63 N",
		"longitude": "84-51-10.05 W",
		"state": "MICHIGAN",
		"artcc": "ZMP",
		"type": "RNAV",
		"updated": "07/09/2009",
	},
	{
		"name": "JILIN",
		"latitude": "43-58-38.26 N",
		"longitude": "86-20-27.33 W",
		"state": "MICHIGAN",
		"artcc": "ZMP",
		"type": "RNAV",
		"updated": "02/27/2008",
	},
	{
		"name": "JILRO",
		"latitude": "43-12-53.15 N",
		"longitude": "96-39-54.34 W",
		"state": "SOUTH DAKOTA",
		"artcc": "ZMP",
		"type": "RP",
		"updated": "FSD*VORTAC*159.95/26.57",
	},
	{
		"name": "JILTO",
		"latitude": "45-0-52.51 N",
		"longitude": "84-48-54.46 W",
		"state": "MICHIGAN",
		"artcc": "ZMP",
		"type": "RNAV",
		"updated": "03/26/2012",
	},
	{
		"name": "JILUL",
		"latitude": "46-24-46.48 N",
		"longitude": "90-41-1.15 W",
		"state": "WISCONSIN",
		"artcc": "ZMP",
		"type": "RNAV",
		"updated": "03/21/2013",
	},
	{
		"name": "JILUN",
		"latitude": "43-1-3.96 N",
		"longitude": "92-27-4.5 W",
		"state": "IOWA",
		"artcc": "ZMP",
		"type": "RNAV",
		"updated": "11/06/2012",
	},
	{
		"name": "JIMED",
		"latitude": "43-51-3.43 N",
		"longitude": "95-35-0.49 W",
		"state": "MINNESOTA",
		"artcc": "ZMP",
		"type": "RNAV",
		"updated": "11/15/2012",
	},
	{
		"name": "JIMKI",
		"latitude": "46-58-6.4 N",
		"longitude": "91-55-34.03 W",
		"state": "MINNESOTA",
		"artcc": "ZMP",
		"type": "RNAV",
		"updated": "04/08/2010",
	},
	{
		"name": "JIMOB",
		"latitude": "45-36-13.05 N",
		"longitude": "89-16-21.81 W",
		"state": "WISCONSIN",
		"artcc": "ZMP",
		"type": "RP",
		"updated": "RHI*VOR/DME*101.00/8.00",
	},
	{
		"name": "JIMOD",
		"latitude": "46-18-5.61 N",
		"longitude": "97-40-39 W",
		"state": "NORTH DAKOTA",
		"artcc": "ZMP",
		"type": "RNAV",
		"updated": "07/10/2014",
	},
	{
		"name": "JIMRO",
		"latitude": "44-8-30.79 N",
		"longitude": "91-32-55.2 W",
		"state": "WISCONSIN",
		"artcc": "ZMP",
		"type": "RNAV",
		"updated": "03/27/2014",
	},
	{
		"name": "JIMSI",
		"latitude": "43-46-31.04 N",
		"longitude": "91-48-41.29 W",
		"state": "MINNESOTA",
		"artcc": "ZMP",
		"type": "RNAV",
		"updated": "11/12/2008",
	},
	{
		"name": "JINCO",
		"latitude": "44-16-14.58 N",
		"longitude": "93-12-23.12 W",
		"state": "MINNESOTA",
		"artcc": "ZMP",
		"type": "RNAV",
		"updated": "02/28/2013",
	},
	{
		"name": "JINEM",
		"latitude": "45-35-23.09 N",
		"longitude": "93-16-43.14 W",
		"state": "MINNESOTA",
		"artcc": "ZMP",
		"type": "RNAV",
		"updated": "03/23/2012",
	},
	{
		"name": "JINPU",
		"latitude": "46-42-46.91 N",
		"longitude": "96-59-56.36 W",
		"state": "NORTH DAKOTA",
		"artcc": "ZMP",
		"type": "RNAV",
		"updated": "05/15/2008",
	},
	{
		"name": "JINWU",
		"latitude": "40-46-56.5 N",
		"longitude": "95-45-25.67 W",
		"state": "IOWA",
		"artcc": "ZMP",
		"type": "RNAV",
		"updated": "07/31/2006",
	},
	{
		"name": "JIPEV",
		"latitude": "42-35-0.19 N",
		"longitude": "98-3-47.54 W",
		"state": "NEBRASKA",
		"artcc": "ZMP",
		"type": "RNAV",
		"updated": "04/01/2011",
	},
	{
		"name": "JIPIP",
		"latitude": "40-20-35.45 N",
		"longitude": "96-45-14.12 W",
		"state": "NEBRASKA",
		"artcc": "ZMP",
		"type": "RNAV",
		"updated": "05/23/2011",
	},
	{
		"name": "JIPKO",
		"latitude": "46-5-36.19 N",
		"longitude": "93-59-25.79 W",
		"state": "MINNESOTA",
		"artcc": "ZMP",
		"type": "RP",
		"updated": "LER*LD*159.65/20.54",
	},
	{
		"name": "JIPTU",
		"latitude": "45-13-1.75 N",
		"longitude": "93-51-43.81 W",
		"state": "MINNESOTA",
		"artcc": "ZMP",
		"type": "RNAV",
		"updated": "06/20/2011",
	},
	{
		"name": "JIRMA",
		"latitude": "49-2-12.19 N",
		"longitude": "96-0-46.19 W",
		"state": "",
		"artcc": "ZMP",
		"type": "RNAV",
		"updated": "09/13/2012",
	},
	{
		"name": "JIROM",
		"latitude": "46-25-38.01 N",
		"longitude": "98-48-10.63 W",
		"state": "NORTH DAKOTA",
		"artcc": "ZMP",
		"type": "RNAV",
		"updated": "07/13/2015",
	},
	{
		"name": "JISBO",
		"latitude": "47-48-51.85 N",
		"longitude": "100-14-24.79 W",
		"state": "NORTH DAKOTA",
		"artcc": "ZMP",
		"type": "RNAV",
		"updated": "08/18/2010",
	},
	{
		"name": "JISMU",
		"latitude": "42-43-6.99 N",
		"longitude": "97-20-48.85 W",
		"state": "NEBRASKA",
		"artcc": "ZMP",
		"type": "RP",
		"updated": "YKN*VOR/DME*165.00/12.10",
	},
	{
		"name": "JISUS",
		"latitude": "44-40-39.06 N",
		"longitude": "90-5-50.99 W",
		"state": "WISCONSIN",
		"artcc": "ZMP",
		"type": "RNAV",
		"updated": "08/13/2013",
	},
	{
		"name": "JITED",
		"latitude": "41-15-54.88 N",
		"longitude": "94-10-14.61 W",
		"state": "IOWA",
		"artcc": "ZMP",
		"type": "RNAV",
		"updated": "11/17/2010",
	},
	{
		"name": "JITIG",
		"latitude": "41-14-9.25 N",
		"longitude": "95-49-55.76 W",
		"state": "IOWA",
		"artcc": "ZMP",
		"type": "RNAV",
		"updated": "08/15/2012",
	},
	{
		"name": "JIVEV",
		"latitude": "41-3-40.62 N",
		"longitude": "98-9-2.62 W",
		"state": "NEBRASKA",
		"artcc": "ZMP",
		"type": "RNAV",
		"updated": "07/08/2008",
	},
	{
		"name": "JIVID",
		"latitude": "41-18-59.79 N",
		"longitude": "95-5-44.56 W",
		"state": "IOWA",
		"artcc": "ZMP",
		"type": "RNAV",
		"updated": "04/12/2012",
	},
	{
		"name": "JIXER",
		"latitude": "48-26-29.15 N",
		"longitude": "99-13-19.34 W",
		"state": "NORTH DAKOTA",
		"artcc": "ZMP",
		"type": "RNAV",
		"updated": "06/29/2015",
	},
	{
		"name": "JIXIR",
		"latitude": "47-48-53.52 N",
		"longitude": "96-53-44.76 W",
		"state": "MINNESOTA",
		"artcc": "ZMP",
		"type": "RP",
		"updated": "GFK*VOR/DME*116.59/14.40",
	},
	{
		"name": "JIXIX",
		"latitude": "48-51-1 N",
		"longitude": "97-11-33.98 W",
		"state": "NORTH DAKOTA",
		"artcc": "ZMP",
		"type": "RNAV",
		"updated": "03/11/2013",
	},
	{
		"name": "JIXMO",
		"latitude": "44-16-11.3 N",
		"longitude": "85-43-42.63 W",
		"state": "MICHIGAN",
		"artcc": "ZMP",
		"type": "RNAV",
		"updated": "04/28/2009",
	},
	{
		"name": "JIXUN",
		"latitude": "44-50-2.56 N",
		"longitude": "93-30-24.47 W",
		"state": "MINNESOTA",
		"artcc": "ZMP",
		"type": "RNAV",
		"updated": "08/03/2010",
	},
	{
		"name": "JIYIB",
		"latitude": "45-58-43.69 N",
		"longitude": "83-52-43.17 W",
		"state": "MICHIGAN",
		"artcc": "ZMP",
		"type": "RNAV",
		"updated": "06/05/2010",
	},
	{
		"name": "JJENI",
		"latitude": "44-41-4.81 N",
		"longitude": "93-2-19.28 W",
		"state": "MINNESOTA",
		"artcc": "ZMP",
		"type": "RNAV",
		"updated": "01/12/2015",
	},
	{
		"name": "JKALL",
		"latitude": "47-37-41.73 N",
		"longitude": "99-45-37.37 W",
		"state": "NORTH DAKOTA",
		"artcc": "ZMP",
		"type": "RNAV",
		"updated": "08/18/2010",
	},
	{
		"name": "JMBON",
		"latitude": "42-36-22.62 N",
		"longitude": "96-22-43.81 W",
		"state": "IOWA",
		"artcc": "ZMP",
		"type": "RNAV",
		"updated": "04/12/2016",
	},
	{
		"name": "JMKNG",
		"latitude": "47-57-8.35 N",
		"longitude": "97-3-5.39 W",
		"state": "MINNESOTA",
		"artcc": "ZMP",
		"type": "RNAV",
		"updated": "02/02/2009",
	},
	{
		"name": "JOBNA",
		"latitude": "44-10-21.69 N",
		"longitude": "88-41-59.57 W",
		"state": "WISCONSIN",
		"artcc": "ZMP",
		"type": "RNAV",
		"updated": "07/12/2013",
	},
	{
		"name": "JOBOD",
		"latitude": "45-9-59.14 N",
		"longitude": "100-56-4.36 W",
		"state": "SOUTH DAKOTA",
		"artcc": "ZMP",
		"type": "RP",
		"updated": "DPR*VOR/DME*070.65/33.58",
	},
	{
		"name": "JOCEY",
		"latitude": "39-58-31.35 N",
		"longitude": "98-7-14.66 W",
		"state": "KANSAS",
		"artcc": "ZMP",
		"type": "RP",
		"updated": "TKO*VORTAC*022.37/12.00",
	},
	{
		"name": "JOCKA",
		"latitude": "44-39-26.71 N",
		"longitude": "95-29-57.13 W",
		"state": "MINNESOTA",
		"artcc": "ZMP",
		"type": "RNAV",
		"updated": "12/11/2009",
	},
	{
		"name": "JOCOR",
		"latitude": "47-37-39.3 N",
		"longitude": "97-5-34.26 W",
		"state": "NORTH DAKOTA",
		"artcc": "ZMP",
		"type": "RP",
		"updated": "GFK*VOR/DME*160.18/20.00",
	},
	{
		"name": "JODEE",
		"latitude": "45-16-43.3 N",
		"longitude": "84-42-3.77 W",
		"state": "MICHIGAN",
		"artcc": "ZMP",
		"type": "RNAV",
		"updated": "02/27/2018",
	},
	{
		"name": "JODEM",
		"latitude": "44-27-28.36 N",
		"longitude": "92-6-56.77 W",
		"state": "WISCONSIN",
		"artcc": "ZMP",
		"type": "RNAV",
		"updated": "09/29/2014",
	},
	{
		"name": "JODKU",
		"latitude": "47-18-39.69 N",
		"longitude": "91-7-36.03 W",
		"state": "MINNESOTA",
		"artcc": "ZMP",
		"type": "RNAV",
		"updated": "09/04/2010",
	},
	{
		"name": "JODMA",
		"latitude": "44-28-37.38 N",
		"longitude": "92-30-13.27 W",
		"state": "MINNESOTA",
		"artcc": "ZMP",
		"type": "RNAV",
		"updated": "09/10/2015",
	},
	{
		"name": "JODSO",
		"latitude": "47-20-48.99 N",
		"longitude": "96-27-43.54 W",
		"state": "MINNESOTA",
		"artcc": "ZMP",
		"type": "RNAV",
		"updated": "02/14/2011",
	},
	{
		"name": "JOESY",
		"latitude": "43-39-33.26 N",
		"longitude": "96-40-13.71 W",
		"state": "SOUTH DAKOTA",
		"artcc": "ZMP",
		"type": "RP",
		"updated": "FSD*VORTAC*074.09",
	},
	{
		"name": "JOEYS",
		"latitude": "41-22-55.91 N",
		"longitude": "99-1-18.96 W",
		"state": "NEBRASKA",
		"artcc": "ZMP",
		"type": "RNAV",
		"updated": "08/21/2015",
	},
	{
		"name": "JOGAN",
		"latitude": "40-41-51.01 N",
		"longitude": "96-48-58.48 W",
		"state": "NEBRASKA",
		"artcc": "ZMP",
		"type": "MR",
		"updated": "LNK*VORTAC*185.02/13.98",
	},
	{
		"name": "JOGDU",
		"latitude": "44-24-41.09 N",
		"longitude": "93-47-58.82 W",
		"state": "MINNESOTA",
		"artcc": "ZMP",
		"type": "RNAV",
		"updated": "10/14/2009",
	},
	{
		"name": "JOGOL",
		"latitude": "40-32-38.67 N",
		"longitude": "95-7-55.79 W",
		"state": "MISSOURI",
		"artcc": "ZMP",
		"type": "RNAV",
		"updated": "12/19/2009",
	},
	{
		"name": "JOGPI",
		"latitude": "42-0-34.84 N",
		"longitude": "93-40-34.95 W",
		"state": "IOWA",
		"artcc": "ZMP",
		"type": "RNAV",
		"updated": "01/20/2011",
	},
	{
		"name": "JOGTO",
		"latitude": "44-50-4.83 N",
		"longitude": "93-17-28.04 W",
		"state": "MINNESOTA",
		"artcc": "ZMP",
		"type": "RNAV",
		"updated": "08/19/2005",
	},
	{
		"name": "JOKOS",
		"latitude": "47-34-56.91 N",
		"longitude": "95-2-41.62 W",
		"state": "MINNESOTA",
		"artcc": "ZMP",
		"type": "RNAV",
		"updated": "04/21/2014",
	},
	{
		"name": "JOKPO",
		"latitude": "48-22-59.02 N",
		"longitude": "101-16-43.13 W",
		"state": "NORTH DAKOTA",
		"artcc": "ZMP",
		"type": "MR",
		"updated": "MIB*TACAN*109.00/4.00",
	},
	{
		"name": "JOKRR",
		"latitude": "41-7-52.92 N",
		"longitude": "95-48-27.64 W",
		"state": "IOWA",
		"artcc": "ZMP",
		"type": "RNAV",
		"updated": "08/15/2012",
	},
	{
		"name": "JOLBA",
		"latitude": "47-54-2.61 N",
		"longitude": "102-22-5.52 W",
		"state": "NORTH DAKOTA",
		"artcc": "ZMP",
		"type": "RNAV",
		"updated": "11/01/2017",
	},
	{
		"name": "JOLBO",
		"latitude": "48-21-31.57 N",
		"longitude": "101-12-47.22 W",
		"state": "NORTH DAKOTA",
		"artcc": "ZMP",
		"type": "MR",
		"updated": "MIB*TACAN*109.00/7.00",
	},
	{
		"name": "JOLDA",
		"latitude": "41-6-22.62 N",
		"longitude": "98-55-45.69 W",
		"state": "NEBRASKA",
		"artcc": "ZMP",
		"type": "RNAV",
		"updated": "08/21/2015",
	},
	{
		"name": "JOLGO",
		"latitude": "40-23-45.24 N",
		"longitude": "98-54-44.29 W",
		"state": "NEBRASKA",
		"artcc": "ZMP",
		"type": "RP",
		"updated": "EAR*VOR*157.85",
	},
	{
		"name": "JOLID",
		"latitude": "44-32-13.29 N",
		"longitude": "92-21-23.74 W",
		"state": "MINNESOTA",
		"artcc": "ZMP",
		"type": "RNAV",
		"updated": "03/10/2015",
	},
	{
		"name": "JOLIT",
		"latitude": "46-14-12.04 N",
		"longitude": "95-7-6.86 W",
		"state": "MINNESOTA",
		"artcc": "ZMP",
		"type": "RNAV",
		"updated": "06/21/2013",
	},
	{
		"name": "JOLNA",
		"latitude": "46-4-36.43 N",
		"longitude": "89-7-37.71 W",
		"state": "WISCONSIN",
		"artcc": "ZMP",
		"type": "RNAV",
		"updated": "05/02/2005",
	},
	{
		"name": "JOLUX",
		"latitude": "41-25-48.13 N",
		"longitude": "94-5-21.36 W",
		"state": "IOWA",
		"artcc": "ZMP",
		"type": "RNAV",
		"updated": "12/03/2014",
	},
	{
		"name": "JOLVO",
		"latitude": "44-28-33.47 N",
		"longitude": "93-19-42.25 W",
		"state": "MINNESOTA",
		"artcc": "ZMP",
		"type": "RNAV",
		"updated": "03/10/2015",
	},
	{
		"name": "JOMDO",
		"latitude": "43-53-37.34 N",
		"longitude": "95-0-28.63 W",
		"state": "MINNESOTA",
		"artcc": "ZMP",
		"type": "RNAV",
		"updated": "06/28/2013",
	},
	{
		"name": "JOMIB",
		"latitude": "48-10-45.26 N",
		"longitude": "100-51-7.78 W",
		"state": "NORTH DAKOTA",
		"artcc": "ZMP",
		"type": "MR",
		"updated": "MIB*TACAN*114.36/25.00",
	},
	{
		"name": "JOMID",
		"latitude": "43-57-41.66 N",
		"longitude": "84-48-50.64 W",
		"state": "MICHIGAN",
		"artcc": "ZMP",
		"type": "RP",
		"updated": "MOP*VOR/DME*355.70/20.59",
	},
	{
		"name": "JOMSI",
		"latitude": "46-44-56.79 N",
		"longitude": "102-45-41.85 W",
		"state": "NORTH DAKOTA",
		"artcc": "ZMP",
		"type": "RNAV",
		"updated": "09/24/2009",
	},
	{
		"name": "JONEV",
		"latitude": "42-26-40.94 N",
		"longitude": "97-50-30.91 W",
		"state": "NEBRASKA",
		"artcc": "ZMP",
		"type": "RNAV",
		"updated": "04/13/2011",
	},
	{
		"name": "JONIE",
		"latitude": "45-20-19.57 N",
		"longitude": "85-9-17.09 W",
		"state": "MICHIGAN",
		"artcc": "ZMP",
		"type": "RNAV",
		"updated": "01/17/2008",
	},
	{
		"name": "JONIS",
		"latitude": "44-40-28.52 N",
		"longitude": "89-38-57.65 W",
		"state": "WISCONSIN",
		"artcc": "ZMP",
		"type": "RP",
		"updated": "PHS*LD*170.00/6.66",
	},
	{
		"name": "JONNA",
		"latitude": "44-49-15.61 N",
		"longitude": "93-42-15.16 W",
		"state": "MINNESOTA",
		"artcc": "ZMP",
		"type": "RP",
		"updated": "GEP*VORTAC*210.01",
	},
	{
		"name": "JONRO",
		"latitude": "44-6-33.97 N",
		"longitude": "91-15-41.75 W",
		"state": "WISCONSIN",
		"artcc": "ZMP",
		"type": "RP",
		"updated": "ODI*VORTAC*035.92",
	},
	{
		"name": "JONRU",
		"latitude": "41-43-35.45 N",
		"longitude": "93-31-20.08 W",
		"state": "IOWA",
		"artcc": "ZMP",
		"type": "RNAV",
		"updated": "11/29/2016",
	},
	{
		"name": "JONZY",
		"latitude": "44-50-28.09 N",
		"longitude": "93-0-35.66 W",
		"state": "MINNESOTA",
		"artcc": "ZMP",
		"type": "RNAV",
		"updated": "11/30/2016",
	},
	{
		"name": "JOPAK",
		"latitude": "44-9-23.54 N",
		"longitude": "100-12-48.22 W",
		"state": "SOUTH DAKOTA",
		"artcc": "ZMP",
		"type": "RNAV",
		"updated": "01/19/2006",
	},
	{
		"name": "JOPDA",
		"latitude": "43-4-28.58 N",
		"longitude": "95-12-52.51 W",
		"state": "IOWA",
		"artcc": "ZMP",
		"type": "RNAV",
		"updated": "05/24/2013",
	},
	{
		"name": "JOPEP",
		"latitude": "47-57-28.71 N",
		"longitude": "92-46-43.37 W",
		"state": "MINNESOTA",
		"artcc": "ZMP",
		"type": "RNAV",
		"updated": "06/21/2011",
	},
	{
		"name": "JOPIX",
		"latitude": "44-28-2.88 N",
		"longitude": "90-5-49.54 W",
		"state": "WISCONSIN",
		"artcc": "ZMP",
		"type": "RNAV",
		"updated": "05/16/2017",
	},
	{
		"name": "JOPKA",
		"latitude": "46-3-3.27 N",
		"longitude": "94-18-11.73 W",
		"state": "MINNESOTA",
		"artcc": "ZMP",
		"type": "RNAV",
		"updated": "05/06/2013",
	},
	{
		"name": "JOPOM",
		"latitude": "44-17-16.06 N",
		"longitude": "93-7-27.35 W",
		"state": "MINNESOTA",
		"artcc": "ZMP",
		"type": "RNAV",
		"updated": "02/11/2008",
	},
	{
		"name": "JOPOR",
		"latitude": "43-19-7.36 N",
		"longitude": "94-18-0.44 W",
		"state": "IOWA",
		"artcc": "ZMP",
		"type": "RNAV",
		"updated": "03/30/2011",
	},
	{
		"name": "JOPSU",
		"latitude": "44-12-15.91 N",
		"longitude": "92-53-49.86 W",
		"state": "MINNESOTA",
		"artcc": "ZMP",
		"type": "RNAV",
		"updated": "06/25/2013",
	},
	{
		"name": "JOPWO",
		"latitude": "48-46-3.95 N",
		"longitude": "100-19-22.09 W",
		"state": "NORTH DAKOTA",
		"artcc": "ZMP",
		"type": "RNAV",
		"updated": "04/07/2010",
	},
	{
		"name": "JORDY",
		"latitude": "42-5-11.53 N",
		"longitude": "93-31-32.82 W",
		"state": "IOWA",
		"artcc": "ZMP",
		"type": "RP",
		"updated": "DSM*VORTAC*001.02/39.31",
	},
	{
		"name": "JORIB",
		"latitude": "44-18-20.16 N",
		"longitude": "94-20-46.7 W",
		"state": "MINNESOTA",
		"artcc": "ZMP",
		"type": "RNAV",
		"updated": "09/29/2014",
	},
	{
		"name": "JORNI",
		"latitude": "46-1-9.41 N",
		"longitude": "96-1-57.43 W",
		"state": "MINNESOTA",
		"artcc": "ZMP",
		"type": "RNAV",
		"updated": "09/06/2013",
	},
	{
		"name": "JORTU",
		"latitude": "43-52-5.04 N",
		"longitude": "92-31-31.45 W",
		"state": "MINNESOTA",
		"artcc": "ZMP",
		"type": "RNAV",
		"updated": "05/17/2011",
	},
	{
		"name": "JORVO",
		"latitude": "46-24-3.07 N",
		"longitude": "95-29-24.59 W",
		"state": "MINNESOTA",
		"artcc": "ZMP",
		"type": "RNAV",
		"updated": "07/10/2013",
	},
	{
		"name": "JOSAM",
		"latitude": "44-16-38.3 N",
		"longitude": "88-22-41.51 W",
		"state": "WISCONSIN",
		"artcc": "ZMP",
		"type": "RNAV",
		"updated": "10/16/2008",
	},
	{
		"name": "JOSAR",
		"latitude": "46-41-56.02 N",
		"longitude": "93-35-50.16 W",
		"state": "MINNESOTA",
		"artcc": "ZMP",
		"type": "RNAV",
		"updated": "08/24/2017",
	},
	{
		"name": "JOSEB",
		"latitude": "44-7-24.47 N",
		"longitude": "91-49-11.47 W",
		"state": "MINNESOTA",
		"artcc": "ZMP",
		"type": "RNAV",
		"updated": "05/16/2017",
	},
	{
		"name": "JOSVU",
		"latitude": "44-53-43.63 N",
		"longitude": "93-1-28.22 W",
		"state": "MINNESOTA",
		"artcc": "ZMP",
		"type": "RNAV",
		"updated": "05/26/2017",
	},
	{
		"name": "JOTEB",
		"latitude": "40-47-7.63 N",
		"longitude": "96-37-9.53 W",
		"state": "NEBRASKA",
		"artcc": "ZMP",
		"type": "RP",
		"updated": "LNK*VORTAC*137.00/10.00",
	},
	{
		"name": "JOTUV",
		"latitude": "47-10-57.05 N",
		"longitude": "88-30-39.9 W",
		"state": "MICHIGAN",
		"artcc": "ZMP",
		"type": "RP",
		"updated": "CMX*LD*NW CRS/0.49",
	},
	{
		"name": "JOUST",
		"latitude": "41-24-22.72 N",
		"longitude": "96-47-12.41 W",
		"state": "NEBRASKA",
		"artcc": "ZMP",
		"type": "MR",
		"updated": "LNK*VORTAC*347.00/29.01",
	},
	{
		"name": "JOVDU",
		"latitude": "42-28-54.73 N",
		"longitude": "96-39-4.96 W",
		"state": "NEBRASKA",
		"artcc": "ZMP",
		"type": "RNAV",
		"updated": "01/04/2009",
	},
	{
		"name": "JOVIK",
		"latitude": "45-45-57.06 N",
		"longitude": "92-27-23.27 W",
		"state": "WISCONSIN",
		"artcc": "ZMP",
		"type": "RNAV",
		"updated": "03/16/2015",
	},
	{
		"name": "JOVIN",
		"latitude": "49-11-44.31 N",
		"longitude": "95-22-33.45 W",
		"state": "",
		"artcc": "ZMP",
		"type": "RP",
		"updated": "BDE*VOR/DME*309.34",
	},
	{
		"name": "JOVIR",
		"latitude": "44-30-27.74 N",
		"longitude": "95-16-52.26 W",
		"state": "MINNESOTA",
		"artcc": "ZMP",
		"type": "RP",
		"updated": "RWF*VOR/DME*283.35/7.00",
	},
	{
		"name": "JOVNO",
		"latitude": "43-52-41.4 N",
		"longitude": "95-25-30.6 W",
		"state": "MINNESOTA",
		"artcc": "ZMP",
		"type": "RNAV",
		"updated": "03/13/2014",
	},
	{
		"name": "JOVSI",
		"latitude": "47-11-56.33 N",
		"longitude": "88-50-16.6 W",
		"state": "MICHIGAN",
		"artcc": "ZMP",
		"type": "RNAV",
		"updated": "06/28/2013",
	},
	{
		"name": "JOWZI",
		"latitude": "47-10-39.89 N",
		"longitude": "96-20-28.8 W",
		"state": "MINNESOTA",
		"artcc": "ZMP",
		"type": "RNAV",
		"updated": "02/14/2011",
	},
	{
		"name": "JUBIK",
		"latitude": "47-19-55.39 N",
		"longitude": "92-56-22.44 W",
		"state": "MINNESOTA",
		"artcc": "ZMP",
		"type": "RNAV",
		"updated": "05/24/2004",
	},
	{
		"name": "JUDAD",
		"latitude": "40-44-47.39 N",
		"longitude": "96-45-44.74 W",
		"state": "NEBRASKA",
		"artcc": "ZMP",
		"type": "RNAV",
		"updated": "07/08/2008",
	},
	{
		"name": "JUDAL",
		"latitude": "45-8-27.11 N",
		"longitude": "92-49-53.93 W",
		"state": "MINNESOTA",
		"artcc": "ZMP",
		"type": "RP",
		"updated": "ANE*LD*088.70/16.66",
	},
	{
		"name": "JUDAQ",
		"latitude": "46-14-56.76 N",
		"longitude": "91-27-54 W",
		"state": "WISCONSIN",
		"artcc": "ZMP",
		"type": "RNAV",
		"updated": "07/09/2015",
	},
	{
		"name": "JUDBI",
		"latitude": "45-5-56.68 N",
		"longitude": "83-33-42.83 W",
		"state": "MICHIGAN",
		"artcc": "ZMP",
		"type": "MR",
		"updated": "APN*VORTAC*355.00/1.00",
	},
	{
		"name": "JUDDD",
		"latitude": "47-3-21.36 N",
		"longitude": "92-8-0.2 W",
		"state": "MINNESOTA",
		"artcc": "ZMP",
		"type": "RNAV",
		"updated": "04/08/2010",
	},
	{
		"name": "JUDEV",
		"latitude": "41-35-35.97 N",
		"longitude": "98-54-18.21 W",
		"state": "NEBRASKA",
		"artcc": "ZMP",
		"type": "RNAV",
		"updated": "04/03/2009",
	},
	{
		"name": "JUDGU",
		"latitude": "44-48-58.57 N",
		"longitude": "93-22-43.6 W",
		"state": "MINNESOTA",
		"artcc": "ZMP",
		"type": "RNAV",
		"updated": "08/03/2010",
	},
	{
		"name": "JUDIN",
		"latitude": "48-9-17.85 N",
		"longitude": "100-58-35.04 W",
		"state": "NORTH DAKOTA",
		"artcc": "ZMP",
		"type": "RNAV",
		"updated": "01/19/2006",
	},
	{
		"name": "JUDOD",
		"latitude": "47-40-43.25 N",
		"longitude": "92-29-2.32 W",
		"state": "MINNESOTA",
		"artcc": "ZMP",
		"type": "RNAV",
		"updated": "12/21/2011",
	},
	{
		"name": "JUGAN",
		"latitude": "44-36-2.24 N",
		"longitude": "92-47-32.13 W",
		"state": "MINNESOTA",
		"artcc": "ZMP",
		"type": "RNAV",
		"updated": "12/20/2010",
	},
	{
		"name": "JUGEV",
		"latitude": "45-22-51.9 N",
		"longitude": "84-33-38.33 W",
		"state": "MICHIGAN",
		"artcc": "ZMP",
		"type": "RNAV",
		"updated": "07/11/2009",
	},
	{
		"name": "JUGIN",
		"latitude": "45-1-50.44 N",
		"longitude": "92-54-3.7 W",
		"state": "MINNESOTA",
		"artcc": "ZMP",
		"type": "RNAV",
		"updated": "01/21/2011",
	},
	{
		"name": "JUGMA",
		"latitude": "46-50-28.36 N",
		"longitude": "92-15-31.18 W",
		"state": "MINNESOTA",
		"artcc": "ZMP",
		"type": "RP",
		"updated": "LKI*TACAN*267.00/3.00",
	},
	{
		"name": "JUGTO",
		"latitude": "43-7-47.57 N",
		"longitude": "93-31-44.28 W",
		"state": "IOWA",
		"artcc": "ZMP",
		"type": "RP",
		"updated": "MCW*VOR/DME*277.61/9.00",
	},
	{
		"name": "JUKAG",
		"latitude": "43-10-56.84 N",
		"longitude": "92-49-15.39 W",
		"state": "IOWA",
		"artcc": "ZMP",
		"type": "RNAV",
		"updated": "02/17/2016",
	},
	{
		"name": "JUKOB",
		"latitude": "44-29-54.68 N",
		"longitude": "88-5-57.33 W",
		"state": "WISCONSIN",
		"artcc": "ZMP",
		"type": "RP",
		"updated": "GRB*LD*241.91/0.49",
	},
	{
		"name": "JUKTA",
		"latitude": "44-55-32.87 N",
		"longitude": "93-6-34.96 W",
		"state": "MINNESOTA",
		"artcc": "ZMP",
		"type": "RNAV",
		"updated": "11/10/2011",
	},
	{
		"name": "JULAM",
		"latitude": "48-24-5.98 N",
		"longitude": "101-19-44.15 W",
		"state": "NORTH DAKOTA",
		"artcc": "ZMP",
		"type": "RP",
		"updated": "MIB*TACAN*109.00/1.70",
	},
	{
		"name": "JULBU",
		"latitude": "43-41-15.55 N",
		"longitude": "93-22-17.8 W",
		"state": "MINNESOTA",
		"artcc": "ZMP",
		"type": "RP",
		"updated": "AEL*VOR/DME*353.01/0.36",
	},
	{
		"name": "JULEY",
		"latitude": "44-48-34.62 N",
		"longitude": "93-17-23.08 W",
		"state": "MINNESOTA",
		"artcc": "ZMP",
		"type": "RP",
		"updated": "FCM*VOR/DME*097.17/6.60",
	},
	{
		"name": "JULOM",
		"latitude": "40-22-48.78 N",
		"longitude": "97-3-29.64 W",
		"state": "NEBRASKA",
		"artcc": "ZMP",
		"type": "RNAV",
		"updated": "05/30/2008",
	},
	{
		"name": "JULRI",
		"latitude": "45-11-38 N",
		"longitude": "87-15-54.6 W",
		"state": "WISCONSIN",
		"artcc": "ZMP",
		"type": "RNAV",
		"updated": "12/05/2010",
	},
	{
		"name": "JUMGU",
		"latitude": "46-37-6.07 N",
		"longitude": "100-32-32.9 W",
		"state": "NORTH DAKOTA",
		"artcc": "ZMP",
		"type": "RP",
		"updated": "BIS*VOR/DME*/9.99",
	},
	{
		"name": "JUMPO",
		"latitude": "45-28-42.8 N",
		"longitude": "91-46-22.39 W",
		"state": "WISCONSIN",
		"artcc": "ZMP",
		"type": "RNAV",
		"updated": "09/09/2015",
	},
	{
		"name": "JUMUS",
		"latitude": "41-25-8.45 N",
		"longitude": "97-19-28.34 W",
		"state": "NEBRASKA",
		"artcc": "ZMP",
		"type": "RP",
		"updated": "OLU*VOR/DME*150.44/2.00",
	},
	{
		"name": "JUNBU",
		"latitude": "46-1-34.04 N",
		"longitude": "83-40-6.87 W",
		"state": "MICHIGAN",
		"artcc": "ZMP",
		"type": "RNAV",
		"updated": "06/05/2010",
	},
	{
		"name": "JUNEM",
		"latitude": "45-43-22.37 N",
		"longitude": "88-7-55.16 W",
		"state": "WISCONSIN",
		"artcc": "ZMP",
		"type": "RNAV",
		"updated": "01/21/2009",
	},
	{
		"name": "JUNES",
		"latitude": "44-28-7.64 N",
		"longitude": "95-35-37.72 W",
		"state": "MINNESOTA",
		"artcc": "ZMP",
		"type": "RP",
		"updated": "MVE*VOR/DME*165.47/30.66",
	},
	{
		"name": "JUNIK",
		"latitude": "40-25-48.11 N",
		"longitude": "96-49-1.35 W",
		"state": "NEBRASKA",
		"artcc": "ZMP",
		"type": "RNAV",
		"updated": "05/30/2008",
	},
	{
		"name": "JUNSU",
		"latitude": "47-42-29 N",
		"longitude": "95-19-51.31 W",
		"state": "MINNESOTA",
		"artcc": "ZMP",
		"type": "RNAV",
		"updated": "04/02/2014",
	},
	{
		"name": "JUNTU",
		"latitude": "44-42-51.45 N",
		"longitude": "93-27-44.07 W",
		"state": "MINNESOTA",
		"artcc": "ZMP",
		"type": "RNAV",
		"updated": "09/01/2010",
	},
	{
		"name": "JUNUG",
		"latitude": "41-13-35.48 N",
		"longitude": "93-53-1.69 W",
		"state": "IOWA",
		"artcc": "ZMP",
		"type": "RNAV",
		"updated": "12/03/2014",
	},
	{
		"name": "JUNYR",
		"latitude": "41-11-29.99 N",
		"longitude": "95-54-21.45 W",
		"state": "IOWA",
		"artcc": "ZMP",
		"type": "RNAV",
		"updated": "04/16/2018",
	},
	{
		"name": "JUPAK",
		"latitude": "45-24-2.41 N",
		"longitude": "84-5-35.11 W",
		"state": "MICHIGAN",
		"artcc": "ZMP",
		"type": "RNAV",
		"updated": "07/25/2005",
	},
	{
		"name": "JUPGA",
		"latitude": "44-54-40.51 N",
		"longitude": "89-30-24.25 W",
		"state": "WISCONSIN",
		"artcc": "ZMP",
		"type": "RNAV",
		"updated": "06/10/2013",
	},
	{
		"name": "JUPIB",
		"latitude": "45-51-26.6 N",
		"longitude": "84-40-41.98 W",
		"state": "MICHIGAN",
		"artcc": "ZMP",
		"type": "RNAV",
		"updated": "02/20/2014",
	},
	{
		"name": "JUPMO",
		"latitude": "40-46-34.91 N",
		"longitude": "95-59-12.92 W",
		"state": "NEBRASKA",
		"artcc": "ZMP",
		"type": "RNAV",
		"updated": "03/27/2008",
	},
	{
		"name": "JUPUN",
		"latitude": "45-30-5.47 N",
		"longitude": "84-23-57.34 W",
		"state": "MICHIGAN",
		"artcc": "ZMP",
		"type": "RP",
		"updated": "PLN*VORTAC*130.67/13.59",
	},
	{
		"name": "JURMI",
		"latitude": "47-33-1.4 N",
		"longitude": "103-1-11.36 W",
		"state": "NORTH DAKOTA",
		"artcc": "ZMP",
		"type": "RNAV",
		"updated": "09/29/2017",
	},
	{
		"name": "JURNY",
		"latitude": "44-36-31.14 N",
		"longitude": "93-28-20.53 W",
		"state": "MINNESOTA",
		"artcc": "ZMP",
		"type": "RP",
		"updated": "MSP*VOR/DME*208.36/20.00",
	},
	{
		"name": "JURSU",
		"latitude": "43-48-18.86 N",
		"longitude": "99-21-55.96 W",
		"state": "SOUTH DAKOTA",
		"artcc": "ZMP",
		"type": "RNAV",
		"updated": "04/18/2018",
	},
	{
		"name": "JURUN",
		"latitude": "48-55-0.95 N",
		"longitude": "95-54-55.55 W",
		"state": "MINNESOTA",
		"artcc": "ZMP",
		"type": "RNAV",
		"updated": "09/12/2012",
	},
	{
		"name": "JUSAM",
		"latitude": "41-5-48 N",
		"longitude": "96-52-30.28 W",
		"state": "NEBRASKA",
		"artcc": "ZMP",
		"type": "RP",
		"updated": "LNK*VORTAC*320.80/12.00",
	},
	{
		"name": "JUSAT",
		"latitude": "46-45-10.75 N",
		"longitude": "95-47-44.94 W",
		"state": "MINNESOTA",
		"artcc": "ZMP",
		"type": "RNAV",
		"updated": "06/28/2007",
	},
	{
		"name": "JUSDU",
		"latitude": "48-29-35.98 N",
		"longitude": "101-29-47.29 W",
		"state": "NORTH DAKOTA",
		"artcc": "ZMP",
		"type": "RNAV",
		"updated": "MIB*TACAN*305.00/7.00",
	},
	{
		"name": "JUSMI",
		"latitude": "40-3-52.21 N",
		"longitude": "96-43-34.32 W",
		"state": "NEBRASKA",
		"artcc": "ZMP",
		"type": "RNAV",
		"updated": "01/30/2011",
	},
	{
		"name": "JUSOR",
		"latitude": "44-33-24.75 N",
		"longitude": "93-57-37.26 W",
		"state": "MINNESOTA",
		"artcc": "ZMP",
		"type": "RNAV",
		"updated": "04/28/2015",
	},
	{
		"name": "JUTIL",
		"latitude": "46-11-38.86 N",
		"longitude": "100-6-51.78 W",
		"state": "NORTH DAKOTA",
		"artcc": "ZMP",
		"type": "RNAV",
		"updated": "06/14/2013",
	},
	{
		"name": "JUTUB",
		"latitude": "43-37-53.12 N",
		"longitude": "97-50-29.84 W",
		"state": "SOUTH DAKOTA",
		"artcc": "ZMP",
		"type": "RNAV",
		"updated": "07/21/2006",
	},
	{
		"name": "JUVAG",
		"latitude": "45-19-9 N",
		"longitude": "86-26-30 W",
		"state": "MICHIGAN",
		"artcc": "ZMP",
		"type": "RNAV",
		"updated": "08/27/2001",
	},
	{
		"name": "JUVCA",
		"latitude": "45-36-45.4 N",
		"longitude": "95-18-23.88 W",
		"state": "MINNESOTA",
		"artcc": "ZMP",
		"type": "RNAV",
		"updated": "02/14/2013",
	},
	{
		"name": "JUVNU",
		"latitude": "45-43-9.15 N",
		"longitude": "86-58-13.58 W",
		"state": "MICHIGAN",
		"artcc": "ZMP",
		"type": "RNAV",
		"updated": "04/19/2012",
	},
	{
		"name": "JUVOL",
		"latitude": "44-45-16.44 N",
		"longitude": "87-27-4.48 W",
		"state": "WISCONSIN",
		"artcc": "ZMP",
		"type": "RNAV",
		"updated": "07/19/2007",
	},
	{
		"name": "JUVOP",
		"latitude": "44-43-3.61 N",
		"longitude": "89-23-36.74 W",
		"state": "WISCONSIN",
		"artcc": "ZMP",
		"type": "RP",
		"updated": "STE*LD*030.64/12.53",
	},
	{
		"name": "JUWMA",
		"latitude": "44-10-33.43 N",
		"longitude": "93-22-8.54 W",
		"state": "MINNESOTA",
		"artcc": "ZMP",
		"type": "RNAV",
		"updated": "04/10/2012",
	},
	{
		"name": "JUXAL",
		"latitude": "45-36-26.31 N",
		"longitude": "91-42-43.58 W",
		"state": "WISCONSIN",
		"artcc": "ZMP",
		"type": "RNAV",
		"updated": "12/03/2014",
	},
	{
		"name": "JUXIV",
		"latitude": "48-46-33.62 N",
		"longitude": "96-58-21.59 W",
		"state": "MINNESOTA",
		"artcc": "ZMP",
		"type": "RNAV",
		"updated": "07/26/2013",
	},
	{
		"name": "JUXOP",
		"latitude": "43-16-34.2 N",
		"longitude": "91-39-4.72 W",
		"state": "IOWA",
		"artcc": "ZMP",
		"type": "RP",
		"updated": "UKN*VOR/DME*262.31/5.00",
	},
	{
		"name": "JUXUL",
		"latitude": "39-34-59.67 N",
		"longitude": "98-39-45.26 W",
		"state": "KANSAS",
		"artcc": "ZMP",
		"type": "RNAV",
		"updated": "02/04/2014",
	},
	{
		"name": "JWLFD",
		"latitude": "44-36-2.38 N",
		"longitude": "92-47-35.53 W",
		"state": "MINNESOTA",
		"artcc": "ZMP",
		"type": "CN",
		"updated": "10/24/2011",
	},
