	{
		"name": "KAATS",
		"latitude": "43-56-45.24 N",
		"longitude": "98-36-4.24 W",
		"state": "SOUTH DAKOTA",
		"artcc": "ZMP",
		"type": "RP",
		"updated": "MHE*VOR/DME*285.69/26.48",
	},
	{
		"name": "KABEY",
		"latitude": "45-31-15.07 N",
		"longitude": "94-20-59.57 W",
		"state": "MINNESOTA",
		"artcc": "ZMP",
		"type": "RNAV",
		"updated": "12/19/2003",
	},
	{
		"name": "KABGE",
		"latitude": "44-5-39.2 N",
		"longitude": "94-6-25.55 W",
		"state": "MINNESOTA",
		"artcc": "ZMP",
		"type": "RNAV",
		"updated": "10/14/2009",
	},
	{
		"name": "KACER",
		"latitude": "45-16-42.5 N",
		"longitude": "94-16-2.71 W",
		"state": "MINNESOTA",
		"artcc": "ZMP",
		"type": "RNAV",
		"updated": "06/20/2011",
	},
	{
		"name": "KACHU",
		"latitude": "44-18-43.19 N",
		"longitude": "89-51-35.59 W",
		"state": "WISCONSIN",
		"artcc": "ZMP",
		"type": "RNAV",
		"updated": "05/16/2013",
	},
	{
		"name": "KADCO",
		"latitude": "42-44-2.07 N",
		"longitude": "94-3-10.04 W",
		"state": "IOWA",
		"artcc": "ZMP",
		"type": "RP",
		"updated": "FOD*VORTAC*048.81/13.00",
	},
	{
		"name": "KADPE",
		"latitude": "44-28-55.47 N",
		"longitude": "94-37-48.09 W",
		"state": "MINNESOTA",
		"artcc": "ZMP",
		"type": "RNAV",
		"updated": "03/21/2013",
	},
	{
		"name": "KAGRE",
		"latitude": "46-48-15.03 N",
		"longitude": "89-20-56.45 W",
		"state": "MICHIGAN",
		"artcc": "ZMP",
		"type": "RNAV",
		"updated": "05/31/2017",
	},
	{
		"name": "KAGRY",
		"latitude": "45-6-59.4 N",
		"longitude": "96-22-13.11 W",
		"state": "MINNESOTA",
		"artcc": "ZMP",
		"type": "RNAV",
		"updated": "06/21/2011",
	},
	{
		"name": "KAGTE",
		"latitude": "42-34-55.71 N",
		"longitude": "96-13-51.02 W",
		"state": "IOWA",
		"artcc": "ZMP",
		"type": "RNAV",
		"updated": "02/19/2013",
	},
	{
		"name": "KAJQU",
		"latitude": "41-19-42.48 N",
		"longitude": "95-50-6.51 W",
		"state": "IOWA",
		"artcc": "ZMP",
		"type": "RNAV",
		"updated": "02/05/2018",
	},
	{
		"name": "KAKEW",
		"latitude": "44-14-34.47 N",
		"longitude": "84-18-35.11 W",
		"state": "MICHIGAN",
		"artcc": "ZMP",
		"type": "RNAV",
		"updated": "09/15/2009",
	},
	{
		"name": "KAKRE",
		"latitude": "46-41-8.68 N",
		"longitude": "100-48-38.02 W",
		"state": "NORTH DAKOTA",
		"artcc": "ZMP",
		"type": "RNAV",
		"updated": "03/24/2014",
	},
	{
		"name": "KAKUH",
		"latitude": "45-57-9.93 N",
		"longitude": "102-34-2.24 W",
		"state": "NORTH DAKOTA",
		"artcc": "ZMP",
		"type": "RNAV",
		"updated": "03/29/2016",
	},
	{
		"name": "KAKVE",
		"latitude": "47-31-9.18 N",
		"longitude": "94-52-54.69 W",
		"state": "MINNESOTA",
		"artcc": "ZMP",
		"type": "RP",
		"updated": "BJI*LD*073.00/2.79",
	},
	{
		"name": "KALDE",
		"latitude": "40-48-58.51 N",
		"longitude": "95-53-26.04 W",
		"state": "NEBRASKA",
		"artcc": "ZMP",
		"type": "RNAV",
		"updated": "03/27/2008",
	},
	{
		"name": "KALNE",
		"latitude": "42-46-16.4 N",
		"longitude": "95-33-10.98 W",
		"state": "IOWA",
		"artcc": "ZMP",
		"type": "RNAV",
		"updated": "04/16/2018",
	},
	{
		"name": "KALWE",
		"latitude": "41-39-56.05 N",
		"longitude": "95-23-23.1 W",
		"state": "IOWA",
		"artcc": "ZMP",
		"type": "RNAV",
		"updated": "02/09/2018",
	},
	{
		"name": "KANAC",
		"latitude": "44-52-1.91 N",
		"longitude": "92-55-53.14 W",
		"state": "MINNESOTA",
		"artcc": "ZMP",
		"type": "RP",
		"updated": "GEP*VORTAC*125.47/25.16",
	},
	{
		"name": "KANDD",
		"latitude": "44-40-47.83 N",
		"longitude": "88-38-41.35 W",
		"state": "WISCONSIN",
		"artcc": "ZMP",
		"type": "RNAV",
		"updated": "12/08/2009",
	},
	{
		"name": "KANTE",
		"latitude": "43-12-41.78 N",
		"longitude": "92-1-52.5 W",
		"state": "IOWA",
		"artcc": "ZMP",
		"type": "RNAV",
		"updated": "02/09/2018",
	},
	{
		"name": "KAPCE",
		"latitude": "44-55-34.57 N",
		"longitude": "87-40-24.93 W",
		"state": "WISCONSIN",
		"artcc": "ZMP",
		"type": "RNAV",
		"updated": "06/19/2009",
	},
	{
		"name": "KAPKE",
		"latitude": "44-44-6.69 N",
		"longitude": "93-43-44.17 W",
		"state": "MINNESOTA",
		"artcc": "ZMP",
		"type": "RNAV",
		"updated": "02/21/2014",
	},
	{
		"name": "KAPNE",
		"latitude": "45-44-3.91 N",
		"longitude": "89-43-39.22 W",
		"state": "WISCONSIN",
		"artcc": "ZMP",
		"type": "RP",
		"updated": "RHI*VOR/DME*296.12",
	},
	{
		"name": "KAPOA",
		"latitude": "44-11-5.9 N",
		"longitude": "96-36-25.88 W",
		"state": "SOUTH DAKOTA",
		"artcc": "ZMP",
		"type": "RNAV",
		"updated": "04/16/2014",
	},
	{
		"name": "KARAA",
		"latitude": "40-16-22.57 N",
		"longitude": "95-15-23.49 W",
		"state": "MISSOURI",
		"artcc": "ZMP",
		"type": "RP",
		"updated": "RBA*VOR/DME*012.81/26.44",
	},
	{
		"name": "KARMA",
		"latitude": "40-27-14.69 N",
		"longitude": "94-48-18.83 W",
		"state": "MISSOURI",
		"artcc": "ZMP",
		"type": "RP",
		"updated": "LMN*VOR/DME*250.69/39.27",
	},
	{
		"name": "KASME",
		"latitude": "43-23-39.1 N",
		"longitude": "96-55-27.12 W",
		"state": "SOUTH DAKOTA",
		"artcc": "ZMP",
		"type": "RNAV",
		"updated": "07/05/2011",
	},
	{
		"name": "KASPR",
		"latitude": "43-57-55.76 N",
		"longitude": "93-14-49.35 W",
		"state": "MINNESOTA",
		"artcc": "ZMP",
		"type": "RP",
		"updated": "RST*VOR/DME*286.44",
	},
	{
		"name": "KATAE",
		"latitude": "41-10-56.78 N",
		"longitude": "96-1-41.19 W",
		"state": "NEBRASKA",
		"artcc": "ZMP",
		"type": "RP",
		"updated": "OFF*TACAN*299.00/7.00",
	},
	{
		"name": "KATES",
		"latitude": "42-33-9.09 N",
		"longitude": "96-46-28.68 W",
		"state": "NEBRASKA",
		"artcc": "ZMP",
		"type": "RP",
		"updated": "ONL*VORTAC*076.04/85.00",
	},
	{
		"name": "KATEY",
		"latitude": "43-37-11.97 N",
		"longitude": "91-55-20.43 W",
		"state": "MINNESOTA",
		"artcc": "ZMP",
		"type": "RNAV",
		"updated": "05/18/2012",
	},
	{
		"name": "KATTO",
		"latitude": "48-7-35.69 N",
		"longitude": "96-18-31.35 W",
		"state": "MINNESOTA",
		"artcc": "ZMP",
		"type": "RP",
		"updated": "TVF*VOR/DME*297.00/6.00",
	},
	{
		"name": "KAVPE",
		"latitude": "46-4-29.69 N",
		"longitude": "89-3-37.86 W",
		"state": "WISCONSIN",
		"artcc": "ZMP",
		"type": "RNAV",
		"updated": "06/05/2007",
	},
	{
		"name": "KAYEK",
		"latitude": "45-52-9.04 N",
		"longitude": "93-5-20.73 W",
		"state": "MINNESOTA",
		"artcc": "ZMP",
		"type": "RNAV",
		"updated": "12/31/2007",
	},
	{
		"name": "KAYEV",
		"latitude": "45-39-35.38 N",
		"longitude": "90-30-39.69 W",
		"state": "WISCONSIN",
		"artcc": "ZMP",
		"type": "RNAV",
		"updated": "10/24/2011",
	},
	{
		"name": "KAYGE",
		"latitude": "43-38-40.21 N",
		"longitude": "91-17-42.6 W",
		"state": "MINNESOTA",
		"artcc": "ZMP",
		"type": "RP",
		"updated": "LSE*VOR/DME*188.00/14.00",
	},
	{
		"name": "KAYQU",
		"latitude": "45-10-47.83 N",
		"longitude": "93-29-9.59 W",
		"state": "MINNESOTA",
		"artcc": "ZMP",
		"type": "RNAV",
		"updated": "01/12/2015",
	},
	{
		"name": "KBEEE",
		"latitude": "43-29-49.83 N",
		"longitude": "93-31-57.68 W",
		"state": "IOWA",
		"artcc": "ZMP",
		"type": "RNAV",
		"updated": "01/14/2015",
	},
	{
		"name": "KBREW",
		"latitude": "45-35-3.67 N",
		"longitude": "94-30-53.21 W",
		"state": "MINNESOTA",
		"artcc": "ZMP",
		"type": "RP",
		"updated": "GEP*VORTAC*293.00/55.00",
	},
	{
		"name": "KBULL",
		"latitude": "44-20-51.55 N",
		"longitude": "90-25-36.93 W",
		"state": "WISCONSIN",
		"artcc": "ZMP",
		"type": "RNAV",
		"updated": "01/13/2015",
	},
	{
		"name": "KDCDK",
		"latitude": "49-3-36.24 N",
		"longitude": "95-9-11.81 W",
		"state": "MINNESOTA",
		"artcc": "ZMP",
		"type": "CN",
		"updated": "06/07/2002",
	},
	{
		"name": "KDNKD",
		"latitude": "48-35-58.85 N",
		"longitude": "93-25-44.53 W",
		"state": "MINNESOTA",
		"artcc": "ZMP",
		"type": "CN",
		"updated": "06/11/2002",
	},
	{
		"name": "KECER",
		"latitude": "40-31-50.52 N",
		"longitude": "98-0-11.05 W",
		"state": "NEBRASKA",
		"artcc": "ZMP",
		"type": "RP",
		"updated": "HSI*VOR/DME*095.65/20.00",
	},
	{
		"name": "KEDTU",
		"latitude": "44-25-32.24 N",
		"longitude": "97-1-20.81 W",
		"state": "SOUTH DAKOTA",
		"artcc": "ZMP",
		"type": "RNAV",
		"updated": "04/16/2014",
	},
	{
		"name": "KEEFS",
		"latitude": "48-6-11.72 N",
		"longitude": "96-8-31.92 W",
		"state": "MINNESOTA",
		"artcc": "ZMP",
		"type": "RNAV",
		"updated": "09/24/2014",
	},
	{
		"name": "KEENO",
		"latitude": "44-48-16.42 N",
		"longitude": "85-16-46.21 W",
		"state": "MICHIGAN",
		"artcc": "ZMP",
		"type": "RNAV",
		"updated": "06/01/2006",
	},
	{
		"name": "KEFGO",
		"latitude": "43-11-13.88 N",
		"longitude": "93-13-57.49 W",
		"state": "IOWA",
		"artcc": "ZMP",
		"type": "RP",
		"updated": "MCW*VOR/DME*031.57/7.00",
	},
	{
		"name": "KEFIG",
		"latitude": "43-1-46.3 N",
		"longitude": "93-27-42.66 W",
		"state": "IOWA",
		"artcc": "ZMP",
		"type": "RP",
		"updated": "MCW*VOR/DME*230.07/7.00",
	},
	{
		"name": "KEGEE",
		"latitude": "45-21-41.11 N",
		"longitude": "91-7-53.33 W",
		"state": "WISCONSIN",
		"artcc": "ZMP",
		"type": "RNAV",
		"updated": "03/11/2015",
	},
	{
		"name": "KEKPE",
		"latitude": "45-17-54.91 N",
		"longitude": "100-16-49.04 W",
		"state": "SOUTH DAKOTA",
		"artcc": "ZMP",
		"type": "RNAV",
		"updated": "04/26/2012",
	},
	{
		"name": "KEMGE",
		"latitude": "45-6-3.13 N",
		"longitude": "91-43-33.92 W",
		"state": "WISCONSIN",
		"artcc": "ZMP",
		"type": "RNAV",
		"updated": "08/20/2003",
	},
	{
		"name": "KEMIK",
		"latitude": "43-17-45.22 N",
		"longitude": "96-1-59.14 W",
		"state": "IOWA",
		"artcc": "ZMP",
		"type": "RNAV",
		"updated": "02/09/2018",
	},
	{
		"name": "KENAR",
		"latitude": "41-27-32.26 N",
		"longitude": "96-19-45.8 W",
		"state": "NEBRASKA",
		"artcc": "ZMP",
		"type": "RP",
		"updated": "OVR*VORTAC*295.35/32.00",
	},
	{
		"name": "KENIE",
		"latitude": "47-0-33.5 N",
		"longitude": "96-48-54.68 W",
		"state": "MINNESOTA",
		"artcc": "ZMP",
		"type": "RP",
		"updated": "FAR*VOR/DME*356.51/15.44",
	},
	{
		"name": "KENNT",
		"latitude": "46-33-15.69 N",
		"longitude": "96-44-36.72 W",
		"state": "MINNESOTA",
		"artcc": "ZMP",
		"type": "RNAV",
		"updated": "04/28/2010",
	},
	{
		"name": "KENPA",
		"latitude": "44-47-42 N",
		"longitude": "82-23-36 W",
		"state": "MICHIGAN",
		"artcc": "ZMP",
		"type": "RNAV",
		"updated": "05/19/2017",
	},
	{
		"name": "KENTE",
		"latitude": "41-32-29.38 N",
		"longitude": "71-34-44.93 W",
		"state": "RHODE ISLAND",
		"artcc": "ZMP",
		"type": "RP",
		"updated": "ORW*VOR/DME*106.56",
	},
	{
		"name": "KEPBE",
		"latitude": "47-5-2.19 N",
		"longitude": "94-34-36.63 W",
		"state": "MINNESOTA",
		"artcc": "ZMP",
		"type": "RNAV",
		"updated": "07/09/2015",
	},
	{
		"name": "KESIW",
		"latitude": "45-53-2.35 N",
		"longitude": "86-49-20.04 W",
		"state": "MICHIGAN",
		"artcc": "ZMP",
		"type": "RNAV",
		"updated": "04/19/2012",
	},
	{
		"name": "KESNE",
		"latitude": "48-33-40.55 N",
		"longitude": "101-40-16.39 W",
		"state": "NORTH DAKOTA",
		"artcc": "ZMP",
		"type": "MR",
		"updated": "MIB*TACAN*295.84/15.00",
	},
	{
		"name": "KETAM",
		"latitude": "44-44-57 N",
		"longitude": "93-24-39.07 W",
		"state": "MINNESOTA",
		"artcc": "ZMP",
		"type": "RP",
		"updated": "GEP*VORTAC*177.87",
	},
	{
		"name": "KETEY",
		"latitude": "46-31-38.13 N",
		"longitude": "93-2-29.7 W",
		"state": "MINNESOTA",
		"artcc": "ZMP",
		"type": "RNAV",
		"updated": "06/13/2005",
	},
	{
		"name": "KEVEC",
		"latitude": "43-48-59.07 N",
		"longitude": "82-57-39.35 W",
		"state": "MICHIGAN",
		"artcc": "ZMP",
		"type": "RNAV",
		"updated": "10/24/2007",
	},
	{
		"name": "KEVGY",
		"latitude": "46-6-51.93 N",
		"longitude": "97-58-58.57 W",
		"state": "NORTH DAKOTA",
		"artcc": "ZMP",
		"type": "WP",
		"updated": "04/01/2011",
	},
	{
		"name": "KEVHO",
		"latitude": "41-57-40.91 N",
		"longitude": "94-18-24.63 W",
		"state": "IOWA",
		"artcc": "ZMP",
		"type": "RNAV",
		"updated": "12/30/2011",
	},
	{
		"name": "KEVIN",
		"latitude": "48-39-29.01 N",
		"longitude": "101-52-32.13 W",
		"state": "NORTH DAKOTA",
		"artcc": "ZMP",
		"type": "MR",
		"updated": "MIB*TACAN*296.00/25.00",
	},
	{
		"name": "KEYBE",
		"latitude": "45-2-57.54 N",
		"longitude": "89-55-44.69 W",
		"state": "WISCONSIN",
		"artcc": "ZMP",
		"type": "RNAV",
		"updated": "07/19/2007",
	},
	{
		"name": "KEYEN",
		"latitude": "45-21-8.55 N",
		"longitude": "93-36-39.03 W",
		"state": "MINNESOTA",
		"artcc": "ZMP",
		"type": "RNAV",
		"updated": "01/11/2018",
	},
	{
		"name": "KEYPE",
		"latitude": "40-5-56.87 N",
		"longitude": "96-51-37.5 W",
		"state": "NEBRASKA",
		"artcc": "ZMP",
		"type": "RNAV",
		"updated": "07/11/2003",
	},
	{
		"name": "KEYPR",
		"latitude": "44-40-42.68 N",
		"longitude": "93-33-54.89 W",
		"state": "MINNESOTA",
		"artcc": "ZMP",
		"type": "RNAV",
		"updated": "06/04/2012",
	},
	{
		"name": "KGEEE",
		"latitude": "43-44-56.53 N",
		"longitude": "93-30-28.49 W",
		"state": "MINNESOTA",
		"artcc": "ZMP",
		"type": "RP",
		"updated": "GEP*VORTAC*178.00/84.00",
	},
	{
		"name": "KIBYE",
		"latitude": "44-2-23.32 N",
		"longitude": "92-41-44.91 W",
		"state": "MINNESOTA",
		"artcc": "ZMP",
		"type": "RP",
		"updated": "RST*VOR/DME*339.49",
	},
	{
		"name": "KICCI",
		"latitude": "45-0-40.8 N",
		"longitude": "91-31-44.14 W",
		"state": "WISCONSIN",
		"artcc": "ZMP",
		"type": "RNAV",
		"updated": "11/06/2014",
	},
	{
		"name": "KIDKE",
		"latitude": "43-9-31.95 N",
		"longitude": "99-18-59.07 W",
		"state": "SOUTH DAKOTA",
		"artcc": "ZMP",
		"type": "RNAV",
		"updated": "09/06/2012",
	},
	{
		"name": "KIDSE",
		"latitude": "47-56-8.48 N",
		"longitude": "97-24-2.92 W",
		"state": "NORTH DAKOTA",
		"artcc": "ZMP",
		"type": "MR",
		"updated": "RDR*TACAN*/1.30",
	},
	{
		"name": "KIGCE",
		"latitude": "46-37-21.78 N",
		"longitude": "91-2-19.72 W",
		"state": "WISCONSIN",
		"artcc": "ZMP",
		"type": "RNAV",
		"updated": "03/21/2013",
	},
	{
		"name": "KIJCU",
		"latitude": "47-30-3.84 N",
		"longitude": "101-36-11.01 W",
		"state": "NORTH DAKOTA",
		"artcc": "ZMP",
		"type": "RNAV",
		"updated": "05/30/2010",
	},
	{
		"name": "KIKEC",
		"latitude": "46-47-2.83 N",
		"longitude": "97-6-14.97 W",
		"state": "NORTH DAKOTA",
		"artcc": "ZMP",
		"type": "RNAV",
		"updated": "05/15/2008",
	},
	{
		"name": "KIKKY",
		"latitude": "44-47-10.88 N",
		"longitude": "92-55-17.43 W",
		"state": "MINNESOTA",
		"artcc": "ZMP",
		"type": "RP",
		"updated": "FGT*VORTAC*044.00",
	},
	{
		"name": "KILBY",
		"latitude": "44-21-26.67 N",
		"longitude": "88-26-16.23 W",
		"state": "WISCONSIN",
		"artcc": "ZMP",
		"type": "RP",
		"updated": "MTW*VOR/DME*295.05",
	},
	{
		"name": "KILEY",
		"latitude": "42-37-53.37 N",
		"longitude": "95-54-54.74 W",
		"state": "IOWA",
		"artcc": "ZMP",
		"type": "RP",
		"updated": "FSD*VORTAC*138.78",
	},
	{
		"name": "KILTY",
		"latitude": "45-52-1.1 N",
		"longitude": "96-34-42.22 W",
		"state": "SOUTH DAKOTA",
		"artcc": "ZMP",
		"type": "RNAV",
		"updated": "08/02/2012",
	},
	{
		"name": "KILVE",
		"latitude": "45-59-15.5 N",
		"longitude": "95-11-27.07 W",
		"state": "MINNESOTA",
		"artcc": "ZMP",
		"type": "RNAV",
		"updated": "03/22/2010",
	},
	{
		"name": "KIMQE",
		"latitude": "44-32-26.23 N",
		"longitude": "90-16-7.53 W",
		"state": "WISCONSIN",
		"artcc": "ZMP",
		"type": "RNAV",
		"updated": "06/28/2012",
	},
	{
		"name": "KINGZ",
		"latitude": "46-13-2.85 N",
		"longitude": "92-18-21.06 W",
		"state": "MINNESOTA",
		"artcc": "ZMP",
		"type": "RP",
		"updated": "DLH*VORTAC*181.97/35.35",
	},
	{
		"name": "KINNO",
		"latitude": "46-35-19.77 N",
		"longitude": "96-53-20.89 W",
		"state": "NORTH DAKOTA",
		"artcc": "ZMP",
		"type": "RP",
		"updated": "FAR*VOR/DME*180.00/10.00",
	},
	{
		"name": "KINNS",
		"latitude": "44-56-42.29 N",
		"longitude": "93-22-0.51 W",
		"state": "MINNESOTA",
		"artcc": "ZMP",
		"type": "RP",
		"updated": "HKZ*LD*301.33/8.08",
	},
	{
		"name": "KINPE",
		"latitude": "42-26-7.91 N",
		"longitude": "93-58-54.34 W",
		"state": "IOWA",
		"artcc": "ZMP",
		"type": "RNAV",
		"updated": "10/14/2009",
	},
	{
		"name": "KIRKR",
		"latitude": "41-12-4.54 N",
		"longitude": "95-51-21.15 W",
		"state": "IOWA",
		"artcc": "ZMP",
		"type": "RNAV",
		"updated": "08/15/2012",
	},
	{
		"name": "KIRPE",
		"latitude": "44-42-11.19 N",
		"longitude": "95-58-51.75 W",
		"state": "MINNESOTA",
		"artcc": "ZMP",
		"type": "RNAV",
		"updated": "05/11/2007",
	},
	{
		"name": "KIRTS",
		"latitude": "42-47-36.36 N",
		"longitude": "91-45-26.33 W",
		"state": "IOWA",
		"artcc": "ZMP",
		"type": "RNAV",
		"updated": "02/04/2016",
	},
	{
		"name": "KITKY",
		"latitude": "40-56-15.7 N",
		"longitude": "95-1-6.1 W",
		"state": "IOWA",
		"artcc": "ZMP",
		"type": "RNAV",
		"updated": "12/19/2009",
	},
	{
		"name": "KITPE",
		"latitude": "46-49-27.21 N",
		"longitude": "95-43-42.6 W",
		"state": "MINNESOTA",
		"artcc": "ZMP",
		"type": "RNAV",
		"updated": "07/10/2013",
	},
	{
		"name": "KIVCO",
		"latitude": "42-46-57.45 N",
		"longitude": "94-0-37.58 W",
		"state": "IOWA",
		"artcc": "ZMP",
		"type": "RNAV",
		"updated": "06/21/2013",
	},
	{
		"name": "KIYEB",
		"latitude": "44-53-28.83 N",
		"longitude": "94-24-20.07 W",
		"state": "MINNESOTA",
		"artcc": "ZMP",
		"type": "RNAV",
		"updated": "04/27/2011",
	},
	{
		"name": "KIYNE",
		"latitude": "40-22-53.39 N",
		"longitude": "97-16-34.75 W",
		"state": "NEBRASKA",
		"artcc": "ZMP",
		"type": "RNAV",
		"updated": "05/30/2008",
	},
	{
		"name": "KIYRE",
		"latitude": "45-12-23.27 N",
		"longitude": "84-55-6.78 W",
		"state": "MICHIGAN",
		"artcc": "ZMP",
		"type": "RNAV",
		"updated": "04/17/2012",
	},
	{
		"name": "KJDPL",
		"latitude": "48-30-55.68 N",
		"longitude": "92-37-27.53 W",
		"state": "MINNESOTA",
		"artcc": "ZMP",
		"type": "CN",
		"updated": "06/03/2002",
	},
	{
		"name": "KJDRS",
		"latitude": "48-1-10.44 N",
		"longitude": "89-13-39.22 W",
		"state": "MICHIGAN",
		"artcc": "ZMP",
		"type": "CN",
		"updated": "06/12/2002",
	},
	{
		"name": "KJNGG",
		"latitude": "48-6-41.75 N",
		"longitude": "89-0-14.29 W",
		"state": "MICHIGAN",
		"artcc": "ZMP",
		"type": "CN",
		"updated": "06/12/2002",
	},
	{
		"name": "KJSCR",
		"latitude": "46-45-54.88 N",
		"longitude": "84-48-45.86 W",
		"state": "MICHIGAN",
		"artcc": "ZMP",
		"type": "CN",
		"updated": "06/12/2002",
	},
	{
		"name": "KJSTL",
		"latitude": "46-29-45.2 N",
		"longitude": "84-25-55.91 W",
		"state": "MICHIGAN",
		"artcc": "ZMP",
		"type": "CN",
		"updated": "06/06/2002",
	},
	{
		"name": "KKAYY",
		"latitude": "43-59-54.58 N",
		"longitude": "87-7-23.86 W",
		"state": "WISCONSIN",
		"artcc": "ZMP",
		"type": "RP",
		"updated": "GRB*VORTAC*124.49/57.00",
	},
	{
		"name": "KKILR",
		"latitude": "44-51-10.22 N",
		"longitude": "92-11-8.12 W",
		"state": "WISCONSIN",
		"artcc": "ZMP",
		"type": "RNAV",
		"updated": "01/14/2015",
	},
	{
		"name": "KLAAY",
		"latitude": "46-31-38.5 N",
		"longitude": "90-2-29.42 W",
		"state": "MICHIGAN",
		"artcc": "ZMP",
		"type": "RP",
		"updated": "IWD*VORTAC*/3.40",
	},
	{
		"name": "KLIIF",
		"latitude": "47-57-17.52 N",
		"longitude": "97-34-46.44 W",
		"state": "NORTH DAKOTA",
		"artcc": "ZMP",
		"type": "MR",
		"updated": "RDR*TACAN*263.00/7.00",
	},
	{
		"name": "KNOUT",
		"latitude": "48-33-54.52 N",
		"longitude": "99-16-5.02 W",
		"state": "NORTH DAKOTA",
		"artcc": "ZMP",
		"type": "RNAV",
		"updated": "06/29/2015",
	},
	{
		"name": "KOBME",
		"latitude": "46-42-54.35 N",
		"longitude": "96-49-7.34 W",
		"state": "NORTH DAKOTA",
		"artcc": "ZMP",
		"type": "RNAV",
		"updated": "02/02/2010",
	},
	{
		"name": "KODMY",
		"latitude": "45-33-28.05 N",
		"longitude": "95-16-53.46 W",
		"state": "MINNESOTA",
		"artcc": "ZMP",
		"type": "RNAV",
		"updated": "02/14/2013",
	},
	{
		"name": "KODPE",
		"latitude": "41-4-28.08 N",
		"longitude": "95-54-45.56 W",
		"state": "NEBRASKA",
		"artcc": "ZMP",
		"type": "RNAV",
		"updated": "01/22/2007",
	},
	{
		"name": "KOFOJ",
		"latitude": "48-41-25.39 N",
		"longitude": "101-16-23.94 W",
		"state": "NORTH DAKOTA",
		"artcc": "ZMP",
		"type": "RNAV",
		"updated": "10/03/2000",
	},
	{
		"name": "KOGGE",
		"latitude": "45-8-38.78 N",
		"longitude": "93-8-22.13 W",
		"state": "MINNESOTA",
		"artcc": "ZMP",
		"type": "RP",
		"updated": "ANE*LD*E CRS/3.59",
	},
	{
		"name": "KOHHL",
		"latitude": "45-18-56.66 N",
		"longitude": "91-48-13.17 W",
		"state": "WISCONSIN",
		"artcc": "ZMP",
		"type": "RNAV",
		"updated": "07/25/2005",
	},
	{
		"name": "KOJSY",
		"latitude": "47-9-22.03 N",
		"longitude": "101-20-34.32 W",
		"state": "NORTH DAKOTA",
		"artcc": "ZMP",
		"type": "RNAV",
		"updated": "05/30/2010",
	},
	{
		"name": "KOKAW",
		"latitude": "43-4-16.69 N",
		"longitude": "94-39-55.47 W",
		"state": "IOWA",
		"artcc": "ZMP",
		"type": "RNAV",
		"updated": "12/29/2009",
	},
	{
		"name": "KOLOE",
		"latitude": "46-19-56.75 N",
		"longitude": "84-32-29.58 W",
		"state": "MICHIGAN",
		"artcc": "ZMP",
		"type": "RP",
		"updated": "SSM*VOR/DME*247.16/10.56",
	},
	{
		"name": "KOLRE",
		"latitude": "46-5-44.71 N",
		"longitude": "89-51-16.06 W",
		"state": "WISCONSIN",
		"artcc": "ZMP",
		"type": "RNAV",
		"updated": "04/02/2010",
	},
	{
		"name": "KOMDE",
		"latitude": "43-22-8.08 N",
		"longitude": "95-23-22.9 W",
		"state": "IOWA",
		"artcc": "ZMP",
		"type": "RNAV",
		"updated": "04/07/2010",
	},
	{
		"name": "KONGZ",
		"latitude": "42-14-46.34 N",
		"longitude": "84-30-31.14 W",
		"state": "MICHIGAN",
		"artcc": "ZMP",
		"type": "RNAV",
		"updated": "09/11/2017",
	},
	{
		"name": "KOOKY",
		"latitude": "44-12-54.64 N",
		"longitude": "88-23-58.12 W",
		"state": "WISCONSIN",
		"artcc": "ZMP",
		"type": "RP",
		"updated": "AQZ*LD*SE CRS/6.49",
	},
	{
		"name": "KOPFY",
		"latitude": "40-21-0.65 N",
		"longitude": "97-0-0.16 W",
		"state": "NEBRASKA",
		"artcc": "ZMP",
		"type": "RP",
		"updated": "LNK*VORTAC*190.00",
	},
	{
		"name": "KOPSY",
		"latitude": "39-50-39.27 N",
		"longitude": "98-4-17.82 W",
		"state": "KANSAS",
		"artcc": "ZMP",
		"type": "RP",
		"updated": "TKO*VORTAC*065.34/9.00",
	},
	{
		"name": "KORDS",
		"latitude": "45-43-37.46 N",
		"longitude": "88-7-52.19 W",
		"state": "WISCONSIN",
		"artcc": "ZMP",
		"type": "RP",
		"updated": "IMT*VOR/DME*/5.40",
	},
	{
		"name": "KOSHO",
		"latitude": "40-9-30.96 N",
		"longitude": "95-39-17.55 W",
		"state": "NEBRASKA",
		"artcc": "ZMP",
		"type": "RNAV",
		"updated": "11/06/2014",
	},
	{
		"name": "KOTZA",
		"latitude": "39-45-25.15 N",
		"longitude": "98-26-37.51 W",
		"state": "KANSAS",
		"artcc": "ZMP",
		"type": "RP",
		"updated": "TKO*VORTAC*240.84/9.00",
	},
	{
		"name": "KOVJY",
		"latitude": "39-36-50.38 N",
		"longitude": "98-28-1.6 W",
		"state": "KANSAS",
		"artcc": "ZMP",
		"type": "RP",
		"updated": "TKO*VORTAC*209.80/15.00",
	},
	{
		"name": "KOVRE",
		"latitude": "43-49-11.48 N",
		"longitude": "96-6-36.83 W",
		"state": "MINNESOTA",
		"artcc": "ZMP",
		"type": "RNAV",
		"updated": "05/20/2010",
	},
	{
		"name": "KOWKU",
		"latitude": "44-33-45.6 N",
		"longitude": "83-8-35.65 W",
		"state": "MICHIGAN",
		"artcc": "ZMP",
		"type": "RNAV",
		"updated": "03/29/2010",
	},
	{
		"name": "KP03A",
		"latitude": "45-30-0 N",
		"longitude": "100-0-0 W",
		"state": "SOUTH DAKOTA",
		"artcc": "ZMP",
		"type": "NRS",
		"updated": "04/06/2004",
	},
	{
		"name": "KP03C",
		"latitude": "45-30-0 N",
		"longitude": "98-0-0 W",
		"state": "SOUTH DAKOTA",
		"artcc": "ZMP",
		"type": "NRS",
		"updated": "04/06/2004",
	},
	{
		"name": "KP03E",
		"latitude": "45-30-0 N",
		"longitude": "96-0-0 W",
		"state": "MINNESOTA",
		"artcc": "ZMP",
		"type": "NRS",
		"updated": "04/06/2004",
	},
	{
		"name": "KP03G",
		"latitude": "45-30-0 N",
		"longitude": "94-0-0 W",
		"state": "MINNESOTA",
		"artcc": "ZMP",
		"type": "NRS",
		"updated": "04/06/2004",
	},
	{
		"name": "KP03I",
		"latitude": "45-30-0 N",
		"longitude": "92-0-0 W",
		"state": "WISCONSIN",
		"artcc": "ZMP",
		"type": "NRS",
		"updated": "04/06/2004",
	},
	{
		"name": "KP03K",
		"latitude": "45-30-0 N",
		"longitude": "90-0-0 W",
		"state": "WISCONSIN",
		"artcc": "ZMP",
		"type": "NRS",
		"updated": "04/06/2004",
	},
	{
		"name": "KP03M",
		"latitude": "45-30-0 N",
		"longitude": "88-0-0 W",
		"state": "WISCONSIN",
		"artcc": "ZMP",
		"type": "NRS",
		"updated": "04/06/2004",
	},
	{
		"name": "KP03O",
		"latitude": "45-30-0 N",
		"longitude": "86-0-0 W",
		"state": "MICHIGAN",
		"artcc": "ZMP",
		"type": "NRS",
		"updated": "04/06/2004",
	},
	{
		"name": "KP03Q",
		"latitude": "45-30-0 N",
		"longitude": "84-0-0 W",
		"state": "MICHIGAN",
		"artcc": "ZMP",
		"type": "NRS",
		"updated": "04/06/2004",
	},
	{
		"name": "KP03Y",
		"latitude": "45-30-0 N",
		"longitude": "102-0-0 W",
		"state": "SOUTH DAKOTA",
		"artcc": "ZMP",
		"type": "NRS",
		"updated": "04/06/2004",
	},
	{
		"name": "KP06A",
		"latitude": "46-0-0 N",
		"longitude": "100-0-0 W",
		"state": "NORTH DAKOTA",
		"artcc": "ZMP",
		"type": "NRS",
		"updated": "04/06/2004",
	},
	{
		"name": "KP06C",
		"latitude": "46-0-0 N",
		"longitude": "98-0-0 W",
		"state": "NORTH DAKOTA",
		"artcc": "ZMP",
		"type": "NRS",
		"updated": "04/06/2004",
	},
	{
		"name": "KP06E",
		"latitude": "46-0-0 N",
		"longitude": "96-0-0 W",
		"state": "MINNESOTA",
		"artcc": "ZMP",
		"type": "NRS",
		"updated": "04/06/2004",
	},
	{
		"name": "KP06G",
		"latitude": "46-0-0 N",
		"longitude": "94-0-0 W",
		"state": "MINNESOTA",
		"artcc": "ZMP",
		"type": "NRS",
		"updated": "04/06/2004",
	},
	{
		"name": "KP06I",
		"latitude": "46-0-0 N",
		"longitude": "92-0-0 W",
		"state": "WISCONSIN",
		"artcc": "ZMP",
		"type": "NRS",
		"updated": "04/06/2004",
	},
	{
		"name": "KP06K",
		"latitude": "46-0-0 N",
		"longitude": "90-0-0 W",
		"state": "WISCONSIN",
		"artcc": "ZMP",
		"type": "NRS",
		"updated": "04/06/2004",
	},
	{
		"name": "KP06M",
		"latitude": "46-0-0 N",
		"longitude": "88-0-0 W",
		"state": "MICHIGAN",
		"artcc": "ZMP",
		"type": "NRS",
		"updated": "04/06/2004",
	},
	{
		"name": "KP06O",
		"latitude": "46-0-0 N",
		"longitude": "86-0-0 W",
		"state": "MICHIGAN",
		"artcc": "ZMP",
		"type": "NRS",
		"updated": "04/06/2004",
	},
	{
		"name": "KP06Q",
		"latitude": "46-0-0 N",
		"longitude": "84-0-0 W",
		"state": "MICHIGAN",
		"artcc": "ZMP",
		"type": "NRS",
		"updated": "04/06/2004",
	},
	{
		"name": "KP06Y",
		"latitude": "46-0-0 N",
		"longitude": "102-0-0 W",
		"state": "NORTH DAKOTA",
		"artcc": "ZMP",
		"type": "NRS",
		"updated": "04/06/2004",
	},
	{
		"name": "KP09A",
		"latitude": "46-30-0 N",
		"longitude": "100-0-0 W",
		"state": "NORTH DAKOTA",
		"artcc": "ZMP",
		"type": "NRS",
		"updated": "04/06/2004",
	},
	{
		"name": "KP09C",
		"latitude": "46-30-0 N",
		"longitude": "98-0-0 W",
		"state": "NORTH DAKOTA",
		"artcc": "ZMP",
		"type": "NRS",
		"updated": "04/06/2004",
	},
	{
		"name": "KP09E",
		"latitude": "46-30-0 N",
		"longitude": "96-0-0 W",
		"state": "MINNESOTA",
		"artcc": "ZMP",
		"type": "NRS",
		"updated": "04/06/2004",
	},
	{
		"name": "KP09G",
		"latitude": "46-30-0 N",
		"longitude": "94-0-0 W",
		"state": "MINNESOTA",
		"artcc": "ZMP",
		"type": "NRS",
		"updated": "04/06/2004",
	},
	{
		"name": "KP09I",
		"latitude": "46-30-0 N",
		"longitude": "92-0-0 W",
		"state": "WISCONSIN",
		"artcc": "ZMP",
		"type": "NRS",
		"updated": "04/06/2004",
	},
	{
		"name": "KP09K",
		"latitude": "46-30-0 N",
		"longitude": "90-0-0 W",
		"state": "MICHIGAN",
		"artcc": "ZMP",
		"type": "NRS",
		"updated": "04/06/2004",
	},
	{
		"name": "KP09M",
		"latitude": "46-30-0 N",
		"longitude": "88-0-0 W",
		"state": "MICHIGAN",
		"artcc": "ZMP",
		"type": "NRS",
		"updated": "04/06/2004",
	},
	{
		"name": "KP09O",
		"latitude": "46-30-0 N",
		"longitude": "86-0-0 W",
		"state": "MICHIGAN",
		"artcc": "ZMP",
		"type": "NRS",
		"updated": "04/06/2004",
	},
	{
		"name": "KP09Y",
		"latitude": "46-30-0 N",
		"longitude": "102-0-0 W",
		"state": "NORTH DAKOTA",
		"artcc": "ZMP",
		"type": "NRS",
		"updated": "04/06/2004",
	},
	{
		"name": "KP12A",
		"latitude": "47-0-0 N",
		"longitude": "100-0-0 W",
		"state": "NORTH DAKOTA",
		"artcc": "ZMP",
		"type": "NRS",
		"updated": "04/06/2004",
	},
	{
		"name": "KP12C",
		"latitude": "47-0-0 N",
		"longitude": "98-0-0 W",
		"state": "NORTH DAKOTA",
		"artcc": "ZMP",
		"type": "NRS",
		"updated": "04/06/2004",
	},
	{
		"name": "KP12E",
		"latitude": "47-0-0 N",
		"longitude": "96-0-0 W",
		"state": "MINNESOTA",
		"artcc": "ZMP",
		"type": "NRS",
		"updated": "04/06/2004",
	},
	{
		"name": "KP12G",
		"latitude": "47-0-0 N",
		"longitude": "94-0-0 W",
		"state": "MINNESOTA",
		"artcc": "ZMP",
		"type": "NRS",
		"updated": "04/06/2004",
	},
	{
		"name": "KP12I",
		"latitude": "47-0-0 N",
		"longitude": "92-0-0 W",
		"state": "MINNESOTA",
		"artcc": "ZMP",
		"type": "NRS",
		"updated": "04/06/2004",
	},
	{
		"name": "KP12K",
		"latitude": "47-0-0 N",
		"longitude": "90-0-0 W",
		"state": "MICHIGAN",
		"artcc": "ZMP",
		"type": "NRS",
		"updated": "04/06/2004",
	},
	{
		"name": "KP12M",
		"latitude": "47-0-0 N",
		"longitude": "88-0-0 W",
		"state": "MICHIGAN",
		"artcc": "ZMP",
		"type": "NRS",
		"updated": "04/06/2004",
	},
	{
		"name": "KP12Y",
		"latitude": "47-0-0 N",
		"longitude": "102-0-0 W",
		"state": "NORTH DAKOTA",
		"artcc": "ZMP",
		"type": "NRS",
		"updated": "04/06/2004",
	},
	{
		"name": "KP15A",
		"latitude": "47-30-0 N",
		"longitude": "100-0-0 W",
		"state": "NORTH DAKOTA",
		"artcc": "ZMP",
		"type": "NRS",
		"updated": "04/06/2004",
	},
	{
		"name": "KP15C",
		"latitude": "47-30-0 N",
		"longitude": "98-0-0 W",
		"state": "NORTH DAKOTA",
		"artcc": "ZMP",
		"type": "NRS",
		"updated": "04/06/2004",
	},
	{
		"name": "KP15E",
		"latitude": "47-30-0 N",
		"longitude": "96-0-0 W",
		"state": "MINNESOTA",
		"artcc": "ZMP",
		"type": "NRS",
		"updated": "04/06/2004",
	},
	{
		"name": "KP15G",
		"latitude": "47-30-0 N",
		"longitude": "94-0-0 W",
		"state": "MINNESOTA",
		"artcc": "ZMP",
		"type": "NRS",
		"updated": "04/06/2004",
	},
	{
		"name": "KP15I",
		"latitude": "47-30-0 N",
		"longitude": "92-0-0 W",
		"state": "MINNESOTA",
		"artcc": "ZMP",
		"type": "NRS",
		"updated": "04/06/2004",
	},
	{
		"name": "KP15K",
		"latitude": "47-30-0 N",
		"longitude": "90-0-0 W",
		"state": "MICHIGAN",
		"artcc": "ZMP",
		"type": "NRS",
		"updated": "04/06/2004",
	},
	{
		"name": "KP15M",
		"latitude": "47-30-0 N",
		"longitude": "88-0-0 W",
		"state": "MICHIGAN",
		"artcc": "ZMP",
		"type": "NRS",
		"updated": "04/06/2004",
	},
	{
		"name": "KP15Y",
		"latitude": "47-30-0 N",
		"longitude": "102-0-0 W",
		"state": "NORTH DAKOTA",
		"artcc": "ZMP",
		"type": "NRS",
		"updated": "04/06/2004",
	},
	{
		"name": "KP18A",
		"latitude": "48-0-0 N",
		"longitude": "100-0-0 W",
		"state": "NORTH DAKOTA",
		"artcc": "ZMP",
		"type": "NRS",
		"updated": "04/06/2004",
	},
	{
		"name": "KP18C",
		"latitude": "48-0-0 N",
		"longitude": "98-0-0 W",
		"state": "NORTH DAKOTA",
		"artcc": "ZMP",
		"type": "NRS",
		"updated": "04/06/2004",
	},
	{
		"name": "KP18E",
		"latitude": "48-0-0 N",
		"longitude": "96-0-0 W",
		"state": "MINNESOTA",
		"artcc": "ZMP",
		"type": "NRS",
		"updated": "04/06/2004",
	},
	{
		"name": "KP18G",
		"latitude": "48-0-0 N",
		"longitude": "94-0-0 W",
		"state": "MINNESOTA",
		"artcc": "ZMP",
		"type": "NRS",
		"updated": "04/06/2004",
	},
	{
		"name": "KP18I",
		"latitude": "48-0-0 N",
		"longitude": "92-0-0 W",
		"state": "MINNESOTA",
		"artcc": "ZMP",
		"type": "NRS",
		"updated": "04/06/2004",
	},
	{
		"name": "KP18K",
		"latitude": "48-0-0 N",
		"longitude": "90-0-0 W",
		"state": "MINNESOTA",
		"artcc": "ZMP",
		"type": "NRS",
		"updated": "04/06/2004",
	},
	{
		"name": "KP18Y",
		"latitude": "48-0-0 N",
		"longitude": "102-0-0 W",
		"state": "NORTH DAKOTA",
		"artcc": "ZMP",
		"type": "NRS",
		"updated": "04/06/2004",
	},
	{
		"name": "KP21A",
		"latitude": "48-30-0 N",
		"longitude": "100-0-0 W",
		"state": "NORTH DAKOTA",
		"artcc": "ZMP",
		"type": "NRS",
		"updated": "04/06/2004",
	},
	{
		"name": "KP21C",
		"latitude": "48-30-0 N",
		"longitude": "98-0-0 W",
		"state": "NORTH DAKOTA",
		"artcc": "ZMP",
		"type": "NRS",
		"updated": "04/06/2004",
	},
	{
		"name": "KP21E",
		"latitude": "48-30-0 N",
		"longitude": "96-0-0 W",
		"state": "MINNESOTA",
		"artcc": "ZMP",
		"type": "NRS",
		"updated": "04/06/2004",
	},
	{
		"name": "KP21G",
		"latitude": "48-30-0 N",
		"longitude": "94-0-0 W",
		"state": "MINNESOTA",
		"artcc": "ZMP",
		"type": "NRS",
		"updated": "04/06/2004",
	},
	{
		"name": "KP21Y",
		"latitude": "48-30-0 N",
		"longitude": "102-0-0 W",
		"state": "NORTH DAKOTA",
		"artcc": "ZMP",
		"type": "NRS",
		"updated": "04/06/2004",
	},
	{
		"name": "KP60C",
		"latitude": "40-0-0 N",
		"longitude": "98-0-0 W",
		"state": "KANSAS",
		"artcc": "ZMP",
		"type": "NRS",
		"updated": "04/06/2004",
	},
	{
		"name": "KP63C",
		"latitude": "40-30-0 N",
		"longitude": "98-0-0 W",
		"state": "NEBRASKA",
		"artcc": "ZMP",
		"type": "NRS",
		"updated": "04/06/2004",
	},
	{
		"name": "KP63E",
		"latitude": "40-30-0 N",
		"longitude": "96-0-0 W",
		"state": "NEBRASKA",
		"artcc": "ZMP",
		"type": "NRS",
		"updated": "04/06/2004",
	},
	{
		"name": "KP63G",
		"latitude": "40-30-0 N",
		"longitude": "94-0-0 W",
		"state": "MISSOURI",
		"artcc": "ZMP",
		"type": "NRS",
		"updated": "04/06/2004",
	},
	{
		"name": "KP66C",
		"latitude": "41-0-0 N",
		"longitude": "98-0-0 W",
		"state": "NEBRASKA",
		"artcc": "ZMP",
		"type": "NRS",
		"updated": "04/06/2004",
	},
	{
		"name": "KP66E",
		"latitude": "41-0-0 N",
		"longitude": "96-0-0 W",
		"state": "NEBRASKA",
		"artcc": "ZMP",
		"type": "NRS",
		"updated": "04/06/2004",
	},
	{
		"name": "KP66G",
		"latitude": "41-0-0 N",
		"longitude": "94-0-0 W",
		"state": "IOWA",
		"artcc": "ZMP",
		"type": "NRS",
		"updated": "04/06/2004",
	},
	{
		"name": "KP69C",
		"latitude": "41-30-0 N",
		"longitude": "98-0-0 W",
		"state": "NEBRASKA",
		"artcc": "ZMP",
		"type": "NRS",
		"updated": "04/06/2004",
	},
	{
		"name": "KP69E",
		"latitude": "41-30-0 N",
		"longitude": "96-0-0 W",
		"state": "IOWA",
		"artcc": "ZMP",
		"type": "NRS",
		"updated": "04/06/2004",
	},
	{
		"name": "KP69G",
		"latitude": "41-30-0 N",
		"longitude": "94-0-0 W",
		"state": "IOWA",
		"artcc": "ZMP",
		"type": "NRS",
		"updated": "04/06/2004",
	},
	{
		"name": "KP72C",
		"latitude": "42-0-0 N",
		"longitude": "98-0-0 W",
		"state": "NEBRASKA",
		"artcc": "ZMP",
		"type": "NRS",
		"updated": "04/06/2004",
	},
	{
		"name": "KP72E",
		"latitude": "42-0-0 N",
		"longitude": "96-0-0 W",
		"state": "IOWA",
		"artcc": "ZMP",
		"type": "NRS",
		"updated": "04/06/2004",
	},
	{
		"name": "KP72G",
		"latitude": "42-0-0 N",
		"longitude": "94-0-0 W",
		"state": "IOWA",
		"artcc": "ZMP",
		"type": "NRS",
		"updated": "04/06/2004",
	},
	{
		"name": "KP75C",
		"latitude": "42-30-0 N",
		"longitude": "98-0-0 W",
		"state": "NEBRASKA",
		"artcc": "ZMP",
		"type": "NRS",
		"updated": "04/06/2004",
	},
	{
		"name": "KP75E",
		"latitude": "42-30-0 N",
		"longitude": "96-0-0 W",
		"state": "IOWA",
		"artcc": "ZMP",
		"type": "NRS",
		"updated": "04/06/2004",
	},
	{
		"name": "KP75G",
		"latitude": "42-30-0 N",
		"longitude": "94-0-0 W",
		"state": "IOWA",
		"artcc": "ZMP",
		"type": "NRS",
		"updated": "04/06/2004",
	},
	{
		"name": "KP78C",
		"latitude": "43-0-0 N",
		"longitude": "98-0-0 W",
		"state": "SOUTH DAKOTA",
		"artcc": "ZMP",
		"type": "NRS",
		"updated": "04/06/2004",
	},
	{
		"name": "KP78E",
		"latitude": "43-0-0 N",
		"longitude": "96-0-0 W",
		"state": "IOWA",
		"artcc": "ZMP",
		"type": "NRS",
		"updated": "04/06/2004",
	},
	{
		"name": "KP78G",
		"latitude": "43-0-0 N",
		"longitude": "94-0-0 W",
		"state": "IOWA",
		"artcc": "ZMP",
		"type": "NRS",
		"updated": "04/06/2004",
	},
	{
		"name": "KP78I",
		"latitude": "43-0-0 N",
		"longitude": "92-0-0 W",
		"state": "IOWA",
		"artcc": "ZMP",
		"type": "NRS",
		"updated": "04/06/2004",
	},
	{
		"name": "KP81A",
		"latitude": "43-30-0 N",
		"longitude": "100-0-0 W",
		"state": "SOUTH DAKOTA",
		"artcc": "ZMP",
		"type": "NRS",
		"updated": "04/06/2004",
	},
	{
		"name": "KP81C",
		"latitude": "43-30-0 N",
		"longitude": "98-0-0 W",
		"state": "SOUTH DAKOTA",
		"artcc": "ZMP",
		"type": "NRS",
		"updated": "04/06/2004",
	},
	{
		"name": "KP81E",
		"latitude": "43-30-0 N",
		"longitude": "96-0-0 W",
		"state": "IOWA",
		"artcc": "ZMP",
		"type": "NRS",
		"updated": "04/06/2004",
	},
	{
		"name": "KP81G",
		"latitude": "43-30-0 N",
		"longitude": "94-0-0 W",
		"state": "MINNESOTA",
		"artcc": "ZMP",
		"type": "NRS",
		"updated": "04/06/2004",
	},
	{
		"name": "KP81I",
		"latitude": "43-30-0 N",
		"longitude": "92-0-0 W",
		"state": "IOWA",
		"artcc": "ZMP",
		"type": "NRS",
		"updated": "04/06/2004",
	},
	{
		"name": "KP84A",
		"latitude": "44-0-0 N",
		"longitude": "100-0-0 W",
		"state": "SOUTH DAKOTA",
		"artcc": "ZMP",
		"type": "NRS",
		"updated": "04/06/2004",
	},
	{
		"name": "KP84C",
		"latitude": "44-0-0 N",
		"longitude": "98-0-0 W",
		"state": "SOUTH DAKOTA",
		"artcc": "ZMP",
		"type": "NRS",
		"updated": "04/06/2004",
	},
	{
		"name": "KP84E",
		"latitude": "44-0-0 N",
		"longitude": "96-0-0 W",
		"state": "MINNESOTA",
		"artcc": "ZMP",
		"type": "NRS",
		"updated": "04/06/2004",
	},
	{
		"name": "KP84G",
		"latitude": "44-0-0 N",
		"longitude": "94-0-0 W",
		"state": "MINNESOTA",
		"artcc": "ZMP",
		"type": "NRS",
		"updated": "04/06/2004",
	},
	{
		"name": "KP84I",
		"latitude": "44-0-0 N",
		"longitude": "92-0-0 W",
		"state": "MINNESOTA",
		"artcc": "ZMP",
		"type": "NRS",
		"updated": "04/06/2004",
	},
	{
		"name": "KP84O",
		"latitude": "44-0-0 N",
		"longitude": "86-0-0 W",
		"state": "MICHIGAN",
		"artcc": "ZMP",
		"type": "NRS",
		"updated": "04/06/2004",
	},
	{
		"name": "KP84Q",
		"latitude": "44-0-0 N",
		"longitude": "84-0-0 W",
		"state": "MICHIGAN",
		"artcc": "ZMP",
		"type": "NRS",
		"updated": "04/06/2004",
	},
	{
		"name": "KP87A",
		"latitude": "44-30-0 N",
		"longitude": "100-0-0 W",
		"state": "SOUTH DAKOTA",
		"artcc": "ZMP",
		"type": "NRS",
		"updated": "04/06/2004",
	},
	{
		"name": "KP87C",
		"latitude": "44-30-0 N",
		"longitude": "98-0-0 W",
		"state": "SOUTH DAKOTA",
		"artcc": "ZMP",
		"type": "NRS",
		"updated": "04/06/2004",
	},
	{
		"name": "KP87E",
		"latitude": "44-30-0 N",
		"longitude": "96-0-0 W",
		"state": "MINNESOTA",
		"artcc": "ZMP",
		"type": "NRS",
		"updated": "04/06/2004",
	},
	{
		"name": "KP87G",
		"latitude": "44-30-0 N",
		"longitude": "94-0-0 W",
		"state": "MINNESOTA",
		"artcc": "ZMP",
		"type": "NRS",
		"updated": "04/06/2004",
	},
	{
		"name": "KP87I",
		"latitude": "44-30-0 N",
		"longitude": "92-0-0 W",
		"state": "WISCONSIN",
		"artcc": "ZMP",
		"type": "NRS",
		"updated": "04/06/2004",
	},
	{
		"name": "KP87K",
		"latitude": "44-30-0 N",
		"longitude": "90-0-0 W",
		"state": "WISCONSIN",
		"artcc": "ZMP",
		"type": "NRS",
		"updated": "04/06/2004",
	},
	{
		"name": "KP87M",
		"latitude": "44-30-0 N",
		"longitude": "88-0-0 W",
		"state": "WISCONSIN",
		"artcc": "ZMP",
		"type": "NRS",
		"updated": "04/06/2004",
	},
	{
		"name": "KP87O",
		"latitude": "44-30-0 N",
		"longitude": "86-0-0 W",
		"state": "MICHIGAN",
		"artcc": "ZMP",
		"type": "NRS",
		"updated": "04/06/2004",
	},
	{
		"name": "KP87Q",
		"latitude": "44-30-0 N",
		"longitude": "84-0-0 W",
		"state": "MICHIGAN",
		"artcc": "ZMP",
		"type": "NRS",
		"updated": "04/06/2004",
	},
	{
		"name": "KP90A",
		"latitude": "45-0-0 N",
		"longitude": "100-0-0 W",
		"state": "SOUTH DAKOTA",
		"artcc": "ZMP",
		"type": "NRS",
		"updated": "04/06/2004",
	},
	{
		"name": "KP90C",
		"latitude": "45-0-0 N",
		"longitude": "98-0-0 W",
		"state": "SOUTH DAKOTA",
		"artcc": "ZMP",
		"type": "NRS",
		"updated": "04/06/2004",
	},
	{
		"name": "KP90E",
		"latitude": "45-0-0 N",
		"longitude": "96-0-0 W",
		"state": "MINNESOTA",
		"artcc": "ZMP",
		"type": "NRS",
		"updated": "04/06/2004",
	},
	{
		"name": "KP90G",
		"latitude": "45-0-0 N",
		"longitude": "94-0-0 W",
		"state": "MINNESOTA",
		"artcc": "ZMP",
		"type": "NRS",
		"updated": "04/06/2004",
	},
	{
		"name": "KP90I",
		"latitude": "45-0-0 N",
		"longitude": "92-0-0 W",
		"state": "WISCONSIN",
		"artcc": "ZMP",
		"type": "NRS",
		"updated": "04/06/2004",
	},
	{
		"name": "KP90K",
		"latitude": "45-0-0 N",
		"longitude": "90-0-0 W",
		"state": "WISCONSIN",
		"artcc": "ZMP",
		"type": "NRS",
		"updated": "04/06/2004",
	},
	{
		"name": "KP90M",
		"latitude": "45-0-0 N",
		"longitude": "88-0-0 W",
		"state": "WISCONSIN",
		"artcc": "ZMP",
		"type": "NRS",
		"updated": "04/06/2004",
	},
	{
		"name": "KP90O",
		"latitude": "45-0-0 N",
		"longitude": "86-0-0 W",
		"state": "MICHIGAN",
		"artcc": "ZMP",
		"type": "NRS",
		"updated": "04/06/2004",
	},
	{
		"name": "KP90Q",
		"latitude": "45-0-0 N",
		"longitude": "84-0-0 W",
		"state": "MICHIGAN",
		"artcc": "ZMP",
		"type": "NRS",
		"updated": "04/06/2004",
	},
	{
		"name": "KP90Y",
		"latitude": "45-0-0 N",
		"longitude": "102-0-0 W",
		"state": "SOUTH DAKOTA",
		"artcc": "ZMP",
		"type": "NRS",
		"updated": "04/06/2004",
	},
	{
		"name": "KRAMR",
		"latitude": "48-16-19.83 N",
		"longitude": "99-7-9.23 W",
		"state": "NORTH DAKOTA",
		"artcc": "ZMP",
		"type": "RNAV",
		"updated": "11/04/2013",
	},
	{
		"name": "KRANG",
		"latitude": "48-58-17.83 N",
		"longitude": "94-29-23.24 W",
		"state": "",
		"artcc": "ZMP",
		"type": "RP",
		"updated": "INL*VOR/DME*293.93",
	},
	{
		"name": "KRAUS",
		"latitude": "42-12-37.37 N",
		"longitude": "79-7-43.28 W",
		"state": "NEW YORK",
		"artcc": "ZMP",
		"type": "RP",
		"updated": "JHW*VOR/DME*352.85/1.35",
	},
	{
		"name": "KRECH",
		"latitude": "42-56-59.33 N",
		"longitude": "91-47-4.07 W",
		"state": "IOWA",
		"artcc": "ZMP",
		"type": "RNAV",
		"updated": "02/04/2016",
	},
	{
		"name": "KRINK",
		"latitude": "46-28-13.53 N",
		"longitude": "94-9-35.93 W",
		"state": "MINNESOTA",
		"artcc": "ZMP",
		"type": "RNAV",
		"updated": "03/03/2009",
	},
	{
		"name": "KRISP",
		"latitude": "44-52-9.19 N",
		"longitude": "92-29-12.36 W",
		"state": "WISCONSIN",
		"artcc": "ZMP",
		"type": "RNAV",
		"updated": "01/14/2015",
	},
	{
		"name": "KRLSN",
		"latitude": "44-58-46.06 N",
		"longitude": "93-27-51.86 W",
		"state": "MINNESOTA",
		"artcc": "ZMP",
		"type": "RNAV",
		"updated": "11/25/2016",
	},
	{
		"name": "KROIX",
		"latitude": "44-53-23.7 N",
		"longitude": "92-43-45.43 W",
		"state": "WISCONSIN",
		"artcc": "ZMP",
		"type": "RNAV",
		"updated": "11/20/2016",
	},
	{
		"name": "KRSMS",
		"latitude": "45-53-7.03 N",
		"longitude": "90-1-34.59 W",
		"state": "WISCONSIN",
		"artcc": "ZMP",
		"type": "RP",
		"updated": "RHI*VOR/DME*300.50/28.25",
	},
	{
		"name": "KRSPY",
		"latitude": "44-17-47.12 N",
		"longitude": "90-21-36.75 W",
		"state": "WISCONSIN",
		"artcc": "ZMP",
		"type": "RP",
		"updated": "BAE*VOR/DME*306.79/114.75",
	},
	{
		"name": "KRUGG",
		"latitude": "44-55-23.72 N",
		"longitude": "93-40-22.06 W",
		"state": "MINNESOTA",
		"artcc": "ZMP",
		"type": "RNAV",
		"updated": "01/27/2015",
	},
	{
		"name": "KRUGY",
		"latitude": "43-56-6.73 N",
		"longitude": "90-32-49.14 W",
		"state": "WISCONSIN",
		"artcc": "ZMP",
		"type": "MW",
		"updated": "09/10/2009",
	},
	{
		"name": "KSOTA",
		"latitude": "45-2-36.65 N",
		"longitude": "94-47-24.7 W",
		"state": "MINNESOTA",
		"artcc": "ZMP",
		"type": "RP",
		"updated": "RWF*VOR/DME*015.57",
	},
	{
		"name": "KUBKE",
		"latitude": "44-13-13 N",
		"longitude": "101-26-33 W",
		"state": "SOUTH DAKOTA",
		"artcc": "ZMP",
		"type": "RNAV",
		"updated": "08/27/2001",
	},
	{
		"name": "KUBYE",
		"latitude": "44-3-46.68 N",
		"longitude": "94-37-16.38 W",
		"state": "MINNESOTA",
		"artcc": "ZMP",
		"type": "RNAV",
		"updated": "02/22/2016",
	},
	{
		"name": "KUCCE",
		"latitude": "43-15-25.95 N",
		"longitude": "91-41-5.56 W",
		"state": "IOWA",
		"artcc": "ZMP",
		"type": "RNAV",
		"updated": "05/30/2008",
	},
	{
		"name": "KUCEB",
		"latitude": "46-38-14.17 N",
		"longitude": "84-35-28.24 W",
		"state": "",
		"artcc": "ZMP",
		"type": "RNAV",
		"updated": "06/13/2011",
	},
	{
		"name": "KUCEK",
		"latitude": "45-24-14.43 N",
		"longitude": "83-57-4.45 W",
		"state": "MICHIGAN",
		"artcc": "ZMP",
		"type": "RNAV",
		"updated": "07/25/2005",
	},
	{
		"name": "KUCKE",
		"latitude": "42-18-20.86 N",
		"longitude": "97-37-18.98 W",
		"state": "NEBRASKA",
		"artcc": "ZMP",
		"type": "RNAV",
		"updated": "04/01/2011",
	},
	{
		"name": "KUDDS",
		"latitude": "40-4-28.05 N",
		"longitude": "96-45-5.98 W",
		"state": "NEBRASKA",
		"artcc": "ZMP",
		"type": "RNAV",
		"updated": "05/23/2011",
	},
	{
		"name": "KUDLE",
		"latitude": "44-7-14.81 N",
		"longitude": "87-40-44.34 W",
		"state": "WISCONSIN",
		"artcc": "ZMP",
		"type": "RP",
		"updated": "MTW*VOR/DME*177.00/0.46",
	},
	{
		"name": "KUKGE",
		"latitude": "44-25-40.17 N",
		"longitude": "94-58-30.15 W",
		"state": "MINNESOTA",
		"artcc": "ZMP",
		"type": "RP",
		"updated": "RWF*VOR/DME*102.96/7.00",
	},
	{
		"name": "KULAH",
		"latitude": "45-43-8.13 N",
		"longitude": "86-56-49.11 W",
		"state": "MICHIGAN",
		"artcc": "ZMP",
		"type": "RP",
		"updated": "ESC*LD*093.90/5.72",
	},
	{
		"name": "KULME",
		"latitude": "46-54-9.28 N",
		"longitude": "90-27-36.07 W",
		"state": "WISCONSIN",
		"artcc": "ZMP",
		"type": "RNAV",
		"updated": "03/18/2008",
	},
	{
		"name": "KUMDE",
		"latitude": "47-39-37.02 N",
		"longitude": "91-53-24.72 W",
		"state": "MINNESOTA",
		"artcc": "ZMP",
		"type": "RP",
		"updated": "ELO*VOR/DME*194.09/10.00",
	},
	{
		"name": "KUMLY",
		"latitude": "44-16-27.8 N",
		"longitude": "88-19-55.04 W",
		"state": "WISCONSIN",
		"artcc": "ZMP",
		"type": "RNAV",
		"updated": "10/09/2008",
	},
	{
		"name": "KUNKY",
		"latitude": "48-19-14.42 N",
		"longitude": "97-21-57.35 W",
		"state": "NORTH DAKOTA",
		"artcc": "ZMP",
		"type": "RNAV",
		"updated": "05/14/2010",
	},
	{
		"name": "KUNSE",
		"latitude": "43-44-22.15 N",
		"longitude": "84-44-24.28 W",
		"state": "MICHIGAN",
		"artcc": "ZMP",
		"type": "RP",
		"updated": "MOP*VOR/DME*004.00/7.00",
	},
	{
		"name": "KURRY",
		"latitude": "46-45-54.53 N",
		"longitude": "100-48-38.86 W",
		"state": "NORTH DAKOTA",
		"artcc": "ZMP",
		"type": "RP",
		"updated": "BIS*VOR/DME*259.99/6.00",
	},
	{
		"name": "KUUGL",
		"latitude": "44-56-54.26 N",
		"longitude": "94-21-16.6 W",
		"state": "MINNESOTA",
		"artcc": "ZMP",
		"type": "RNAV",
		"updated": "12/10/2009",
	},
	{
		"name": "KUVEC",
		"latitude": "47-50-52.52 N",
		"longitude": "92-43-31.76 W",
		"state": "MINNESOTA",
		"artcc": "ZMP",
		"type": "RNAV",
		"updated": "10/18/2004",
	},
	{
		"name": "KUWFY",
		"latitude": "40-57-48.16 N",
		"longitude": "95-21-30.3 W",
		"state": "IOWA",
		"artcc": "ZMP",
		"type": "RNAV",
		"updated": "02/27/2012",
	},
	{
		"name": "KUWUC",
		"latitude": "40-28-0.37 N",
		"longitude": "98-12-41.22 W",
		"state": "NEBRASKA",
		"artcc": "ZMP",
		"type": "RP",
		"updated": "12/17/2012",
	},
	{
		"name": "KUYCE",
		"latitude": "42-35-9.54 N",
		"longitude": "99-5-45.27 W",
		"state": "NEBRASKA",
		"artcc": "ZMP",
		"type": "RNAV",
		"updated": "03/13/2012",
	},
	{
		"name": "KUYEP",
		"latitude": "42-52-24.2 N",
		"longitude": "97-20-8.78 W",
		"state": "SOUTH DAKOTA",
		"artcc": "ZMP",
		"type": "RNAV",
		"updated": "07/19/2006",
	},
	{
		"name": "KUZMO",
		"latitude": "45-13-33.39 N",
		"longitude": "96-24-5.66 W",
		"state": "MINNESOTA",
		"artcc": "ZMP",
		"type": "RNAV",
		"updated": "06/21/2011",
	},
	{
		"name": "KYLEY",
		"latitude": "41-9-16.17 N",
		"longitude": "95-51-58.85 W",
		"state": "IOWA",
		"artcc": "ZMP",
		"type": "RNAV",
		"updated": "08/15/2012",
	},
