	{
		"name": "MAARC",
		"latitude": "45-33-39.27 N",
		"longitude": "87-15-26.04 W",
		"state": "MICHIGAN",
		"artcc": "ZMP",
		"type": "RP",
		"updated": "ESC*VOR/DME*216.08/12.00",
	},
	{
		"name": "MAARY",
		"latitude": "41-28-33.83 N",
		"longitude": "93-45-47 W",
		"state": "IOWA",
		"artcc": "ZMP",
		"type": "RP",
		"updated": "DSM*VORTAC*287.09",
	},
	{
		"name": "MABBE",
		"latitude": "43-49-50.55 N",
		"longitude": "84-44-32.22 W",
		"state": "MICHIGAN",
		"artcc": "ZMP",
		"type": "RP",
		"updated": "MOP*VOR/DME*004.00/12.47",
	},
	{
		"name": "MABBO",
		"latitude": "44-46-42.85 N",
		"longitude": "95-2-7.57 W",
		"state": "MINNESOTA",
		"artcc": "ZMP",
		"type": "CN",
		"updated": "04/13/2000",
	},
	{
		"name": "MABBY",
		"latitude": "43-20-4.32 N",
		"longitude": "95-9-33.69 W",
		"state": "IOWA",
		"artcc": "ZMP",
		"type": "CN",
		"updated": "06/21/2000",
	},
	{
		"name": "MABEH",
		"latitude": "45-51-45.95 N",
		"longitude": "84-37-52.33 W",
		"state": "MICHIGAN",
		"artcc": "ZMP",
		"type": "RP",
		"updated": "PLN*VORTAC*011.66/14.00",
	},
	{
		"name": "MABGY",
		"latitude": "44-32-37.79 N",
		"longitude": "95-5-1.71 W",
		"state": "MINNESOTA",
		"artcc": "ZMP",
		"type": "RP",
		"updated": "RWF*VOR/DME*015.57/4.98",
	},
	{
		"name": "MABHU",
		"latitude": "44-19-34.48 N",
		"longitude": "93-18-45.26 W",
		"state": "MINNESOTA",
		"artcc": "ZMP",
		"type": "RP",
		"updated": "FOW*VOR/DME*016.89/7.72",
	},
	{
		"name": "MABMY",
		"latitude": "40-2-41.33 N",
		"longitude": "98-3-47.65 W",
		"state": "NEBRASKA",
		"artcc": "ZMP",
		"type": "RP",
		"updated": "TKO*VORTAC*022.37/16.94",
	},
	{
		"name": "MACAX",
		"latitude": "45-25-22.72 N",
		"longitude": "84-54-59.66 W",
		"state": "MICHIGAN",
		"artcc": "ZMP",
		"type": "RP",
		"updated": "11/22/2011",
	},
	{
		"name": "MACEN",
		"latitude": "41-46-15.22 N",
		"longitude": "80-44-32.3 W",
		"state": "OHIO",
		"artcc": "ZMP",
		"type": "RNAV",
		"updated": "07/19/2017",
	},
	{
		"name": "MACIY",
		"latitude": "41-21-56.01 N",
		"longitude": "94-1-27.93 W",
		"state": "IOWA",
		"artcc": "ZMP",
		"type": "RP",
		"updated": "DSM*VORTAC*248.84/17.51",
	},
	{
		"name": "MACLE",
		"latitude": "47-43-29.55 N",
		"longitude": "92-34-27.91 W",
		"state": "MINNESOTA",
		"artcc": "ZMP",
		"type": "RNAV",
		"updated": "05/11/2009",
	},
	{
		"name": "MADBY",
		"latitude": "40-53-41.89 N",
		"longitude": "97-59-51.29 W",
		"state": "NEBRASKA",
		"artcc": "ZMP",
		"type": "CN",
		"updated": "06/21/2000",
	},
	{
		"name": "MADTE",
		"latitude": "40-46-10.38 N",
		"longitude": "95-25-51.94 W",
		"state": "IOWA",
		"artcc": "ZMP",
		"type": "RP",
		"updated": "OVR*VORTAC*141.68/27.60",
	},
	{
		"name": "MADUP",
		"latitude": "41-56-26.25 N",
		"longitude": "95-6-0.37 W",
		"state": "IOWA",
		"artcc": "ZMP",
		"type": "RP",
		"updated": "OVR*VORTAC*023.52/54.54",
	},
	{
		"name": "MADYA",
		"latitude": "44-14-29.79 N",
		"longitude": "95-0-27.72 W",
		"state": "MINNESOTA",
		"artcc": "ZMP",
		"type": "RP",
		"updated": "RWF*VOR/DME*151.99/14.50",
	},
	{
		"name": "MAFED",
		"latitude": "42-26-25.7 N",
		"longitude": "93-52-21.71 W",
		"state": "IOWA",
		"artcc": "ZMP",
		"type": "RP",
		"updated": "FOD*VORTAC*111.57/21.34",
	},
	{
		"name": "MAFFU",
		"latitude": "44-55-3.89 N",
		"longitude": "85-33-44.1 W",
		"state": "MICHIGAN",
		"artcc": "ZMP",
		"type": "RP",
		"updated": "GLR*VOR/DME*267.46",
	},
	{
		"name": "MAFLN",
		"latitude": "46-2-22.73 N",
		"longitude": "94-37-21.86 W",
		"state": "MINNESOTA",
		"artcc": "ZMP",
		"type": "RNAV",
		"updated": "06/16/2017",
	},
	{
		"name": "MAFXE",
		"latitude": "45-18-14.23 N",
		"longitude": "96-16-39.5 W",
		"state": "MINNESOTA",
		"artcc": "ZMP",
		"type": "RNAV",
		"updated": "09/04/2010",
	},
	{
		"name": "MAFYE",
		"latitude": "43-35-58.31 N",
		"longitude": "91-30-19 W",
		"state": "MINNESOTA",
		"artcc": "ZMP",
		"type": "CN",
		"updated": "02/24/2000",
	},
	{
		"name": "MAGCY",
		"latitude": "44-18-54.38 N",
		"longitude": "83-25-18.89 W",
		"state": "MICHIGAN",
		"artcc": "ZMP",
		"type": "RP",
		"updated": "ASP*VOR/DME*195.42/8.13",
	},
	{
		"name": "MAGET",
		"latitude": "42-17-48.21 N",
		"longitude": "97-25-5.8 W",
		"state": "NEBRASKA",
		"artcc": "ZMP",
		"type": "RP",
		"updated": "OFK*VOR/DME*354.24/18.53",
	},
	{
		"name": "MAGJU",
		"latitude": "42-59-17.27 N",
		"longitude": "91-47-8.22 W",
		"state": "IOWA",
		"artcc": "ZMP",
		"type": "RP",
		"updated": "UKN*VOR/DME*207.00/20.63",
	},
	{
		"name": "MAGUJ",
		"latitude": "45-25-16.27 N",
		"longitude": "96-6-34.73 W",
		"state": "MINNESOTA",
		"artcc": "ZMP",
		"type": "RNAV",
		"updated": "09/05/2010",
	},
	{
		"name": "MAGVL",
		"latitude": "48-32-21.39 N",
		"longitude": "101-37-23.69 W",
		"state": "NORTH DAKOTA",
		"artcc": "ZMP",
		"type": "RNAV",
		"updated": "02/16/2018",
	},
	{
		"name": "MAGZI",
		"latitude": "44-4-26.68 N",
		"longitude": "93-33-3.15 W",
		"state": "MINNESOTA",
		"artcc": "ZMP",
		"type": "RP",
		"updated": "FOW*VOR/DME*222.96/11.04",
	},
	{
		"name": "MAGZO",
		"latitude": "45-44-2.38 N",
		"longitude": "96-31-26.27 W",
		"state": "MINNESOTA",
		"artcc": "ZMP",
		"type": "RNAV",
		"updated": "08/02/2012",
	},
	{
		"name": "MAHAW",
		"latitude": "45-34-47.03 N",
		"longitude": "84-47-21.94 W",
		"state": "MICHIGAN",
		"artcc": "ZMP",
		"type": "CN",
		"updated": "02/20/2001",
	},
	{
		"name": "MAHOG",
		"latitude": "46-46-0.78 N",
		"longitude": "100-53-20.54 W",
		"state": "NORTH DAKOTA",
		"artcc": "ZMP",
		"type": "RP",
		"updated": "BIS*VOR/DME*259.99/9.23",
	},
	{
		"name": "MAHRI",
		"latitude": "45-9-22.94 N",
		"longitude": "93-50-35.92 W",
		"state": "MINNESOTA",
		"artcc": "ZMP",
		"type": "RP",
		"updated": "GEP*VORTAC*266.01/19.97",
	},
	{
		"name": "MAHVE",
		"latitude": "45-5-45.62 N",
		"longitude": "94-30-3.75 W",
		"state": "MINNESOTA",
		"artcc": "ZMP",
		"type": "RP",
		"updated": "DWN*VORTAC*277.35/2.07",
	},
	{
		"name": "MAILI",
		"latitude": "45-57-0.58 N",
		"longitude": "97-56-15.81 W",
		"state": "NORTH DAKOTA",
		"artcc": "ZMP",
		"type": "RNAV",
		"updated": "01/23/2007",
	},
	{
		"name": "MAJBA",
		"latitude": "43-13-46.7 N",
		"longitude": "93-36-52.91 W",
		"state": "IOWA",
		"artcc": "ZMP",
		"type": "RP",
		"updated": "MCW*VOR/DME*297.00/14.90",
	},
	{
		"name": "MAJRA",
		"latitude": "44-44-11.32 N",
		"longitude": "85-34-46.8 W",
		"state": "MICHIGAN",
		"artcc": "ZMP",
		"type": "RP",
		"updated": "TVC*VOR/DME*344.87/4.31",
	},
	{
		"name": "MAJWA",
		"latitude": "43-4-28.06 N",
		"longitude": "94-16-21.94 W",
		"state": "IOWA",
		"artcc": "ZMP",
		"type": "RP",
		"updated": "FOD*VORTAC*355.00/27.81",
	},
	{
		"name": "MAJZE",
		"latitude": "43-52-19.92 N",
		"longitude": "91-15-23.97 W",
		"state": "WISCONSIN",
		"artcc": "ZMP",
		"type": "RP",
		"updated": "LSE*VOR/DME*188.00/0.24",
	},
	{
		"name": "MALKS",
		"latitude": "47-25-13.66 N",
		"longitude": "92-30-7.82 W",
		"state": "MINNESOTA",
		"artcc": "ZMP",
		"type": "RP",
		"updated": "HIB*VOR/DME*047.00/10.90",
	},
	{
		"name": "MAMCY",
		"latitude": "44-47-33.61 N",
		"longitude": "91-34-23.6 W",
		"state": "WISCONSIN",
		"artcc": "ZMP",
		"type": "RNAV",
		"updated": "02/09/2018",
	},
	{
		"name": "MAMER",
		"latitude": "44-49-19.22 N",
		"longitude": "84-55-35.06 W",
		"state": "MICHIGAN",
		"artcc": "ZMP",
		"type": "RNAV",
		"updated": "12/02/2008",
	},
	{
		"name": "MANBL",
		"latitude": "42-42-40.37 N",
		"longitude": "93-55-11.61 W",
		"state": "IOWA",
		"artcc": "ZMP",
		"type": "RP",
		"updated": "FOD*VORTAC*062.99/17.65",
	},
	{
		"name": "MANBV",
		"latitude": "45-3-53.39 N",
		"longitude": "93-21-25.77 W",
		"state": "MINNESOTA",
		"artcc": "ZMP",
		"type": "CN",
		"updated": "08/21/2002",
	},
	{
		"name": "MANDG",
		"latitude": "46-54-23.86 N",
		"longitude": "95-4-52.58 W",
		"state": "MINNESOTA",
		"artcc": "ZMP",
		"type": "RP",
		"updated": "PKD*VOR/DME*316.00/0.66",
	},
	{
		"name": "MANIE",
		"latitude": "44-35-26.08 N",
		"longitude": "92-29-57.58 W",
		"state": "MINNESOTA",
		"artcc": "ZMP",
		"type": "RP",
		"updated": "GEP*VORTAC*125.47/50.00",
	},
	{
		"name": "MANNB",
		"latitude": "44-51-25.09 N",
		"longitude": "93-1-59.54 W",
		"state": "MINNESOTA",
		"artcc": "ZMP",
		"type": "CN",
		"updated": "03/18/2003",
	},
	{
		"name": "MANWA",
		"latitude": "41-5-3.7 N",
		"longitude": "95-41-19.65 W",
		"state": "IOWA",
		"artcc": "ZMP",
		"type": "RNAV",
		"updated": "08/15/2012",
	},
	{
		"name": "MANZA",
		"latitude": "48-2-35.08 N",
		"longitude": "97-10-52.17 W",
		"state": "NORTH DAKOTA",
		"artcc": "ZMP",
		"type": "RP",
		"updated": "GFK*LD*N CRS/4.87",
	},
	{
		"name": "MAREY",
		"latitude": "43-33-12.84 N",
		"longitude": "96-46-18.97 W",
		"state": "SOUTH DAKOTA",
		"artcc": "ZMP",
		"type": "RP",
		"updated": "FSD*VORTAC*167.00",
	},
	{
		"name": "MAROE",
		"latitude": "43-51-21.95 N",
		"longitude": "92-58-11.58 W",
		"state": "MINNESOTA",
		"artcc": "ZMP",
		"type": "RNAV",
		"updated": "05/30/2013",
	},
	{
		"name": "MARWI",
		"latitude": "40-46-40.95 N",
		"longitude": "95-5-4.03 W",
		"state": "IOWA",
		"artcc": "ZMP",
		"type": "RP",
		"updated": "OVR*VORTAC*120.00/37.73",
	},
	{
		"name": "MARXN",
		"latitude": "40-4-30.68 N",
		"longitude": "96-34-40.7 W",
		"state": "NEBRASKA",
		"artcc": "ZMP",
		"type": "RNAV",
		"updated": "05/23/2011",
	},
	{
		"name": "MARXY",
		"latitude": "46-9-50.93 N",
		"longitude": "94-27-52.35 W",
		"state": "MINNESOTA",
		"artcc": "ZMP",
		"type": "RNAV",
		"updated": "05/06/2013",
	},
	{
		"name": "MASBY",
		"latitude": "43-43-18.92 N",
		"longitude": "91-10-32.63 W",
		"state": "WISCONSIN",
		"artcc": "ZMP",
		"type": "RNAV",
		"updated": "03/26/2015",
	},
	{
		"name": "MASWE",
		"latitude": "46-46-54.95 N",
		"longitude": "92-2-8.34 W",
		"state": "MINNESOTA",
		"artcc": "ZMP",
		"type": "RP",
		"updated": "DLH*VORTAC*094.93/7.00",
	},
	{
		"name": "MATCG",
		"latitude": "44-52-24.8 N",
		"longitude": "91-28-21.7 W",
		"state": "WISCONSIN",
		"artcc": "ZMP",
		"type": "CN",
		"updated": "06/25/2003",
	},
	{
		"name": "MATEC",
		"latitude": "46-50-50.09 N",
		"longitude": "92-21-34.41 W",
		"state": "MINNESOTA",
		"artcc": "ZMP",
		"type": "RP",
		"updated": "DLH*VORTAC*287.79/7.00",
	},
	{
		"name": "MATPE",
		"latitude": "45-13-33.82 N",
		"longitude": "93-55-13.25 W",
		"state": "MINNESOTA",
		"artcc": "ZMP",
		"type": "RNAV",
		"updated": "06/20/2011",
	},
	{
		"name": "MAUER",
		"latitude": "44-46-54.18 N",
		"longitude": "93-15-51.42 W",
		"state": "MINNESOTA",
		"artcc": "ZMP",
		"type": "RNAV",
		"updated": "11/14/2016",
	},
	{
		"name": "MAWOC",
		"latitude": "44-11-59.82 N",
		"longitude": "87-41-59.7 W",
		"state": "WISCONSIN",
		"artcc": "ZMP",
		"type": "RP",
		"updated": "MTW*VOR/DME*/4.38",
	},
	{
		"name": "MAXIE",
		"latitude": "41-56-38.46 N",
		"longitude": "93-30-0.87 W",
		"state": "IOWA",
		"artcc": "ZMP",
		"type": "RP",
		"updated": "TNU*VOR/DME*295.84/20.00",
	},
	{
		"name": "MAXMA",
		"latitude": "44-52-9.4 N",
		"longitude": "90-17-14.21 W",
		"state": "WISCONSIN",
		"artcc": "ZMP",
		"type": "RP",
		"updated": "EAU*VORTAC*087.50/50.85",
	},
	{
		"name": "MAXOE",
		"latitude": "40-54-10.86 N",
		"longitude": "96-45-41.1 W",
		"state": "NEBRASKA",
		"artcc": "ZMP",
		"type": "RNAV",
		"updated": "07/08/2008",
	},
	{
		"name": "MAYER",
		"latitude": "44-55-4.77 N",
		"longitude": "93-58-29.08 W",
		"state": "MINNESOTA",
		"artcc": "ZMP",
		"type": "RP",
		"updated": "GEP*VORTAC*236.12/29.01",
	},
	{
		"name": "MAZEE",
		"latitude": "44-58-55.32 N",
		"longitude": "85-12-4.5 W",
		"state": "MICHIGAN",
		"artcc": "ZMP",
		"type": "RNAV",
		"updated": "06/06/2006",
	},
	{
		"name": "MAZPI",
		"latitude": "47-7-12.29 N",
		"longitude": "93-19-48.02 W",
		"state": "MINNESOTA",
		"artcc": "ZMP",
		"type": "RP",
		"updated": "GPZ*VOR/DME*105.86/7.00",
	},
	{
		"name": "MAZTT",
		"latitude": "44-26-41.84 N",
		"longitude": "88-8-0.82 W",
		"state": "WISCONSIN",
		"artcc": "ZMP",
		"type": "RP",
		"updated": "SGZ*LS*181.92",
	},
	{
		"name": "MCADE",
		"latitude": "41-20-36.2 N",
		"longitude": "94-8-32.08 W",
		"state": "IOWA",
		"artcc": "ZMP",
		"type": "RP",
		"updated": "DSM*VORTAC*248.94/23.00",
	},
	{
		"name": "MCONL",
		"latitude": "44-35-0.33 N",
		"longitude": "93-50-32.26 W",
		"state": "MINNESOTA",
		"artcc": "ZMP",
		"type": "RP",
		"updated": "MSP*VOR/DME*232.27/32.00",
	},
	{
		"name": "MCQIN",
		"latitude": "43-30-25.33 N",
		"longitude": "94-48-44.97 W",
		"state": "MINNESOTA",
		"artcc": "ZMP",
		"type": "RNAV",
		"updated": "06/28/2013",
	},
	{
		"name": "MEBGY",
		"latitude": "47-3-27.13 N",
		"longitude": "93-33-34.22 W",
		"state": "MINNESOTA",
		"artcc": "ZMP",
		"type": "RP",
		"updated": "GPZ*VOR/DME*198.57/7.00",
	},
	{
		"name": "MECAM",
		"latitude": "39-39-47.34 N",
		"longitude": "98-12-6.75 W",
		"state": "KANSAS",
		"artcc": "ZMP",
		"type": "RP",
		"updated": "TKO*VORTAC*152.58/9.00",
	},
	{
		"name": "MECNU",
		"latitude": "47-58-26.68 N",
		"longitude": "89-59-33.66 W",
		"state": "MINNESOTA",
		"artcc": "ZMP",
		"type": "RP",
		"updated": "YQT*VORTAC*234.25/27.93",
	},
	{
		"name": "MEDOC",
		"latitude": "40-20-4.61 N",
		"longitude": "98-53-20.94 W",
		"state": "NEBRASKA",
		"artcc": "ZMP",
		"type": "RNAV",
		"updated": "07/07/2009",
	},
	{
		"name": "MEDXU",
		"latitude": "43-15-4.51 N",
		"longitude": "91-44-59.35 W",
		"state": "IOWA",
		"artcc": "ZMP",
		"type": "RNAV",
		"updated": "04/23/2007",
	},
	{
		"name": "MEKDY",
		"latitude": "43-43-26.33 N",
		"longitude": "85-23-1.26 W",
		"state": "MICHIGAN",
		"artcc": "ZMP",
		"type": "RNAV",
		"updated": "11/03/2014",
	},
	{
		"name": "MEKME",
		"latitude": "47-0-36.14 N",
		"longitude": "90-38-45.38 W",
		"state": "WISCONSIN",
		"artcc": "ZMP",
		"type": "RNAV",
		"updated": "03/18/2008",
	},
	{
		"name": "MEKSE",
		"latitude": "48-53-41.99 N",
		"longitude": "98-34-40.28 W",
		"state": "NORTH DAKOTA",
		"artcc": "ZMP",
		"type": "RNAV",
		"updated": "02/04/2010",
	},
	{
		"name": "MELLL",
		"latitude": "44-40-30.03 N",
		"longitude": "95-30-5.11 W",
		"state": "MINNESOTA",
		"artcc": "ZMP",
		"type": "RP",
		"updated": "MVE*VOR/DME*148.21/20.00",
	},
	{
		"name": "MENPE",
		"latitude": "41-11-42.73 N",
		"longitude": "98-57-32.78 W",
		"state": "NEBRASKA",
		"artcc": "ZMP",
		"type": "RNAV",
		"updated": "08/21/2015",
	},
	{
		"name": "MEPWE",
		"latitude": "41-5-9.57 N",
		"longitude": "96-4-37.99 W",
		"state": "NEBRASKA",
		"artcc": "ZMP",
		"type": "RP",
		"updated": "OVR*VORTAC*244.59/16.19",
	},
	{
		"name": "MERIK",
		"latitude": "41-2-9.94 N",
		"longitude": "98-18-51.72 W",
		"state": "NEBRASKA",
		"artcc": "ZMP",
		"type": "RP",
		"updated": "GRI*VOR/DME*353.30/3.12",
	},
	{
		"name": "MERLE",
		"latitude": "41-53-51.71 N",
		"longitude": "93-39-31.22 W",
		"state": "IOWA",
		"artcc": "ZMP",
		"type": "RP",
		"updated": "TNU*VOR/DME*282.66",
	},
	{
		"name": "MERVE",
		"latitude": "44-26-11.86 N",
		"longitude": "89-48-0.11 W",
		"state": "WISCONSIN",
		"artcc": "ZMP",
		"type": "RNAV",
		"updated": "05/17/2017",
	},
	{
		"name": "MERYM",
		"latitude": "42-28-59.22 N",
		"longitude": "93-58-41.9 W",
		"state": "IOWA",
		"artcc": "ZMP",
		"type": "RP",
		"updated": "FOD*VORTAC*111.57/16.00",
	},
	{
		"name": "MESNE",
		"latitude": "43-53-17.84 N",
		"longitude": "85-30-46.96 W",
		"state": "MICHIGAN",
		"artcc": "ZMP",
		"type": "RNAV",
		"updated": "03/13/2014",
	},
	{
		"name": "MESVE",
		"latitude": "43-6-42.3 N",
		"longitude": "95-6-8.91 W",
		"state": "IOWA",
		"artcc": "ZMP",
		"type": "RNAV",
		"updated": "05/24/2013",
	},
	{
		"name": "MEXTI",
		"latitude": "43-54-46.91 N",
		"longitude": "92-29-42.03 W",
		"state": "MINNESOTA",
		"artcc": "ZMP",
		"type": "RP",
		"updated": "RST*VOR/DME*024.50/8.98",
	},
	{
		"name": "MIDIE",
		"latitude": "40-28-18.72 N",
		"longitude": "96-55-22.99 W",
		"state": "NEBRASKA",
		"artcc": "ZMP",
		"type": "RNAV",
		"updated": "05/23/2011",
	},
	{
		"name": "MIDLE",
		"latitude": "41-24-20.77 N",
		"longitude": "93-54-40.61 W",
		"state": "IOWA",
		"artcc": "ZMP",
		"type": "RP",
		"updated": "DSM*VORTAC*253.94/12.01",
	},
	{
		"name": "MIDPE",
		"latitude": "46-21-38.29 N",
		"longitude": "93-35-52.38 W",
		"state": "MINNESOTA",
		"artcc": "ZMP",
		"type": "RNAV",
		"updated": "01/02/2013",
	},
	{
		"name": "MIGPY",
		"latitude": "46-7-0.51 N",
		"longitude": "89-44-16.21 W",
		"state": "WISCONSIN",
		"artcc": "ZMP",
		"type": "RNAV",
		"updated": "10/27/2009",
	},
	{
		"name": "MIGSY",
		"latitude": "46-48-17.73 N",
		"longitude": "102-48-27.95 W",
		"state": "NORTH DAKOTA",
		"artcc": "ZMP",
		"type": "RP",
		"updated": "DIK*VORTAC*189.13/3.59",
	},
	{
		"name": "MILAC",
		"latitude": "46-1-29.56 N",
		"longitude": "93-21-37.76 W",
		"state": "MINNESOTA",
		"artcc": "ZMP",
		"type": "RNAV",
		"updated": "11/14/2016",
	},
	{
		"name": "MILAE",
		"latitude": "44-19-26.33 N",
		"longitude": "84-27-13.33 W",
		"state": "MICHIGAN",
		"artcc": "ZMP",
		"type": "RNAV",
		"updated": "09/15/2009",
	},
	{
		"name": "MILGE",
		"latitude": "45-2-9.32 N",
		"longitude": "92-7-15.92 W",
		"state": "WISCONSIN",
		"artcc": "ZMP",
		"type": "RNAV",
		"updated": "09/11/2002",
	},
	{
		"name": "MILOD",
		"latitude": "46-46-58.25 N",
		"longitude": "91-49-58.6 W",
		"state": "WISCONSIN",
		"artcc": "ZMP",
		"type": "MR",
		"updated": "LKI*TACAN*104.00/15.00",
	},
	{
		"name": "MILSS",
		"latitude": "43-15-52.4 N",
		"longitude": "94-59-35.1 W",
		"state": "IOWA",
		"artcc": "ZMP",
		"type": "RP",
		"updated": "FRM*VOR/DME*220.65/33.84",
	},
	{
		"name": "MILTO",
		"latitude": "44-19-13.36 N",
		"longitude": "90-39-0.79 W",
		"state": "WISCONSIN",
		"artcc": "ZMP",
		"type": "RP",
		"updated": "EAU*VORTAC*130.00/49.60",
	},
	{
		"name": "MIMFA",
		"latitude": "44-30-26.38 N",
		"longitude": "98-26-48.39 W",
		"state": "SOUTH DAKOTA",
		"artcc": "ZMP",
		"type": "RNAV",
		"updated": "07/08/2009",
	},
	{
		"name": "MINDI",
		"latitude": "44-0-14.28 N",
		"longitude": "91-15-36.96 W",
		"state": "WISCONSIN",
		"artcc": "ZMP",
		"type": "RP",
		"updated": "ODI*VORTAC*057.41",
	},
	{
		"name": "MINGO",
		"latitude": "43-51-12.06 N",
		"longitude": "92-24-36.42 W",
		"state": "MINNESOTA",
		"artcc": "ZMP",
		"type": "RP",
		"updated": "RST*VOR/DME*057.41",
	},
	{
		"name": "MITTN",
		"latitude": "42-21-23.8 N",
		"longitude": "96-22-58.24 W",
		"state": "IOWA",
		"artcc": "ZMP",
		"type": "RNAV",
		"updated": "04/12/2016",
	},
	{
		"name": "MITZY",
		"latitude": "41-35-52.06 N",
		"longitude": "96-13-8.69 W",
		"state": "NEBRASKA",
		"artcc": "ZMP",
		"type": "RP",
		"updated": "OVR*VORTAC*312.00/33.78",
	},
	{
		"name": "MIVBE",
		"latitude": "43-52-13.23 N",
		"longitude": "92-39-33.87 W",
		"state": "MINNESOTA",
		"artcc": "ZMP",
		"type": "RNAV",
		"updated": "02/09/2018",
	},
	{
		"name": "MIXES",
		"latitude": "43-57-13.75 N",
		"longitude": "91-20-35.23 W",
		"state": "WISCONSIN",
		"artcc": "ZMP",
		"type": "RP",
		"updated": "LSE*VOR/DME*322.00/6.00",
	},
	{
		"name": "MIXXR",
		"latitude": "44-10-44.15 N",
		"longitude": "85-43-40.36 W",
		"state": "MICHIGAN",
		"artcc": "ZMP",
		"type": "RP",
		"updated": "MBL*VOR/DME*108.44/23.36",
	},
	{
		"name": "MIZAB",
		"latitude": "43-10-31.07 N",
		"longitude": "92-8-1.66 W",
		"state": "IOWA",
		"artcc": "ZMP",
		"type": "RNAV",
		"updated": "02/09/2018",
	},
	{
		"name": "MIZOU",
		"latitude": "46-41-26.27 N",
		"longitude": "92-15-8.67 W",
		"state": "MINNESOTA",
		"artcc": "ZMP",
		"type": "RP",
		"updated": "DLH*VORTAC*192.00/7.00",
	},
	{
		"name": "MKPDG",
		"latitude": "45-58-44.14 N",
		"longitude": "83-26-43.32 W",
		"state": "MICHIGAN",
		"artcc": "ZMP",
		"type": "CN",
		"updated": "06/06/2002",
	},
	{
		"name": "MLHOF",
		"latitude": "44-49-22.61 N",
		"longitude": "94-17-51.65 W",
		"state": "MINNESOTA",
		"artcc": "ZMP",
		"type": "RNAV",
		"updated": "07/11/2005",
	},
	{
		"name": "MMUDY",
		"latitude": "45-51-10 N",
		"longitude": "101-59-34 W",
		"state": "SOUTH DAKOTA",
		"artcc": "ZMP",
		"type": "RNAV",
		"updated": "07/17/2015",
	},
	{
		"name": "MNDEE",
		"latitude": "44-44-14.85 N",
		"longitude": "93-19-24.52 W",
		"state": "MINNESOTA",
		"artcc": "ZMP",
		"type": "RNAV",
		"updated": "06/04/2012",
	},
	{
		"name": "MOCUX",
		"latitude": "47-29-7.83 N",
		"longitude": "98-11-58.32 W",
		"state": "NORTH DAKOTA",
		"artcc": "ZMP",
		"type": "RNAV",
		"updated": "09/03/2010",
	},
	{
		"name": "MODPY",
		"latitude": "42-17-56.25 N",
		"longitude": "97-58-57.6 W",
		"state": "NEBRASKA",
		"artcc": "ZMP",
		"type": "RNAV",
		"updated": "09/28/2009",
	},
	{
		"name": "MODRE",
		"latitude": "44-50-45.84 N",
		"longitude": "91-51-54.47 W",
		"state": "WISCONSIN",
		"artcc": "ZMP",
		"type": "RNAV",
		"updated": "02/12/2008",
	},
	{
		"name": "MOFFI",
		"latitude": "44-4-1.42 N",
		"longitude": "91-39-35 W",
		"state": "MINNESOTA",
		"artcc": "ZMP",
		"type": "RNAV",
		"updated": "04/07/2008",
	},
	{
		"name": "MOFIT",
		"latitude": "46-33-1.37 N",
		"longitude": "100-17-28.81 W",
		"state": "NORTH DAKOTA",
		"artcc": "ZMP",
		"type": "RP",
		"updated": "BIS*VOR/DME*117.00/20.00",
	},
	{
		"name": "MOFWO",
		"latitude": "41-35-46.96 N",
		"longitude": "94-26-8.61 W",
		"state": "IOWA",
		"artcc": "ZMP",
		"type": "RNAV",
		"updated": "06/26/2013",
	},
	{
		"name": "MOKNE",
		"latitude": "46-2-16.16 N",
		"longitude": "92-50-53.29 W",
		"state": "MINNESOTA",
		"artcc": "ZMP",
		"type": "RNAV",
		"updated": "12/31/2007",
	},
	{
		"name": "MOLDY",
		"latitude": "48-33-46.01 N",
		"longitude": "101-27-19.83 W",
		"state": "NORTH DAKOTA",
		"artcc": "ZMP",
		"type": "RNAV",
		"updated": "02/16/2018",
	},
	{
		"name": "MOLOW",
		"latitude": "44-32-53.21 N",
		"longitude": "95-26-5.02 W",
		"state": "MINNESOTA",
		"artcc": "ZMP",
		"type": "RP",
		"updated": "RWF*VOR/DME*283.34/14.03",
	},
	{
		"name": "MOLUE",
		"latitude": "44-10-52.11 N",
		"longitude": "88-28-4.1 W",
		"state": "WISCONSIN",
		"artcc": "ZMP",
		"type": "RNAV",
		"updated": "10/10/2008",
	},
	{
		"name": "MONKE",
		"latitude": "45-32-53.04 N",
		"longitude": "95-20-8.05 W",
		"state": "MINNESOTA",
		"artcc": "ZMP",
		"type": "RP",
		"updated": "MOX*VOR/DME*087.05",
	},
	{
		"name": "MONKS",
		"latitude": "42-33-17.84 N",
		"longitude": "94-44-51.66 W",
		"state": "IOWA",
		"artcc": "ZMP",
		"type": "RP",
		"updated": "FOD*VORTAC*253.62/20.35",
	},
	{
		"name": "MONKY",
		"latitude": "44-51-9.1 N",
		"longitude": "93-26-17.53 W",
		"state": "MINNESOTA",
		"artcc": "ZMP",
		"type": "RP",
		"updated": "MSP*VOR/DME*251.02/9.00",
	},
	{
		"name": "MONTZ",
		"latitude": "43-34-25.5 N",
		"longitude": "94-19-4.9 W",
		"state": "MINNESOTA",
		"artcc": "ZMP",
		"type": "RP",
		"updated": "FRM*VOR/DME*/6.29",
	},
	{
		"name": "MOOCH",
		"latitude": "41-57-18.02 N",
		"longitude": "95-54-6.86 W",
		"state": "IOWA",
		"artcc": "ZMP",
		"type": "MR",
		"updated": "SUX*VORTAC*132.00/30.00",
	},
	{
		"name": "MOODA",
		"latitude": "44-25-14.67 N",
		"longitude": "92-4-8.54 W",
		"state": "WISCONSIN",
		"artcc": "ZMP",
		"type": "RNAV",
		"updated": "04/07/2008",
	},
	{
		"name": "MOONR",
		"latitude": "40-54-1.38 N",
		"longitude": "96-6-16.55 W",
		"state": "NEBRASKA",
		"artcc": "ZMP",
		"type": "RP",
		"updated": "LNK*VORTAC*083.56",
	},
	{
		"name": "MOPUE",
		"latitude": "43-45-28.94 N",
		"longitude": "96-34-30.68 W",
		"state": "SOUTH DAKOTA",
		"artcc": "ZMP",
		"type": "RNAV",
		"updated": "07/05/2011",
	},
	{
		"name": "MORDE",
		"latitude": "47-19-1.17 N",
		"longitude": "102-28-44.82 W",
		"state": "NORTH DAKOTA",
		"artcc": "ZMP",
		"type": "RNAV",
		"updated": "09/29/2017",
	},
	{
		"name": "MORGS",
		"latitude": "40-40-21.93 N",
		"longitude": "98-45-7.29 W",
		"state": "NEBRASKA",
		"artcc": "ZMP",
		"type": "RP",
		"updated": "EAR*VOR*095.26",
	},
	{
		"name": "MORRE",
		"latitude": "45-21-37.46 N",
		"longitude": "96-43-59.69 W",
		"state": "SOUTH DAKOTA",
		"artcc": "ZMP",
		"type": "RNAV",
		"updated": "01/28/2003",
	},
	{
		"name": "MOSGE",
		"latitude": "42-42-47.3 N",
		"longitude": "93-44-1.67 W",
		"state": "IOWA",
		"artcc": "ZMP",
		"type": "RNAV",
		"updated": "12/24/2009",
	},
	{
		"name": "MOUDY",
		"latitude": "44-31-11.72 N",
		"longitude": "92-32-22.69 W",
		"state": "MINNESOTA",
		"artcc": "ZMP",
		"type": "RNAV",
		"updated": "04/24/2008",
	},
	{
		"name": "MOVDE",
		"latitude": "44-56-45.74 N",
		"longitude": "92-30-34.34 W",
		"state": "WISCONSIN",
		"artcc": "ZMP",
		"type": "RNAV",
		"updated": "01/21/2011",
	},
	{
		"name": "MOVSE",
		"latitude": "45-48-56 N",
		"longitude": "95-28-40.08 W",
		"state": "MINNESOTA",
		"artcc": "ZMP",
		"type": "RNAV",
		"updated": "03/22/2010",
	},
	{
		"name": "MOXIW",
		"latitude": "41-50-5.92 N",
		"longitude": "93-25-0.69 W",
		"state": "IOWA",
		"artcc": "ZMP",
		"type": "RNAV",
		"updated": "04/04/2010",
	},
	{
		"name": "MPCEG",
		"latitude": "48-0-24.35 N",
		"longitude": "89-55-41.47 W",
		"state": "MINNESOTA",
		"artcc": "ZMP",
		"type": "CN",
		"updated": "03/22/2002",
	},
	{
		"name": "MRANN",
		"latitude": "45-2-1.6 N",
		"longitude": "93-9-21.1 W",
		"state": "MINNESOTA",
		"artcc": "ZMP",
		"type": "RNAV",
		"updated": "03/23/2012",
	},
	{
		"name": "MUBIE",
		"latitude": "44-23-37.1 N",
		"longitude": "83-31-26.32 W",
		"state": "MICHIGAN",
		"artcc": "ZMP",
		"type": "RNAV",
		"updated": "03/31/2010",
	},
	{
		"name": "MUCYO",
		"latitude": "45-4-38.33 N",
		"longitude": "92-27-45.75 W",
		"state": "WISCONSIN",
		"artcc": "ZMP",
		"type": "WP",
		"updated": "11/02/1998",
	},
	{
		"name": "MUDBE",
		"latitude": "47-56-1.92 N",
		"longitude": "97-24-8.61 W",
		"state": "NORTH DAKOTA",
		"artcc": "ZMP",
		"type": "MR",
		"updated": "RDR*TACAN*167.99/1.40",
	},
	{
		"name": "MUGDE",
		"latitude": "43-49-12.74 N",
		"longitude": "91-7-16.31 W",
		"state": "WISCONSIN",
		"artcc": "ZMP",
		"type": "RNAV",
		"updated": "08/12/2008",
	},
	{
		"name": "MUGUH",
		"latitude": "46-41-46.35 N",
		"longitude": "96-23-10.92 W",
		"state": "MINNESOTA",
		"artcc": "ZMP",
		"type": "WP",
		"updated": "12/28/2006",
	},
	{
		"name": "MUKAE",
		"latitude": "45-29-2.18 N",
		"longitude": "84-5-49.69 W",
		"state": "MICHIGAN",
		"artcc": "ZMP",
		"type": "RNAV",
		"updated": "07/25/2005",
	},
	{
		"name": "MULEE",
		"latitude": "47-7-34.01 N",
		"longitude": "96-48-49.62 W",
		"state": "NORTH DAKOTA",
		"artcc": "ZMP",
		"type": "RNAV",
		"updated": "09/24/2004",
	},
	{
		"name": "MUMBY",
		"latitude": "47-0-56.69 N",
		"longitude": "88-13-46.53 W",
		"state": "MICHIGAN",
		"artcc": "ZMP",
		"type": "RP",
		"updated": "CMX*LD*132.87/14.79",
	},
	{
		"name": "MUNMU",
		"latitude": "44-57-57.63 N",
		"longitude": "87-27-10.63 W",
		"state": "WISCONSIN",
		"artcc": "ZMP",
		"type": "WP",
		"updated": "08/05/2013",
	},
	{
		"name": "MUQXU",
		"latitude": "42-9-2.79 N",
		"longitude": "93-26-25.71 W",
		"state": "IOWA",
		"artcc": "ZMP",
		"type": "RNAV",
		"updated": "04/04/2010",
	},
	{
		"name": "MUREE",
		"latitude": "44-29-53.47 N",
		"longitude": "92-18-45.29 W",
		"state": "MINNESOTA",
		"artcc": "ZMP",
		"type": "RNAV",
		"updated": "04/24/2008",
	},
	{
		"name": "MUSCL",
		"latitude": "45-1-43.75 N",
		"longitude": "91-46-36.6 W",
		"state": "WISCONSIN",
		"artcc": "ZMP",
		"type": "RNAV",
		"updated": "11/20/2016",
	},
	{
		"name": "MVRIK",
		"latitude": "41-18-3.34 N",
		"longitude": "95-45-20.64 W",
		"state": "IOWA",
		"artcc": "ZMP",
		"type": "RNAV",
		"updated": "08/15/2012",
	},
	{
		"name": "MYRAE",
		"latitude": "44-28-30.51 N",
		"longitude": "93-15-30.89 W",
		"state": "MINNESOTA",
		"artcc": "ZMP",
		"type": "RNAV",
		"updated": "03/18/2008",
	},
