[
	{
		"name": "NAASH",
		"latitude": "46-1-30.47 N",
		"longitude": "83-32-13.1 W",
		"state": "MICHIGAN",
		"artcc": "ZMP",
		"type": "RP",
		"updated": "SSM*VOR/DME*129.34"
	},
	{
		"name": "NABGE",
		"latitude": "43-52-27.32 N",
		"longitude": "92-47-14.26 W",
		"state": "MINNESOTA",
		"artcc": "ZMP",
		"type": "RNAV",
		"updated": "05/30/2013"
	},
	{
		"name": "NACPI",
		"latitude": "44-48-51.76 N",
		"longitude": "92-48-24.76 W",
		"state": "MINNESOTA",
		"artcc": "ZMP",
		"type": "RNAV",
		"updated": "11/28/2005"
	},
	{
		"name": "NALCO",
		"latitude": "48-33-37.12 N",
		"longitude": "97-8-25.55 W",
		"state": "MINNESOTA",
		"artcc": "ZMP",
		"type": "RP",
		"updated": "HML*VORTAC*173.87/18.57"
	},
	{
		"name": "NALNE",
		"latitude": "46-48-11.18 N",
		"longitude": "102-47-55.77 W",
		"state": "NORTH DAKOTA",
		"artcc": "ZMP",
		"type": "RP",
		"updated": "DIK*VORTAC*183.00/3.57"
	},
	{
		"name": "NANCZ",
		"latitude": "44-24-52.14 N",
		"longitude": "93-36-27.99 W",
		"state": "MINNESOTA",
		"artcc": "ZMP",
		"type": "RNAV",
		"updated": "09/16/2016"
	},
	{
		"name": "NANOH",
		"latitude": "48-13-8.59 N",
		"longitude": "97-21-57.54 W",
		"state": "NORTH DAKOTA",
		"artcc": "ZMP",
		"type": "RNAV",
		"updated": "05/14/2010"
	},
	{
		"name": "NARCO",
		"latitude": "44-48-55.48 N",
		"longitude": "93-4-2.63 W",
		"state": "MINNESOTA",
		"artcc": "ZMP",
		"type": "RP",
		"updated": "MSP*LD*121.36/6.88"
	},
	{
		"name": "NARPE",
		"latitude": "46-19-31.91 N",
		"longitude": "85-9-36.82 W",
		"state": "MICHIGAN",
		"artcc": "ZMP",
		"type": "RNAV",
		"updated": "07/06/2010"
	},
	{
		"name": "NASNY",
		"latitude": "43-39-50.52 N",
		"longitude": "91-38-22.29 W",
		"state": "MINNESOTA",
		"artcc": "ZMP",
		"type": "RNAV",
		"updated": "11/17/2008"
	},
	{
		"name": "NAVTE",
		"latitude": "45-44-44.44 N",
		"longitude": "89-36-32 W",
		"state": "WISCONSIN",
		"artcc": "ZMP",
		"type": "RNAV",
		"updated": "10/27/2009"
	},
	{
		"name": "NAYGI",
		"latitude": "45-48-23.82 N",
		"longitude": "87-22-7.79 W",
		"state": "MICHIGAN",
		"artcc": "ZMP",
		"type": "RNAV",
		"updated": "03/24/2009"
	},
	{
		"name": "NAYIG",
		"latitude": "43-34-16.83 N",
		"longitude": "94-18-52.28 W",
		"state": "MINNESOTA",
		"artcc": "ZMP",
		"type": "RNAV",
		"updated": "03/30/2009"
	},
	{
		"name": "NAYIY",
		"latitude": "45-17-46.51 N",
		"longitude": "92-37-7.86 W",
		"state": "WISCONSIN",
		"artcc": "ZMP",
		"type": "RNAV",
		"updated": "06/10/2013"
	},
	{
		"name": "NAYLI",
		"latitude": "44-12-3.42 N",
		"longitude": "87-42-0.58 W",
		"state": "WISCONSIN",
		"artcc": "ZMP",
		"type": "RNAV",
		"updated": "01/12/2009"
	},
	{
		"name": "NAZMY",
		"latitude": "45-11-42.61 N",
		"longitude": "93-43-9.68 W",
		"state": "MINNESOTA",
		"artcc": "ZMP",
		"type": "RNAV",
		"updated": "06/20/2011"
	},
	{
		"name": "NEADY",
		"latitude": "44-47-25.32 N",
		"longitude": "93-28-42.19 W",
		"state": "MINNESOTA",
		"artcc": "ZMP",
		"type": "RP",
		"updated": "FCM*VOR/DME*215.01/2.59"
	},
	{
		"name": "NEBBS",
		"latitude": "46-54-6.29 N",
		"longitude": "93-28-23.16 W",
		"state": "MINNESOTA",
		"artcc": "ZMP",
		"type": "RP",
		"updated": "HIB*VOR/DME*231.00"
	},
	{
		"name": "NEBYI",
		"latitude": "43-3-22.05 N",
		"longitude": "98-6-58.43 W",
		"state": "SOUTH DAKOTA",
		"artcc": "ZMP",
		"type": "RNAV",
		"updated": "09/03/2013"
	},
	{
		"name": "NECIG",
		"latitude": "47-39-8.63 N",
		"longitude": "94-38-23.37 W",
		"state": "MINNESOTA",
		"artcc": "ZMP",
		"type": "RNAV",
		"updated": "03/22/2010"
	},
	{
		"name": "NEEPS",
		"latitude": "43-33-22.99 N",
		"longitude": "94-4-29.43 W",
		"state": "MINNESOTA",
		"artcc": "ZMP",
		"type": "RNAV",
		"updated": "02/25/2016"
	},
	{
		"name": "NEGOY",
		"latitude": "42-9-17.71 N",
		"longitude": "94-3-41.8 W",
		"state": "IOWA",
		"artcc": "ZMP",
		"type": "WP",
		"updated": "11/02/1998"
	},
	{
		"name": "NEISH",
		"latitude": "43-29-52.29 N",
		"longitude": "96-41-9.82 W",
		"state": "SOUTH DAKOTA",
		"artcc": "ZMP",
		"type": "RP",
		"updated": "FSD*VORTAC*146.46/10.00"
	},
	{
		"name": "NEKIY",
		"latitude": "45-58-29.58 N",
		"longitude": "86-6-53.24 W",
		"state": "MICHIGAN",
		"artcc": "ZMP",
		"type": "RNAV",
		"updated": "03/27/2012"
	},
	{
		"name": "NELIC",
		"latitude": "42-55-55.96 N",
		"longitude": "95-2-27.43 W",
		"state": "IOWA",
		"artcc": "ZMP",
		"type": "RP",
		"updated": "FOD*VORTAC*293.54/38.19"
	},
	{
		"name": "NEMAH",
		"latitude": "42-30-17.2 N",
		"longitude": "95-8-22.65 W",
		"state": "IOWA",
		"artcc": "ZMP",
		"type": "RP",
		"updated": "FOD*VORTAC*253.62/38.00"
	},
	{
		"name": "NENOE",
		"latitude": "44-32-42.88 N",
		"longitude": "100-29-52.48 W",
		"state": "SOUTH DAKOTA",
		"artcc": "ZMP",
		"type": "RP",
		"updated": "PIR*VORTAC*291.26/17.00"
	},
	{
		"name": "NENSE",
		"latitude": "44-35-25.99 N",
		"longitude": "87-30-13.57 W",
		"state": "WISCONSIN",
		"artcc": "ZMP",
		"type": "RP",
		"updated": "GRB*VORTAC*084.66/29.71"
	},
	{
		"name": "NEOKE",
		"latitude": "44-17-19.28 N",
		"longitude": "93-11-37.9 W",
		"state": "MINNESOTA",
		"artcc": "ZMP",
		"type": "RNAV",
		"updated": "02/11/2008"
	},
	{
		"name": "NEPCO",
		"latitude": "44-15-36.08 N",
		"longitude": "89-53-18.78 W",
		"state": "WISCONSIN",
		"artcc": "ZMP",
		"type": "RP",
		"updated": "11/15/2012"
	},
	{
		"name": "NEPFY",
		"latitude": "46-55-31.3 N",
		"longitude": "103-2-51.81 W",
		"state": "NORTH DAKOTA",
		"artcc": "ZMP",
		"type": "RNAV",
		"updated": "05/17/2005"
	},
	{
		"name": "NERDE",
		"latitude": "48-4-59.31 N",
		"longitude": "98-32-33.47 W",
		"state": "NORTH DAKOTA",
		"artcc": "ZMP",
		"type": "RP",
		"updated": "DVL*VOR/DME*090.24/15.00"
	},
	{
		"name": "NEROE",
		"latitude": "44-18-12.34 N",
		"longitude": "87-28-56.89 W",
		"state": "WISCONSIN",
		"artcc": "ZMP",
		"type": "RP",
		"updated": "MTW*VOR/DME*041.00"
	},
	{
		"name": "NESIC",
		"latitude": "46-47-18.18 N",
		"longitude": "92-30-26.36 W",
		"state": "MINNESOTA",
		"artcc": "ZMP",
		"type": "RNAV",
		"updated": "05/18/2012"
	},
	{
		"name": "NETIE",
		"latitude": "46-51-36.59 N",
		"longitude": "91-54-47.81 W",
		"state": "MINNESOTA",
		"artcc": "ZMP",
		"type": "RNAV",
		"updated": "08/01/2012"
	},
	{
		"name": "NEUSE",
		"latitude": "42-21-40.77 N",
		"longitude": "95-40-59.24 W",
		"state": "IOWA",
		"artcc": "ZMP",
		"type": "RNAV",
		"updated": "02/02/2010"
	},
	{
		"name": "NEVAD",
		"latitude": "42-0-58.12 N",
		"longitude": "93-32-20.44 W",
		"state": "IOWA",
		"artcc": "ZMP",
		"type": "RP",
		"updated": "DSM*VORTAC*001.04/35.04"
	},
	{
		"name": "NEVPE",
		"latitude": "42-9-42.19 N",
		"longitude": "95-31-39.72 W",
		"state": "IOWA",
		"artcc": "ZMP",
		"type": "RNAV",
		"updated": "07/30/2008"
	},
	{
		"name": "NEVVI",
		"latitude": "45-41-35.81 N",
		"longitude": "96-30-26.47 W",
		"state": "MINNESOTA",
		"artcc": "ZMP",
		"type": "RNAV",
		"updated": "08/02/2012"
	},
	{
		"name": "NEWFE",
		"latitude": "44-14-26.4 N",
		"longitude": "84-27-3.78 W",
		"state": "MICHIGAN",
		"artcc": "ZMP",
		"type": "RNAV",
		"updated": "09/14/2009"
	},
	{
		"name": "NEWRN",
		"latitude": "43-15-15.25 N",
		"longitude": "95-48-33.39 W",
		"state": "IOWA",
		"artcc": "ZMP",
		"type": "RP",
		"updated": "FSD*VORTAC*109.84/48.64"
	},
	{
		"name": "NEWRY",
		"latitude": "43-44-9.62 N",
		"longitude": "93-16-8.85 W",
		"state": "MINNESOTA",
		"artcc": "ZMP",
		"type": "RP",
		"updated": "RST*VOR/DME*259.73/29.36"
	},
	{
		"name": "NEXRU",
		"latitude": "46-32-0.95 N",
		"longitude": "102-48-6.36 W",
		"state": "NORTH DAKOTA",
		"artcc": "ZMP",
		"type": "RP",
		"updated": "DIK*VORTAC*169.42/19.63"
	},
	{
		"name": "NEYIL",
		"latitude": "43-44-14.89 N",
		"longitude": "95-49-31.19 W",
		"state": "MINNESOTA",
		"artcc": "ZMP",
		"type": "RNAV",
		"updated": "11/15/2012"
	},
	{
		"name": "NEYIY",
		"latitude": "46-30-59.43 N",
		"longitude": "93-39-37.91 W",
		"state": "MINNESOTA",
		"artcc": "ZMP",
		"type": "RNAV",
		"updated": "01/02/2013"
	},
	{
		"name": "NICKE",
		"latitude": "48-11-20.84 N",
		"longitude": "101-11-15.07 W",
		"state": "NORTH DAKOTA",
		"artcc": "ZMP",
		"type": "RP",
		"updated": "MOT*LD*SE CRS/6.44"
	},
	{
		"name": "NICKL",
		"latitude": "44-45-19.3 N",
		"longitude": "91-49-30.23 W",
		"state": "WISCONSIN",
		"artcc": "ZMP",
		"type": "RP",
		"updated": "GEP*VORTAC*103.00/70.00"
	},
	{
		"name": "NICOT",
		"latitude": "44-24-19.87 N",
		"longitude": "87-57-14.75 W",
		"state": "WISCONSIN",
		"artcc": "ZMP",
		"type": "RP",
		"updated": "OSH*VORTAC*044.00"
	},
	{
		"name": "NIDLE",
		"latitude": "43-42-41.27 N",
		"longitude": "92-37-57.94 W",
		"state": "MINNESOTA",
		"artcc": "ZMP",
		"type": "RNAV",
		"updated": "05/17/2011"
	},
	{
		"name": "NIGME",
		"latitude": "41-22-30.49 N",
		"longitude": "95-57-18.46 W",
		"state": "NEBRASKA",
		"artcc": "ZMP",
		"type": "RNAV",
		"updated": "08/09/2012"
	},
	{
		"name": "NILIE",
		"latitude": "45-22-57.85 N",
		"longitude": "96-26-47.53 W",
		"state": "MINNESOTA",
		"artcc": "ZMP",
		"type": "RNAV",
		"updated": "06/21/2011"
	},
	{
		"name": "NIMFI",
		"latitude": "41-56-39.33 N",
		"longitude": "95-6-1.83 W",
		"state": "IOWA",
		"artcc": "ZMP",
		"type": "RNAV",
		"updated": "07/30/2008"
	},
	{
		"name": "NIMMU",
		"latitude": "41-18-59.9 N",
		"longitude": "96-18-42.39 W",
		"state": "NEBRASKA",
		"artcc": "ZMP",
		"type": "RNAV",
		"updated": "01/22/2007"
	},
	{
		"name": "NINDE",
		"latitude": "47-7-21.37 N",
		"longitude": "96-9-59.45 W",
		"state": "MINNESOTA",
		"artcc": "ZMP",
		"type": "RNAV",
		"updated": "02/14/2011"
	},
	{
		"name": "NISCO",
		"latitude": "44-16-21.57 N",
		"longitude": "88-14-57.17 W",
		"state": "WISCONSIN",
		"artcc": "ZMP",
		"type": "RNAV",
		"updated": "08/25/2009"
	},
	{
		"name": "NISDE",
		"latitude": "42-37-24.31 N",
		"longitude": "96-13-22.9 W",
		"state": "IOWA",
		"artcc": "ZMP",
		"type": "RNAV",
		"updated": "02/19/2013"
	},
	{
		"name": "NISIC",
		"latitude": "46-36-12.16 N",
		"longitude": "91-59-54.76 W",
		"state": "WISCONSIN",
		"artcc": "ZMP",
		"type": "RNAV",
		"updated": "08/01/2012"
	},
	{
		"name": "NITVY",
		"latitude": "46-44-56.75 N",
		"longitude": "96-9-23.92 W",
		"state": "MINNESOTA",
		"artcc": "ZMP",
		"type": "WP",
		"updated": "12/28/2006"
	},
	{
		"name": "NITZR",
		"latitude": "44-11-10.48 N",
		"longitude": "93-27-57.86 W",
		"state": "MINNESOTA",
		"artcc": "ZMP",
		"type": "RNAV",
		"updated": "01/14/2015"
	},
	{
		"name": "NIVIY",
		"latitude": "43-8-55.67 N",
		"longitude": "93-34-5.06 W",
		"state": "IOWA",
		"artcc": "ZMP",
		"type": "RNAV",
		"updated": "12/30/2009"
	},
	{
		"name": "NIWRA",
		"latitude": "46-59-45.68 N",
		"longitude": "94-29-50.85 W",
		"state": "MINNESOTA",
		"artcc": "ZMP",
		"type": "RNAV",
		"updated": "05/05/2015"
	},
	{
		"name": "NIYKU",
		"latitude": "41-51-53.93 N",
		"longitude": "93-40-18.12 W",
		"state": "IOWA",
		"artcc": "ZMP",
		"type": "RNAV",
		"updated": "04/04/2010"
	},
	{
		"name": "NNEWW",
		"latitude": "44-32-3.98 N",
		"longitude": "93-15-9.71 W",
		"state": "MINNESOTA",
		"artcc": "ZMP",
		"type": "RNAV",
		"updated": "01/14/2015"
	},
	{
		"name": "NOBAC",
		"latitude": "43-42-5.42 N",
		"longitude": "86-34-2.58 W",
		"state": "MICHIGAN",
		"artcc": "ZMP",
		"type": "RP",
		"updated": "GRB*VORTAC*124.49/87.00"
	},
	{
		"name": "NOCCI",
		"latitude": "45-43-13.34 N",
		"longitude": "87-4-14.9 W",
		"state": "MICHIGAN",
		"artcc": "ZMP",
		"type": "RP",
		"updated": "ESC*LD*093.90/0.52"
	},
	{
		"name": "NOCHE",
		"latitude": "43-18-54.36 N",
		"longitude": "99-44-21.52 W",
		"state": "SOUTH DAKOTA",
		"artcc": "ZMP",
		"type": "RNAV",
		"updated": "06/28/2016"
	},
	{
		"name": "NOCIK",
		"latitude": "46-57-47.11 N",
		"longitude": "96-23-20.99 W",
		"state": "MINNESOTA",
		"artcc": "ZMP",
		"type": "RNAV",
		"updated": "12/28/2006"
	},
	{
		"name": "NOCSI",
		"latitude": "41-12-25.58 N",
		"longitude": "94-25-49.73 W",
		"state": "IOWA",
		"artcc": "ZMP",
		"type": "RNAV",
		"updated": "11/22/2006"
	},
	{
		"name": "NODKE",
		"latitude": "45-22-26.62 N",
		"longitude": "93-10-56.02 W",
		"state": "MINNESOTA",
		"artcc": "ZMP",
		"type": "RNAV",
		"updated": "03/23/2012"
	},
	{
		"name": "NODPE",
		"latitude": "42-53-27.76 N",
		"longitude": "97-21-21.86 W",
		"state": "SOUTH DAKOTA",
		"artcc": "ZMP",
		"type": "RP",
		"updated": "YKN*VOR/DME*135.13/2.08"
	},
	{
		"name": "NOFHY",
		"latitude": "45-7-10.65 N",
		"longitude": "83-33-41.9 W",
		"state": "MICHIGAN",
		"artcc": "ZMP",
		"type": "RNAV",
		"updated": "03/31/2010"
	},
	{
		"name": "NOFLD",
		"latitude": "44-25-52.15 N",
		"longitude": "93-11-20.7 W",
		"state": "MINNESOTA",
		"artcc": "ZMP",
		"type": "RNAV",
		"updated": "01/14/2015"
	},
	{
		"name": "NOGCI",
		"latitude": "45-14-54.59 N",
		"longitude": "87-24-2.49 W",
		"state": "MICHIGAN",
		"artcc": "ZMP",
		"type": "RNAV",
		"updated": "06/19/2009"
	},
	{
		"name": "NOGRE",
		"latitude": "47-4-19.42 N",
		"longitude": "98-53-18.67 W",
		"state": "NORTH DAKOTA",
		"artcc": "ZMP",
		"type": "RP",
		"updated": "JMS*VOR/DME*310.20/12.00"
	},
	{
		"name": "NOJWE",
		"latitude": "41-44-36.39 N",
		"longitude": "80-55-21.25 W",
		"state": "OHIO",
		"artcc": "ZMP",
		"type": "RNAV",
		"updated": "07/19/2017"
	},
	{
		"name": "NOKKE",
		"latitude": "44-18-26.62 N",
		"longitude": "94-24-57.21 W",
		"state": "MINNESOTA",
		"artcc": "ZMP",
		"type": "RNAV",
		"updated": "04/07/2008"
	},
	{
		"name": "NOLAW",
		"latitude": "44-18-49.86 N",
		"longitude": "90-31-20.91 W",
		"state": "WISCONSIN",
		"artcc": "ZMP",
		"type": "MR",
		"updated": "VOK*TACAN*330.00/25.00"
	},
	{
		"name": "NOLYI",
		"latitude": "46-0-8.97 N",
		"longitude": "89-9-58.52 W",
		"state": "WISCONSIN",
		"artcc": "ZMP",
		"type": "RNAV",
		"updated": "05/11/2007"
	},
	{
		"name": "NOMKE",
		"latitude": "45-30-8.07 N",
		"longitude": "91-39-43.07 W",
		"state": "WISCONSIN",
		"artcc": "ZMP",
		"type": "RNAV",
		"updated": "08/20/2003"
	},
	{
		"name": "NOMRE",
		"latitude": "48-44-8.69 N",
		"longitude": "101-31-6.02 W",
		"state": "NORTH DAKOTA",
		"artcc": "ZMP",
		"type": "RP",
		"updated": "MOT*VORTAC*329.17/30.00"
	},
	{
		"name": "NOODL",
		"latitude": "45-54-55.03 N",
		"longitude": "88-5-41.76 W",
		"state": "MICHIGAN",
		"artcc": "ZMP",
		"type": "RP",
		"updated": "IMT*VOR/DME*/6.00"
	},
	{
		"name": "NORIE",
		"latitude": "45-26-6.99 N",
		"longitude": "91-48-30.37 W",
		"state": "WISCONSIN",
		"artcc": "ZMP",
		"type": "RNAV",
		"updated": "03/05/2008"
	},
	{
		"name": "NORWD",
		"latitude": "44-44-54.77 N",
		"longitude": "93-54-27.23 W",
		"state": "MINNESOTA",
		"artcc": "ZMP",
		"type": "RP",
		"updated": "MSP*VOR/DME*251.02/30.00"
	},
	{
		"name": "NOSIK",
		"latitude": "43-59-0 N",
		"longitude": "82-11-52.3014 W",
		"state": "",
		"artcc": "ZMP",
		"type": "RNAV",
		"updated": "04/08/2013"
	},
	{
		"name": "NOSLE",
		"latitude": "45-33-29.08 N",
		"longitude": "91-43-28.1 W",
		"state": "WISCONSIN",
		"artcc": "ZMP",
		"type": "RNAV",
		"updated": "03/05/2008"
	},
	{
		"name": "NOSON",
		"latitude": "46-41-18.86 N",
		"longitude": "102-42-42.15 W",
		"state": "NORTH DAKOTA",
		"artcc": "ZMP",
		"type": "RP",
		"updated": "DIK*LS*140.40"
	},
	{
		"name": "NOTAP",
		"latitude": "45-12-30 N",
		"longitude": "82-28-30.3 W",
		"state": "",
		"artcc": "ZMP",
		"type": "RNAV",
		"updated": "11/26/2014"
	},
	{
		"name": "NOVGE",
		"latitude": "39-57-45.89 N",
		"longitude": "96-55-27.27 W",
		"state": "KANSAS",
		"artcc": "ZMP",
		"type": "RNAV",
		"updated": "06/09/2014"
	},
	{
		"name": "NOVSY",
		"latitude": "44-13-14.18 N",
		"longitude": "93-27-41.36 W",
		"state": "MINNESOTA",
		"artcc": "ZMP",
		"type": "RNAV",
		"updated": "07/05/2000"
	},
	{
		"name": "NOYIC",
		"latitude": "46-41-10.68 N",
		"longitude": "91-16-22.2 W",
		"state": "WISCONSIN",
		"artcc": "ZMP",
		"type": "RP",
		"updated": "DLH*VORTAC*094.93/39.00"
	},
	{
		"name": "NOYIP",
		"latitude": "43-30-17.68 N",
		"longitude": "93-26-15.15 W",
		"state": "MINNESOTA",
		"artcc": "ZMP",
		"type": "RNAV",
		"updated": "04/03/2012"
	},
	{
		"name": "NOYIT",
		"latitude": "41-3-42.38 N",
		"longitude": "96-58-9.65 W",
		"state": "NEBRASKA",
		"artcc": "ZMP",
		"type": "RNAV",
		"updated": "10/02/2009"
	},
	{
		"name": "NOYRI",
		"latitude": "44-46-51.07 N",
		"longitude": "94-19-28.92 W",
		"state": "MINNESOTA",
		"artcc": "ZMP",
		"type": "RNAV",
		"updated": "04/27/2011"
	},
	{
		"name": "NUBKE",
		"latitude": "45-50-31.04 N",
		"longitude": "84-45-42.59 W",
		"state": "MICHIGAN",
		"artcc": "ZMP",
		"type": "RNAV",
		"updated": "02/20/2014"
	},
	{
		"name": "NUCDI",
		"latitude": "40-45-4.47 N",
		"longitude": "97-40-19.78 W",
		"state": "NEBRASKA",
		"artcc": "ZMP",
		"type": "RP",
		"updated": "GRI*VOR/DME*108.30/32.41"
	},
	{
		"name": "NUKIY",
		"latitude": "42-56-15.12 N",
		"longitude": "99-17-16.07 W",
		"state": "NEBRASKA",
		"artcc": "ZMP",
		"type": "RNAV",
		"updated": "09/06/2012"
	},
	{
		"name": "NUMGE",
		"latitude": "45-0-38.38 N",
		"longitude": "92-23-31.85 W",
		"state": "WISCONSIN",
		"artcc": "ZMP",
		"type": "WP",
		"updated": "11/02/1998"
	},
	{
		"name": "NUNVE",
		"latitude": "44-17-18.93 N",
		"longitude": "93-38-33.57 W",
		"state": "MINNESOTA",
		"artcc": "ZMP",
		"type": "RNAV",
		"updated": "10/14/2009"
	},
	{
		"name": "NUPIE",
		"latitude": "44-22-7.28 N",
		"longitude": "100-33-22.77 W",
		"state": "SOUTH DAKOTA",
		"artcc": "ZMP",
		"type": "RP",
		"updated": "PIR*VORTAC*253.92/17.00"
	},
	{
		"name": "NUPRE",
		"latitude": "45-24-38.86 N",
		"longitude": "91-7-13.39 W",
		"state": "WISCONSIN",
		"artcc": "ZMP",
		"type": "RNAV",
		"updated": "03/05/2008"
	},
	{
		"name": "NUPZI",
		"latitude": "43-1-26.15 N",
		"longitude": "92-30-55.95 W",
		"state": "IOWA",
		"artcc": "ZMP",
		"type": "RNAV",
		"updated": "02/17/2016"
	},
	{
		"name": "NURKE",
		"latitude": "44-50-57.16 N",
		"longitude": "87-32-42.45 W",
		"state": "WISCONSIN",
		"artcc": "ZMP",
		"type": "RNAV",
		"updated": "09/23/2004"
	},
	{
		"name": "NURNE",
		"latitude": "45-3-34.66 N",
		"longitude": "91-30-38.51 W",
		"state": "WISCONSIN",
		"artcc": "ZMP",
		"type": "RNAV",
		"updated": "03/05/2008"
	},
	{
		"name": "NUSCI",
		"latitude": "43-55-4.22 N",
		"longitude": "98-14-42.21 W",
		"state": "SOUTH DAKOTA",
		"artcc": "ZMP",
		"type": "RNAV",
		"updated": "07/21/2006"
	},
	{
		"name": "NUSLE",
		"latitude": "46-7-57.33 N",
		"longitude": "90-31-52.94 W",
		"state": "WISCONSIN",
		"artcc": "ZMP",
		"type": "RNAV",
		"updated": "03/22/2006"
	},
	{
		"name": "NUTFO",
		"latitude": "47-53-12.18 N",
		"longitude": "100-10-43.85 W",
		"state": "NORTH DAKOTA",
		"artcc": "ZMP",
		"type": "RNAV",
		"updated": "08/17/2010"
	},
	{
		"name": "NUVLE",
		"latitude": "45-47-10.19 N",
		"longitude": "90-33-21.46 W",
		"state": "WISCONSIN",
		"artcc": "ZMP",
		"type": "RNAV",
		"updated": "03/11/2003"
	},
	{
		"name": "NUYBI",
		"latitude": "46-18-50.92 N",
		"longitude": "94-5-22.08 W",
		"state": "MINNESOTA",
		"artcc": "ZMP",
		"type": "RNAV",
		"updated": "08/16/2017"
	},
	{
		"name": "NUYIG",
		"latitude": "43-4-31.86 N",
		"longitude": "98-31-22.91 W",
		"state": "SOUTH DAKOTA",
		"artcc": "ZMP",
		"type": "RNAV",
		"updated": "09/03/2013"
	},
	{
		"name": "NUYIK",
		"latitude": "42-22-8.54 N",
		"longitude": "94-2-58.58 W",
		"state": "IOWA",
		"artcc": "ZMP",
		"type": "RNAV",
		"updated": "10/14/2009"
	}
]
