[
	{
		"name": "OBARE",
		"latitude": "45-44-3.59 N",
		"longitude": "94-42-27.5 W",
		"state": "MINNESOTA",
		"artcc": "ZMP",
		"type": "RP",
		"updated": "AXN*VOR/DME*114.22/25.80"
	},
	{
		"name": "OBBEY",
		"latitude": "46-6-53.43 N",
		"longitude": "91-23-6.63 W",
		"state": "WISCONSIN",
		"artcc": "ZMP",
		"type": "RP",
		"updated": "RZN*VOR/DME*064.54/45.02"
	},
	{
		"name": "OBDEZ",
		"latitude": "43-19-22.81 N",
		"longitude": "96-11-28.66 W",
		"state": "IOWA",
		"artcc": "ZMP",
		"type": "RNAV",
		"updated": "04/04/2010"
	},
	{
		"name": "OBDUW",
		"latitude": "46-22-44.5 N",
		"longitude": "85-43-1.05 W",
		"state": "MICHIGAN",
		"artcc": "ZMP",
		"type": "RNAV",
		"updated": "06/05/2010"
	},
	{
		"name": "OBERR",
		"latitude": "44-35-50.17 N",
		"longitude": "93-10-1.66 W",
		"state": "MINNESOTA",
		"artcc": "ZMP",
		"type": "RP",
		"updated": "BMA*LD*169.53/17.88"
	},
	{
		"name": "OBERT",
		"latitude": "42-42-45.66 N",
		"longitude": "97-0-0.62 W",
		"state": "NEBRASKA",
		"artcc": "ZMP",
		"type": "RP",
		"updated": "OFK*VOR/DME*015.82"
	},
	{
		"name": "OBIRE",
		"latitude": "45-3-17.48 N",
		"longitude": "91-53-0.43 W",
		"state": "WISCONSIN",
		"artcc": "ZMP",
		"type": "RNAV",
		"updated": "07/26/2013"
	},
	{
		"name": "OBITT",
		"latitude": "44-27-43.18 N",
		"longitude": "96-59-57.93 W",
		"state": "SOUTH DAKOTA",
		"artcc": "ZMP",
		"type": "RP",
		"updated": "HON*VORTAC*078.20/56.39"
	},
	{
		"name": "OBMAH",
		"latitude": "44-9-51.81 N",
		"longitude": "94-0-6.27 W",
		"state": "MINNESOTA",
		"artcc": "ZMP",
		"type": "RNAV",
		"updated": "10/14/2009"
	},
	{
		"name": "OBREC",
		"latitude": "40-58-28.88 N",
		"longitude": "95-7-35.75 W",
		"state": "IOWA",
		"artcc": "ZMP",
		"type": "RP",
		"updated": "OVR*VORTAC*104.42/30.00"
	},
	{
		"name": "OBREW",
		"latitude": "47-49-38.97 N",
		"longitude": "91-59-30.06 W",
		"state": "MINNESOTA",
		"artcc": "ZMP",
		"type": "RNAV",
		"updated": "05/07/2009"
	},
	{
		"name": "OBRUF",
		"latitude": "47-22-13.74 N",
		"longitude": "101-38-26.66 W",
		"state": "NORTH DAKOTA",
		"artcc": "ZMP",
		"type": "WP",
		"updated": "11/02/1998"
	},
	{
		"name": "OBSTR",
		"latitude": "43-41-42.2 N",
		"longitude": "85-12-53.53 W",
		"state": "MICHIGAN",
		"artcc": "ZMP",
		"type": "RNAV",
		"updated": "04/19/2018"
	},
	{
		"name": "OBTIE",
		"latitude": "46-48-41.89 N",
		"longitude": "96-49-3.2 W",
		"state": "NORTH DAKOTA",
		"artcc": "ZMP",
		"type": "RP",
		"updated": "FAR*LD*176.47/7.53"
	},
	{
		"name": "OBUVE",
		"latitude": "45-56-21.61 N",
		"longitude": "89-50-48.16 W",
		"state": "WISCONSIN",
		"artcc": "ZMP",
		"type": "RNAV",
		"updated": "10/27/2009"
	},
	{
		"name": "OBUYE",
		"latitude": "48-38-56.47 N",
		"longitude": "93-31-27.03 W",
		"state": "",
		"artcc": "ZMP",
		"type": "RP",
		"updated": "INL*VOR/DME*/6.87"
	},
	{
		"name": "OCADE",
		"latitude": "44-43-40.8 N",
		"longitude": "98-53-46.9 W",
		"state": "SOUTH DAKOTA",
		"artcc": "ZMP",
		"type": "RNAV",
		"updated": "07/06/2011"
	},
	{
		"name": "OCEKU",
		"latitude": "42-30-7.13 N",
		"longitude": "93-54-49.59 W",
		"state": "IOWA",
		"artcc": "ZMP",
		"type": "RNAV",
		"updated": "10/14/2009"
	},
	{
		"name": "OCEWA",
		"latitude": "44-39-21.04 N",
		"longitude": "93-28-47.61 W",
		"state": "MINNESOTA",
		"artcc": "ZMP",
		"type": "RNAV",
		"updated": "04/18/2000"
	},
	{
		"name": "OCEXY",
		"latitude": "45-3-38.14 N",
		"longitude": "92-17-53.17 W",
		"state": "WISCONSIN",
		"artcc": "ZMP",
		"type": "WP",
		"updated": "11/02/1998"
	},
	{
		"name": "OCEYI",
		"latitude": "40-54-53.43 N",
		"longitude": "96-57-41.57 W",
		"state": "NEBRASKA",
		"artcc": "ZMP",
		"type": "RP",
		"updated": "LNK*VORTAC*258.00/10.00"
	},
	{
		"name": "OCIBA",
		"latitude": "45-8-42.28 N",
		"longitude": "93-15-5.62 W",
		"state": "MINNESOTA",
		"artcc": "ZMP",
		"type": "RNAV",
		"updated": "11/30/2006"
	},
	{
		"name": "OCIPO",
		"latitude": "44-0-21.18 N",
		"longitude": "91-15-37.34 W",
		"state": "WISCONSIN",
		"artcc": "ZMP",
		"type": "RNAV",
		"updated": "08/12/2008"
	},
	{
		"name": "OCIVY",
		"latitude": "44-15-7.16 N",
		"longitude": "95-1-52.89 W",
		"state": "MINNESOTA",
		"artcc": "ZMP",
		"type": "RNAV",
		"updated": "11/20/2012"
	},
	{
		"name": "OCIWE",
		"latitude": "45-55-36.11 N",
		"longitude": "95-28-11.9 W",
		"state": "MINNESOTA",
		"artcc": "ZMP",
		"type": "RNAV",
		"updated": "01/29/2001"
	},
	{
		"name": "OCOBO",
		"latitude": "42-3-52.08 N",
		"longitude": "98-3-10.55 W",
		"state": "NEBRASKA",
		"artcc": "ZMP",
		"type": "RNAV",
		"updated": "09/28/2009"
	},
	{
		"name": "ODASE",
		"latitude": "47-43-25.94 N",
		"longitude": "91-34-12.45 W",
		"state": "MINNESOTA",
		"artcc": "ZMP",
		"type": "RNAV",
		"updated": "01/03/2012"
	},
	{
		"name": "ODAXY",
		"latitude": "44-38-0.86 N",
		"longitude": "83-12-16.23 W",
		"state": "MICHIGAN",
		"artcc": "ZMP",
		"type": "RNAV",
		"updated": "03/29/2010"
	},
	{
		"name": "ODBUE",
		"latitude": "47-29-23.13 N",
		"longitude": "103-6-14.83 W",
		"state": "NORTH DAKOTA",
		"artcc": "ZMP",
		"type": "RNAV",
		"updated": "11/01/2017"
	},
	{
		"name": "ODOHU",
		"latitude": "47-5-10.77 N",
		"longitude": "96-16-34.77 W",
		"state": "MINNESOTA",
		"artcc": "ZMP",
		"type": "RNAV",
		"updated": "02/14/2011"
	},
	{
		"name": "ODREF",
		"latitude": "44-21-57.91 N",
		"longitude": "100-25-8.61 W",
		"state": "SOUTH DAKOTA",
		"artcc": "ZMP",
		"type": "RNAV",
		"updated": "06/28/2007"
	},
	{
		"name": "ODUBY",
		"latitude": "46-51-0.61 N",
		"longitude": "100-33-16.73 W",
		"state": "NORTH DAKOTA",
		"artcc": "ZMP",
		"type": "RP",
		"updated": "BIS*VOR/DME*028.66/7.00"
	},
	{
		"name": "ODUFA",
		"latitude": "46-38-47.29 N",
		"longitude": "100-38-23.68 W",
		"state": "NORTH DAKOTA",
		"artcc": "ZMP",
		"type": "RP",
		"updated": "BIS*VOR/DME*159.34/7.00"
	},
	{
		"name": "ODUYA",
		"latitude": "44-37-39.57 N",
		"longitude": "89-27-55.85 W",
		"state": "WISCONSIN",
		"artcc": "ZMP",
		"type": "RP",
		"updated": "STE*LD*030.64/6.31"
	},
	{
		"name": "OEGLE",
		"latitude": "44-21-38.22 N",
		"longitude": "97-5-42.61 W",
		"state": "SOUTH DAKOTA",
		"artcc": "ZMP",
		"type": "RNAV",
		"updated": "04/16/2014"
	},
	{
		"name": "OFFUT",
		"latitude": "48-15-56.98 N",
		"longitude": "101-2-24.27 W",
		"state": "NORTH DAKOTA",
		"artcc": "ZMP",
		"type": "MR",
		"updated": "MOT*VORTAC*075.00/9.91"
	},
	{
		"name": "OFIWO",
		"latitude": "41-14-45.17 N",
		"longitude": "95-50-2.61 W",
		"state": "IOWA",
		"artcc": "ZMP",
		"type": "RNAV",
		"updated": "08/15/2012"
	},
	{
		"name": "OFQIX",
		"latitude": "42-44-33.17 N",
		"longitude": "92-3-38.4 W",
		"state": "IOWA",
		"artcc": "ZMP",
		"type": "RNAV",
		"updated": "12/04/2000"
	},
	{
		"name": "OFSON",
		"latitude": "44-40-25.33 N",
		"longitude": "94-14-28.99 W",
		"state": "MINNESOTA",
		"artcc": "ZMP",
		"type": "RNAV",
		"updated": "01/13/2015"
	},
	{
		"name": "OFTEN",
		"latitude": "46-44-33.54 N",
		"longitude": "100-42-24.87 W",
		"state": "NORTH DAKOTA",
		"artcc": "ZMP",
		"type": "RP",
		"updated": "BIS*VOR/DME*224.19"
	},
	{
		"name": "OGGHU",
		"latitude": "42-32-38.15 N",
		"longitude": "94-28-56.07 W",
		"state": "IOWA",
		"artcc": "ZMP",
		"type": "RNAV",
		"updated": "10/14/2009"
	},
	{
		"name": "OGILY",
		"latitude": "43-1-17.75 N",
		"longitude": "94-26-42.54 W",
		"state": "IOWA",
		"artcc": "ZMP",
		"type": "RNAV",
		"updated": "12/29/2009"
	},
	{
		"name": "OGITY",
		"latitude": "43-1-13.04 N",
		"longitude": "93-36-41.26 W",
		"state": "IOWA",
		"artcc": "ZMP",
		"type": "RNAV",
		"updated": "12/30/2009"
	},
	{
		"name": "OGLVE",
		"latitude": "45-17-56.9 N",
		"longitude": "93-28-56.95 W",
		"state": "MINNESOTA",
		"artcc": "ZMP",
		"type": "RNAV",
		"updated": "01/12/2015"
	},
	{
		"name": "OGOSE",
		"latitude": "45-37-55.35 N",
		"longitude": "89-24-11.03 W",
		"state": "WISCONSIN",
		"artcc": "ZMP",
		"type": "RNAV",
		"updated": "02/14/2010"
	},
	{
		"name": "OGPIE",
		"latitude": "45-34-57.84 N",
		"longitude": "96-27-44.29 W",
		"state": "MINNESOTA",
		"artcc": "ZMP",
		"type": "RNAV",
		"updated": "08/02/2012"
	},
	{
		"name": "OGREE",
		"latitude": "43-40-4.63 N",
		"longitude": "84-15-57.45 W",
		"state": "MICHIGAN",
		"artcc": "ZMP",
		"type": "RNAV",
		"updated": "12/06/2017"
	},
	{
		"name": "OGSIQ",
		"latitude": "47-25-28.61 N",
		"longitude": "101-49-16.66 W",
		"state": "NORTH DAKOTA",
		"artcc": "ZMP",
		"type": "RNAV",
		"updated": "05/05/2015"
	},
	{
		"name": "OGTAH",
		"latitude": "42-11-11.3 N",
		"longitude": "95-7-7.95 W",
		"state": "IOWA",
		"artcc": "ZMP",
		"type": "RNAV",
		"updated": "04/12/2012"
	},
	{
		"name": "OGTOW",
		"latitude": "46-9-33.99 N",
		"longitude": "91-11-10.7 W",
		"state": "WISCONSIN",
		"artcc": "ZMP",
		"type": "RNAV",
		"updated": "07/09/2015"
	},
	{
		"name": "OGVIQ",
		"latitude": "47-4-48.46 N",
		"longitude": "101-33-36.14 W",
		"state": "NORTH DAKOTA",
		"artcc": "ZMP",
		"type": "RNAV",
		"updated": "05/30/2010"
	},
	{
		"name": "OGXEB",
		"latitude": "48-34-59.6 N",
		"longitude": "101-27-56.41 W",
		"state": "NORTH DAKOTA",
		"artcc": "ZMP",
		"type": "RNAV",
		"updated": "10/03/2000"
	},
	{
		"name": "OGYAH",
		"latitude": "41-27-21.02 N",
		"longitude": "95-53-37.74 W",
		"state": "IOWA",
		"artcc": "ZMP",
		"type": "RNAV",
		"updated": "08/15/2012"
	},
	{
		"name": "OGZEV",
		"latitude": "47-31-13.13 N",
		"longitude": "101-16-18.14 W",
		"state": "NORTH DAKOTA",
		"artcc": "ZMP",
		"type": "RNAV",
		"updated": "06/28/2017"
	},
	{
		"name": "OHABI",
		"latitude": "45-39-57.14 N",
		"longitude": "91-50-2.7 W",
		"state": "WISCONSIN",
		"artcc": "ZMP",
		"type": "RNAV",
		"updated": "11/19/2007"
	},
	{
		"name": "OHDUP",
		"latitude": "47-36-55.13 N",
		"longitude": "98-13-7.55 W",
		"state": "NORTH DAKOTA",
		"artcc": "ZMP",
		"type": "RNAV",
		"updated": "09/03/2010"
	},
	{
		"name": "OHEXE",
		"latitude": "44-23-33.76 N",
		"longitude": "95-43-42.14 W",
		"state": "MINNESOTA",
		"artcc": "ZMP",
		"type": "RNAV",
		"updated": "02/22/2011"
	},
	{
		"name": "OHFAH",
		"latitude": "41-46-7.35 N",
		"longitude": "93-42-35.85 W",
		"state": "IOWA",
		"artcc": "ZMP",
		"type": "RNAV",
		"updated": "04/04/2010"
	},
	{
		"name": "OHHMY",
		"latitude": "42-52-53 N",
		"longitude": "91-45-30 W",
		"state": "IOWA",
		"artcc": "ZMP",
		"type": "RNAV",
		"updated": "05/10/2013"
	},
	{
		"name": "OHJAY",
		"latitude": "46-35-29.75 N",
		"longitude": "95-20-46.61 W",
		"state": "MINNESOTA",
		"artcc": "ZMP",
		"type": "RNAV",
		"updated": "08/10/2017"
	},
	{
		"name": "OHROR",
		"latitude": "46-30-9.66 N",
		"longitude": "100-49-53.47 W",
		"state": "NORTH DAKOTA",
		"artcc": "ZMP",
		"type": "RP",
		"updated": "BIS*VOR/DME*191.89/17.00"
	},
	{
		"name": "OHULU",
		"latitude": "42-46-22.96 N",
		"longitude": "98-36-19.36 W",
		"state": "NEBRASKA",
		"artcc": "ZMP",
		"type": "RNAV",
		"updated": "09/03/2013"
	},
	{
		"name": "OHUTO",
		"latitude": "48-35-11.94 N",
		"longitude": "97-21-56.85 W",
		"state": "NORTH DAKOTA",
		"artcc": "ZMP",
		"type": "RNAV",
		"updated": "05/14/2010"
	},
	{
		"name": "OHYEQ",
		"latitude": "43-13-6.51 N",
		"longitude": "94-41-56.2 W",
		"state": "IOWA",
		"artcc": "ZMP",
		"type": "RNAV",
		"updated": "05/10/2007"
	},
	{
		"name": "OJALY",
		"latitude": "46-11-15.67 N",
		"longitude": "96-9-33.07 W",
		"state": "MINNESOTA",
		"artcc": "ZMP",
		"type": "RNAV",
		"updated": "06/28/2009"
	},
	{
		"name": "OJEKE",
		"latitude": "40-26-14.14 N",
		"longitude": "95-44-42.5 W",
		"state": "NEBRASKA",
		"artcc": "ZMP",
		"type": "RNAV",
		"updated": "03/27/2008"
	},
	{
		"name": "OJIKY",
		"latitude": "45-47-55.62 N",
		"longitude": "90-23-12.56 W",
		"state": "WISCONSIN",
		"artcc": "ZMP",
		"type": "RNAV",
		"updated": "08/09/2007"
	},
	{
		"name": "OJOSO",
		"latitude": "45-36-38.24 N",
		"longitude": "88-2-1.36 W",
		"state": "WISCONSIN",
		"artcc": "ZMP",
		"type": "RNAV",
		"updated": "01/21/2009"
	},
	{
		"name": "OJPOT",
		"latitude": "44-51-9.05 N",
		"longitude": "101-5-46.01 W",
		"state": "SOUTH DAKOTA",
		"artcc": "ZMP",
		"type": "WP",
		"updated": "04/11/2002"
	},
	{
		"name": "OJYAB",
		"latitude": "44-53-34.13 N",
		"longitude": "91-34-44.62 W",
		"state": "WISCONSIN",
		"artcc": "ZMP",
		"type": "RNAV",
		"updated": "06/26/2007"
	},
	{
		"name": "OKAYS",
		"latitude": "43-31-50.72 N",
		"longitude": "96-45-24.87 W",
		"state": "SOUTH DAKOTA",
		"artcc": "ZMP",
		"type": "RNAV",
		"updated": "07/12/2013"
	},
	{
		"name": "OKBIW",
		"latitude": "45-56-52.04 N",
		"longitude": "84-0-54.72 W",
		"state": "MICHIGAN",
		"artcc": "ZMP",
		"type": "RNAV",
		"updated": "06/05/2010"
	},
	{
		"name": "OKDUC",
		"latitude": "48-26-40.86 N",
		"longitude": "100-21-14.32 W",
		"state": "NORTH DAKOTA",
		"artcc": "ZMP",
		"type": "RNAV",
		"updated": "06/28/2011"
	},
	{
		"name": "OKEYA",
		"latitude": "45-37-57.33 N",
		"longitude": "94-20-35.55 W",
		"state": "MINNESOTA",
		"artcc": "ZMP",
		"type": "RNAV",
		"updated": "06/19/2009"
	},
	{
		"name": "OKIFO",
		"latitude": "48-41-12.92 N",
		"longitude": "96-51-33.44 W",
		"state": "MINNESOTA",
		"artcc": "ZMP",
		"type": "RNAV",
		"updated": "07/26/2013"
	},
	{
		"name": "OKIXE",
		"latitude": "48-28-3.93 N",
		"longitude": "101-27-48.37 W",
		"state": "NORTH DAKOTA",
		"artcc": "ZMP",
		"type": "RP",
		"updated": "MIB*TACAN*299.00/5.00"
	},
	{
		"name": "OKJIJ",
		"latitude": "42-59-2.16 N",
		"longitude": "93-26-27.36 W",
		"state": "IOWA",
		"artcc": "ZMP",
		"type": "RNAV",
		"updated": "12/13/2001"
	},
	{
		"name": "OKKIH",
		"latitude": "43-14-3.07 N",
		"longitude": "95-31-26.8 W",
		"state": "IOWA",
		"artcc": "ZMP",
		"type": "RNAV",
		"updated": "04/08/2010"
	},
	{
		"name": "OKLIF",
		"latitude": "44-6-25.6 N",
		"longitude": "84-26-50.62 W",
		"state": "MICHIGAN",
		"artcc": "ZMP",
		"type": "RNAV",
		"updated": "09/15/2009"
	},
	{
		"name": "OKOMY",
		"latitude": "45-41-51.49 N",
		"longitude": "94-37-21.15 W",
		"state": "MINNESOTA",
		"artcc": "ZMP",
		"type": "RP",
		"updated": "AXN*VOR/DME*114.22/30.00"
	},
	{
		"name": "OKPIE",
		"latitude": "40-48-2.3 N",
		"longitude": "99-0-12.5 W",
		"state": "NEBRASKA",
		"artcc": "ZMP",
		"type": "RP",
		"updated": "EAR*VOR*350.97"
	},
	{
		"name": "OKPOE",
		"latitude": "43-31-20.15 N",
		"longitude": "96-12-51.12 W",
		"state": "MINNESOTA",
		"artcc": "ZMP",
		"type": "RNAV",
		"updated": "05/20/2010"
	},
	{
		"name": "OKPOQ",
		"latitude": "45-26-39.4 N",
		"longitude": "85-10-10.26 W",
		"state": "MICHIGAN",
		"artcc": "ZMP",
		"type": "RNAV",
		"updated": "01/17/2008"
	},
	{
		"name": "OKPUE",
		"latitude": "45-31-30.87 N",
		"longitude": "93-14-59.04 W",
		"state": "MINNESOTA",
		"artcc": "ZMP",
		"type": "RNAV",
		"updated": "03/23/2012"
	},
	{
		"name": "OKVAE",
		"latitude": "46-11-40.74 N",
		"longitude": "100-7-1.04 W",
		"state": "NORTH DAKOTA",
		"artcc": "ZMP",
		"type": "RNAV",
		"updated": "06/14/2013"
	},
	{
		"name": "OLAYU",
		"latitude": "47-25-10.71 N",
		"longitude": "92-53-35.52 W",
		"state": "MINNESOTA",
		"artcc": "ZMP",
		"type": "RNAV",
		"updated": "06/20/2011"
	},
	{
		"name": "OLLEE",
		"latitude": "45-32-7.89 N",
		"longitude": "93-34-53.49 W",
		"state": "MINNESOTA",
		"artcc": "ZMP",
		"type": "RP",
		"updated": "GEP*VORTAC*333.42/25.00"
	},
	{
		"name": "OLMEC",
		"latitude": "47-3-13.92 N",
		"longitude": "93-25-50.93 W",
		"state": "MINNESOTA",
		"artcc": "ZMP",
		"type": "RP",
		"updated": "HIB*VOR/DME*241.71"
	},
	{
		"name": "OLTIQ",
		"latitude": "47-47-49.3 N",
		"longitude": "101-36-41.82 W",
		"state": "NORTH DAKOTA",
		"artcc": "ZMP",
		"type": "RNAV",
		"updated": "06/27/2017"
	},
	{
		"name": "OLTOE",
		"latitude": "42-17-5.79 N",
		"longitude": "93-43-15.66 W",
		"state": "IOWA",
		"artcc": "ZMP",
		"type": "RNAV",
		"updated": "12/19/2009"
	},
	{
		"name": "OMARY",
		"latitude": "46-40-51.34 N",
		"longitude": "92-19-34.93 W",
		"state": "MINNESOTA",
		"artcc": "ZMP",
		"type": "RNAV",
		"updated": "04/08/2010"
	},
	{
		"name": "OMAXE",
		"latitude": "43-39-31.7 N",
		"longitude": "92-29-12.16 W",
		"state": "MINNESOTA",
		"artcc": "ZMP",
		"type": "RNAV",
		"updated": "05/17/2011"
	},
	{
		"name": "OMCEW",
		"latitude": "44-38-28.7 N",
		"longitude": "99-35-35.24 W",
		"state": "SOUTH DAKOTA",
		"artcc": "ZMP",
		"type": "RNAV",
		"updated": "08/05/2016"
	},
	{
		"name": "OMEHI",
		"latitude": "44-9-37.55 N",
		"longitude": "95-46-57.4 W",
		"state": "MINNESOTA",
		"artcc": "ZMP",
		"type": "RNAV",
		"updated": "07/10/2013"
	},
	{
		"name": "OMEYY",
		"latitude": "41-8-31.09 N",
		"longitude": "98-3-48.44 W",
		"state": "NEBRASKA",
		"artcc": "ZMP",
		"type": "RNAV",
		"updated": "05/26/2011"
	},
	{
		"name": "OMHIH",
		"latitude": "41-37-23.9 N",
		"longitude": "94-51-11.81 W",
		"state": "IOWA",
		"artcc": "ZMP",
		"type": "WP",
		"updated": "12/13/2001"
	},
	{
		"name": "OMIGY",
		"latitude": "47-22-15.26 N",
		"longitude": "94-43-19.9 W",
		"state": "MINNESOTA",
		"artcc": "ZMP",
		"type": "RNAV",
		"updated": "03/03/2009"
	},
	{
		"name": "OMLAE",
		"latitude": "43-41-23.76 N",
		"longitude": "95-35-0.49 W",
		"state": "MINNESOTA",
		"artcc": "ZMP",
		"type": "RNAV",
		"updated": "11/15/2012"
	},
	{
		"name": "OMOLE",
		"latitude": "45-43-15.58 N",
		"longitude": "88-7-56.46 W",
		"state": "WISCONSIN",
		"artcc": "ZMP",
		"type": "RP",
		"updated": "IMT*VOR/DME*/5.77"
	},
	{
		"name": "OMUGE",
		"latitude": "46-51-24.49 N",
		"longitude": "100-51-31.98 W",
		"state": "NORTH DAKOTA",
		"artcc": "ZMP",
		"type": "RNAV",
		"updated": "03/29/2011"
	},
	{
		"name": "OMUPE",
		"latitude": "44-58-8.33 N",
		"longitude": "87-46-27.63 W",
		"state": "WISCONSIN",
		"artcc": "ZMP",
		"type": "RNAV",
		"updated": "06/11/2009"
	},
	{
		"name": "OMXIV",
		"latitude": "45-6-7.9 N",
		"longitude": "90-25-2.17 W",
		"state": "WISCONSIN",
		"artcc": "ZMP",
		"type": "RNAV",
		"updated": "12/18/2012"
	},
	{
		"name": "ONACI",
		"latitude": "46-29-53.18 N",
		"longitude": "98-51-52.33 W",
		"state": "NORTH DAKOTA",
		"artcc": "ZMP",
		"type": "RNAV",
		"updated": "07/13/2015"
	},
	{
		"name": "ONARE",
		"latitude": "44-40-21.9 N",
		"longitude": "93-17-45.71 W",
		"state": "MINNESOTA",
		"artcc": "ZMP",
		"type": "RP",
		"updated": "GEP*VORTAC*167.36"
	},
	{
		"name": "ONAVE",
		"latitude": "46-0-0.66 N",
		"longitude": "91-19-54.95 W",
		"state": "WISCONSIN",
		"artcc": "ZMP",
		"type": "RNAV",
		"updated": "10/29/2015"
	},
	{
		"name": "ONAYU",
		"latitude": "47-58-12.9 N",
		"longitude": "97-10-52.38 W",
		"state": "NORTH DAKOTA",
		"artcc": "ZMP",
		"type": "RP",
		"updated": "GFK*LD*354.03/0.50"
	},
	{
		"name": "ONDUC",
		"latitude": "44-23-59.67 N",
		"longitude": "98-42-44 W",
		"state": "SOUTH DAKOTA",
		"artcc": "ZMP",
		"type": "RNAV",
		"updated": "07/06/2011"
	},
	{
		"name": "ONECO",
		"latitude": "44-32-45.86 N",
		"longitude": "88-38-39.24 W",
		"state": "WISCONSIN",
		"artcc": "ZMP",
		"type": "RNAV",
		"updated": "03/27/2017"
	},
	{
		"name": "ONLEY",
		"latitude": "40-18-54.25 N",
		"longitude": "98-59-42.26 W",
		"state": "NEBRASKA",
		"artcc": "ZMP",
		"type": "RNAV",
		"updated": "07/07/2009"
	},
	{
		"name": "ONNAE",
		"latitude": "48-3-9.33 N",
		"longitude": "97-9-15.71 W",
		"state": "NORTH DAKOTA",
		"artcc": "ZMP",
		"type": "RP",
		"updated": "GFK*VOR/DME*003.00/6.00"
	},
	{
		"name": "ONSOE",
		"latitude": "44-57-31.53 N",
		"longitude": "83-33-39.06 W",
		"state": "MICHIGAN",
		"artcc": "ZMP",
		"type": "RNAV",
		"updated": "10/14/2008"
	},
	{
		"name": "ONTIJ",
		"latitude": "43-17-51.48 N",
		"longitude": "94-30-46.46 W",
		"state": "IOWA",
		"artcc": "ZMP",
		"type": "RP",
		"updated": "GEP*VORTAC*198.32"
	},
	{
		"name": "ONUNY",
		"latitude": "46-14-3.46 N",
		"longitude": "94-15-24.65 W",
		"state": "MINNESOTA",
		"artcc": "ZMP",
		"type": "RNAV",
		"updated": "05/17/2010"
	},
	{
		"name": "ONUWA",
		"latitude": "43-2-13.33 N",
		"longitude": "94-57-50.72 W",
		"state": "IOWA",
		"artcc": "ZMP",
		"type": "RNAV",
		"updated": "04/07/2010"
	},
	{
		"name": "ONVUE",
		"latitude": "46-6-7.57 N",
		"longitude": "95-52-35.3 W",
		"state": "MINNESOTA",
		"artcc": "ZMP",
		"type": "RP",
		"updated": "AXN*VOR/DME*281.00/28.26"
	},
	{
		"name": "OOPEE",
		"latitude": "43-29-50 N",
		"longitude": "93-17-32 W",
		"state": "IOWA",
		"artcc": "ZMP",
		"type": "RNAV",
		"updated": "11/14/2016"
	},
	{
		"name": "OPCAW",
		"latitude": "47-22-1.37 N",
		"longitude": "92-35-34.86 W",
		"state": "MINNESOTA",
		"artcc": "ZMP",
		"type": "RP",
		"updated": "01/07/2013"
	},
	{
		"name": "OPGIH",
		"latitude": "45-57-5.55 N",
		"longitude": "92-11-10.84 W",
		"state": "WISCONSIN",
		"artcc": "ZMP",
		"type": "RNAV",
		"updated": "03/16/2015"
	},
	{
		"name": "OPHUN",
		"latitude": "45-15-57.88 N",
		"longitude": "87-21-47.89 W",
		"state": "MICHIGAN",
		"artcc": "ZMP",
		"type": "RNAV",
		"updated": "12/07/2010"
	},
	{
		"name": "OPILY",
		"latitude": "45-37-40.29 N",
		"longitude": "98-8-9.43 W",
		"state": "SOUTH DAKOTA",
		"artcc": "ZMP",
		"type": "RP",
		"updated": "ABR*VOR/DME*030.77/16.00"
	},
	{
		"name": "OPITE",
		"latitude": "46-29-15.84 N",
		"longitude": "90-48-35.21 W",
		"state": "WISCONSIN",
		"artcc": "ZMP",
		"type": "RNAV",
		"updated": "03/21/2013"
	},
	{
		"name": "OPIZU",
		"latitude": "40-56-30.04 N",
		"longitude": "96-50-17.87 W",
		"state": "NEBRASKA",
		"artcc": "ZMP",
		"type": "WP",
		"updated": "12/31/2012"
	},
	{
		"name": "OPJIM",
		"latitude": "45-15-8.82 N",
		"longitude": "98-39-56.76 W",
		"state": "SOUTH DAKOTA",
		"artcc": "ZMP",
		"type": "RP",
		"updated": "ABR*VOR/DME*224.90/16.00"
	},
	{
		"name": "OPLOW",
		"latitude": "45-32-8.96 N",
		"longitude": "98-14-16.81 W",
		"state": "SOUTH DAKOTA",
		"artcc": "ZMP",
		"type": "RP",
		"updated": "ABR*VOR/DME*030.77/9.00"
	},
	{
		"name": "OPNAH",
		"latitude": "45-19-28.89 N",
		"longitude": "98-32-9.67 W",
		"state": "SOUTH DAKOTA",
		"artcc": "ZMP",
		"type": "RP",
		"updated": "ABR*VOR/DME*224.90/9.00"
	},
	{
		"name": "OPNOE",
		"latitude": "45-25-46.99 N",
		"longitude": "84-58-15.14 W",
		"state": "MICHIGAN",
		"artcc": "ZMP",
		"type": "RNAV",
		"updated": "01/17/2008"
	},
	{
		"name": "OPODY",
		"latitude": "44-30-47.59 N",
		"longitude": "98-9-19.35 W",
		"state": "SOUTH DAKOTA",
		"artcc": "ZMP",
		"type": "RP",
		"updated": "HON*VORTAC*046.68/8.00"
	},
	{
		"name": "OPOJE",
		"latitude": "44-26-12.7 N",
		"longitude": "98-29-49.65 W",
		"state": "SOUTH DAKOTA",
		"artcc": "ZMP",
		"type": "RP",
		"updated": "HON*VORTAC*258.68/8.00"
	},
	{
		"name": "OPORT",
		"latitude": "41-5-24.64 N",
		"longitude": "95-30-46.44 W",
		"state": "IOWA",
		"artcc": "ZMP",
		"type": "MR",
		"updated": "03/10/2014"
	},
	{
		"name": "OPPOF",
		"latitude": "45-19-9.94 N",
		"longitude": "89-18-1.49 W",
		"state": "WISCONSIN",
		"artcc": "ZMP",
		"type": "RNAV",
		"updated": "02/28/2008"
	},
	{
		"name": "OPPOV",
		"latitude": "44-24-35.23 N",
		"longitude": "100-9-5.26 W",
		"state": "SOUTH DAKOTA",
		"artcc": "ZMP",
		"type": "RNAV",
		"updated": "06/28/2007"
	},
	{
		"name": "ORBEW",
		"latitude": "45-37-25.41 N",
		"longitude": "91-42-56.04 W",
		"state": "WISCONSIN",
		"artcc": "ZMP",
		"type": "RNAV",
		"updated": "12/28/2007"
	},
	{
		"name": "ORENY",
		"latitude": "46-49-3.22 N",
		"longitude": "96-19-4.2 W",
		"state": "MINNESOTA",
		"artcc": "ZMP",
		"type": "WP",
		"updated": "12/28/2006"
	},
	{
		"name": "OREQY",
		"latitude": "48-49-40.59 N",
		"longitude": "94-48-9.69 W",
		"state": "MINNESOTA",
		"artcc": "ZMP",
		"type": "RP",
		"updated": "BDE*VOR/DME*305.22/10.00"
	},
	{
		"name": "ORESE",
		"latitude": "47-47-17.95 N",
		"longitude": "95-8-1.51 W",
		"state": "MINNESOTA",
		"artcc": "ZMP",
		"type": "RP",
		"updated": "ROX*VOR/DME*155.45/67.86"
	},
	{
		"name": "ORINE",
		"latitude": "48-49-31.98 N",
		"longitude": "94-51-33.89 W",
		"state": "MINNESOTA",
		"artcc": "ZMP",
		"type": "RNAV",
		"updated": "04/07/2010"
	},
	{
		"name": "ORMIE",
		"latitude": "48-14-36.59 N",
		"longitude": "100-57-49.83 W",
		"state": "NORTH DAKOTA",
		"artcc": "ZMP",
		"type": "RP",
		"updated": "MOT*VORTAC*081.34/13.00"
	},
	{
		"name": "OROBE",
		"latitude": "48-19-43.49 N",
		"longitude": "101-22-24.16 W",
		"state": "NORTH DAKOTA",
		"artcc": "ZMP",
		"type": "RP",
		"updated": "MOT*LD*NW CRS/4.77"
	},
	{
		"name": "ORSKY",
		"latitude": "43-40-11.13 N",
		"longitude": "94-13-22.92 W",
		"state": "MINNESOTA",
		"artcc": "ZMP",
		"type": "RP",
		"updated": "MSP*VOR/DME*208.36/85.00"
	},
	{
		"name": "ORTUC",
		"latitude": "47-22-19.16 N",
		"longitude": "93-41-57.08 W",
		"state": "MINNESOTA",
		"artcc": "ZMP",
		"type": "RNAV",
		"updated": "03/23/2009"
	},
	{
		"name": "ORUTE",
		"latitude": "47-23-18.38 N",
		"longitude": "99-4-25.84 W",
		"state": "NORTH DAKOTA",
		"artcc": "ZMP",
		"type": "RNAV",
		"updated": "04/29/2013"
	},
	{
		"name": "ORVEE",
		"latitude": "44-40-8.38 N",
		"longitude": "92-56-57.94 W",
		"state": "MINNESOTA",
		"artcc": "ZMP",
		"type": "RP",
		"updated": "GEP*VORTAC*141.57"
	},
	{
		"name": "ORVUE",
		"latitude": "46-44-7.47 N",
		"longitude": "100-30-0.49 W",
		"state": "NORTH DAKOTA",
		"artcc": "ZMP",
		"type": "RP",
		"updated": "BIS*VOR/DME*091.00/7.00"
	},
	{
		"name": "OSACA",
		"latitude": "45-37-3.79 N",
		"longitude": "94-9-25.86 W",
		"state": "MINNESOTA",
		"artcc": "ZMP",
		"type": "RP",
		"updated": "STC*VOR/DME*/5.84"
	},
	{
		"name": "OSBRN",
		"latitude": "41-23-43.69 N",
		"longitude": "95-59-1.45 W",
		"state": "NEBRASKA",
		"artcc": "ZMP",
		"type": "RNAV",
		"updated": "08/09/2012"
	},
	{
		"name": "OSEWE",
		"latitude": "41-55-49.16 N",
		"longitude": "93-32-19.72 W",
		"state": "IOWA",
		"artcc": "ZMP",
		"type": "RNAV",
		"updated": "04/04/2010"
	},
	{
		"name": "OSHOF",
		"latitude": "44-29-49.94 N",
		"longitude": "94-48-1.14 W",
		"state": "MINNESOTA",
		"artcc": "ZMP",
		"type": "RP",
		"updated": "RWF*VOR/DME*075.62/14.20"
	},
	{
		"name": "OSIGE",
		"latitude": "43-34-37.21 N",
		"longitude": "95-35-0.49 W",
		"state": "MINNESOTA",
		"artcc": "ZMP",
		"type": "RNAV",
		"updated": "11/15/2012"
	},
	{
		"name": "OSMAE",
		"latitude": "43-59-48.2 N",
		"longitude": "93-30-4.92 W",
		"state": "MINNESOTA",
		"artcc": "ZMP",
		"type": "RNAV",
		"updated": "07/18/2013"
	},
	{
		"name": "OSMOH",
		"latitude": "44-57-49.95 N",
		"longitude": "93-6-34.25 W",
		"state": "MINNESOTA",
		"artcc": "ZMP",
		"type": "RNAV",
		"updated": "11/14/2016"
	},
	{
		"name": "OSOJO",
		"latitude": "42-28-5.47 N",
		"longitude": "94-58-41.47 W",
		"state": "IOWA",
		"artcc": "ZMP",
		"type": "RNAV",
		"updated": "04/19/2012"
	},
	{
		"name": "OSTEJ",
		"latitude": "44-56-30.1 N",
		"longitude": "89-8-32.99 W",
		"state": "WISCONSIN",
		"artcc": "ZMP",
		"type": "RNAV",
		"updated": "02/28/2008"
	},
	{
		"name": "OSVEC",
		"latitude": "45-45-17.52 N",
		"longitude": "92-33-38.03 W",
		"state": "WISCONSIN",
		"artcc": "ZMP",
		"type": "RNAV",
		"updated": "07/26/2013"
	},
	{
		"name": "OTBEE",
		"latitude": "48-52-22.3 N",
		"longitude": "95-52-47.04 W",
		"state": "MINNESOTA",
		"artcc": "ZMP",
		"type": "RNAV",
		"updated": "09/12/2012"
	},
	{
		"name": "OTEKE",
		"latitude": "41-42-49.79 N",
		"longitude": "96-8-41.76 W",
		"state": "NEBRASKA",
		"artcc": "ZMP",
		"type": "RNAV",
		"updated": "02/17/2017"
	},
	{
		"name": "OTIVE",
		"latitude": "43-35-40 N",
		"longitude": "98-10-10 W",
		"state": "SOUTH DAKOTA",
		"artcc": "ZMP",
		"type": "RNAV",
		"updated": "08/27/2001"
	},
	{
		"name": "OTKAH",
		"latitude": "42-2-8.6 N",
		"longitude": "95-28-40.52 W",
		"state": "IOWA",
		"artcc": "ZMP",
		"type": "RNAV",
		"updated": "07/30/2008"
	},
	{
		"name": "OTLAZ",
		"latitude": "41-52-31.97 N",
		"longitude": "95-9-49.09 W",
		"state": "IOWA",
		"artcc": "ZMP",
		"type": "RNAV",
		"updated": "07/30/2008"
	},
	{
		"name": "OTODE",
		"latitude": "45-15-57.39 N",
		"longitude": "84-57-3.41 W",
		"state": "MICHIGAN",
		"artcc": "ZMP",
		"type": "RNAV",
		"updated": "12/05/2007"
	},
	{
		"name": "OTREE",
		"latitude": "45-30-9.54 N",
		"longitude": "84-36-39.35 W",
		"state": "MICHIGAN",
		"artcc": "ZMP",
		"type": "RP",
		"updated": "PLN*VORTAC*169.71/8.00"
	},
	{
		"name": "OTSEE",
		"latitude": "41-27-22 N",
		"longitude": "96-2-29.77 W",
		"state": "NEBRASKA",
		"artcc": "ZMP",
		"type": "RP",
		"updated": "OMA*LD*322.39/12.23"
	},
	{
		"name": "OTUYO",
		"latitude": "44-43-59.73 N",
		"longitude": "85-25-18.09 W",
		"state": "MICHIGAN",
		"artcc": "ZMP",
		"type": "RNAV",
		"updated": "12/17/2013"
	},
	{
		"name": "OVDOE",
		"latitude": "45-25-2.66 N",
		"longitude": "100-9-44.87 W",
		"state": "SOUTH DAKOTA",
		"artcc": "ZMP",
		"type": "RNAV",
		"updated": "05/09/2011"
	},
	{
		"name": "OVEDY",
		"latitude": "41-5-49.59 N",
		"longitude": "95-16-16.71 W",
		"state": "IOWA",
		"artcc": "ZMP",
		"type": "RNAV",
		"updated": "10/27/2009"
	},
	{
		"name": "OVEFY",
		"latitude": "48-52-33.82 N",
		"longitude": "94-42-21.34 W",
		"state": "MINNESOTA",
		"artcc": "ZMP",
		"type": "RP",
		"updated": "BDE*VOR/DME*333.00/10.00"
	},
	{
		"name": "OVEGY",
		"latitude": "45-35-59.61 N",
		"longitude": "90-39-8.64 W",
		"state": "WISCONSIN",
		"artcc": "ZMP",
		"type": "RNAV",
		"updated": "10/24/2011"
	},
	{
		"name": "OVEPE",
		"latitude": "44-3-10.11 N",
		"longitude": "97-6-40.85 W",
		"state": "SOUTH DAKOTA",
		"artcc": "ZMP",
		"type": "RNAV",
		"updated": "05/09/2011"
	},
	{
		"name": "OVESE",
		"latitude": "46-33-50.03 N",
		"longitude": "94-18-34.51 W",
		"state": "MINNESOTA",
		"artcc": "ZMP",
		"type": "RNAV",
		"updated": "08/30/2000"
	},
	{
		"name": "OVIME",
		"latitude": "45-52-53.59 N",
		"longitude": "92-17-18.48 W",
		"state": "WISCONSIN",
		"artcc": "ZMP",
		"type": "RNAV",
		"updated": "03/16/2015"
	},
	{
		"name": "OVIRE",
		"latitude": "46-24-57.46 N",
		"longitude": "95-11-45.89 W",
		"state": "MINNESOTA",
		"artcc": "ZMP",
		"type": "RNAV",
		"updated": "06/21/2013"
	},
	{
		"name": "OVKUE",
		"latitude": "41-30-2.28 N",
		"longitude": "97-23-0.07 W",
		"state": "NEBRASKA",
		"artcc": "ZMP",
		"type": "RP",
		"updated": "OLU*VOR/DME*/3.59"
	},
	{
		"name": "OVVAW",
		"latitude": "42-30-20.26 N",
		"longitude": "95-13-50.52 W",
		"state": "IOWA",
		"artcc": "ZMP",
		"type": "RNAV",
		"updated": "05/31/2006"
	},
	{
		"name": "OWAGU",
		"latitude": "47-14-9.67 N",
		"longitude": "91-28-31.22 W",
		"state": "MINNESOTA",
		"artcc": "ZMP",
		"type": "RNAV",
		"updated": "09/05/2010"
	},
	{
		"name": "OWKIF",
		"latitude": "44-6-32.48 N",
		"longitude": "93-50-57.08 W",
		"state": "MINNESOTA",
		"artcc": "ZMP",
		"type": "RNAV",
		"updated": "02/09/2018"
	},
	{
		"name": "OWNEW",
		"latitude": "40-41-8.99 N",
		"longitude": "98-29-13.93 W",
		"state": "NEBRASKA",
		"artcc": "ZMP",
		"type": "RNAV",
		"updated": "05/17/2005"
	},
	{
		"name": "OWSEW",
		"latitude": "40-40-37.67 N",
		"longitude": "96-35-42.28 W",
		"state": "NEBRASKA",
		"artcc": "ZMP",
		"type": "RNAV",
		"updated": "12/31/2012"
	},
	{
		"name": "OWUDY",
		"latitude": "43-9-11.18 N",
		"longitude": "93-39-42.56 W",
		"state": "IOWA",
		"artcc": "ZMP",
		"type": "RP",
		"updated": "MCW*VOR/DME*277.61/15.00"
	},
	{
		"name": "OWXER",
		"latitude": "44-43-34.34 N",
		"longitude": "91-36-25.9 W",
		"state": "WISCONSIN",
		"artcc": "ZMP",
		"type": "RNAV",
		"updated": "02/09/2018"
	},
	{
		"name": "OXDAH",
		"latitude": "42-37-56.29 N",
		"longitude": "93-57-32.42 W",
		"state": "IOWA",
		"artcc": "ZMP",
		"type": "RNAV",
		"updated": "10/14/2009"
	},
	{
		"name": "OXESY",
		"latitude": "43-34-42.34 N",
		"longitude": "94-54-22.35 W",
		"state": "MINNESOTA",
		"artcc": "ZMP",
		"type": "RNAV",
		"updated": "05/07/2007"
	},
	{
		"name": "OXETE",
		"latitude": "42-35-8.68 N",
		"longitude": "96-36-3.48 W",
		"state": "SOUTH DAKOTA",
		"artcc": "ZMP",
		"type": "RP",
		"updated": "SUX*VORTAC*310.69/19.00"
	},
	{
		"name": "OXHOL",
		"latitude": "48-20-28.24 N",
		"longitude": "101-23-23.61 W",
		"state": "NORTH DAKOTA",
		"artcc": "ZMP",
		"type": "RP",
		"updated": "MOT*LD*NW CRS/5.76"
	},
	{
		"name": "OXIFU",
		"latitude": "44-4-5.06 N",
		"longitude": "92-37-48.1 W",
		"state": "MINNESOTA",
		"artcc": "ZMP",
		"type": "RNAV",
		"updated": "03/09/2017"
	},
	{
		"name": "OXIXE",
		"latitude": "43-40-2.82 N",
		"longitude": "92-8-14.39 W",
		"state": "MINNESOTA",
		"artcc": "ZMP",
		"type": "RNAV",
		"updated": "05/18/2012"
	},
	{
		"name": "OXJUZ",
		"latitude": "43-45-54.85 N",
		"longitude": "91-12-36.74 W",
		"state": "WISCONSIN",
		"artcc": "ZMP",
		"type": "RNAV",
		"updated": "02/09/2018"
	},
	{
		"name": "OXNIX",
		"latitude": "40-52-2.31 N",
		"longitude": "96-46-10.83 W",
		"state": "NEBRASKA",
		"artcc": "ZMP",
		"type": "WP",
		"updated": "11/02/1998"
	},
	{
		"name": "OXSAS",
		"latitude": "44-47-48.49 N",
		"longitude": "97-9-6.53 W",
		"state": "SOUTH DAKOTA",
		"artcc": "ZMP",
		"type": "RP",
		"updated": "ATY*LD*174.24/7.68"
	},
	{
		"name": "OXTAF",
		"latitude": "47-21-35.75 N",
		"longitude": "98-0-44.48 W",
		"state": "NORTH DAKOTA",
		"artcc": "ZMP",
		"type": "RNAV",
		"updated": "09/03/2010"
	},
	{
		"name": "OXTAZ",
		"latitude": "43-16-57.3 N",
		"longitude": "91-45-55.51 W",
		"state": "IOWA",
		"artcc": "ZMP",
		"type": "RNAV",
		"updated": "07/09/2015"
	},
	{
		"name": "OYEDI",
		"latitude": "41-0-18.22 N",
		"longitude": "95-56-1.6 W",
		"state": "NEBRASKA",
		"artcc": "ZMP",
		"type": "RNAV",
		"updated": "03/27/2008"
	},
	{
		"name": "OYEKU",
		"latitude": "46-50-45.79 N",
		"longitude": "92-21-22.27 W",
		"state": "MINNESOTA",
		"artcc": "ZMP",
		"type": "RNAV",
		"updated": "09/29/2006"
	},
	{
		"name": "OYENI",
		"latitude": "46-32-24.49 N",
		"longitude": "87-13-49.85 W",
		"state": "MICHIGAN",
		"artcc": "ZMP",
		"type": "RNAV",
		"updated": "04/02/2010"
	},
	{
		"name": "OYENS",
		"latitude": "42-44-41.87 N",
		"longitude": "96-5-57.09 W",
		"state": "IOWA",
		"artcc": "ZMP",
		"type": "RP",
		"updated": "SUX*VORTAC*013.44/26.00"
	},
	{
		"name": "OYIBU",
		"latitude": "42-47-14.82 N",
		"longitude": "94-44-50.27 W",
		"state": "IOWA",
		"artcc": "ZMP",
		"type": "RNAV",
		"updated": "06/30/2011"
	},
	{
		"name": "OYITE",
		"latitude": "44-38-38.13 N",
		"longitude": "93-52-12.36 W",
		"state": "MINNESOTA",
		"artcc": "ZMP",
		"type": "RNAV",
		"updated": "04/28/2015"
	},
	{
		"name": "OYITO",
		"latitude": "39-59-57.79 N",
		"longitude": "97-16-51.45 W",
		"state": "KANSAS",
		"artcc": "ZMP",
		"type": "RP",
		"updated": "PWE*VORTAC*251.66/50.93"
	},
	{
		"name": "OYJUQ",
		"latitude": "42-4-25.39 N",
		"longitude": "93-52-42.99 W",
		"state": "IOWA",
		"artcc": "ZMP",
		"type": "RNAV",
		"updated": "04/04/2010"
	},
	{
		"name": "OYKUG",
		"latitude": "42-58-41.19 N",
		"longitude": "93-20-3.91 W",
		"state": "IOWA",
		"artcc": "ZMP",
		"type": "RP",
		"updated": "MCW*VOR/DME*175.64/7.00"
	},
	{
		"name": "OYNOP",
		"latitude": "45-12-30.78 N",
		"longitude": "93-31-8.71 W",
		"state": "MINNESOTA",
		"artcc": "ZMP",
		"type": "RNAV",
		"updated": "11/25/2008"
	},
	{
		"name": "OYOLU",
		"latitude": "41-29-10.57 N",
		"longitude": "95-0-20.36 W",
		"state": "IOWA",
		"artcc": "ZMP",
		"type": "RNAV",
		"updated": "04/19/2012"
	},
	{
		"name": "OYORO",
		"latitude": "45-41-25.24 N",
		"longitude": "92-11-42.49 W",
		"state": "WISCONSIN",
		"artcc": "ZMP",
		"type": "RNAV",
		"updated": "03/16/2015"
	},
	{
		"name": "OYVUK",
		"latitude": "44-26-6.64 N",
		"longitude": "86-3-58.08 W",
		"state": "MICHIGAN",
		"artcc": "ZMP",
		"type": "RNAV",
		"updated": "08/22/2007"
	},
	{
		"name": "OYXUP",
		"latitude": "45-50-51.62 N",
		"longitude": "92-24-26.8 W",
		"state": "WISCONSIN",
		"artcc": "ZMP",
		"type": "RNAV",
		"updated": "03/16/2015"
	},
	{
		"name": "OZAMI",
		"latitude": "45-39-55.46 N",
		"longitude": "89-29-20.25 W",
		"state": "WISCONSIN",
		"artcc": "ZMP",
		"type": "RNAV",
		"updated": "02/14/2010"
	},
	{
		"name": "OZFEJ",
		"latitude": "48-40-3 N",
		"longitude": "101-54-47.58 W",
		"state": "NORTH DAKOTA",
		"artcc": "ZMP",
		"type": "RNAV",
		"updated": "12/26/2001"
	},
	{
		"name": "OZKIW",
		"latitude": "45-12-38.13 N",
		"longitude": "85-2-41.19 W",
		"state": "MICHIGAN",
		"artcc": "ZMP",
		"type": "RNAV",
		"updated": "04/17/2012"
	},
	{
		"name": "OZOXY",
		"latitude": "45-21-31.73 N",
		"longitude": "89-11-27.28 W",
		"state": "WISCONSIN",
		"artcc": "ZMP",
		"type": "RNAV",
		"updated": "06/12/2013"
	},
	{
		"name": "OZRAJ",
		"latitude": "48-16-21.53 N",
		"longitude": "102-16-41.07 W",
		"state": "NORTH DAKOTA",
		"artcc": "ZMP",
		"type": "RNAV",
		"updated": "11/06/2001"
	},
	{
		"name": "OZVIQ",
		"latitude": "43-7-19.6 N",
		"longitude": "93-29-4.93 W",
		"state": "IOWA",
		"artcc": "ZMP",
		"type": "RP",
		"updated": "MCW*VOR/DME*277.61/7.00"
	},
	{
		"name": "OZXIN",
		"latitude": "42-39-3.55 N",
		"longitude": "94-8-46.58 W",
		"state": "IOWA",
		"artcc": "ZMP",
		"type": "CN",
		"updated": "09/12/2002"
	},
	{
		"name": "OZXOS",
		"latitude": "42-40-45.51 N",
		"longitude": "94-2-24.15 W",
		"state": "IOWA",
		"artcc": "ZMP",
		"type": "RP",
		"updated": "FOD*VORTAC*062.99/12.00"
	},
	{
		"name": "OZYAK",
		"latitude": "40-48-29.3 N",
		"longitude": "97-36-42.69 W",
		"state": "NEBRASKA",
		"artcc": "ZMP",
		"type": "RNAV",
		"updated": "06/16/2009"
	},
	{
		"name": "OZZOP",
		"latitude": "41-56-10.21 N",
		"longitude": "94-16-5.49 W",
		"state": "IOWA",
		"artcc": "ZMP",
		"type": "RNAV",
		"updated": "08/19/2010"
	}
]
