[
	{
		"name": "QAREP",
		"latitude": "41-48-17.21 N",
		"longitude": "94-16-30.29 W",
		"state": "IOWA",
		"artcc": "ZMP",
		"type": "RNAV",
		"updated": "08/19/2010"
	},
	{
		"name": "QAVMY",
		"latitude": "48-4-50.75 N",
		"longitude": "96-31-8.06 W",
		"state": "MINNESOTA",
		"artcc": "ZMP",
		"type": "RNAV",
		"updated": "01/22/2002"
	},
	{
		"name": "QAZFA",
		"latitude": "45-21-59.92 N",
		"longitude": "89-4-25.67 W",
		"state": "WISCONSIN",
		"artcc": "ZMP",
		"type": "RNAV",
		"updated": "02/28/2008"
	},
	{
		"name": "QBERT",
		"latitude": "41-21-51.77 N",
		"longitude": "96-0-3.17 W",
		"state": "NEBRASKA",
		"artcc": "ZMP",
		"type": "RNAV",
		"updated": "08/09/2012"
	},
	{
		"name": "QECQI",
		"latitude": "41-25-8.6 N",
		"longitude": "95-55-58.34 W",
		"state": "NEBRASKA",
		"artcc": "ZMP",
		"type": "RNAV",
		"updated": "02/05/2018"
	},
	{
		"name": "QESCA",
		"latitude": "45-35-30.53 N",
		"longitude": "91-44-11.58 W",
		"state": "WISCONSIN",
		"artcc": "ZMP",
		"type": "RP",
		"updated": "EAU*VORTAC*341.38/43.07"
	},
	{
		"name": "QIRQU",
		"latitude": "41-5-8.08 N",
		"longitude": "96-41-19.27 W",
		"state": "NEBRASKA",
		"artcc": "ZMP",
		"type": "MR",
		"updated": "LNK*VORTAC*005.00/10.00"
	},
	{
		"name": "QIZSU",
		"latitude": "42-24-37.34 N",
		"longitude": "95-6-22.82 W",
		"state": "IOWA",
		"artcc": "ZMP",
		"type": "RNAV",
		"updated": "08/23/2005"
	},
	{
		"name": "QODUY",
		"latitude": "42-33-23.9 N",
		"longitude": "93-54-41.96 W",
		"state": "IOWA",
		"artcc": "ZMP",
		"type": "RNAV",
		"updated": "10/14/2009"
	},
	{
		"name": "QOJIP",
		"latitude": "43-22-7.22 N",
		"longitude": "93-19-40.96 W",
		"state": "IOWA",
		"artcc": "ZMP",
		"type": "RNAV",
		"updated": "12/13/2001"
	},
	{
		"name": "QUKJI",
		"latitude": "43-36-31.08 N",
		"longitude": "94-40-50.37 W",
		"state": "MINNESOTA",
		"artcc": "ZMP",
		"type": "RNAV",
		"updated": "05/07/2007"
	},
	{
		"name": "QUTMU",
		"latitude": "40-43-13.6 N",
		"longitude": "93-53-59.11 W",
		"state": "IOWA",
		"artcc": "ZMP",
		"type": "RNAV",
		"updated": "12/04/2000"
	}
]
