[
	{
		"name": "RABBO",
		"latitude": "45-19-53.74 N",
		"longitude": "84-3-16.02 W",
		"state": "MICHIGAN",
		"artcc": "ZMP",
		"type": "RP",
		"updated": "APN*VORTAC*312.46/25.85"
	},
	{
		"name": "RABEE",
		"latitude": "44-16-7.59 N",
		"longitude": "87-44-9.22 W",
		"state": "WISCONSIN",
		"artcc": "ZMP",
		"type": "RP",
		"updated": "MTW*VOR/DME*346.00"
	},
	{
		"name": "RAGAR",
		"latitude": "41-0-27.42 N",
		"longitude": "99-0-18.42 W",
		"state": "NEBRASKA",
		"artcc": "ZMP",
		"type": "RP",
		"updated": "EAR*VOR*350.00"
	},
	{
		"name": "RAGNE",
		"latitude": "46-1-33.63 N",
		"longitude": "94-16-4.64 W",
		"state": "MINNESOTA",
		"artcc": "ZMP",
		"type": "WP",
		"updated": "12/18/1995"
	},
	{
		"name": "RAHXE",
		"latitude": "45-11-38.64 N",
		"longitude": "93-55-32.18 W",
		"state": "MINNESOTA",
		"artcc": "ZMP",
		"type": "RNAV",
		"updated": "03/21/2013"
	},
	{
		"name": "RAIZE",
		"latitude": "48-28-51.29 N",
		"longitude": "93-16-43.47 W",
		"state": "MINNESOTA",
		"artcc": "ZMP",
		"type": "RP",
		"updated": "INL*VOR/DME*/7.18"
	},
	{
		"name": "RAKAE",
		"latitude": "44-17-21.41 N",
		"longitude": "93-14-24.94 W",
		"state": "MINNESOTA",
		"artcc": "ZMP",
		"type": "RNAV",
		"updated": "02/11/2008"
	},
	{
		"name": "RAKGU",
		"latitude": "47-17-20.87 N",
		"longitude": "97-54-26.65 W",
		"state": "NORTH DAKOTA",
		"artcc": "ZMP",
		"type": "RNAV",
		"updated": "09/03/2010"
	},
	{
		"name": "RALVE",
		"latitude": "41-17-17.67 N",
		"longitude": "96-11-3.93 W",
		"state": "NEBRASKA",
		"artcc": "ZMP",
		"type": "MW",
		"updated": "03/10/2014"
	},
	{
		"name": "RAMIW",
		"latitude": "45-57-57.76 N",
		"longitude": "89-44-1.63 W",
		"state": "WISCONSIN",
		"artcc": "ZMP",
		"type": "RNAV",
		"updated": "10/27/2009"
	},
	{
		"name": "RANOE",
		"latitude": "43-29-24.13 N",
		"longitude": "96-49-57.96 W",
		"state": "SOUTH DAKOTA",
		"artcc": "ZMP",
		"type": "RNAV",
		"updated": "07/05/2011"
	},
	{
		"name": "RAPNE",
		"latitude": "43-39-44.79 N",
		"longitude": "96-40-2.6 W",
		"state": "SOUTH DAKOTA",
		"artcc": "ZMP",
		"type": "RNAV",
		"updated": "11/01/2017"
	},
	{
		"name": "RAREW",
		"latitude": "45-58-23.5 N",
		"longitude": "89-42-49.25 W",
		"state": "WISCONSIN",
		"artcc": "ZMP",
		"type": "RNAV",
		"updated": "05/21/2010"
	},
	{
		"name": "RAROE",
		"latitude": "49-4-49 N",
		"longitude": "96-2-54.15 W",
		"state": "",
		"artcc": "ZMP",
		"type": "RNAV",
		"updated": "09/14/2012"
	},
	{
		"name": "RATEL",
		"latitude": "44-9-9.48 N",
		"longitude": "93-52-16.83 W",
		"state": "MINNESOTA",
		"artcc": "ZMP",
		"type": "RP",
		"updated": "FOW*VOR/DME*260.00"
	},
	{
		"name": "RAVGY",
		"latitude": "46-10-55.75 N",
		"longitude": "90-12-2.32 W",
		"state": "WISCONSIN",
		"artcc": "ZMP",
		"type": "RNAV",
		"updated": "01/18/2017"
	},
	{
		"name": "RAXFE",
		"latitude": "41-8-19.72 N",
		"longitude": "93-41-3.86 W",
		"state": "IOWA",
		"artcc": "ZMP",
		"type": "RNAV",
		"updated": "02/13/2012"
	},
	{
		"name": "RAXUE",
		"latitude": "48-19-41.12 N",
		"longitude": "93-16-15.42 W",
		"state": "MINNESOTA",
		"artcc": "ZMP",
		"type": "RP",
		"updated": "INL*VOR/DME*153.29/15.25"
	},
	{
		"name": "RAYAH",
		"latitude": "43-59-31.57 N",
		"longitude": "95-27-6.25 W",
		"state": "MINNESOTA",
		"artcc": "ZMP",
		"type": "RNAV",
		"updated": "03/13/2014"
	},
	{
		"name": "RAYNY",
		"latitude": "45-52-0.06 N",
		"longitude": "102-0-5.25 W",
		"state": "SOUTH DAKOTA",
		"artcc": "ZMP",
		"type": "RNAV",
		"updated": "05/28/2013"
	},
	{
		"name": "RAYOV",
		"latitude": "44-5-14.61 N",
		"longitude": "96-17-26.3 W",
		"state": "MINNESOTA",
		"artcc": "ZMP",
		"type": "RNAV",
		"updated": "03/14/2013"
	},
	{
		"name": "RAZMU",
		"latitude": "44-14-2.76 N",
		"longitude": "95-56-53.19 W",
		"state": "MINNESOTA",
		"artcc": "ZMP",
		"type": "RNAV",
		"updated": "FSD*VORTAC*/50.34"
	},
	{
		"name": "REBIF",
		"latitude": "41-54-18.88 N",
		"longitude": "94-5-49.49 W",
		"state": "IOWA",
		"artcc": "ZMP",
		"type": "RNAV",
		"updated": "08/19/2010"
	},
	{
		"name": "REBON",
		"latitude": "45-43-23.73 N",
		"longitude": "87-22-30.26 W",
		"state": "MICHIGAN",
		"artcc": "ZMP",
		"type": "RP",
		"updated": "ESC*LD*273.88/12.28"
	},
	{
		"name": "REBPE",
		"latitude": "42-24-11.02 N",
		"longitude": "95-13-6.21 W",
		"state": "IOWA",
		"artcc": "ZMP",
		"type": "RNAV",
		"updated": "08/23/2005"
	},
	{
		"name": "REBUE",
		"latitude": "45-25-38.6 N",
		"longitude": "95-1-21.71 W",
		"state": "MINNESOTA",
		"artcc": "ZMP",
		"type": "RNAV",
		"updated": "05/30/2013"
	},
	{
		"name": "RECOS",
		"latitude": "46-57-38.18 N",
		"longitude": "94-31-3.1 W",
		"state": "MINNESOTA",
		"artcc": "ZMP",
		"type": "RNAV",
		"updated": "06/29/2017"
	},
	{
		"name": "REDDS",
		"latitude": "43-56-51.1 N",
		"longitude": "92-45-39.77 W",
		"state": "MINNESOTA",
		"artcc": "ZMP",
		"type": "RP",
		"updated": "RST*VOR/DME*319.26/12.18"
	},
	{
		"name": "REDTI",
		"latitude": "44-59-15.51 N",
		"longitude": "83-31-47.35 W",
		"state": "MICHIGAN",
		"artcc": "ZMP",
		"type": "RNAV",
		"updated": "02/09/2018"
	},
	{
		"name": "REEFY",
		"latitude": "45-47-22.45 N",
		"longitude": "83-57-18.52 W",
		"state": "MICHIGAN",
		"artcc": "ZMP",
		"type": "RP",
		"updated": "SSM*VOR/DME*161.97"
	},
	{
		"name": "REEKY",
		"latitude": "44-12-42.47 N",
		"longitude": "96-34-54.13 W",
		"state": "SOUTH DAKOTA",
		"artcc": "ZMP",
		"type": "RNAV",
		"updated": "08/01/2014"
	},
	{
		"name": "REGUE",
		"latitude": "44-35-43.54 N",
		"longitude": "92-38-51.55 W",
		"state": "MINNESOTA",
		"artcc": "ZMP",
		"type": "RNAV",
		"updated": "04/07/2015"
	},
	{
		"name": "REKTE",
		"latitude": "44-31-18.41 N",
		"longitude": "89-14-22.03 W",
		"state": "WISCONSIN",
		"artcc": "ZMP",
		"type": "RNAV",
		"updated": "12/21/2009"
	},
	{
		"name": "REKTY",
		"latitude": "41-0-16.6 N",
		"longitude": "95-56-1.09 W",
		"state": "NEBRASKA",
		"artcc": "ZMP",
		"type": "RNAV",
		"updated": "07/12/2005"
	},
	{
		"name": "RELCO",
		"latitude": "44-34-38.64 N",
		"longitude": "89-37-31.84 W",
		"state": "WISCONSIN",
		"artcc": "ZMP",
		"type": "RP",
		"updated": "PHS*LD*170.04/12.58"
	},
	{
		"name": "RELPE",
		"latitude": "41-21-43.81 N",
		"longitude": "95-56-56.01 W",
		"state": "NEBRASKA",
		"artcc": "ZMP",
		"type": "RNAV",
		"updated": "08/09/2012"
	},
	{
		"name": "REMPY",
		"latitude": "42-31-12.95 N",
		"longitude": "98-56-24.03 W",
		"state": "NEBRASKA",
		"artcc": "ZMP",
		"type": "RNAV",
		"updated": "03/13/2012"
	},
	{
		"name": "REMRE",
		"latitude": "48-15-26.99 N",
		"longitude": "101-8-2.84 W",
		"state": "NORTH DAKOTA",
		"artcc": "ZMP",
		"type": "RNAV",
		"updated": "12/18/2009"
	},
	{
		"name": "RENEY",
		"latitude": "45-23-6.96 N",
		"longitude": "98-19-44.73 W",
		"state": "SOUTH DAKOTA",
		"artcc": "ZMP",
		"type": "RP",
		"updated": "ABR*LD*128.07/6.15"
	},
	{
		"name": "RENLY",
		"latitude": "48-15-9.27 N",
		"longitude": "102-41-41.96 W",
		"state": "NORTH DAKOTA",
		"artcc": "ZMP",
		"type": "RNAV",
		"updated": "06/28/2009"
	},
	{
		"name": "RERBE",
		"latitude": "45-28-17.09 N",
		"longitude": "93-13-32.36 W",
		"state": "MINNESOTA",
		"artcc": "ZMP",
		"type": "RNAV",
		"updated": "09/16/2016"
	},
	{
		"name": "REYOP",
		"latitude": "45-19-2.64 N",
		"longitude": "84-5-20.57 W",
		"state": "MICHIGAN",
		"artcc": "ZMP",
		"type": "RNAV",
		"updated": "07/25/2005"
	},
	{
		"name": "RIBRE",
		"latitude": "45-49-11.69 N",
		"longitude": "84-59-15.8 W",
		"state": "MICHIGAN",
		"artcc": "ZMP",
		"type": "RNAV",
		"updated": "06/19/2002"
	},
	{
		"name": "RICNO",
		"latitude": "45-17-9.13 N",
		"longitude": "92-33-32.8 W",
		"state": "WISCONSIN",
		"artcc": "ZMP",
		"type": "RNAV",
		"updated": "06/10/2013"
	},
	{
		"name": "RIDUE",
		"latitude": "46-42-56.97 N",
		"longitude": "96-57-50.53 W",
		"state": "NORTH DAKOTA",
		"artcc": "ZMP",
		"type": "RNAV",
		"updated": "09/24/2004"
	},
	{
		"name": "RIGET",
		"latitude": "45-50-48.77 N",
		"longitude": "91-33-44.61 W",
		"state": "WISCONSIN",
		"artcc": "ZMP",
		"type": "RNAV",
		"updated": "07/21/2006"
	},
	{
		"name": "RIGOY",
		"latitude": "46-40-27.61 N",
		"longitude": "100-27-10.46 W",
		"state": "NORTH DAKOTA",
		"artcc": "ZMP",
		"type": "RNAV",
		"updated": "02/17/2006"
	},
	{
		"name": "RIHDY",
		"latitude": "44-29-26.09 N",
		"longitude": "96-56-58.43 W",
		"state": "SOUTH DAKOTA",
		"artcc": "ZMP",
		"type": "RNAV",
		"updated": "04/16/2014"
	},
	{
		"name": "RIKSE",
		"latitude": "44-59-55.7 N",
		"longitude": "97-9-2.08 W",
		"state": "SOUTH DAKOTA",
		"artcc": "ZMP",
		"type": "RNAV",
		"updated": "07/21/2007"
	},
	{
		"name": "RILBY",
		"latitude": "46-5-13.81 N",
		"longitude": "96-2-15.13 W",
		"state": "MINNESOTA",
		"artcc": "ZMP",
		"type": "RNAV",
		"updated": "06/28/2009"
	},
	{
		"name": "RILGE",
		"latitude": "40-43-35.77 N",
		"longitude": "94-21-37.01 W",
		"state": "IOWA",
		"artcc": "ZMP",
		"type": "RP",
		"updated": "LMN*VOR/DME*286.60/19.55"
	},
	{
		"name": "RILOC",
		"latitude": "42-16-24.42 N",
		"longitude": "72-0-53.75 W",
		"state": "MASSACHUSETTS",
		"artcc": "ZMP",
		"type": "RP",
		"updated": "GDM*VOR/DME*187.28"
	},
	{
		"name": "RILOY",
		"latitude": "44-9-26.47 N",
		"longitude": "84-26-54.25 W",
		"state": "MICHIGAN",
		"artcc": "ZMP",
		"type": "RNAV",
		"updated": "09/15/2009"
	},
	{
		"name": "RIMBE",
		"latitude": "46-2-4 N",
		"longitude": "88-4-50 W",
		"state": "MICHIGAN",
		"artcc": "ZMP",
		"type": "RNAV",
		"updated": "09/15/2014"
	},
	{
		"name": "RIMLE",
		"latitude": "44-43-20.76 N",
		"longitude": "91-41-2.98 W",
		"state": "WISCONSIN",
		"artcc": "ZMP",
		"type": "RNAV",
		"updated": "09/30/2016"
	},
	{
		"name": "RINAE",
		"latitude": "48-41-58.51 N",
		"longitude": "97-36-4.22 W",
		"state": "NORTH DAKOTA",
		"artcc": "ZMP",
		"type": "RNAV",
		"updated": "08/11/2012"
	},
	{
		"name": "RINKE",
		"latitude": "44-18-30.84 N",
		"longitude": "94-27-44.22 W",
		"state": "MINNESOTA",
		"artcc": "ZMP",
		"type": "RNAV",
		"updated": "09/29/2014"
	},
	{
		"name": "RINOC",
		"latitude": "43-22-57.52 N",
		"longitude": "95-56-33.62 W",
		"state": "IOWA",
		"artcc": "ZMP",
		"type": "RNAV",
		"updated": "04/19/2012"
	},
	{
		"name": "RIPFE",
		"latitude": "46-44-58.83 N",
		"longitude": "97-53-58.16 W",
		"state": "NORTH DAKOTA",
		"artcc": "ZMP",
		"type": "RNAV",
		"updated": "06/11/2010"
	},
	{
		"name": "RIPKE",
		"latitude": "44-53-37.28 N",
		"longitude": "89-33-54.08 W",
		"state": "WISCONSIN",
		"artcc": "ZMP",
		"type": "RNAV",
		"updated": "06/10/2013"
	},
	{
		"name": "RIPNY",
		"latitude": "44-44-39.96 N",
		"longitude": "93-31-30.65 W",
		"state": "MINNESOTA",
		"artcc": "ZMP",
		"type": "RP",
		"updated": "FCM*VOR/DME*215.01/6.00"
	},
	{
		"name": "RIPVE",
		"latitude": "44-41-54.01 N",
		"longitude": "97-9-8.7 W",
		"state": "SOUTH DAKOTA",
		"artcc": "ZMP",
		"type": "RP",
		"updated": "ATY*VORTAC*172.55/16.89"
	},
	{
		"name": "RIRCO",
		"latitude": "45-37-31.79 N",
		"longitude": "97-2-17.48 W",
		"state": "SOUTH DAKOTA",
		"artcc": "ZMP",
		"type": "RP",
		"updated": "ATY*VORTAC*357.42/39.01"
	},
	{
		"name": "RISLE",
		"latitude": "44-40-35.32 N",
		"longitude": "95-55-46.42 W",
		"state": "MINNESOTA",
		"artcc": "ZMP",
		"type": "RP",
		"updated": "MVE*VOR/DME*202.65/20.05"
	},
	{
		"name": "RITOC",
		"latitude": "47-19-47.52 N",
		"longitude": "93-7-51.26 W",
		"state": "MINNESOTA",
		"artcc": "ZMP",
		"type": "RNAV",
		"updated": "05/24/2004"
	},
	{
		"name": "RITTA",
		"latitude": "43-1-4.8 N",
		"longitude": "95-21-20.6 W",
		"state": "IOWA",
		"artcc": "ZMP",
		"type": "RP",
		"updated": "SUX*VORTAC*037.35/58.88"
	},
	{
		"name": "RIVVR",
		"latitude": "44-26-34.8 N",
		"longitude": "86-13-41.83 W",
		"state": "MICHIGAN",
		"artcc": "ZMP",
		"type": "RP",
		"updated": "MBL*VOR/DME*011.11/10.40"
	},
	{
		"name": "RIXIE",
		"latitude": "44-51-17.16 N",
		"longitude": "94-8-22.07 W",
		"state": "MINNESOTA",
		"artcc": "ZMP",
		"type": "RP",
		"updated": "GEP*VORTAC*236.12/37.00"
	},
	{
		"name": "RIYOR",
		"latitude": "46-38-39.72 N",
		"longitude": "93-42-43.89 W",
		"state": "MINNESOTA",
		"artcc": "ZMP",
		"type": "RNAV",
		"updated": "01/02/2013"
	},
	{
		"name": "RMSTD",
		"latitude": "43-55-38.07 N",
		"longitude": "92-47-55.02 W",
		"state": "MINNESOTA",
		"artcc": "ZMP",
		"type": "RNAV",
		"updated": "06/25/2013"
	},
	{
		"name": "RNAND",
		"latitude": "45-17-59.26 N",
		"longitude": "83-40-41.18 W",
		"state": "MICHIGAN",
		"artcc": "ZMP",
		"type": "RP",
		"updated": "APN*VORTAC*345.51/14.00"
	},
	{
		"name": "RNORD",
		"latitude": "45-40-47.33 N",
		"longitude": "97-32-58.33 W",
		"state": "SOUTH DAKOTA",
		"artcc": "ZMP",
		"type": "RNAV",
		"updated": "01/18/2007"
	},
	{
		"name": "ROADD",
		"latitude": "48-51-44.06 N",
		"longitude": "95-14-32.41 W",
		"state": "MINNESOTA",
		"artcc": "ZMP",
		"type": "RP",
		"updated": "SWE*LD*SE CRS/6.88"
	},
	{
		"name": "ROADS",
		"latitude": "44-41-43.59 N",
		"longitude": "95-3-37.15 W",
		"state": "MINNESOTA",
		"artcc": "ZMP",
		"type": "RP",
		"updated": "RWF*VOR/DME*005.00/14.00"
	},
	{
		"name": "ROBAE",
		"latitude": "43-32-21.12 N",
		"longitude": "96-41-58.65 W",
		"state": "SOUTH DAKOTA",
		"artcc": "ZMP",
		"type": "RNAV",
		"updated": "04/24/2017"
	},
	{
		"name": "ROBTE",
		"latitude": "45-24-23.1 N",
		"longitude": "91-49-55.57 W",
		"state": "WISCONSIN",
		"artcc": "ZMP",
		"type": "RNAV",
		"updated": "09/08/2015"
	},
	{
		"name": "ROCOK",
		"latitude": "45-27-54.88 N",
		"longitude": "93-47-0.51 W",
		"state": "MINNESOTA",
		"artcc": "ZMP",
		"type": "RNAV",
		"updated": "12/19/2003"
	},
	{
		"name": "ROCOR",
		"latitude": "45-4-19.14 N",
		"longitude": "84-53-56.52 W",
		"state": "MICHIGAN",
		"artcc": "ZMP",
		"type": "RNAV",
		"updated": "12/04/2007"
	},
	{
		"name": "ROFYO",
		"latitude": "44-17-23.27 N",
		"longitude": "93-23-48.71 W",
		"state": "MINNESOTA",
		"artcc": "ZMP",
		"type": "RNAV",
		"updated": "07/05/2000"
	},
	{
		"name": "ROKKK",
		"latitude": "42-37-0 N",
		"longitude": "94-4-3 W",
		"state": "IOWA",
		"artcc": "ZMP",
		"type": "RNAV",
		"updated": "11/14/2016"
	},
	{
		"name": "ROKKY",
		"latitude": "43-29-39.05 N",
		"longitude": "96-49-43.7 W",
		"state": "SOUTH DAKOTA",
		"artcc": "ZMP",
		"type": "RP",
		"updated": "FSD*LS*SW CRS"
	},
	{
		"name": "ROLAG",
		"latitude": "46-48-13.36 N",
		"longitude": "96-14-4.53 W",
		"state": "MINNESOTA",
		"artcc": "ZMP",
		"type": "RP",
		"updated": "FAR*VOR/DME*074.00"
	},
	{
		"name": "ROLBE",
		"latitude": "44-13-12.65 N",
		"longitude": "88-16-7.17 W",
		"state": "WISCONSIN",
		"artcc": "ZMP",
		"type": "RNAV",
		"updated": "10/15/2008"
	},
	{
		"name": "ROLUE",
		"latitude": "45-31-30.93 N",
		"longitude": "91-43-57.76 W",
		"state": "WISCONSIN",
		"artcc": "ZMP",
		"type": "RNAV",
		"updated": "12/03/2014"
	},
	{
		"name": "ROMAD",
		"latitude": "40-38-44.24 N",
		"longitude": "98-13-13.48 W",
		"state": "NEBRASKA",
		"artcc": "ZMP",
		"type": "RP",
		"updated": "GRI*VOR/DME*161.01"
	},
	{
		"name": "ROMGE",
		"latitude": "40-12-59.04 N",
		"longitude": "97-10-8.14 W",
		"state": "NEBRASKA",
		"artcc": "ZMP",
		"type": "RNAV",
		"updated": "05/30/2008"
	},
	{
		"name": "RONDO",
		"latitude": "45-16-43.24 N",
		"longitude": "84-31-6.32 W",
		"state": "MICHIGAN",
		"artcc": "ZMP",
		"type": "RP",
		"updated": "APN*VORTAC*293.41"
	},
	{
		"name": "RONIE",
		"latitude": "47-46-41.76 N",
		"longitude": "97-2-46.12 W",
		"state": "NORTH DAKOTA",
		"artcc": "ZMP",
		"type": "RP",
		"updated": "GFK*VOR/DME*143.00/12.00"
	},
	{
		"name": "RONNI",
		"latitude": "43-46-6.9 N",
		"longitude": "91-16-27.16 W",
		"state": "MINNESOTA",
		"artcc": "ZMP",
		"type": "RP",
		"updated": "LSE*VOR/DME*188.00/6.50"
	},
	{
		"name": "ROPBO",
		"latitude": "47-59-21.74 N",
		"longitude": "96-53-31.92 W",
		"state": "MINNESOTA",
		"artcc": "ZMP",
		"type": "RP",
		"updated": "GFK*VOR/DME*070.94/12.00"
	},
	{
		"name": "ROPTE",
		"latitude": "44-44-0.99 N",
		"longitude": "85-25-45.88 W",
		"state": "MICHIGAN",
		"artcc": "ZMP",
		"type": "RNAV",
		"updated": "10/14/2008"
	},
	{
		"name": "RORCO",
		"latitude": "40-2-9.1 N",
		"longitude": "98-31-22.09 W",
		"state": "NEBRASKA",
		"artcc": "ZMP",
		"type": "RNAV",
		"updated": "06/05/2012"
	},
	{
		"name": "RORLE",
		"latitude": "43-49-38.11 N",
		"longitude": "91-18-11.99 W",
		"state": "MINNESOTA",
		"artcc": "ZMP",
		"type": "RNAV",
		"updated": "07/20/2011"
	},
	{
		"name": "ROROC",
		"latitude": "40-53-27.03 N",
		"longitude": "96-45-41.38 W",
		"state": "NEBRASKA",
		"artcc": "ZMP",
		"type": "RP",
		"updated": "LNK*VORTAC*195.17"
	},
	{
		"name": "ROSRE",
		"latitude": "45-26-37.37 N",
		"longitude": "91-6-46.75 W",
		"state": "WISCONSIN",
		"artcc": "ZMP",
		"type": "RNAV",
		"updated": "03/11/2015"
	},
	{
		"name": "ROTIE",
		"latitude": "44-55-50.66 N",
		"longitude": "92-46-19.58 W",
		"state": "MINNESOTA",
		"artcc": "ZMP",
		"type": "RNAV",
		"updated": "01/21/2011"
	},
	{
		"name": "ROTOE",
		"latitude": "47-1-4.49 N",
		"longitude": "96-48-54.31 W",
		"state": "MINNESOTA",
		"artcc": "ZMP",
		"type": "RNAV",
		"updated": "02/02/2010"
	},
	{
		"name": "ROTTA",
		"latitude": "43-7-46.63 N",
		"longitude": "91-23-12.29 W",
		"state": "IOWA",
		"artcc": "ZMP",
		"type": "CF",
		"updated": "MCW*VOR/DME*082.00/84.00"
	},
	{
		"name": "ROTYO",
		"latitude": "46-26-52.95 N",
		"longitude": "96-36-24.43 W",
		"state": "MINNESOTA",
		"artcc": "ZMP",
		"type": "RNAV",
		"updated": "10/31/2005"
	},
	{
		"name": "ROYOV",
		"latitude": "42-20-57.36 N",
		"longitude": "94-8-54.42 W",
		"state": "IOWA",
		"artcc": "ZMP",
		"type": "RP",
		"updated": "FOD*VORTAC*150.47/17.00"
	},
	{
		"name": "ROZEE",
		"latitude": "44-42-21.76 N",
		"longitude": "93-11-42.54 W",
		"state": "MINNESOTA",
		"artcc": "ZMP",
		"type": "RP",
		"updated": "BMA*LD*169.53/11.24"
	},
	{
		"name": "RRAZZ",
		"latitude": "43-17-0 N",
		"longitude": "93-33-5 W",
		"state": "IOWA",
		"artcc": "ZMP",
		"type": "RNAV",
		"updated": "11/14/2016"
	},
	{
		"name": "RROBB",
		"latitude": "44-32-35.68 N",
		"longitude": "89-31-50.85 W",
		"state": "WISCONSIN",
		"artcc": "ZMP",
		"type": "RNAV",
		"updated": "05/17/2017"
	},
	{
		"name": "RROBN",
		"latitude": "41-36-3.03 N",
		"longitude": "93-33-57.05 W",
		"state": "IOWA",
		"artcc": "ZMP",
		"type": "RP",
		"updated": "FVH*LD*S CRS/5.99"
	},
	{
		"name": "RUBKE",
		"latitude": "45-5-30.56 N",
		"longitude": "91-29-54.69 W",
		"state": "WISCONSIN",
		"artcc": "ZMP",
		"type": "RNAV",
		"updated": "11/06/2014"
	},
	{
		"name": "RUBKI",
		"latitude": "44-14-54.82 N",
		"longitude": "82-16-7.65 W",
		"state": "",
		"artcc": "ZMP",
		"type": "RNAV",
		"updated": "04/04/2018"
	},
	{
		"name": "RUDNE",
		"latitude": "42-5-56.13 N",
		"longitude": "93-47-11.43 W",
		"state": "IOWA",
		"artcc": "ZMP",
		"type": "CN",
		"updated": "06/30/2003"
	},
	{
		"name": "RULDE",
		"latitude": "44-51-3.59 N",
		"longitude": "92-58-56.84 W",
		"state": "MINNESOTA",
		"artcc": "ZMP",
		"type": "RP",
		"updated": "FGT*VORTAC*026.81"
	},
	{
		"name": "RULLO",
		"latitude": "48-2-30.88 N",
		"longitude": "97-10-52.26 W",
		"state": "NORTH DAKOTA",
		"artcc": "ZMP",
		"type": "RNAV",
		"updated": "06/08/2006"
	},
	{
		"name": "RULYO",
		"latitude": "43-37-42.25 N",
		"longitude": "96-42-0.47 W",
		"state": "SOUTH DAKOTA",
		"artcc": "ZMP",
		"type": "RNAV",
		"updated": "11/01/2017"
	},
	{
		"name": "RUMLE",
		"latitude": "44-25-16.61 N",
		"longitude": "93-37-27.9 W",
		"state": "MINNESOTA",
		"artcc": "ZMP",
		"type": "RP",
		"updated": "MSP*VOR/DME*208.36/33.00"
	},
	{
		"name": "RUMUE",
		"latitude": "43-41-5.49 N",
		"longitude": "85-57-33.53 W",
		"state": "MICHIGAN",
		"artcc": "ZMP",
		"type": "RP",
		"updated": "MKG*VORTAC*007.43"
	},
	{
		"name": "RUMVY",
		"latitude": "44-51-41.06 N",
		"longitude": "91-30-43.53 W",
		"state": "WISCONSIN",
		"artcc": "ZMP",
		"type": "RNAV",
		"updated": "09/04/2010"
	},
	{
		"name": "RUNEY",
		"latitude": "40-16-11.99 N",
		"longitude": "96-43-31.07 W",
		"state": "NEBRASKA",
		"artcc": "ZMP",
		"type": "RNAV",
		"updated": "05/23/2011"
	},
	{
		"name": "RUNRR",
		"latitude": "45-18-46.15 N",
		"longitude": "93-12-25.81 W",
		"state": "MINNESOTA",
		"artcc": "ZMP",
		"type": "RNAV",
		"updated": "01/04/2011"
	},
	{
		"name": "RUNYO",
		"latitude": "46-50-14.39 N",
		"longitude": "102-56-24.86 W",
		"state": "NORTH DAKOTA",
		"artcc": "ZMP",
		"type": "RP",
		"updated": "DIK*VORTAC*244.86/7.00"
	},
	{
		"name": "RURCE",
		"latitude": "41-19-0.9 N",
		"longitude": "94-30-51.98 W",
		"state": "IOWA",
		"artcc": "ZMP",
		"type": "RNAV",
		"updated": "11/17/2010"
	},
	{
		"name": "RURGY",
		"latitude": "43-48-55.14 N",
		"longitude": "96-20-25.24 W",
		"state": "MINNESOTA",
		"artcc": "ZMP",
		"type": "RNAV",
		"updated": "05/20/2010"
	},
	{
		"name": "RURRY",
		"latitude": "43-1-36.81 N",
		"longitude": "92-21-18.33 W",
		"state": "IOWA",
		"artcc": "ZMP",
		"type": "RNAV",
		"updated": "11/06/2012"
	},
	{
		"name": "RURUE",
		"latitude": "47-11-54.86 N",
		"longitude": "94-40-51.22 W",
		"state": "MINNESOTA",
		"artcc": "ZMP",
		"type": "RNAV",
		"updated": "07/09/2015"
	},
	{
		"name": "RUSHI",
		"latitude": "44-11-53.65 N",
		"longitude": "91-29-17.95 W",
		"state": "WISCONSIN",
		"artcc": "ZMP",
		"type": "RNAV",
		"updated": "07/13/2010"
	},
	{
		"name": "RUSSH",
		"latitude": "45-52-47.79 N",
		"longitude": "90-40-36.5 W",
		"state": "WISCONSIN",
		"artcc": "ZMP",
		"type": "RP",
		"updated": "HYR*VOR/DME*101.25"
	},
	{
		"name": "RUSTD",
		"latitude": "46-25-31.93 N",
		"longitude": "96-54-23.2 W",
		"state": "NORTH DAKOTA",
		"artcc": "ZMP",
		"type": "RP",
		"updated": "FAR*VOR/DME*177.63/19.81"
	},
	{
		"name": "RUUGS",
		"latitude": "46-45-34.3 N",
		"longitude": "89-19-46.2 W",
		"state": "MICHIGAN",
		"artcc": "ZMP",
		"type": "RNAV",
		"updated": "05/31/2017"
	},
	{
		"name": "RUYBO",
		"latitude": "44-48-59.65 N",
		"longitude": "91-21-38.31 W",
		"state": "WISCONSIN",
		"artcc": "ZMP",
		"type": "RP",
		"updated": "EAU*VORTAC*130.00/7.00"
	},
	{
		"name": "RUYOR",
		"latitude": "43-26-29.94 N",
		"longitude": "94-17-43.74 W",
		"state": "IOWA",
		"artcc": "ZMP",
		"type": "RNAV",
		"updated": "03/31/2009"
	},
	{
		"name": "RVERR",
		"latitude": "44-48-58.23 N",
		"longitude": "93-1-34.87 W",
		"state": "MINNESOTA",
		"artcc": "ZMP",
		"type": "RNAV",
		"updated": "03/18/2015"
	},
	{
		"name": "RZDMP",
		"latitude": "39-45-44.77 N",
		"longitude": "98-47-30.31 W",
		"state": "KANSAS",
		"artcc": "ZMP",
		"type": "RP",
		"updated": "TKO*VORTAC*254.05/24.73"
	}
]
