	{
		"name": "TABNE",
		"latitude": "44-19-11.4 N",
		"longitude": "88-15-23.49 W",
		"state": "WISCONSIN",
		"artcc": "ZMP",
		"type": "RNAV",
		"updated": "04/09/2014",
	},
	{
		"name": "TACUC",
		"latitude": "45-5-30.31 N",
		"longitude": "87-40-15.57 W",
		"state": "WISCONSIN",
		"artcc": "ZMP",
		"type": "RNAV",
		"updated": "06/11/2009",
	},
	{
		"name": "TADGE",
		"latitude": "40-22-25.05 N",
		"longitude": "96-49-35.85 W",
		"state": "NEBRASKA",
		"artcc": "ZMP",
		"type": "RNAV",
		"updated": "05/23/2011",
	},
	{
		"name": "TAGUC",
		"latitude": "48-32-12.33 N",
		"longitude": "92-56-41.6 W",
		"state": "MINNESOTA",
		"artcc": "ZMP",
		"type": "RP",
		"updated": "INL*VOR/DME*089.25/18.45",
	},
	{
		"name": "TAMIE",
		"latitude": "45-47-30.16 N",
		"longitude": "95-18-19.73 W",
		"state": "MINNESOTA",
		"artcc": "ZMP",
		"type": "RP",
		"updated": "AXN*VOR/DME*190.01",
	},
	{
		"name": "TAMMR",
		"latitude": "46-53-33.48 N",
		"longitude": "95-42-56.42 W",
		"state": "MINNESOTA",
		"artcc": "ZMP",
		"type": "RNAV",
		"updated": "06/16/2017",
	},
	{
		"name": "TAPNN",
		"latitude": "46-50-56.64 N",
		"longitude": "99-42-11.78 W",
		"state": "NORTH DAKOTA",
		"artcc": "ZMP",
		"type": "RP",
		"updated": "BIS*VOR/DME*070.12/40.00",
	},
	{
		"name": "TARBE",
		"latitude": "48-33-33.86 N",
		"longitude": "94-25-50.15 W",
		"state": "MINNESOTA",
		"artcc": "ZMP",
		"type": "RNAV",
		"updated": "04/07/2010",
	},
	{
		"name": "TARKK",
		"latitude": "44-32-21.45 N",
		"longitude": "92-59-24.37 W",
		"state": "MINNESOTA",
		"artcc": "ZMP",
		"type": "RNAV",
		"updated": "03/19/2012",
	},
	{
		"name": "TARUE",
		"latitude": "46-57-15.63 N",
		"longitude": "92-0-36.49 W",
		"state": "MINNESOTA",
		"artcc": "ZMP",
		"type": "RNAV",
		"updated": "05/17/2011",
	},
	{
		"name": "TASKY",
		"latitude": "41-30-17.04 N",
		"longitude": "95-53-36.87 W",
		"state": "IOWA",
		"artcc": "ZMP",
		"type": "RP",
		"updated": "PPY*LD*358.21/12.99",
	},
	{
		"name": "TATOE",
		"latitude": "46-5-17.01 N",
		"longitude": "84-20-13.9 W",
		"state": "MICHIGAN",
		"artcc": "ZMP",
		"type": "RP",
		"updated": "PLN*VORTAC*032.41/30.68",
	},
	{
		"name": "TATRY",
		"latitude": "44-58-59.9 N",
		"longitude": "83-27-34.69 W",
		"state": "MICHIGAN",
		"artcc": "ZMP",
		"type": "RNAV",
		"updated": "08/31/2015",
	},
	{
		"name": "TAXEE",
		"latitude": "44-42-9.29 N",
		"longitude": "92-29-33.56 W",
		"state": "WISCONSIN",
		"artcc": "ZMP",
		"type": "RP",
		"updated": "GEP*VORTAC*119.00/46.00",
	},
	{
		"name": "TAYUD",
		"latitude": "48-40-33.41 N",
		"longitude": "93-44-21.33 W",
		"state": "",
		"artcc": "ZMP",
		"type": "RNAV",
		"updated": "02/14/2008",
	},
	{
		"name": "TAYUY",
		"latitude": "44-44-29.51 N",
		"longitude": "89-34-1.52 W",
		"state": "WISCONSIN",
		"artcc": "ZMP",
		"type": "RNAV",
		"updated": "07/13/2017",
	},
	{
		"name": "TBOBB",
		"latitude": "41-12-31.23 N",
		"longitude": "95-50-36.43 W",
		"state": "IOWA",
		"artcc": "ZMP",
		"type": "RNAV",
		"updated": "08/15/2012",
	},
	{
		"name": "TEBBO",
		"latitude": "43-39-33.1 N",
		"longitude": "91-8-27.16 W",
		"state": "WISCONSIN",
		"artcc": "ZMP",
		"type": "RNAV",
		"updated": "01/15/2004",
	},
	{
		"name": "TEBKY",
		"latitude": "48-50-27.52 N",
		"longitude": "98-40-26.07 W",
		"state": "NORTH DAKOTA",
		"artcc": "ZMP",
		"type": "RNAV",
		"updated": "02/04/2010",
	},
	{
		"name": "TECCI",
		"latitude": "44-56-33.85 N",
		"longitude": "91-57-25.19 W",
		"state": "WISCONSIN",
		"artcc": "ZMP",
		"type": "RNAV",
		"updated": "02/12/2008",
	},
	{
		"name": "TECOL",
		"latitude": "46-18-38.96 N",
		"longitude": "89-23-2.96 W",
		"state": "MICHIGAN",
		"artcc": "ZMP",
		"type": "RNAV",
		"updated": "05/02/2005",
	},
	{
		"name": "TECUD",
		"latitude": "43-32-54.48 N",
		"longitude": "97-51-42.23 W",
		"state": "SOUTH DAKOTA",
		"artcc": "ZMP",
		"type": "RP",
		"updated": "MHE*VOR/DME*143.75/15.71",
	},
	{
		"name": "TECUY",
		"latitude": "43-46-46.58 N",
		"longitude": "92-17-52.2 W",
		"state": "MINNESOTA",
		"artcc": "ZMP",
		"type": "RP",
		"updated": "RST*VOR/DME*085.76",
	},
	{
		"name": "TEGAE",
		"latitude": "47-39-7.24 N",
		"longitude": "95-9-6.56 W",
		"state": "MINNESOTA",
		"artcc": "ZMP",
		"type": "RNAV",
		"updated": "03/03/2009",
	},
	{
		"name": "TEGKU",
		"latitude": "43-27-42.14 N",
		"longitude": "95-51-34.38 W",
		"state": "IOWA",
		"artcc": "ZMP",
		"type": "RNAV",
		"updated": "04/19/2012",
	},
	{
		"name": "TEGTY",
		"latitude": "42-6-40.7 N",
		"longitude": "95-50-2.14 W",
		"state": "IOWA",
		"artcc": "ZMP",
		"type": "RNAV",
		"updated": "02/02/2010",
	},
	{
		"name": "TEKLE",
		"latitude": "43-37-16 N",
		"longitude": "96-37-14.47 W",
		"state": "SOUTH DAKOTA",
		"artcc": "ZMP",
		"type": "RNAV",
		"updated": "04/24/2017",
	},
	{
		"name": "TEKUE",
		"latitude": "44-3-11.77 N",
		"longitude": "91-30-33.2 W",
		"state": "WISCONSIN",
		"artcc": "ZMP",
		"type": "RNAV",
		"updated": "04/07/2008",
	},
	{
		"name": "TELUE",
		"latitude": "46-28-29.8 N",
		"longitude": "91-39-47.21 W",
		"state": "WISCONSIN",
		"artcc": "ZMP",
		"type": "RNAV",
		"updated": "06/10/2002",
	},
	{
		"name": "TEPAW",
		"latitude": "45-6-0.99 N",
		"longitude": "93-13-36.17 W",
		"state": "MINNESOTA",
		"artcc": "ZMP",
		"type": "RNAV",
		"updated": "03/23/2012",
	},
	{
		"name": "TEPUE",
		"latitude": "45-0-47.3 N",
		"longitude": "91-27-18.59 W",
		"state": "WISCONSIN",
		"artcc": "ZMP",
		"type": "RP",
		"updated": "EAU*VORTAC*004.17/7.00",
	},
	{
		"name": "TERNR",
		"latitude": "44-21-23.31 N",
		"longitude": "98-51-47.52 W",
		"state": "SOUTH DAKOTA",
		"artcc": "ZMP",
		"type": "RNAV",
		"updated": "07/06/2011",
	},
	{
		"name": "TERPS",
		"latitude": "41-3-59.95 N",
		"longitude": "95-49-23.01 W",
		"state": "IOWA",
		"artcc": "ZMP",
		"type": "MR",
		"updated": "OFF*TACAN*/4.62",
	},
	{
		"name": "TERTL",
		"latitude": "47-34-16.39 N",
		"longitude": "100-59-47.62 W",
		"state": "NORTH DAKOTA",
		"artcc": "ZMP",
		"type": "RP",
		"updated": "MOT*VORTAC*151.00/43.00",
	},
	{
		"name": "TESEE",
		"latitude": "45-41-6.27 N",
		"longitude": "94-59-6.48 W",
		"state": "MINNESOTA",
		"artcc": "ZMP",
		"type": "RP",
		"updated": "AXN*VOR/DME*140.57/19.41",
	},
	{
		"name": "TESHE",
		"latitude": "44-34-22.92 N",
		"longitude": "98-22-30.41 W",
		"state": "SOUTH DAKOTA",
		"artcc": "ZMP",
		"type": "RNAV",
		"updated": "07/08/2009",
	},
	{
		"name": "TETEE",
		"latitude": "44-48-13.57 N",
		"longitude": "89-31-30.69 W",
		"state": "WISCONSIN",
		"artcc": "ZMP",
		"type": "RNAV",
		"updated": "03/22/2011",
	},
	{
		"name": "TETUY",
		"latitude": "44-57-47.6 N",
		"longitude": "97-9-2.87 W",
		"state": "SOUTH DAKOTA",
		"artcc": "ZMP",
		"type": "RP",
		"updated": "ATY*LD*354.24/2.30",
	},
	{
		"name": "TEVPE",
		"latitude": "49-1-21.22 N",
		"longitude": "95-40-24.86 W",
		"state": "",
		"artcc": "ZMP",
		"type": "RNAV",
		"updated": "02/25/2016",
	},
	{
		"name": "TEVUW",
		"latitude": "40-40-4.83 N",
		"longitude": "97-26-45.11 W",
		"state": "NEBRASKA",
		"artcc": "ZMP",
		"type": "RP",
		"updated": "GRI*VOR/DME*108.30/43.88",
	},
	{
		"name": "TEVUY",
		"latitude": "44-21-11.46 N",
		"longitude": "85-10-27.8 W",
		"state": "MICHIGAN",
		"artcc": "ZMP",
		"type": "RNAV",
		"updated": "04/28/2009",
	},
	{
		"name": "TEYOU",
		"latitude": "43-17-30 N",
		"longitude": "96-16-25 W",
		"state": "IOWA",
		"artcc": "ZMP",
		"type": "RNAV",
		"updated": "09/16/2016",
	},
	{
		"name": "TEYVU",
		"latitude": "40-44-49.62 N",
		"longitude": "98-5-0.83 W",
		"state": "NEBRASKA",
		"artcc": "ZMP",
		"type": "RNAV",
		"updated": "12/17/2012",
	},
	{
		"name": "TEYYU",
		"latitude": "46-21-38.49 N",
		"longitude": "94-12-45.76 W",
		"state": "MINNESOTA",
		"artcc": "ZMP",
		"type": "RNAV",
		"updated": "05/02/2007",
	},
	{
		"name": "TEZOB",
		"latitude": "42-9-55.15 N",
		"longitude": "94-30-4.92 W",
		"state": "IOWA",
		"artcc": "ZMP",
		"type": "RNAV",
		"updated": "08/19/2010",
	},
	{
		"name": "THATS",
		"latitude": "45-6-23.02 N",
		"longitude": "91-28-21.68 W",
		"state": "WISCONSIN",
		"artcc": "ZMP",
		"type": "RP",
		"updated": "GEP*VORTAC*085.00/80.77",
	},
	{
		"name": "THAVN",
		"latitude": "45-36-39.17 N",
		"longitude": "97-38-52.08 W",
		"state": "SOUTH DAKOTA",
		"artcc": "ZMP",
		"type": "RNAV",
		"updated": "11/29/2012",
	},
	{
		"name": "THERM",
		"latitude": "46-11-54.3 N",
		"longitude": "98-36-19.52 W",
		"state": "NORTH DAKOTA",
		"artcc": "ZMP",
		"type": "RNAV",
		"updated": "07/13/2015",
	},
	{
		"name": "THEWS",
		"latitude": "40-36-32.41 N",
		"longitude": "96-45-47.88 W",
		"state": "NEBRASKA",
		"artcc": "ZMP",
		"type": "RP",
		"updated": "BIE*VOR*351.77",
	},
	{
		"name": "THORE",
		"latitude": "44-30-35.83 N",
		"longitude": "100-11-11.09 W",
		"state": "SOUTH DAKOTA",
		"artcc": "ZMP",
		"type": "RP",
		"updated": "PIR*VORTAC*340.70/7.00",
	},
	{
		"name": "TIBUC",
		"latitude": "44-16-32.87 N",
		"longitude": "96-32-57.63 W",
		"state": "SOUTH DAKOTA",
		"artcc": "ZMP",
		"type": "RNAV",
		"updated": "03/14/2013",
	},
	{
		"name": "TICKT",
		"latitude": "42-53-42.35 N",
		"longitude": "93-59-0.33 W",
		"state": "IOWA",
		"artcc": "ZMP",
		"type": "RP",
		"updated": "FOD*VORTAC*031.84/21.90",
	},
	{
		"name": "TICTO",
		"latitude": "40-38-11.99 N",
		"longitude": "95-4-38.17 W",
		"state": "IOWA",
		"artcc": "ZMP",
		"type": "RNAV",
		"updated": "12/19/2009",
	},
	{
		"name": "TICUC",
		"latitude": "43-30-26.42 N",
		"longitude": "94-13-27.2 W",
		"state": "MINNESOTA",
		"artcc": "ZMP",
		"type": "RP",
		"updated": "FRM*VOR/DME*/12.00",
	},
	{
		"name": "TICUV",
		"latitude": "42-46-17.8 N",
		"longitude": "93-58-41.26 W",
		"state": "IOWA",
		"artcc": "ZMP",
		"type": "RP",
		"updated": "FOD*VORTAC*048.41/17.00",
	},
	{
		"name": "TIDDU",
		"latitude": "44-52-40.72 N",
		"longitude": "85-21-35.16 W",
		"state": "MICHIGAN",
		"artcc": "ZMP",
		"type": "RP",
		"updated": "GLR*VOR/DME*260.12",
	},
	{
		"name": "TIDKE",
		"latitude": "44-20-2.32 N",
		"longitude": "91-57-37.03 W",
		"state": "MINNESOTA",
		"artcc": "ZMP",
		"type": "RNAV",
		"updated": "04/07/2008",
	},
	{
		"name": "TIDME",
		"latitude": "44-28-37.41 N",
		"longitude": "88-29-58.5 W",
		"state": "WISCONSIN",
		"artcc": "ZMP",
		"type": "RNAV",
		"updated": "11/25/2005",
	},
	{
		"name": "TIDMY",
		"latitude": "42-51-21.87 N",
		"longitude": "94-6-21.11 W",
		"state": "IOWA",
		"artcc": "ZMP",
		"type": "RNAV",
		"updated": "06/21/2013",
	},
	{
		"name": "TIDRE",
		"latitude": "44-44-41.09 N",
		"longitude": "91-30-43.53 W",
		"state": "WISCONSIN",
		"artcc": "ZMP",
		"type": "RNAV",
		"updated": "09/04/2010",
	},
	{
		"name": "TIETN",
		"latitude": "44-51-19.07 N",
		"longitude": "93-26-3.53 W",
		"state": "MINNESOTA",
		"artcc": "ZMP",
		"type": "RNAV",
		"updated": "03/17/2015",
	},
	{
		"name": "TIGHE",
		"latitude": "45-53-49.2 N",
		"longitude": "94-7-46.96 W",
		"state": "MINNESOTA",
		"artcc": "ZMP",
		"type": "RNAV",
		"updated": "01/27/2015",
	},
	{
		"name": "TILER",
		"latitude": "46-5-5.31 N",
		"longitude": "95-29-2.08 W",
		"state": "MINNESOTA",
		"artcc": "ZMP",
		"type": "RP",
		"updated": "MOX*VOR/DME*028.00",
	},
	{
		"name": "TILTH",
		"latitude": "41-33-52.9 N",
		"longitude": "93-42-8.47 W",
		"state": "IOWA",
		"artcc": "ZMP",
		"type": "RP",
		"updated": "VGU*LD*311.34/3.35",
	},
	{
		"name": "TIMER",
		"latitude": "48-12-44.04 N",
		"longitude": "100-49-16.45 W",
		"state": "NORTH DAKOTA",
		"artcc": "ZMP",
		"type": "MR",
		"updated": "MIB*TACAN*109.00/25.00",
	},
	{
		"name": "TIMMI",
		"latitude": "48-7-46.4 N",
		"longitude": "97-2-26.23 W",
		"state": "NORTH DAKOTA",
		"artcc": "ZMP",
		"type": "RP",
		"updated": "GFK*VOR/DME*020.00/12.00",
	},
	{
		"name": "TIMMO",
		"latitude": "40-39-26.62 N",
		"longitude": "96-8-24.5 W",
		"state": "NEBRASKA",
		"artcc": "ZMP",
		"type": "RP",
		"updated": "LNK*VORTAC*111.02",
	},
	{
		"name": "TIMMR",
		"latitude": "46-22-49.49 N",
		"longitude": "100-54-29.8 W",
		"state": "NORTH DAKOTA",
		"artcc": "ZMP",
		"type": "RP",
		"updated": "BIS*VOR/DME*191.80/25.00",
	},
	{
		"name": "TIMTE",
		"latitude": "44-50-46.75 N",
		"longitude": "92-39-49.29 W",
		"state": "WISCONSIN",
		"artcc": "ZMP",
		"type": "RNAV",
		"updated": "01/21/2011",
	},
	{
		"name": "TIPDE",
		"latitude": "44-37-11.58 N",
		"longitude": "92-37-25.6 W",
		"state": "MINNESOTA",
		"artcc": "ZMP",
		"type": "RNAV",
		"updated": "04/24/2008",
	},
	{
		"name": "TIROC",
		"latitude": "47-19-21.84 N",
		"longitude": "94-47-38.99 W",
		"state": "MINNESOTA",
		"artcc": "ZMP",
		"type": "RNAV",
		"updated": "06/29/2017",
	},
	{
		"name": "TIRRE",
		"latitude": "44-24-26.88 N",
		"longitude": "92-12-36.62 W",
		"state": "MINNESOTA",
		"artcc": "ZMP",
		"type": "RNAV",
		"updated": "04/24/2008",
	},
	{
		"name": "TIRUY",
		"latitude": "41-33-51.34 N",
		"longitude": "98-51-26.18 W",
		"state": "NEBRASKA",
		"artcc": "ZMP",
		"type": "RNAV",
		"updated": "03/16/2009",
	},
	{
		"name": "TISIE",
		"latitude": "44-16-4.14 N",
		"longitude": "88-48-46.83 W",
		"state": "WISCONSIN",
		"artcc": "ZMP",
		"type": "RNAV",
		"updated": "03/31/2010",
	},
	{
		"name": "TISME",
		"latitude": "45-31-13.98 N",
		"longitude": "91-44-42.66 W",
		"state": "WISCONSIN",
		"artcc": "ZMP",
		"type": "RNAV",
		"updated": "12/28/2007",
	},
	{
		"name": "TITPE",
		"latitude": "44-17-20.78 N",
		"longitude": "93-13-34.83 W",
		"state": "MINNESOTA",
		"artcc": "ZMP",
		"type": "RNAV",
		"updated": "02/11/2008",
	},
	{
		"name": "TITUE",
		"latitude": "48-37-9.4 N",
		"longitude": "95-34-8 W",
		"state": "MINNESOTA",
		"artcc": "ZMP",
		"type": "RP",
		"updated": "ROX*VOR/DME*155.45/15.00",
	},
	{
		"name": "TIVDE",
		"latitude": "44-22-37.86 N",
		"longitude": "89-21-18.54 W",
		"state": "WISCONSIN",
		"artcc": "ZMP",
		"type": "RNAV",
		"updated": "12/21/2009",
	},
	{
		"name": "TIVNY",
		"latitude": "43-7-7.67 N",
		"longitude": "92-15-25.22 W",
		"state": "IOWA",
		"artcc": "ZMP",
		"type": "RNAV",
		"updated": "11/06/2012",
	},
	{
		"name": "TIVRE",
		"latitude": "41-0-34.43 N",
		"longitude": "95-58-54.46 W",
		"state": "NEBRASKA",
		"artcc": "ZMP",
		"type": "RNAV",
		"updated": "01/22/2007",
	},
	{
		"name": "TIYVO",
		"latitude": "41-21-5.94 N",
		"longitude": "97-21-59.61 W",
		"state": "NEBRASKA",
		"artcc": "ZMP",
		"type": "RNAV",
		"updated": "10/02/2009",
	},
	{
		"name": "TIZTO",
		"latitude": "48-10-24.55 N",
		"longitude": "100-58-58.49 W",
		"state": "NORTH DAKOTA",
		"artcc": "ZMP",
		"type": "RNAV",
		"updated": "12/18/2009",
	},
	{
		"name": "TIZZI",
		"latitude": "44-18-50.52 N",
		"longitude": "91-30-29.25 W",
		"state": "WISCONSIN",
		"artcc": "ZMP",
		"type": "RNAV",
		"updated": "07/13/2010",
	},
	{
		"name": "TLBAT",
		"latitude": "45-34-31.1 N",
		"longitude": "94-20-27.16 W",
		"state": "MINNESOTA",
		"artcc": "ZMP",
		"type": "RP",
		"updated": "DWN*VORTAC*002.24/29.66",
	},
	{
		"name": "TMBER",
		"latitude": "41-21-49.11 N",
		"longitude": "95-53-39.35 W",
		"state": "IOWA",
		"artcc": "ZMP",
		"type": "RNAV",
		"updated": "08/15/2012",
	},
	{
		"name": "TNDRA",
		"latitude": "44-26-21.08 N",
		"longitude": "88-14-31.66 W",
		"state": "WISCONSIN",
		"artcc": "ZMP",
		"type": "RNAV",
		"updated": "08/26/2009",
	},
	{
		"name": "TOBBO",
		"latitude": "44-17-26.12 N",
		"longitude": "93-21-22.56 W",
		"state": "MINNESOTA",
		"artcc": "ZMP",
		"type": "RNAV",
		"updated": "02/11/2008",
	},
	{
		"name": "TODDO",
		"latitude": "41-50-32.36 N",
		"longitude": "95-21-31.4 W",
		"state": "IOWA",
		"artcc": "ZMP",
		"type": "RP",
		"updated": "OVR*VORTAC*014.70/43.92",
	},
	{
		"name": "TODEE",
		"latitude": "45-54-41.9 N",
		"longitude": "94-6-22.46 W",
		"state": "MINNESOTA",
		"artcc": "ZMP",
		"type": "MR",
		"updated": "RYM*LD*132.29/15.80",
	},
	{
		"name": "TOEGO",
		"latitude": "47-41-31.74 N",
		"longitude": "92-55-1.15 W",
		"state": "MINNESOTA",
		"artcc": "ZMP",
		"type": "RP",
		"updated": "HIB*VOR/DME*337.80/25.00",
	},
	{
		"name": "TOGQO",
		"latitude": "42-42-28.6 N",
		"longitude": "94-0-23.29 W",
		"state": "IOWA",
		"artcc": "ZMP",
		"type": "RNAV",
		"updated": "10/14/2009",
	},
	{
		"name": "TOLOY",
		"latitude": "45-59-49.8 N",
		"longitude": "89-2-25.19 W",
		"state": "WISCONSIN",
		"artcc": "ZMP",
		"type": "RNAV",
		"updated": "05/02/2005",
	},
	{
		"name": "TOLUE",
		"latitude": "41-3-6.57 N",
		"longitude": "93-42-27.6 W",
		"state": "IOWA",
		"artcc": "ZMP",
		"type": "RNAV",
		"updated": "05/24/2011",
	},
	{
		"name": "TOMBE",
		"latitude": "44-5-34.44 N",
		"longitude": "88-19-0.12 W",
		"state": "WISCONSIN",
		"artcc": "ZMP",
		"type": "RNAV",
		"updated": "03/31/2010",
	},
	{
		"name": "TOMMI",
		"latitude": "42-27-32.92 N",
		"longitude": "96-27-49.01 W",
		"state": "NEBRASKA",
		"artcc": "ZMP",
		"type": "RP",
		"updated": "SUX*VORTAC*/9.27",
	},
	{
		"name": "TONCA",
		"latitude": "44-54-57.58 N",
		"longitude": "93-38-1.51 W",
		"state": "MINNESOTA",
		"artcc": "ZMP",
		"type": "RNAV",
		"updated": "12/10/2009",
	},
	{
		"name": "TONEE",
		"latitude": "44-42-6.27 N",
		"longitude": "93-4-41.28 W",
		"state": "MINNESOTA",
		"artcc": "ZMP",
		"type": "RNAV",
		"updated": "11/25/2016",
	},
	{
		"name": "TONKE",
		"latitude": "40-20-27.23 N",
		"longitude": "96-46-58.79 W",
		"state": "NEBRASKA",
		"artcc": "ZMP",
		"type": "MR",
		"updated": "LNK*VORTAC*354.00/35.00",
	},
	{
		"name": "TONNA",
		"latitude": "44-4-21.65 N",
		"longitude": "93-9-22.88 W",
		"state": "MINNESOTA",
		"artcc": "ZMP",
		"type": "RP",
		"updated": "RST*VOR/DME*300.83/29.84",
	},
	{
		"name": "TONOC",
		"latitude": "45-3-47.56 N",
		"longitude": "91-38-11.87 W",
		"state": "WISCONSIN",
		"artcc": "ZMP",
		"type": "RP",
		"updated": "EAU*VORTAC*321.93/12.00",
	},
	{
		"name": "TOQIC",
		"latitude": "40-48-13.72 N",
		"longitude": "93-53-50.69 W",
		"state": "IOWA",
		"artcc": "ZMP",
		"type": "RNAV",
		"updated": "12/04/2000",
	},
	{
		"name": "TORGY",
		"latitude": "44-38-36.88 N",
		"longitude": "94-22-31.05 W",
		"state": "MINNESOTA",
		"artcc": "ZMP",
		"type": "RNAV",
		"updated": "01/13/2015",
	},
	{
		"name": "TOSEE",
		"latitude": "45-31-9 N",
		"longitude": "86-30-8 W",
		"state": "MICHIGAN",
		"artcc": "ZMP",
		"type": "RNAV",
		"updated": "08/27/2001",
	},
	{
		"name": "TOSLY",
		"latitude": "47-33-21.5 N",
		"longitude": "98-18-18.52 W",
		"state": "NORTH DAKOTA",
		"artcc": "ZMP",
		"type": "RNAV",
		"updated": "09/03/2010",
	},
	{
		"name": "TOSME",
		"latitude": "44-18-40.78 N",
		"longitude": "94-34-41.8 W",
		"state": "MINNESOTA",
		"artcc": "ZMP",
		"type": "RNAV",
		"updated": "04/07/2008",
	},
	{
		"name": "TOSRE",
		"latitude": "47-21-43.72 N",
		"longitude": "102-43-35.5 W",
		"state": "NORTH DAKOTA",
		"artcc": "ZMP",
		"type": "RNAV",
		"updated": "09/29/2017",
	},
	{
		"name": "TOTBE",
		"latitude": "45-20-3.2 N",
		"longitude": "91-53-28.01 W",
		"state": "WISCONSIN",
		"artcc": "ZMP",
		"type": "RNAV",
		"updated": "03/05/2008",
	},
	{
		"name": "TOTRE",
		"latitude": "48-2-52.99 N",
		"longitude": "99-0-30.85 W",
		"state": "NORTH DAKOTA",
		"artcc": "ZMP",
		"type": "RNAV",
		"updated": "11/04/2013",
	},
	{
		"name": "TOTUE",
		"latitude": "44-50-2.3 N",
		"longitude": "87-9-5.75 W",
		"state": "WISCONSIN",
		"artcc": "ZMP",
		"type": "RNAV",
		"updated": "09/23/2004",
	},
	{
		"name": "TOVGE",
		"latitude": "40-5-32.23 N",
		"longitude": "96-37-25.55 W",
		"state": "NEBRASKA",
		"artcc": "ZMP",
		"type": "RNAV",
		"updated": "01/30/2011",
	},
	{
		"name": "TOVLE",
		"latitude": "46-35-1.98 N",
		"longitude": "90-58-21.79 W",
		"state": "WISCONSIN",
		"artcc": "ZMP",
		"type": "RNAV",
		"updated": "03/21/2013",
	},
	{
		"name": "TOVUY",
		"latitude": "42-19-35.17 N",
		"longitude": "96-17-19.86 W",
		"state": "IOWA",
		"artcc": "ZMP",
		"type": "RNAV",
		"updated": "01/03/2009",
	},
	{
		"name": "TOWED",
		"latitude": "45-50-28.43 N",
		"longitude": "95-49-21.4 W",
		"state": "MINNESOTA",
		"artcc": "ZMP",
		"type": "RNAV",
		"updated": "09/06/2013",
	},
	{
		"name": "TOWMA",
		"latitude": "43-56-41 N",
		"longitude": "90-36-31 W",
		"state": "WISCONSIN",
		"artcc": "ZMP",
		"type": "RP",
		"updated": "DLL*VORTAC*300.00/44.00",
	},
	{
		"name": "TOXLU",
		"latitude": "41-1-45.43 N",
		"longitude": "98-1-7.01 W",
		"state": "NEBRASKA",
		"artcc": "ZMP",
		"type": "RNAV",
		"updated": "05/26/2011",
	},
	{
		"name": "TOYOD",
		"latitude": "45-12-19.45 N",
		"longitude": "87-34-29.54 W",
		"state": "MICHIGAN",
		"artcc": "ZMP",
		"type": "RNAV",
		"updated": "06/19/2009",
	},
	{
		"name": "TOYOO",
		"latitude": "46-5-5.86 N",
		"longitude": "96-16-37.09 W",
		"state": "MINNESOTA",
		"artcc": "ZMP",
		"type": "RNAV",
		"updated": "06/28/2009",
	},
	{
		"name": "TOYUY",
		"latitude": "45-41-34.36 N",
		"longitude": "84-46-22.79 W",
		"state": "MICHIGAN",
		"artcc": "ZMP",
		"type": "RNAV",
		"updated": "07/09/2009",
	},
	{
		"name": "TPTOP",
		"latitude": "41-14-36.65 N",
		"longitude": "95-46-9.52 W",
		"state": "IOWA",
		"artcc": "ZMP",
		"type": "RNAV",
		"updated": "04/09/2018",
	},
	{
		"name": "TRAIG",
		"latitude": "40-23-0.41 N",
		"longitude": "95-12-21.03 W",
		"state": "MISSOURI",
		"artcc": "ZMP",
		"type": "RP",
		"updated": "STJ*VORTAC*325.11/28.45",
	},
	{
		"name": "TREEE",
		"latitude": "41-15-5.9 N",
		"longitude": "95-50-49.42 W",
		"state": "IOWA",
		"artcc": "ZMP",
		"type": "RNAV",
		"updated": "08/14/2012",
	},
	{
		"name": "TRGET",
		"latitude": "44-13-52.58 N",
		"longitude": "93-27-43.65 W",
		"state": "MINNESOTA",
		"artcc": "ZMP",
		"type": "RP",
		"updated": "GEP*VORTAC*178.00/55.00",
	},
	{
		"name": "TRIGS",
		"latitude": "43-26-0.57 N",
		"longitude": "94-1-1.72 W",
		"state": "IOWA",
		"artcc": "ZMP",
		"type": "RNAV",
		"updated": "02/25/2016",
	},
	{
		"name": "TROAK",
		"latitude": "45-59-36.04 N",
		"longitude": "103-5-37.15 W",
		"state": "NORTH DAKOTA",
		"artcc": "ZMP",
		"type": "RNAV",
		"updated": "02/25/2016",
	},
	{
		"name": "TROLL",
		"latitude": "44-19-6.47 N",
		"longitude": "92-4-50.9 W",
		"state": "MINNESOTA",
		"artcc": "ZMP",
		"type": "RP",
		"updated": "RST*VOR/DME*029.62",
	},
	{
		"name": "TRONA",
		"latitude": "46-48-55.97 N",
		"longitude": "97-4-34.8 W",
		"state": "NORTH DAKOTA",
		"artcc": "ZMP",
		"type": "RP",
		"updated": "FAR*VOR/DME*283.00/10.00",
	},
	{
		"name": "TRTEL",
		"latitude": "44-51-57.46 N",
		"longitude": "92-45-43.09 W",
		"state": "WISCONSIN",
		"artcc": "ZMP",
		"type": "RNAV",
		"updated": "01/14/2015",
	},
	{
		"name": "TRUNG",
		"latitude": "40-38-37 N",
		"longitude": "98-4-55.1 W",
		"state": "NEBRASKA",
		"artcc": "ZMP",
		"type": "RNAV",
		"updated": "HSI*VOR/DME*074.50/16.05",
	},
	{
		"name": "TSADE",
		"latitude": "45-24-7.48 N",
		"longitude": "98-25-38.19 W",
		"state": "SOUTH DAKOTA",
		"artcc": "ZMP",
		"type": "RNAV",
		"updated": "12/23/2016",
	},
	{
		"name": "TTAIL",
		"latitude": "46-41-28 N",
		"longitude": "96-41-9 W",
		"state": "MINNESOTA",
		"artcc": "ZMP",
		"type": "RNAV",
		"updated": "01/12/2015",
	},
	{
		"name": "TTOSS",
		"latitude": "43-55-42 N",
		"longitude": "95-5-31 W",
		"state": "MINNESOTA",
		"artcc": "ZMP",
		"type": "RNAV",
		"updated": "09/16/2016",
	},
	{
		"name": "TUBES",
		"latitude": "48-37-37.48 N",
		"longitude": "101-9-59.12 W",
		"state": "NORTH DAKOTA",
		"artcc": "ZMP",
		"type": "MR",
		"updated": "MIB*TACAN*025.00/15.00",
	},
	{
		"name": "TUCNY",
		"latitude": "44-17-33.27 N",
		"longitude": "88-29-47.02 W",
		"state": "WISCONSIN",
		"artcc": "ZMP",
		"type": "RNAV",
		"updated": "03/31/2010",
	},
	{
		"name": "TUCOR",
		"latitude": "45-3-56.78 N",
		"longitude": "91-44-35.56 W",
		"state": "WISCONSIN",
		"artcc": "ZMP",
		"type": "RNAV",
		"updated": "07/26/2013",
	},
	{
		"name": "TUCTU",
		"latitude": "47-29-18.73 N",
		"longitude": "95-2-22.02 W",
		"state": "MINNESOTA",
		"artcc": "ZMP",
		"type": "RNAV",
		"updated": "03/22/2010",
	},
	{
		"name": "TUCYU",
		"latitude": "44-43-59.05 N",
		"longitude": "89-57-58.8 W",
		"state": "WISCONSIN",
		"artcc": "ZMP",
		"type": "RP",
		"updated": "CWA*LD*257.37/14.23",
	},
	{
		"name": "TUDDA",
		"latitude": "45-26-32.13 N",
		"longitude": "91-43-20.66 W",
		"state": "WISCONSIN",
		"artcc": "ZMP",
		"type": "RNAV",
		"updated": "03/05/2008",
	},
	{
		"name": "TUDUC",
		"latitude": "43-2-19.14 N",
		"longitude": "95-43-39.7 W",
		"state": "IOWA",
		"artcc": "ZMP",
		"type": "RNAV",
		"updated": "04/19/2012",
	},
	{
		"name": "TUGGS",
		"latitude": "44-46-46.67 N",
		"longitude": "85-10-4.23 W",
		"state": "MICHIGAN",
		"artcc": "ZMP",
		"type": "RNAV",
		"updated": "06/01/2006",
	},
	{
		"name": "TULHE",
		"latitude": "44-1-42.72 N",
		"longitude": "86-8-0.09 W",
		"state": "MICHIGAN",
		"artcc": "ZMP",
		"type": "RNAV",
		"updated": "02/27/2008",
	},
	{
		"name": "TULLA",
		"latitude": "44-47-23.11 N",
		"longitude": "98-19-53.33 W",
		"state": "SOUTH DAKOTA",
		"artcc": "ZMP",
		"type": "RP",
		"updated": "HON*VORTAC*347.62/21.00",
	},
	{
		"name": "TULOE",
		"latitude": "46-42-51.07 N",
		"longitude": "96-40-24.17 W",
		"state": "MINNESOTA",
		"artcc": "ZMP",
		"type": "RNAV",
		"updated": "09/24/2004",
	},
	{
		"name": "TULTE",
		"latitude": "45-43-11.55 N",
		"longitude": "87-1-37.32 W",
		"state": "MICHIGAN",
		"artcc": "ZMP",
		"type": "RNAV",
		"updated": "04/19/2012",
	},
	{
		"name": "TUMDE",
		"latitude": "47-49-52.15 N",
		"longitude": "90-15-15.22 W",
		"state": "MINNESOTA",
		"artcc": "ZMP",
		"type": "RNAV",
		"updated": "02/14/2011",
	},
	{
		"name": "TUNCI",
		"latitude": "45-53-26.04 N",
		"longitude": "94-14-51.48 W",
		"state": "MINNESOTA",
		"artcc": "ZMP",
		"type": "RNAV",
		"updated": "03/08/2011",
	},
	{
		"name": "TUPBU",
		"latitude": "44-8-59.08 N",
		"longitude": "94-7-20.86 W",
		"state": "MINNESOTA",
		"artcc": "ZMP",
		"type": "RP",
		"updated": "MKT*VOR/DME*238.18/10.00",
	},
	{
		"name": "TUPNE",
		"latitude": "41-33-45.14 N",
		"longitude": "93-36-20.72 W",
		"state": "IOWA",
		"artcc": "ZMP",
		"type": "RNAV",
		"updated": "12/14/2017",
	},
	{
		"name": "TUPUY",
		"latitude": "44-42-15.67 N",
		"longitude": "93-59-2.02 W",
		"state": "MINNESOTA",
		"artcc": "ZMP",
		"type": "RNAV",
		"updated": "04/28/2015",
	},
	{
		"name": "TURUY",
		"latitude": "41-31-0.94 N",
		"longitude": "97-23-45.5 W",
		"state": "NEBRASKA",
		"artcc": "ZMP",
		"type": "RP",
		"updated": "OLU*VOR/DME*/4.72",
	},
	{
		"name": "TUSYU",
		"latitude": "44-28-37.63 N",
		"longitude": "83-45-49.1 W",
		"state": "MICHIGAN",
		"artcc": "ZMP",
		"type": "RP",
		"updated": "APN*VORTAC*200.73/37.40",
	},
	{
		"name": "TUSZL",
		"latitude": "43-49-49.25 N",
		"longitude": "92-45-51.76 W",
		"state": "MINNESOTA",
		"artcc": "ZMP",
		"type": "RNAV",
		"updated": "06/25/2013",
	},
	{
		"name": "TUVUY",
		"latitude": "44-15-59.76 N",
		"longitude": "90-43-24.73 W",
		"state": "WISCONSIN",
		"artcc": "ZMP",
		"type": "RNAV",
		"updated": "06/26/2012",
	},
	{
		"name": "TUYBO",
		"latitude": "43-4-13.79 N",
		"longitude": "97-33-47.91 W",
		"state": "SOUTH DAKOTA",
		"artcc": "ZMP",
		"type": "RNAV",
		"updated": "07/21/2006",
	},
	{
		"name": "TUYMO",
		"latitude": "41-33-10.42 N",
		"longitude": "94-47-34.73 W",
		"state": "IOWA",
		"artcc": "ZMP",
		"type": "WP",
		"updated": "12/13/2001",
	},
	{
		"name": "TUYQU",
		"latitude": "46-18-31.24 N",
		"longitude": "96-11-31.39 W",
		"state": "MINNESOTA",
		"artcc": "ZMP",
		"type": "RNAV",
		"updated": "02/14/2011",
	},
	{
		"name": "TUYUB",
		"latitude": "45-35-2.01 N",
		"longitude": "94-6-38 W",
		"state": "MINNESOTA",
		"artcc": "ZMP",
		"type": "RNAV",
		"updated": "06/11/2009",
	},
	{
		"name": "TUYUK",
		"latitude": "46-53-1.48 N",
		"longitude": "96-21-1.7 W",
		"state": "MINNESOTA",
		"artcc": "ZMP",
		"type": "RP",
		"updated": "FAR*VOR/DME*060.05/22.07",
	},
	{
		"name": "TUZCO",
		"latitude": "44-44-13.55 N",
		"longitude": "100-55-48.19 W",
		"state": "SOUTH DAKOTA",
		"artcc": "ZMP",
		"type": "RP",
		"updated": "PIR*VORTAC*291.26/38.80",
	},
	{
		"name": "TWIGG",
		"latitude": "41-15-12.66 N",
		"longitude": "95-50-36.5 W",
		"state": "IOWA",
		"artcc": "ZMP",
		"type": "RNAV",
		"updated": "08/14/2012",
	},
	{
		"name": "TWINN",
		"latitude": "40-29-48.91 N",
		"longitude": "96-59-27 W",
		"state": "NEBRASKA",
		"artcc": "ZMP",
		"type": "RP",
		"updated": "LNK*VORTAC*195.00/28.00",
	},
	{
		"name": "TWINZ",
		"latitude": "45-2-55.67 N",
		"longitude": "92-17-21.64 W",
		"state": "WISCONSIN",
		"artcc": "ZMP",
		"type": "RP",
		"updated": "EAU*VORTAC*281.00/35.71",
	},
	{
		"name": "TWITT",
		"latitude": "41-24-7.38 N",
		"longitude": "95-51-4.11 W",
		"state": "IOWA",
		"artcc": "ZMP",
		"type": "RNAV",
		"updated": "08/14/2012",
	},
	{
		"name": "TWOLF",
		"latitude": "43-17-0.14 N",
		"longitude": "93-33-5.15 W",
		"state": "IOWA",
		"artcc": "ZMP",
		"type": "RP",
		"updated": "GEP*VORTAC*178.00/112.00",
	},
	{
		"name": "TYIBR",
		"latitude": "43-49-3.52 N",
		"longitude": "96-13-31.05 W",
		"state": "MINNESOTA",
		"artcc": "ZMP",
		"type": "RNAV",
		"updated": "05/20/2010",
	},
	{
		"name": "TYNDA",
		"latitude": "43-0-43.19 N",
		"longitude": "97-49-37.64 W",
		"state": "SOUTH DAKOTA",
		"artcc": "ZMP",
		"type": "RP",
		"updated": "ONL*VORTAC*039.20/50.00",
	},
	{
		"name": "TYTAN",
		"latitude": "40-58-6.17 N",
		"longitude": "95-43-24.05 W",
		"state": "IOWA",
		"artcc": "ZMP",
		"type": "MR",
		"updated": "OFF*TACAN*133.00/12.00",
	},
