[
	{
		"name": "VACRO",
		"latitude": "40-6-38.74 N",
		"longitude": "97-20-39.16 W",
		"state": "NEBRASKA",
		"artcc": "ZMP",
		"type": "RNAV",
		"updated": "02/09/2018"
	},
	{
		"name": "VACUS",
		"latitude": "40-28-48.88 N",
		"longitude": "96-56-30.89 W",
		"state": "NEBRASKA",
		"artcc": "ZMP",
		"type": "RP",
		"updated": "LNK*VORTAC*190.00/28.12"
	},
	{
		"name": "VAKUC",
		"latitude": "41-34-47.13 N",
		"longitude": "94-57-20.89 W",
		"state": "IOWA",
		"artcc": "ZMP",
		"type": "RNAV",
		"updated": "01/03/2009"
	},
	{
		"name": "VAKWI",
		"latitude": "42-23-44.3 N",
		"longitude": "95-19-49.51 W",
		"state": "IOWA",
		"artcc": "ZMP",
		"type": "RNAV",
		"updated": "08/23/2005"
	},
	{
		"name": "VALUU",
		"latitude": "40-24-8.1 N",
		"longitude": "97-27-40.68 W",
		"state": "NEBRASKA",
		"artcc": "ZMP",
		"type": "RNAV",
		"updated": "06/16/2009"
	},
	{
		"name": "VALYN",
		"latitude": "42-47-18.03 N",
		"longitude": "96-50-10.15 W",
		"state": "SOUTH DAKOTA",
		"artcc": "ZMP",
		"type": "MR",
		"updated": "SUX*VORTAC*310.69/35.00"
	},
	{
		"name": "VAMYE",
		"latitude": "41-10-4.7 N",
		"longitude": "98-24-17.17 W",
		"state": "NEBRASKA",
		"artcc": "ZMP",
		"type": "RNAV",
		"updated": "10/31/2005"
	},
	{
		"name": "VAPGE",
		"latitude": "40-46-26.64 N",
		"longitude": "98-12-52.64 W",
		"state": "NEBRASKA",
		"artcc": "ZMP",
		"type": "RP",
		"updated": "GRI*VOR/DME*153.06"
	},
	{
		"name": "VATYY",
		"latitude": "48-42-28.26 N",
		"longitude": "100-13-58.5 W",
		"state": "NORTH DAKOTA",
		"artcc": "ZMP",
		"type": "RNAV",
		"updated": "04/12/2010"
	},
	{
		"name": "VAYLA",
		"latitude": "44-25-39.54 N",
		"longitude": "98-57-14.85 W",
		"state": "SOUTH DAKOTA",
		"artcc": "ZMP",
		"type": "RP",
		"updated": "HON*VORTAC*258.68/27.66"
	},
	{
		"name": "VAYUB",
		"latitude": "42-31-27.8 N",
		"longitude": "94-24-1.46 W",
		"state": "IOWA",
		"artcc": "ZMP",
		"type": "RP",
		"updated": "FOD*VORTAC*215.00/7.00"
	},
	{
		"name": "VAYUC",
		"latitude": "47-22-17.2 N",
		"longitude": "88-39-31.31 W",
		"state": "MICHIGAN",
		"artcc": "ZMP",
		"type": "RP",
		"updated": "CMX*VOR/DME*331.68/14.00"
	},
	{
		"name": "VAYUN",
		"latitude": "46-55-24.51 N",
		"longitude": "97-18-41.61 W",
		"state": "NORTH DAKOTA",
		"artcc": "ZMP",
		"type": "RNAV",
		"updated": "05/15/2008"
	},
	{
		"name": "VAZRO",
		"latitude": "41-31-21.43 N",
		"longitude": "98-2-39.58 W",
		"state": "NEBRASKA",
		"artcc": "ZMP",
		"type": "RNAV",
		"updated": "07/08/2008"
	},
	{
		"name": "VEBHA",
		"latitude": "45-12-25.69 N",
		"longitude": "84-56-19.69 W",
		"state": "MICHIGAN",
		"artcc": "ZMP",
		"type": "RNAV",
		"updated": "04/17/2012"
	},
	{
		"name": "VECFU",
		"latitude": "41-9-42.45 N",
		"longitude": "98-12-11.37 W",
		"state": "NEBRASKA",
		"artcc": "ZMP",
		"type": "RNAV",
		"updated": "10/31/2005"
	},
	{
		"name": "VECLU",
		"latitude": "43-16-59.81 N",
		"longitude": "99-29-21.71 W",
		"state": "SOUTH DAKOTA",
		"artcc": "ZMP",
		"type": "RNAV",
		"updated": "09/06/2012"
	},
	{
		"name": "VECSU",
		"latitude": "44-26-7.95 N",
		"longitude": "90-4-46.97 W",
		"state": "WISCONSIN",
		"artcc": "ZMP",
		"type": "RNAV",
		"updated": "05/16/2017"
	},
	{
		"name": "VECZY",
		"latitude": "40-54-21.65 N",
		"longitude": "98-3-47.1 W",
		"state": "NEBRASKA",
		"artcc": "ZMP",
		"type": "RNAV",
		"updated": "08/28/2000"
	},
	{
		"name": "VEDTI",
		"latitude": "42-8-31.53 N",
		"longitude": "97-13-1.5 W",
		"state": "NEBRASKA",
		"artcc": "ZMP",
		"type": "RNAV",
		"updated": "06/22/2005"
	},
	{
		"name": "VEFMA",
		"latitude": "42-11-43.81 N",
		"longitude": "97-30-53.05 W",
		"state": "NEBRASKA",
		"artcc": "ZMP",
		"type": "RNAV",
		"updated": "10/06/2009"
	},
	{
		"name": "VEGRY",
		"latitude": "41-53-16.8 N",
		"longitude": "97-11-32.17 W",
		"state": "NEBRASKA",
		"artcc": "ZMP",
		"type": "RNAV",
		"updated": "10/06/2009"
	},
	{
		"name": "VEJAL",
		"latitude": "41-56-4.2 N",
		"longitude": "98-4-2.3 W",
		"state": "NEBRASKA",
		"artcc": "ZMP",
		"type": "RNAV",
		"updated": "07/08/2008"
	},
	{
		"name": "VEMVY",
		"latitude": "45-55-27.55 N",
		"longitude": "95-6-47.62 W",
		"state": "MINNESOTA",
		"artcc": "ZMP",
		"type": "RNAV",
		"updated": "04/13/2010"
	},
	{
		"name": "VENUC",
		"latitude": "47-32-13.02 N",
		"longitude": "94-58-51.02 W",
		"state": "MINNESOTA",
		"artcc": "ZMP",
		"type": "RP",
		"updated": "IDJ*VOR/DME*305.78/2.92"
	},
	{
		"name": "VEPCU",
		"latitude": "41-46-5.94 N",
		"longitude": "97-23-39.32 W",
		"state": "NEBRASKA",
		"artcc": "ZMP",
		"type": "RNAV",
		"updated": "06/22/2005"
	},
	{
		"name": "VEPOW",
		"latitude": "42-2-47.32 N",
		"longitude": "96-51-10.13 W",
		"state": "NEBRASKA",
		"artcc": "ZMP",
		"type": "RNAV",
		"updated": "09/12/2011"
	},
	{
		"name": "VERST",
		"latitude": "48-2-5.74 N",
		"longitude": "96-8-21.24 W",
		"state": "MINNESOTA",
		"artcc": "ZMP",
		"type": "RP",
		"updated": "TVF*VOR/DME*/2.81"
	},
	{
		"name": "VERUY",
		"latitude": "42-32-36.77 N",
		"longitude": "98-59-42.52 W",
		"state": "NEBRASKA",
		"artcc": "ZMP",
		"type": "RNAV",
		"updated": "03/13/2012"
	},
	{
		"name": "VESTY",
		"latitude": "44-44-3.65 N",
		"longitude": "97-4-26.46 W",
		"state": "SOUTH DAKOTA",
		"artcc": "ZMP",
		"type": "RP",
		"updated": "ATY*VORTAC*159.86/15.00"
	},
	{
		"name": "VESUY",
		"latitude": "45-37-18.37 N",
		"longitude": "84-52-23.6 W",
		"state": "MICHIGAN",
		"artcc": "ZMP",
		"type": "RNAV",
		"updated": "07/11/2009"
	},
	{
		"name": "VESZE",
		"latitude": "40-51-44.92 N",
		"longitude": "95-53-33.07 W",
		"state": "NEBRASKA",
		"artcc": "ZMP",
		"type": "RNAV",
		"updated": "03/27/2008"
	},
	{
		"name": "VEYIB",
		"latitude": "42-40-5.17 N",
		"longitude": "98-46-22.41 W",
		"state": "NEBRASKA",
		"artcc": "ZMP",
		"type": "RNAV",
		"updated": "03/15/2007"
	},
	{
		"name": "VEYNY",
		"latitude": "44-47-9.75 N",
		"longitude": "93-16-50.33 W",
		"state": "MINNESOTA",
		"artcc": "ZMP",
		"type": "RNAV",
		"updated": "11/04/2013"
	},
	{
		"name": "VEYVU",
		"latitude": "44-4-6.19 N",
		"longitude": "92-50-55.3 W",
		"state": "MINNESOTA",
		"artcc": "ZMP",
		"type": "RNAV",
		"updated": "06/25/2013"
	},
	{
		"name": "VEYWA",
		"latitude": "42-26-5.28 N",
		"longitude": "96-51-39.93 W",
		"state": "NEBRASKA",
		"artcc": "ZMP",
		"type": "RNAV",
		"updated": "05/31/2005"
	},
	{
		"name": "VIBUC",
		"latitude": "44-8-59.5 N",
		"longitude": "93-36-15.9 W",
		"state": "MINNESOTA",
		"artcc": "ZMP",
		"type": "RNAV",
		"updated": "07/10/2013"
	},
	{
		"name": "VIGGR",
		"latitude": "42-33-18.67 N",
		"longitude": "93-7-26.83 W",
		"state": "IOWA",
		"artcc": "ZMP",
		"type": "RP",
		"updated": "FOD*VORTAC*086.31/52.00"
	},
	{
		"name": "VIGXI",
		"latitude": "40-39-15.4 N",
		"longitude": "98-55-35.2 W",
		"state": "NEBRASKA",
		"artcc": "ZMP",
		"type": "RNAV",
		"updated": "08/09/2012"
	},
	{
		"name": "VIKKI",
		"latitude": "40-41-35.17 N",
		"longitude": "95-24-49.94 W",
		"state": "IOWA",
		"artcc": "ZMP",
		"type": "RP",
		"updated": "OVR*VORTAC*144.57/32.00"
	},
	{
		"name": "VIKNG",
		"latitude": "42-57-57.67 N",
		"longitude": "91-32-35.7 W",
		"state": "IOWA",
		"artcc": "ZMP",
		"type": "RP",
		"updated": "MCW*VOR/DME*089.00/79.00"
	},
	{
		"name": "VIPRY",
		"latitude": "40-31-45.19 N",
		"longitude": "95-48-37.47 W",
		"state": "NEBRASKA",
		"artcc": "ZMP",
		"type": "RNAV",
		"updated": "03/27/2008"
	},
	{
		"name": "VITUY",
		"latitude": "45-46-53.37 N",
		"longitude": "92-37-28.16 W",
		"state": "WISCONSIN",
		"artcc": "ZMP",
		"type": "RNAV",
		"updated": "07/26/2013"
	},
	{
		"name": "VIVID",
		"latitude": "43-51-37.62 N",
		"longitude": "99-59-15.43 W",
		"state": "SOUTH DAKOTA",
		"artcc": "ZMP",
		"type": "RP",
		"updated": "FSD*VORTAC*267.29/140.00"
	},
	{
		"name": "VIVUY",
		"latitude": "43-43-27.3 N",
		"longitude": "85-26-34.11 W",
		"state": "MICHIGAN",
		"artcc": "ZMP",
		"type": "RNAV",
		"updated": "10/21/2014"
	},
	{
		"name": "VIYUR",
		"latitude": "44-53-27.96 N",
		"longitude": "91-9-1.54 W",
		"state": "WISCONSIN",
		"artcc": "ZMP",
		"type": "RP",
		"updated": "EAU*VORTAC*087.50/14.00"
	},
	{
		"name": "VKLDR",
		"latitude": "46-57-48.66 N",
		"longitude": "93-25-7.95 W",
		"state": "MINNESOTA",
		"artcc": "ZMP",
		"type": "CN",
		"updated": "12/20/2010"
	},
	{
		"name": "VNZNT",
		"latitude": "45-54-43.94 N",
		"longitude": "87-10-49.92 W",
		"state": "MICHIGAN",
		"artcc": "ZMP",
		"type": "RP",
		"updated": "ESC*VOR/DME*341.49/12.00"
	},
	{
		"name": "VOBUY",
		"latitude": "45-1-53.36 N",
		"longitude": "87-21-42.54 W",
		"state": "WISCONSIN",
		"artcc": "ZMP",
		"type": "RNAV",
		"updated": "09/23/2004"
	},
	{
		"name": "VOCAB",
		"latitude": "45-32-38 N",
		"longitude": "94-48-19.15 W",
		"state": "MINNESOTA",
		"artcc": "ZMP",
		"type": "RNAV",
		"updated": "09/12/2014"
	},
	{
		"name": "VOFHA",
		"latitude": "44-37-29.79 N",
		"longitude": "94-52-40.18 W",
		"state": "MINNESOTA",
		"artcc": "ZMP",
		"type": "RNAV",
		"updated": "10/06/2000"
	},
	{
		"name": "VOGYU",
		"latitude": "42-32-24.95 N",
		"longitude": "96-34-15.49 W",
		"state": "SOUTH DAKOTA",
		"artcc": "ZMP",
		"type": "RNAV",
		"updated": "12/22/2008"
	},
	{
		"name": "VOHBU",
		"latitude": "41-3-50.51 N",
		"longitude": "95-37-21.68 W",
		"state": "IOWA",
		"artcc": "ZMP",
		"type": "RNAV",
		"updated": "09/12/2014"
	},
	{
		"name": "VOJVI",
		"latitude": "44-16-11.42 N",
		"longitude": "83-42-13.05 W",
		"state": "MICHIGAN",
		"artcc": "ZMP",
		"type": "RNAV",
		"updated": "06/06/2013"
	},
	{
		"name": "VOKPE",
		"latitude": "44-5-33.19 N",
		"longitude": "88-16-40.53 W",
		"state": "WISCONSIN",
		"artcc": "ZMP",
		"type": "RNAV",
		"updated": "09/15/2011"
	},
	{
		"name": "VOLGA",
		"latitude": "44-10-23.45 N",
		"longitude": "96-55-16.05 W",
		"state": "SOUTH DAKOTA",
		"artcc": "ZMP",
		"type": "RP",
		"updated": "FSD*VORTAC*340.11/32.00"
	},
	{
		"name": "VOPPU",
		"latitude": "43-33-39.86 N",
		"longitude": "94-8-8.59 W",
		"state": "MINNESOTA",
		"artcc": "ZMP",
		"type": "RNAV",
		"updated": "03/30/2009"
	},
	{
		"name": "VOSTE",
		"latitude": "41-2-32.83 N",
		"longitude": "97-1-16.1 W",
		"state": "NEBRASKA",
		"artcc": "ZMP",
		"type": "RNAV",
		"updated": "05/08/2008"
	},
	{
		"name": "VOYYU",
		"latitude": "48-35-11.59 N",
		"longitude": "97-14-24.99 W",
		"state": "NORTH DAKOTA",
		"artcc": "ZMP",
		"type": "RNAV",
		"updated": "05/30/2010"
	},
	{
		"name": "VOZVE",
		"latitude": "46-56-59.49 N",
		"longitude": "92-30-22.43 W",
		"state": "MINNESOTA",
		"artcc": "ZMP",
		"type": "RNAV",
		"updated": "09/29/2006"
	},
	{
		"name": "VRMIL",
		"latitude": "48-27-40.83 N",
		"longitude": "91-59-4.7 W",
		"state": "",
		"artcc": "ZMP",
		"type": "RP",
		"updated": "DLH*VORTAC*360.00/100.00"
	},
	{
		"name": "VUGHO",
		"latitude": "40-48-7.14 N",
		"longitude": "93-47-15.74 W",
		"state": "IOWA",
		"artcc": "ZMP",
		"type": "RNAV",
		"updated": "12/04/2000"
	},
	{
		"name": "VUHNY",
		"latitude": "46-35-18.15 N",
		"longitude": "94-11-38.83 W",
		"state": "MINNESOTA",
		"artcc": "ZMP",
		"type": "RNAV",
		"updated": "08/30/2000"
	},
	{
		"name": "VUJTE",
		"latitude": "44-39-41.59 N",
		"longitude": "100-3-10.58 W",
		"state": "SOUTH DAKOTA",
		"artcc": "ZMP",
		"type": "RNAV",
		"updated": "12/26/2017"
	},
	{
		"name": "VUKFI",
		"latitude": "45-45-48.74 N",
		"longitude": "87-31-29.46 W",
		"state": "MICHIGAN",
		"artcc": "ZMP",
		"type": "RP",
		"updated": "MNM*VOR/DME*008.35/35.39"
	},
	{
		"name": "VULHU",
		"latitude": "44-40-1.78 N",
		"longitude": "86-29-12.84 W",
		"state": "MICHIGAN",
		"artcc": "ZMP",
		"type": "RNAV",
		"updated": "08/22/2007"
	},
	{
		"name": "VULKN",
		"latitude": "43-32-33.13 N",
		"longitude": "96-46-57.11 W",
		"state": "SOUTH DAKOTA",
		"artcc": "ZMP",
		"type": "RNAV",
		"updated": "07/05/2011"
	},
	{
		"name": "VUPHI",
		"latitude": "45-19-23.67 N",
		"longitude": "84-40-14.93 W",
		"state": "MICHIGAN",
		"artcc": "ZMP",
		"type": "RNAV",
		"updated": "01/17/2008"
	},
	{
		"name": "VUPLE",
		"latitude": "44-34-45.37 N",
		"longitude": "88-46-29.51 W",
		"state": "WISCONSIN",
		"artcc": "ZMP",
		"type": "RNAV",
		"updated": "03/27/2017"
	},
	{
		"name": "VURLY",
		"latitude": "46-55-21.98 N",
		"longitude": "91-59-0.47 W",
		"state": "MINNESOTA",
		"artcc": "ZMP",
		"type": "RP",
		"updated": "DLH*VORTAC*046.21/11.58"
	},
	{
		"name": "VUXFO",
		"latitude": "42-19-37.77 N",
		"longitude": "95-34-50.23 W",
		"state": "IOWA",
		"artcc": "ZMP",
		"type": "RNAV",
		"updated": "02/02/2010"
	},
	{
		"name": "VUYUK",
		"latitude": "45-38-24 N",
		"longitude": "87-22-18.1 W",
		"state": "MICHIGAN",
		"artcc": "ZMP",
		"type": "RNAV",
		"updated": "03/24/2009"
	},
	{
		"name": "VUYUN",
		"latitude": "43-54-18.72 N",
		"longitude": "93-26-24.21 W",
		"state": "MINNESOTA",
		"artcc": "ZMP",
		"type": "RNAV",
		"updated": "07/10/2013"
	},
	{
		"name": "VUZID",
		"latitude": "44-4-6.45 N",
		"longitude": "91-52-36.05 W",
		"state": "MINNESOTA",
		"artcc": "ZMP",
		"type": "RP",
		"updated": "RST*VOR/DME*056.00"
	},
	{
		"name": "VYKES",
		"latitude": "45-2-12 N",
		"longitude": "93-18-51 W",
		"state": "MINNESOTA",
		"artcc": "ZMP",
		"type": "RP",
		"updated": "GEP*VORTAC*153.00/7.01"
	}
]
