	{
		"name": "WABAM",
		"latitude": "44-17-0.48 N",
		"longitude": "100-6-46.85 W",
		"state": "SOUTH DAKOTA",
		"artcc": "ZMP",
		"type": "RP",
		"updated": "PIR*VORTAC*151.12/7.00",
	},
	{
		"name": "WABBS",
		"latitude": "44-54-9.07 N",
		"longitude": "93-16-5.43 W",
		"state": "MINNESOTA",
		"artcc": "ZMP",
		"type": "RP",
		"updated": "HKZ*LD*NW CRS/3.16",
	},
	{
		"name": "WABEX",
		"latitude": "42-38-13.74 N",
		"longitude": "98-8-58.01 W",
		"state": "NEBRASKA",
		"artcc": "ZMP",
		"type": "RP",
		"updated": "04/01/2011",
	},
	{
		"name": "WABIL",
		"latitude": "45-31-33.6 N",
		"longitude": "91-5-39.92 W",
		"state": "WISCONSIN",
		"artcc": "ZMP",
		"type": "RNAV",
		"updated": "03/05/2008",
	},
	{
		"name": "WABIV",
		"latitude": "46-20-49.88 N",
		"longitude": "96-9-44.06 W",
		"state": "MINNESOTA",
		"artcc": "ZMP",
		"type": "RNAV",
		"updated": "06/28/2009",
	},
	{
		"name": "WABNY",
		"latitude": "44-1-58.32 N",
		"longitude": "91-35-48.17 W",
		"state": "MINNESOTA",
		"artcc": "ZMP",
		"type": "RP",
		"updated": "11/24/2015",
	},
	{
		"name": "WABOT",
		"latitude": "44-55-1.79 N",
		"longitude": "87-8-41.74 W",
		"state": "WISCONSIN",
		"artcc": "ZMP",
		"type": "RNAV",
		"updated": "09/23/2004",
	},
	{
		"name": "WADGA",
		"latitude": "46-9-30.52 N",
		"longitude": "99-56-21.32 W",
		"state": "NORTH DAKOTA",
		"artcc": "ZMP",
		"type": "RNAV",
		"updated": "06/14/2013",
	},
	{
		"name": "WADIM",
		"latitude": "47-52-2.04 N",
		"longitude": "98-57-27.95 W",
		"state": "NORTH DAKOTA",
		"artcc": "ZMP",
		"type": "RP",
		"updated": "DVL*VOR/DME*180.00/15.00",
	},
	{
		"name": "WADRI",
		"latitude": "43-37-12.74 N",
		"longitude": "96-42-28.84 W",
		"state": "SOUTH DAKOTA",
		"artcc": "ZMP",
		"type": "RP",
		"updated": "FSD*VORTAC*109.85/3.64",
	},
	{
		"name": "WAFLE",
		"latitude": "44-18-50.84 N",
		"longitude": "88-5-15.86 W",
		"state": "WISCONSIN",
		"artcc": "ZMP",
		"type": "RP",
		"updated": "OSH*VORTAC*044.00",
	},
	{
		"name": "WAFTS",
		"latitude": "45-51-38.76 N",
		"longitude": "98-20-7.57 W",
		"state": "SOUTH DAKOTA",
		"artcc": "ZMP",
		"type": "RNAV",
		"updated": "12/19/2017",
	},
	{
		"name": "WAGIK",
		"latitude": "44-1-20.94 N",
		"longitude": "94-29-57.8 W",
		"state": "MINNESOTA",
		"artcc": "ZMP",
		"type": "RP",
		"updated": "MKT*VOR/DME*238.18/28.00",
	},
	{
		"name": "WAGLO",
		"latitude": "48-45-13.97 N",
		"longitude": "94-55-24.87 W",
		"state": "MINNESOTA",
		"artcc": "ZMP",
		"type": "RNAV",
		"updated": "04/07/2010",
	},
	{
		"name": "WAGNI",
		"latitude": "46-41-46.16 N",
		"longitude": "96-37-25.68 W",
		"state": "MINNESOTA",
		"artcc": "ZMP",
		"type": "RP",
		"updated": "FAR*VOR/DME*101.00/10.00",
	},
	{
		"name": "WAGNO",
		"latitude": "43-33-58.41 N",
		"longitude": "96-33-53.19 W",
		"state": "SOUTH DAKOTA",
		"artcc": "ZMP",
		"type": "RNAV",
		"updated": "06/04/2003",
	},
	{
		"name": "WAGNR",
		"latitude": "45-3-14.08 N",
		"longitude": "92-59-58.52 W",
		"state": "MINNESOTA",
		"artcc": "ZMP",
		"type": "RP",
		"updated": "GEP*VORTAC*103.00/16.81",
	},
	{
		"name": "WAGUX",
		"latitude": "42-35-54.96 N",
		"longitude": "96-29-25.48 W",
		"state": "IOWA",
		"artcc": "ZMP",
		"type": "RNAV",
		"updated": "01/03/2009",
	},
	{
		"name": "WAKAN",
		"latitude": "40-49-55.34 N",
		"longitude": "95-47-29.47 W",
		"state": "IOWA",
		"artcc": "ZMP",
		"type": "MW",
		"updated": "03/10/2014",
	},
	{
		"name": "WAKEP",
		"latitude": "43-52-11.39 N",
		"longitude": "91-14-34.06 W",
		"state": "WISCONSIN",
		"artcc": "ZMP",
		"type": "RNAV",
		"updated": "08/12/2008",
	},
	{
		"name": "WAKMA",
		"latitude": "45-48-39.99 N",
		"longitude": "84-55-39.37 W",
		"state": "MICHIGAN",
		"artcc": "ZMP",
		"type": "RNAV",
		"updated": "02/20/2014",
	},
	{
		"name": "WAKNA",
		"latitude": "43-42-47.64 N",
		"longitude": "93-22-31.15 W",
		"state": "MINNESOTA",
		"artcc": "ZMP",
		"type": "RP",
		"updated": "AEL*VOR/DME*353.00/1.90",
	},
	{
		"name": "WAKUV",
		"latitude": "45-6-9.21 N",
		"longitude": "90-22-38.13 W",
		"state": "WISCONSIN",
		"artcc": "ZMP",
		"type": "RNAV",
		"updated": "12/18/2012",
	},
	{
		"name": "WALDI",
		"latitude": "46-23-32.35 N",
		"longitude": "84-33-14.4 W",
		"state": "MICHIGAN",
		"artcc": "ZMP",
		"type": "RP",
		"updated": "SSM*VOR/DME*267.26/10.00",
	},
	{
		"name": "WALDU",
		"latitude": "47-27-30.11 N",
		"longitude": "92-32-0.68 W",
		"state": "MINNESOTA",
		"artcc": "ZMP",
		"type": "RNAV",
		"updated": "05/24/2004",
	},
	{
		"name": "WALGO",
		"latitude": "44-54-3.77 N",
		"longitude": "93-15-53.17 W",
		"state": "MINNESOTA",
		"artcc": "ZMP",
		"type": "RNAV",
		"updated": "01/18/2002",
	},
	{
		"name": "WALIB",
		"latitude": "47-52-29.51 N",
		"longitude": "91-57-42.77 W",
		"state": "MINNESOTA",
		"artcc": "ZMP",
		"type": "RNAV",
		"updated": "01/03/2012",
	},
	{
		"name": "WALUR",
		"latitude": "46-54-59.5 N",
		"longitude": "93-56-43.89 W",
		"state": "MINNESOTA",
		"artcc": "ZMP",
		"type": "RNAV",
		"updated": "01/15/2002",
	},
	{
		"name": "WAMAG",
		"latitude": "45-10-20.27 N",
		"longitude": "91-28-4.82 W",
		"state": "WISCONSIN",
		"artcc": "ZMP",
		"type": "RNAV",
		"updated": "03/05/2008",
	},
	{
		"name": "WAMDU",
		"latitude": "45-38-3.13 N",
		"longitude": "89-17-43.65 W",
		"state": "WISCONSIN",
		"artcc": "ZMP",
		"type": "RNAV",
		"updated": "02/14/2010",
	},
	{
		"name": "WAMET",
		"latitude": "41-4-1.15 N",
		"longitude": "95-45-52.32 W",
		"state": "IOWA",
		"artcc": "ZMP",
		"type": "RP",
		"updated": "CBF*LD*176.47/12.26",
	},
	{
		"name": "WAMGA",
		"latitude": "47-59-12.6 N",
		"longitude": "97-24-2.91 W",
		"state": "NORTH DAKOTA",
		"artcc": "ZMP",
		"type": "MR",
		"updated": "RDR*TACAN*/1.80",
	},
	{
		"name": "WAMOM",
		"latitude": "44-42-16.66 N",
		"longitude": "85-33-57.18 W",
		"state": "MICHIGAN",
		"artcc": "ZMP",
		"type": "RP",
		"updated": "11/04/2013",
	},
	{
		"name": "WAMZU",
		"latitude": "42-24-43.24 N",
		"longitude": "94-58-44.33 W",
		"state": "IOWA",
		"artcc": "ZMP",
		"type": "RNAV",
		"updated": "04/19/2012",
	},
	{
		"name": "WANAP",
		"latitude": "44-41-8.41 N",
		"longitude": "91-13-25.85 W",
		"state": "WISCONSIN",
		"artcc": "ZMP",
		"type": "RNAV",
		"updated": "10/16/2008",
	},
	{
		"name": "WANBI",
		"latitude": "45-53-14.28 N",
		"longitude": "95-21-30.71 W",
		"state": "MINNESOTA",
		"artcc": "ZMP",
		"type": "RNAV",
		"updated": "03/22/2010",
	},
	{
		"name": "WANPO",
		"latitude": "42-30-21.39 N",
		"longitude": "93-56-15.43 W",
		"state": "IOWA",
		"artcc": "ZMP",
		"type": "RNAV",
		"updated": "01/05/2015",
	},
	{
		"name": "WANRI",
		"latitude": "48-19-58.15 N",
		"longitude": "93-25-11.18 W",
		"state": "MINNESOTA",
		"artcc": "ZMP",
		"type": "RP",
		"updated": "INL*VOR/DME*176.31/14.00",
	},
	{
		"name": "WANSO",
		"latitude": "45-29-21.12 N",
		"longitude": "91-45-14.98 W",
		"state": "WISCONSIN",
		"artcc": "ZMP",
		"type": "RNAV",
		"updated": "01/02/2008",
	},
	{
		"name": "WANUY",
		"latitude": "46-20-53.06 N",
		"longitude": "92-53-29.13 W",
		"state": "MINNESOTA",
		"artcc": "ZMP",
		"type": "RNAV",
		"updated": "11/14/2012",
	},
	{
		"name": "WAPAL",
		"latitude": "44-57-4.5 N",
		"longitude": "93-40-14.89 W",
		"state": "MINNESOTA",
		"artcc": "ZMP",
		"type": "RNAV",
		"updated": "02/21/2014",
	},
	{
		"name": "WAPEB",
		"latitude": "42-12-53.49 N",
		"longitude": "96-10-56.95 W",
		"state": "IOWA",
		"artcc": "ZMP",
		"type": "RP",
		"updated": "SUX*VORTAC*132.00/10.00",
	},
	{
		"name": "WAPIR",
		"latitude": "42-53-34.58 N",
		"longitude": "97-10-24.77 W",
		"state": "SOUTH DAKOTA",
		"artcc": "ZMP",
		"type": "RNAV",
		"updated": "11/02/2015",
	},
	{
		"name": "WAPKU",
		"latitude": "43-8-26.22 N",
		"longitude": "99-0-49.59 W",
		"state": "SOUTH DAKOTA",
		"artcc": "ZMP",
		"type": "RNAV",
		"updated": "09/06/2012",
	},
	{
		"name": "WAPSA",
		"latitude": "45-20-53.73 N",
		"longitude": "94-37-34.75 W",
		"state": "MINNESOTA",
		"artcc": "ZMP",
		"type": "RNAV",
		"updated": "05/30/2013",
	},
	{
		"name": "WARAP",
		"latitude": "42-56-2.52 N",
		"longitude": "95-32-32.98 W",
		"state": "IOWA",
		"artcc": "ZMP",
		"type": "RNAV",
		"updated": "04/16/2018",
	},
	{
		"name": "WARIL",
		"latitude": "47-8-22.46 N",
		"longitude": "91-29-43.85 W",
		"state": "MINNESOTA",
		"artcc": "ZMP",
		"type": "RNAV",
		"updated": "05/17/2011",
	},
	{
		"name": "WARNI",
		"latitude": "40-30-34.98 N",
		"longitude": "95-1-57.32 W",
		"state": "MISSOURI",
		"artcc": "ZMP",
		"type": "RNAV",
		"updated": "05/01/2018",
	},
	{
		"name": "WARTA",
		"latitude": "40-22-58.65 N",
		"longitude": "98-32-53.27 W",
		"state": "NEBRASKA",
		"artcc": "ZMP",
		"type": "RNAV",
		"updated": "10/04/2011",
	},
	{
		"name": "WARWF",
		"latitude": "44-55-49.05 N",
		"longitude": "87-52-4.02 W",
		"state": "WISCONSIN",
		"artcc": "ZMP",
		"type": "RP",
		"updated": "MNM*VOR/DME*212.12/17.69",
	},
	{
		"name": "WASHR",
		"latitude": "47-18-26.68 N",
		"longitude": "100-53-15.5 W",
		"state": "NORTH DAKOTA",
		"artcc": "ZMP",
		"type": "RP",
		"updated": "BIS*VOR/DME*332.52/34.00",
	},
	{
		"name": "WASHY",
		"latitude": "44-57-0.96 N",
		"longitude": "93-21-13.54 W",
		"state": "MINNESOTA",
		"artcc": "ZMP",
		"type": "RP",
		"updated": "PJL*LD*NW CRS/7.77",
	},
	{
		"name": "WASOS",
		"latitude": "47-34-15.98 N",
		"longitude": "95-2-54.59 W",
		"state": "MINNESOTA",
		"artcc": "ZMP",
		"type": "RP",
		"updated": "IDJ*VOR/DME*305.78/6.35",
	},
	{
		"name": "WASPS",
		"latitude": "46-38-7.69 N",
		"longitude": "90-53-4.47 W",
		"state": "WISCONSIN",
		"artcc": "ZMP",
		"type": "RP",
		"updated": "IWD*VORTAC*280.44/32.00",
	},
	{
		"name": "WASWK",
		"latitude": "46-2-1.25 N",
		"longitude": "97-33-56.92 W",
		"state": "NORTH DAKOTA",
		"artcc": "ZMP",
		"type": "RNAV",
		"updated": "07/10/2014",
	},
	{
		"name": "WATAM",
		"latitude": "46-25-52.91 N",
		"longitude": "95-9-6.92 W",
		"state": "MINNESOTA",
		"artcc": "ZMP",
		"type": "RNAV",
		"updated": "06/13/2017",
	},
	{
		"name": "WATGI",
		"latitude": "46-43-46.31 N",
		"longitude": "100-51-16.57 W",
		"state": "NORTH DAKOTA",
		"artcc": "ZMP",
		"type": "RNAV",
		"updated": "03/24/2014",
	},
	{
		"name": "WATKU",
		"latitude": "43-56-42.63 N",
		"longitude": "96-18-11.83 W",
		"state": "MINNESOTA",
		"artcc": "ZMP",
		"type": "RNAV",
		"updated": "03/14/2013",
	},
	{
		"name": "WATOL",
		"latitude": "46-7-42.12 N",
		"longitude": "89-11-0.8 W",
		"state": "WISCONSIN",
		"artcc": "ZMP",
		"type": "RNAV",
		"updated": "05/02/2005",
	},
	{
		"name": "WATTY",
		"latitude": "41-41-41.72 N",
		"longitude": "93-53-36.21 W",
		"state": "IOWA",
		"artcc": "ZMP",
		"type": "RP",
		"updated": "DSM*VORTAC*317.61/18.97",
	},
	{
		"name": "WAVUK",
		"latitude": "42-14-53.49 N",
		"longitude": "96-11-10.72 W",
		"state": "IOWA",
		"artcc": "ZMP",
		"type": "RNAV",
		"updated": "01/03/2009",
	},
	{
		"name": "WAYZA",
		"latitude": "44-59-57.38 N",
		"longitude": "93-29-34.57 W",
		"state": "MINNESOTA",
		"artcc": "ZMP",
		"type": "RP",
		"updated": "HKZ*LD*301.33/14.36",
	},
	{
		"name": "WBSTR",
		"latitude": "44-28-32.94 N",
		"longitude": "93-17-14.11 W",
		"state": "MINNESOTA",
		"artcc": "ZMP",
		"type": "RNAV",
		"updated": "01/14/2015",
	},
	{
		"name": "WDBRY",
		"latitude": "44-56-42.4 N",
		"longitude": "92-56-21.76 W",
		"state": "MINNESOTA",
		"artcc": "ZMP",
		"type": "RNAV",
		"updated": "01/14/2015",
	},
	{
		"name": "WEASL",
		"latitude": "44-46-15.17 N",
		"longitude": "92-55-17.68 W",
		"state": "MINNESOTA",
		"artcc": "ZMP",
		"type": "RP",
		"updated": "FCM*VOR/DME*097.17/22.50",
	},
	{
		"name": "WEBKI",
		"latitude": "45-50-35.02 N",
		"longitude": "97-46-59.77 W",
		"state": "SOUTH DAKOTA",
		"artcc": "ZMP",
		"type": "RNAV",
		"updated": "11/29/2012",
	},
	{
		"name": "WEBOB",
		"latitude": "46-38-44.88 N",
		"longitude": "97-53-37.86 W",
		"state": "NORTH DAKOTA",
		"artcc": "ZMP",
		"type": "RNAV",
		"updated": "11/22/2016",
	},
	{
		"name": "WEBYE",
		"latitude": "43-38-27.89 N",
		"longitude": "90-52-27.27 W",
		"state": "WISCONSIN",
		"artcc": "ZMP",
		"type": "RP",
		"updated": "ODI*VORTAC*121.05/30.49",
	},
	{
		"name": "WECQO",
		"latitude": "44-31-57.29 N",
		"longitude": "86-7-56.52 W",
		"state": "MICHIGAN",
		"artcc": "ZMP",
		"type": "RNAV",
		"updated": "08/22/2007",
	},
	{
		"name": "WEDAM",
		"latitude": "44-6-26.63 N",
		"longitude": "92-51-45.27 W",
		"state": "MINNESOTA",
		"artcc": "ZMP",
		"type": "RNAV",
		"updated": "06/25/2013",
	},
	{
		"name": "WEDKA",
		"latitude": "43-35-34.5 N",
		"longitude": "96-33-49.86 W",
		"state": "SOUTH DAKOTA",
		"artcc": "ZMP",
		"type": "RNAV",
		"updated": "04/24/2017",
	},
	{
		"name": "WEDNE",
		"latitude": "44-29-58.15 N",
		"longitude": "89-25-9.84 W",
		"state": "WISCONSIN",
		"artcc": "ZMP",
		"type": "RNAV",
		"updated": "12/21/2009",
	},
	{
		"name": "WEDNU",
		"latitude": "46-52-40.52 N",
		"longitude": "92-30-32.94 W",
		"state": "MINNESOTA",
		"artcc": "ZMP",
		"type": "RNAV",
		"updated": "05/18/2012",
	},
	{
		"name": "WEDOR",
		"latitude": "43-37-34.84 N",
		"longitude": "96-46-2.81 W",
		"state": "SOUTH DAKOTA",
		"artcc": "ZMP",
		"type": "RNAV",
		"updated": "12/17/2013",
	},
	{
		"name": "WEDPI",
		"latitude": "40-41-57.56 N",
		"longitude": "97-42-30.72 W",
		"state": "NEBRASKA",
		"artcc": "ZMP",
		"type": "RNAV",
		"updated": "02/09/2006",
	},
	{
		"name": "WEDUL",
		"latitude": "46-45-47.96 N",
		"longitude": "93-29-10.47 W",
		"state": "MINNESOTA",
		"artcc": "ZMP",
		"type": "RNAV",
		"updated": "06/13/2005",
	},
	{
		"name": "WEDVA",
		"latitude": "46-14-1.1 N",
		"longitude": "100-18-37.05 W",
		"state": "NORTH DAKOTA",
		"artcc": "ZMP",
		"type": "RNAV",
		"updated": "06/14/2013",
	},
	{
		"name": "WEGAB",
		"latitude": "44-38-30.62 N",
		"longitude": "91-5-52.52 W",
		"state": "WISCONSIN",
		"artcc": "ZMP",
		"type": "RNAV",
		"updated": "10/15/2008",
	},
	{
		"name": "WEKER",
		"latitude": "47-53-41.99 N",
		"longitude": "102-10-30.47 W",
		"state": "NORTH DAKOTA",
		"artcc": "ZMP",
		"type": "RNAV",
		"updated": "11/01/2017",
	},
	{
		"name": "WEKOM",
		"latitude": "45-6-45.73 N",
		"longitude": "83-12-23.81 W",
		"state": "MICHIGAN",
		"artcc": "ZMP",
		"type": "MR",
		"updated": "APN*VORTAC*090.00/15.00",
	},
	{
		"name": "WEKOV",
		"latitude": "40-31-16.21 N",
		"longitude": "96-32-12.76 W",
		"state": "NEBRASKA",
		"artcc": "ZMP",
		"type": "RNAV",
		"updated": "05/23/2011",
	},
	{
		"name": "WELEB",
		"latitude": "47-13-41.41 N",
		"longitude": "96-22-38.03 W",
		"state": "MINNESOTA",
		"artcc": "ZMP",
		"type": "RNAV",
		"updated": "02/14/2011",
	},
	{
		"name": "WELEK",
		"latitude": "43-59-59.9 N",
		"longitude": "98-7-43.79 W",
		"state": "SOUTH DAKOTA",
		"artcc": "ZMP",
		"type": "RP",
		"updated": "MHE*VOR/DME*336.54/13.95",
	},
	{
		"name": "WELIK",
		"latitude": "44-44-11.14 N",
		"longitude": "94-2-39.98 W",
		"state": "MINNESOTA",
		"artcc": "ZMP",
		"type": "RNAV",
		"updated": "05/05/2015",
	},
	{
		"name": "WELKO",
		"latitude": "43-46-23.6 N",
		"longitude": "86-9-21.99 W",
		"state": "MICHIGAN",
		"artcc": "ZMP",
		"type": "RP",
		"updated": "MBL*VOR/DME*176.88",
	},
	{
		"name": "WELOG",
		"latitude": "48-15-45.86 N",
		"longitude": "101-40-16.26 W",
		"state": "NORTH DAKOTA",
		"artcc": "ZMP",
		"type": "RP",
		"updated": "MOT*VORTAC*257.68/15.40",
	},
	{
		"name": "WELOK",
		"latitude": "45-41-26.32 N",
		"longitude": "94-15-28.74 W",
		"state": "MINNESOTA",
		"artcc": "ZMP",
		"type": "RNAV",
		"updated": "09/20/2014",
	},
	{
		"name": "WELTE",
		"latitude": "42-10-35.26 N",
		"longitude": "95-48-28.12 W",
		"state": "IOWA",
		"artcc": "ZMP",
		"type": "RP",
		"updated": "OVR*VORTAC*349.00",
	},
	{
		"name": "WELVI",
		"latitude": "43-58-51.13 N",
		"longitude": "84-9-13.26 W",
		"state": "MICHIGAN",
		"artcc": "ZMP",
		"type": "RP",
		"updated": "MBS*VOR/DME*356.00/27.15",
	},
	{
		"name": "WELVO",
		"latitude": "47-58-0.59 N",
		"longitude": "92-53-53.21 W",
		"state": "MINNESOTA",
		"artcc": "ZMP",
		"type": "RNAV",
		"updated": "12/21/2011",
	},
	{
		"name": "WEMAN",
		"latitude": "47-10-32.95 N",
		"longitude": "91-31-2.37 W",
		"state": "MINNESOTA",
		"artcc": "ZMP",
		"type": "RP",
		"updated": "DLH*VORTAC*046.21/36.00",
	},
	{
		"name": "WEMSU",
		"latitude": "43-23-59.21 N",
		"longitude": "93-41-41.86 W",
		"state": "IOWA",
		"artcc": "ZMP",
		"type": "RNAV",
		"updated": "04/19/2012",
	},
	{
		"name": "WEMUP",
		"latitude": "47-55-36.41 N",
		"longitude": "95-58-39.11 W",
		"state": "MINNESOTA",
		"artcc": "ZMP",
		"type": "RP",
		"updated": "TVF*VOR/DME*/12.00",
	},
	{
		"name": "WENEG",
		"latitude": "44-50-41.53 N",
		"longitude": "87-47-42.56 W",
		"state": "WISCONSIN",
		"artcc": "ZMP",
		"type": "RNAV",
		"updated": "07/20/2012",
	},
	{
		"name": "WENEK",
		"latitude": "47-15-24.26 N",
		"longitude": "102-33-49.07 W",
		"state": "NORTH DAKOTA",
		"artcc": "ZMP",
		"type": "RNAV",
		"updated": "09/29/2017",
	},
	{
		"name": "WENIB",
		"latitude": "46-4-3.75 N",
		"longitude": "93-8-6.17 W",
		"state": "MINNESOTA",
		"artcc": "ZMP",
		"type": "RP",
		"updated": "RZN*VOR/DME*293.26/35.13",
	},
	{
		"name": "WENNR",
		"latitude": "46-14-40.19 N",
		"longitude": "95-11-55.25 W",
		"state": "MINNESOTA",
		"artcc": "ZMP",
		"type": "RP",
		"updated": "FAR*VOR/DME*104.43/75.00",
	},
	{
		"name": "WENTZ",
		"latitude": "40-48-47.95 N",
		"longitude": "74-9-11.34 W",
		"state": "NEW JERSEY",
		"artcc": "ZMP",
		"type": "RNAV",
		"updated": "05/31/2017",
	},
	{
		"name": "WENUN",
		"latitude": "45-34-57.63 N",
		"longitude": "96-57-59.38 W",
		"state": "SOUTH DAKOTA",
		"artcc": "ZMP",
		"type": "RNAV",
		"updated": "06/15/2016",
	},
	{
		"name": "WENVI",
		"latitude": "46-39-44.99 N",
		"longitude": "95-18-12.67 W",
		"state": "MINNESOTA",
		"artcc": "ZMP",
		"type": "RNAV",
		"updated": "06/21/2013",
	},
	{
		"name": "WEPDA",
		"latitude": "42-27-11.06 N",
		"longitude": "96-22-52.68 W",
		"state": "NEBRASKA",
		"artcc": "ZMP",
		"type": "RNAV",
		"updated": "04/13/2016",
	},
	{
		"name": "WEPIM",
		"latitude": "44-1-44.32 N",
		"longitude": "93-31-23 W",
		"state": "MINNESOTA",
		"artcc": "ZMP",
		"type": "RNAV",
		"updated": "12/02/2008",
	},
	{
		"name": "WEPVO",
		"latitude": "48-58-15.44 N",
		"longitude": "95-23-15.66 W",
		"state": "MINNESOTA",
		"artcc": "ZMP",
		"type": "RNAV",
		"updated": "02/25/2016",
	},
	{
		"name": "WERAM",
		"latitude": "45-38-36.48 N",
		"longitude": "93-18-10.02 W",
		"state": "MINNESOTA",
		"artcc": "ZMP",
		"type": "RNAV",
		"updated": "03/23/2012",
	},
	{
		"name": "WERAV",
		"latitude": "41-57-23.44 N",
		"longitude": "95-19-19.53 W",
		"state": "IOWA",
		"artcc": "ZMP",
		"type": "RNAV",
		"updated": "07/30/2008",
	},
	{
		"name": "WERIR",
		"latitude": "46-28-40.44 N",
		"longitude": "97-45-10.97 W",
		"state": "NORTH DAKOTA",
		"artcc": "ZMP",
		"type": "RNAV",
		"updated": "11/22/2016",
	},
	{
		"name": "WEROK",
		"latitude": "43-42-45.75 N",
		"longitude": "91-25-9.92 W",
		"state": "MINNESOTA",
		"artcc": "ZMP",
		"type": "RNAV",
		"updated": "08/19/2008",
	},
	{
		"name": "WERUL",
		"latitude": "45-7-37.17 N",
		"longitude": "96-20-43.94 W",
		"state": "MINNESOTA",
		"artcc": "ZMP",
		"type": "RNAV",
		"updated": "09/18/2012",
	},
	{
		"name": "WESAP",
		"latitude": "44-16-58.81 N",
		"longitude": "99-59-52.55 W",
		"state": "SOUTH DAKOTA",
		"artcc": "ZMP",
		"type": "RNAV",
		"updated": "01/19/2006",
	},
	{
		"name": "WESBA",
		"latitude": "43-5-46.8 N",
		"longitude": "92-39-16.86 W",
		"state": "IOWA",
		"artcc": "ZMP",
		"type": "RNAV",
		"updated": "11/20/2008",
	},
	{
		"name": "WESBY",
		"latitude": "47-0-44.29 N",
		"longitude": "96-48-1.49 W",
		"state": "NORTH DAKOTA",
		"artcc": "ZMP",
		"type": "RP",
		"updated": "FAR*VOR/DME*358.66/15.68",
	},
	{
		"name": "WESIX",
		"latitude": "44-47-51.25 N",
		"longitude": "91-47-25.49 W",
		"state": "WISCONSIN",
		"artcc": "ZMP",
		"type": "RNAV",
		"updated": "10/03/2016",
	},
	{
		"name": "WESUD",
		"latitude": "40-58-49.09 N",
		"longitude": "95-31-45.43 W",
		"state": "IOWA",
		"artcc": "ZMP",
		"type": "RNAV",
		"updated": "10/27/2009",
	},
	{
		"name": "WESUS",
		"latitude": "45-21-29.42 N",
		"longitude": "92-58-45.46 W",
		"state": "MINNESOTA",
		"artcc": "ZMP",
		"type": "RNAV",
		"updated": "06/10/2013",
	},
	{
		"name": "WETMA",
		"latitude": "45-47-3.71 N",
		"longitude": "84-46-15.61 W",
		"state": "MICHIGAN",
		"artcc": "ZMP",
		"type": "RNAV",
		"updated": "09/10/2014",
	},
	{
		"name": "WETMO",
		"latitude": "45-1-0.44 N",
		"longitude": "96-12-53.16 W",
		"state": "MINNESOTA",
		"artcc": "ZMP",
		"type": "RNAV",
		"updated": "09/18/2012",
	},
	{
		"name": "WETOS",
		"latitude": "40-57-22.16 N",
		"longitude": "96-43-52.92 W",
		"state": "NEBRASKA",
		"artcc": "ZMP",
		"type": "MR",
		"updated": "LNK*VORTAC*005.00/2.00",
	},
	{
		"name": "WETUB",
		"latitude": "45-44-22.41 N",
		"longitude": "94-57-38.72 W",
		"state": "MINNESOTA",
		"artcc": "ZMP",
		"type": "RNAV",
		"updated": "09/12/2014",
	},
	{
		"name": "WETUG",
		"latitude": "44-35-11.69 N",
		"longitude": "92-24-44.96 W",
		"state": "WISCONSIN",
		"artcc": "ZMP",
		"type": "RNAV",
		"updated": "01/03/2011",
	},
	{
		"name": "WEVBA",
		"latitude": "43-46-9.49 N",
		"longitude": "90-59-49.36 W",
		"state": "WISCONSIN",
		"artcc": "ZMP",
		"type": "RNAV",
		"updated": "08/12/2008",
	},
	{
		"name": "WEVNU",
		"latitude": "45-44-51.3 N",
		"longitude": "84-14-11.22 W",
		"state": "MICHIGAN",
		"artcc": "ZMP",
		"type": "RNAV",
		"updated": "11/04/2014",
	},
	{
		"name": "WEWNY",
		"latitude": "41-14-16.35 N",
		"longitude": "95-49-43.14 W",
		"state": "IOWA",
		"artcc": "ZMP",
		"type": "RNAV",
		"updated": "08/14/2012",
	},
	{
		"name": "WEXEL",
		"latitude": "47-32-33.44 N",
		"longitude": "95-45-24.98 W",
		"state": "MINNESOTA",
		"artcc": "ZMP",
		"type": "RNAV",
		"updated": "03/20/2012",
	},
	{
		"name": "WEXOR",
		"latitude": "44-14-13.5 N",
		"longitude": "85-32-50.27 W",
		"state": "MICHIGAN",
		"artcc": "ZMP",
		"type": "RP",
		"updated": "MAY*LD*W CRS/6.46",
	},
	{
		"name": "WHIPP",
		"latitude": "43-44-19.06 N",
		"longitude": "84-20-22.54 W",
		"state": "MICHIGAN",
		"artcc": "ZMP",
		"type": "RP",
		"updated": "MOP*VOR/DME*073.00",
	},
	{
		"name": "WHISK",
		"latitude": "45-8-23.57 N",
		"longitude": "92-57-43.72 W",
		"state": "MINNESOTA",
		"artcc": "ZMP",
		"type": "RP",
		"updated": "GEP*VORTAC*085.00/17.46",
	},
	{
		"name": "WHOOP",
		"latitude": "44-18-35.13 N",
		"longitude": "83-49-11.46 W",
		"state": "MICHIGAN",
		"artcc": "ZMP",
		"type": "RP",
		"updated": "ASP*VOR/DME*252.60",
	},
	{
		"name": "WHOSO",
		"latitude": "44-2-8.43 N",
		"longitude": "95-26-10.06 W",
		"state": "MINNESOTA",
		"artcc": "ZMP",
		"type": "RNAV",
		"updated": "03/13/2014",
	},
	{
		"name": "WIBAM",
		"latitude": "44-53-25.42 N",
		"longitude": "91-55-42.55 W",
		"state": "WISCONSIN",
		"artcc": "ZMP",
		"type": "RNAV",
		"updated": "06/26/2007",
	},
	{
		"name": "WIBIL",
		"latitude": "46-25-13.4 N",
		"longitude": "93-13-35.7 W",
		"state": "MINNESOTA",
		"artcc": "ZMP",
		"type": "RNAV",
		"updated": "06/13/2005",
	},
	{
		"name": "WIBIX",
		"latitude": "48-15-32.58 N",
		"longitude": "96-18-1.12 W",
		"state": "MINNESOTA",
		"artcc": "ZMP",
		"type": "RNAV",
		"updated": "01/21/2009",
	},
	{
		"name": "WIBUD",
		"latitude": "42-52-43.66 N",
		"longitude": "93-13-29.5 W",
		"state": "IOWA",
		"artcc": "ZMP",
		"type": "RNAV",
		"updated": "06/21/2013",
	},
	{
		"name": "WICFI",
		"latitude": "41-3-36.26 N",
		"longitude": "98-18-51.12 W",
		"state": "NEBRASKA",
		"artcc": "ZMP",
		"type": "RNAV",
		"updated": "10/31/2005",
	},
	{
		"name": "WICKA",
		"latitude": "45-5-36.86 N",
		"longitude": "97-27-20.2 W",
		"state": "SOUTH DAKOTA",
		"artcc": "ZMP",
		"type": "RP",
		"updated": "HON*VORTAC*032.70/53.62",
	},
	{
		"name": "WIDIS",
		"latitude": "44-46-22.21 N",
		"longitude": "94-21-5.54 W",
		"state": "MINNESOTA",
		"artcc": "ZMP",
		"type": "RP",
		"updated": "RWF*VOR/DME*053.88/38.00",
	},
	{
		"name": "WIEDS",
		"latitude": "47-30-15.19 N",
		"longitude": "93-14-44.99 W",
		"state": "MINNESOTA",
		"artcc": "ZMP",
		"type": "RP",
		"updated": "DLH*VORTAC*310.00/60.00",
	},
	{
		"name": "WIGAG",
		"latitude": "46-32-35.77 N",
		"longitude": "100-26-37.17 W",
		"state": "NORTH DAKOTA",
		"artcc": "ZMP",
		"type": "RP",
		"updated": "BIS*VOR/DME*/16.00",
	},
	{
		"name": "WIGRO",
		"latitude": "40-35-39.32 N",
		"longitude": "96-48-35.37 W",
		"state": "NEBRASKA",
		"artcc": "ZMP",
		"type": "MR",
		"updated": "LNK*VORTAC*353.93/20.00",
	},
	{
		"name": "WIHFY",
		"latitude": "47-49-21.13 N",
		"longitude": "90-6-11.83 W",
		"state": "MINNESOTA",
		"artcc": "ZMP",
		"type": "RNAV",
		"updated": "02/20/2009",
	},
	{
		"name": "WIKAP",
		"latitude": "44-11-36.88 N",
		"longitude": "85-40-54.01 W",
		"state": "MICHIGAN",
		"artcc": "ZMP",
		"type": "RNAV",
		"updated": "04/28/2009",
	},
	{
		"name": "WIKBU",
		"latitude": "48-43-27.63 N",
		"longitude": "96-54-24.64 W",
		"state": "MINNESOTA",
		"artcc": "ZMP",
		"type": "RNAV",
		"updated": "07/26/2013",
	},
	{
		"name": "WILAV",
		"latitude": "44-9-55.72 N",
		"longitude": "88-30-31.37 W",
		"state": "WISCONSIN",
		"artcc": "ZMP",
		"type": "RNAV",
		"updated": "10/09/2008",
	},
	{
		"name": "WILCX",
		"latitude": "40-25-35.16 N",
		"longitude": "94-58-32.96 W",
		"state": "MISSOURI",
		"artcc": "ZMP",
		"type": "RNAV",
		"updated": "06/15/2011",
	},
	{
		"name": "WILDD",
		"latitude": "44-25-40.68 N",
		"longitude": "90-36-4.25 W",
		"state": "WISCONSIN",
		"artcc": "ZMP",
		"type": "RP",
		"updated": "GEP*VORTAC*103.00/126.03",
	},
	{
		"name": "WILES",
		"latitude": "42-42-4.09 N",
		"longitude": "94-32-12.76 W",
		"state": "IOWA",
		"artcc": "ZMP",
		"type": "RP",
		"updated": "FOD*VORTAC*289.82/12.00",
	},
	{
		"name": "WILOP",
		"latitude": "40-3-12.15 N",
		"longitude": "98-18-43.52 W",
		"state": "NEBRASKA",
		"artcc": "ZMP",
		"type": "RP",
		"updated": "TKO*VORTAC*340.80/15.00",
	},
	{
		"name": "WILRT",
		"latitude": "40-3-32.46 N",
		"longitude": "96-42-35.01 W",
		"state": "NEBRASKA",
		"artcc": "ZMP",
		"type": "RNAV",
		"updated": "05/23/2011",
	},
	{
		"name": "WILTN",
		"latitude": "47-4-58.09 N",
		"longitude": "100-47-43.84 W",
		"state": "NORTH DAKOTA",
		"artcc": "ZMP",
		"type": "RP",
		"updated": "BIS*VOR/DME*332.53/20.00",
	},
	{
		"name": "WIMAG",
		"latitude": "46-35-17.02 N",
		"longitude": "93-41-21.88 W",
		"state": "MINNESOTA",
		"artcc": "ZMP",
		"type": "RNAV",
		"updated": "01/02/2013",
	},
	{
		"name": "WIMJY",
		"latitude": "47-23-31.66 N",
		"longitude": "93-28-31.27 W",
		"state": "MINNESOTA",
		"artcc": "ZMP",
		"type": "RP",
		"updated": "GPZ*VOR/DME*356.25/13.73",
	},
	{
		"name": "WIMQE",
		"latitude": "44-44-9.19 N",
		"longitude": "86-25-14.98 W",
		"state": "MICHIGAN",
		"artcc": "ZMP",
		"type": "RNAV",
		"updated": "08/22/2007",
	},
	{
		"name": "WIMRA",
		"latitude": "45-33-35.03 N",
		"longitude": "90-5-55.3 W",
		"state": "WISCONSIN",
		"artcc": "ZMP",
		"type": "RNAV",
		"updated": "03/20/2012",
	},
	{
		"name": "WIMTO",
		"latitude": "46-56-46.53 N",
		"longitude": "100-58-43.04 W",
		"state": "NORTH DAKOTA",
		"artcc": "ZMP",
		"type": "RP",
		"updated": "BIS*VOR/DME*/17.00",
	},
	{
		"name": "WIMUS",
		"latitude": "48-11-59.35 N",
		"longitude": "96-23-16.53 W",
		"state": "MINNESOTA",
		"artcc": "ZMP",
		"type": "RNAV",
		"updated": "01/21/2009",
	},
	{
		"name": "WINDD",
		"latitude": "46-6-51.75 N",
		"longitude": "94-48-16.86 W",
		"state": "MINNESOTA",
		"artcc": "ZMP",
		"type": "RNAV",
		"updated": "01/12/2015",
	},
	{
		"name": "WINEL",
		"latitude": "42-50-25.55 N",
		"longitude": "97-17-52.52 W",
		"state": "NEBRASKA",
		"artcc": "ZMP",
		"type": "RNAV",
		"updated": "05/09/2011",
	},
	{
		"name": "WINEP",
		"latitude": "45-32-16.3 N",
		"longitude": "86-58-50.39 W",
		"state": "MICHIGAN",
		"artcc": "ZMP",
		"type": "RP",
		"updated": "ESC*VOR/DME*157.49/12.00",
	},
	{
		"name": "WINFY",
		"latitude": "46-46-21 N",
		"longitude": "100-43-59.64 W",
		"state": "NORTH DAKOTA",
		"artcc": "ZMP",
		"type": "RP",
		"updated": "BIS*VOR/DME*271.00/2.87",
	},
	{
		"name": "WINIV",
		"latitude": "45-33-28.74 N",
		"longitude": "94-36-2.41 W",
		"state": "MINNESOTA",
		"artcc": "ZMP",
		"type": "RNAV",
		"updated": "06/15/2011",
	},
	{
		"name": "WINLI",
		"latitude": "41-2-3.12 N",
		"longitude": "93-45-35.97 W",
		"state": "IOWA",
		"artcc": "ZMP",
		"type": "RNAV",
		"updated": "05/24/2011",
	},
	{
		"name": "WINUL",
		"latitude": "47-52-12.62 N",
		"longitude": "96-4-6.17 W",
		"state": "MINNESOTA",
		"artcc": "ZMP",
		"type": "RNAV",
		"updated": "01/21/2009",
	},
	{
		"name": "WINUV",
		"latitude": "44-3-9.71 N",
		"longitude": "91-38-3.18 W",
		"state": "MINNESOTA",
		"artcc": "ZMP",
		"type": "RNAV",
		"updated": "04/07/2008",
	},
	{
		"name": "WIPAD",
		"latitude": "47-4-0.79 N",
		"longitude": "91-41-55.13 W",
		"state": "MINNESOTA",
		"artcc": "ZMP",
		"type": "RNAV",
		"updated": "07/18/2011",
	},
	{
		"name": "WIPLY",
		"latitude": "43-35-35.05 N",
		"longitude": "94-40-20.51 W",
		"state": "MINNESOTA",
		"artcc": "ZMP",
		"type": "RNAV",
		"updated": "06/28/2013",
	},
	{
		"name": "WIRDE",
		"latitude": "46-36-37.7 N",
		"longitude": "96-33-12.23 W",
		"state": "MINNESOTA",
		"artcc": "ZMP",
		"type": "RP",
		"updated": "FAR*VOR/DME*115.76/15.00",
	},
	{
		"name": "WIRES",
		"latitude": "48-41-34.97 N",
		"longitude": "101-50-0.55 W",
		"state": "NORTH DAKOTA",
		"artcc": "ZMP",
		"type": "MR",
		"updated": "MIB*TACAN*302.00/25.00",
	},
	{
		"name": "WIRIX",
		"latitude": "44-48-58.6 N",
		"longitude": "88-39-29.05 W",
		"state": "WISCONSIN",
		"artcc": "ZMP",
		"type": "RNAV",
		"updated": "06/13/2012",
	},
	{
		"name": "WIRPI",
		"latitude": "41-56-53.32 N",
		"longitude": "96-37-30.88 W",
		"state": "NEBRASKA",
		"artcc": "ZMP",
		"type": "RNAV",
		"updated": "12/15/2011",
	},
	{
		"name": "WIRSA",
		"latitude": "46-49-53.62 N",
		"longitude": "91-50-28.76 W",
		"state": "MINNESOTA",
		"artcc": "ZMP",
		"type": "RP",
		"updated": "DLH*VORTAC*078.11/15.00",
	},
	{
		"name": "WIRUV",
		"latitude": "47-51-59.18 N",
		"longitude": "96-44-18.77 W",
		"state": "MINNESOTA",
		"artcc": "ZMP",
		"type": "RP",
		"updated": "GFK*VOR/DME*097.23/18.80",
	},
	{
		"name": "WISBU",
		"latitude": "42-26-35.55 N",
		"longitude": "93-13-58.78 W",
		"state": "IOWA",
		"artcc": "ZMP",
		"type": "RNAV",
		"updated": "01/23/2013",
	},
	{
		"name": "WISCN",
		"latitude": "45-18-19.45 N",
		"longitude": "89-27-53.91 W",
		"state": "WISCONSIN",
		"artcc": "ZMP",
		"type": "RNAV",
		"updated": "09/20/2014",
	},
	{
		"name": "WISEK",
		"latitude": "46-22-49.35 N",
		"longitude": "99-59-38.99 W",
		"state": "NORTH DAKOTA",
		"artcc": "ZMP",
		"type": "RP",
		"updated": "BIS*VOR/DME*117.24/36.00",
	},
	{
		"name": "WITKI",
		"latitude": "45-30-12.59 N",
		"longitude": "88-51-40.06 W",
		"state": "WISCONSIN",
		"artcc": "ZMP",
		"type": "RNAV",
		"updated": "10/21/2014",
	},
	{
		"name": "WITPU",
		"latitude": "45-3-29.17 N",
		"longitude": "100-1-38.06 W",
		"state": "SOUTH DAKOTA",
		"artcc": "ZMP",
		"type": "RNAV",
		"updated": "04/15/2013",
	},
	{
		"name": "WITUD",
		"latitude": "44-14-25.19 N",
		"longitude": "93-39-55.88 W",
		"state": "MINNESOTA",
		"artcc": "ZMP",
		"type": "RNAV",
		"updated": "12/02/2008",
	},
	{
		"name": "WITVU",
		"latitude": "45-45-18.62 N",
		"longitude": "97-1-16.56 W",
		"state": "SOUTH DAKOTA",
		"artcc": "ZMP",
		"type": "RNAV",
		"updated": "06/15/2016",
	},
	{
		"name": "WIVEY",
		"latitude": "41-13-35.52 N",
		"longitude": "93-43-45.73 W",
		"state": "IOWA",
		"artcc": "ZMP",
		"type": "RP",
		"updated": "DSM*VORTAC*189.12/13.18",
	},
	{
		"name": "WIVFO",
		"latitude": "40-42-25.68 N",
		"longitude": "97-35-58 W",
		"state": "NEBRASKA",
		"artcc": "ZMP",
		"type": "RNAV",
		"updated": "02/09/2006",
	},
	{
		"name": "WIVKA",
		"latitude": "45-28-57.81 N",
		"longitude": "95-52-53.4 W",
		"state": "MINNESOTA",
		"artcc": "ZMP",
		"type": "RNAV",
		"updated": "04/29/2013",
	},
	{
		"name": "WIVTA",
		"latitude": "45-43-33.74 N",
		"longitude": "95-21-31.61 W",
		"state": "MINNESOTA",
		"artcc": "ZMP",
		"type": "RNAV",
		"updated": "02/14/2013",
	},
	{
		"name": "WIXAG",
		"latitude": "48-9-6.67 N",
		"longitude": "97-3-24.03 W",
		"state": "MINNESOTA",
		"artcc": "ZMP",
		"type": "RNAV",
		"updated": "06/08/2006",
	},
	{
		"name": "WIZNU",
		"latitude": "47-1-40.4 N",
		"longitude": "91-48-25.16 W",
		"state": "MINNESOTA",
		"artcc": "ZMP",
		"type": "RNAV",
		"updated": "05/17/2011",
	},
	{
		"name": "WLCHS",
		"latitude": "44-35-20.36 N",
		"longitude": "89-38-21.02 W",
		"state": "WISCONSIN",
		"artcc": "ZMP",
		"type": "RNAV",
		"updated": "04/19/2018",
	},
	{
		"name": "WLSTN",
		"latitude": "45-28-26.44 N",
		"longitude": "91-0-55.27 W",
		"state": "WISCONSIN",
		"artcc": "ZMP",
		"type": "RP",
		"updated": "GEP*VORTAC*072.00/101.76",
	},
	{
		"name": "WOBAX",
		"latitude": "48-0-9.64 N",
		"longitude": "96-5-27.13 W",
		"state": "MINNESOTA",
		"artcc": "ZMP",
		"type": "RNAV",
		"updated": "09/23/2014",
	},
	{
		"name": "WOBEV",
		"latitude": "44-56-26.72 N",
		"longitude": "88-10-40.1 W",
		"state": "WISCONSIN",
		"artcc": "ZMP",
		"type": "RNAV",
		"updated": "07/20/2012",
	},
	{
		"name": "WOBGI",
		"latitude": "44-40-43.56 N",
		"longitude": "94-15-1.04 W",
		"state": "MINNESOTA",
		"artcc": "ZMP",
		"type": "RNAV",
		"updated": "04/27/2011",
	},
	{
		"name": "WODER",
		"latitude": "44-52-5.36 N",
		"longitude": "93-9-49.48 W",
		"state": "MINNESOTA",
		"artcc": "ZMP",
		"type": "RNAV",
		"updated": "01/18/2002",
	},
	{
		"name": "WODEV",
		"latitude": "45-41-28 N",
		"longitude": "86-30-40 W",
		"state": "MICHIGAN",
		"artcc": "ZMP",
		"type": "RNAV",
		"updated": "08/27/2001",
	},
	{
		"name": "WODIV",
		"latitude": "45-0-52.38 N",
		"longitude": "84-57-30.4 W",
		"state": "MICHIGAN",
		"artcc": "ZMP",
		"type": "RNAV",
		"updated": "03/27/2012",
	},
	{
		"name": "WODOT",
		"latitude": "48-31-30.26 N",
		"longitude": "99-15-11.27 W",
		"state": "NORTH DAKOTA",
		"artcc": "ZMP",
		"type": "RNAV",
		"updated": "06/29/2015",
	},
	{
		"name": "WODPO",
		"latitude": "44-39-47.6 N",
		"longitude": "91-9-40.45 W",
		"state": "WISCONSIN",
		"artcc": "ZMP",
		"type": "RNAV",
		"updated": "07/28/2015",
	},
	{
		"name": "WODTY",
		"latitude": "46-0-40.86 N",
		"longitude": "98-29-17.48 W",
		"state": "NORTH DAKOTA",
		"artcc": "ZMP",
		"type": "RP",
		"updated": "ABR*VOR/DME*345.02/36.00",
	},
	{
		"name": "WOFOC",
		"latitude": "45-46-38.3 N",
		"longitude": "97-41-19.84 W",
		"state": "SOUTH DAKOTA",
		"artcc": "ZMP",
		"type": "RNAV",
		"updated": "11/29/2012",
	},
	{
		"name": "WOFPE",
		"latitude": "47-18-40.04 N",
		"longitude": "94-48-27.04 W",
		"state": "MINNESOTA",
		"artcc": "ZMP",
		"type": "RNAV",
		"updated": "03/03/2009",
	},
	{
		"name": "WOGGU",
		"latitude": "40-52-31.71 N",
		"longitude": "98-18-55.71 W",
		"state": "NEBRASKA",
		"artcc": "ZMP",
		"type": "RNAV",
		"updated": "10/31/2005",
	},
	{
		"name": "WOKAB",
		"latitude": "44-14-20.17 N",
		"longitude": "92-43-5.07 W",
		"state": "MINNESOTA",
		"artcc": "ZMP",
		"type": "RNAV",
		"updated": "06/25/2013",
	},
	{
		"name": "WOKIP",
		"latitude": "42-6-53.37 N",
		"longitude": "94-35-25.78 W",
		"state": "IOWA",
		"artcc": "ZMP",
		"type": "RNAV",
		"updated": "08/19/2010",
	},
	{
		"name": "WOKOG",
		"latitude": "45-35-59.42 N",
		"longitude": "89-11-37.38 W",
		"state": "WISCONSIN",
		"artcc": "ZMP",
		"type": "RNAV",
		"updated": "10/21/2014",
	},
	{
		"name": "WOKOL",
		"latitude": "45-32-5.93 N",
		"longitude": "87-5-26.86 W",
		"state": "MICHIGAN",
		"artcc": "ZMP",
		"type": "RNAV",
		"updated": "06/07/2013",
	},
	{
		"name": "WOKOS",
		"latitude": "44-46-21.31 N",
		"longitude": "89-43-16.32 W",
		"state": "WISCONSIN",
		"artcc": "ZMP",
		"type": "RP",
		"updated": "CWA*LD*257.37/3.49",
	},
	{
		"name": "WOKUN",
		"latitude": "46-29-5.26 N",
		"longitude": "90-57-18.9 W",
		"state": "WISCONSIN",
		"artcc": "ZMP",
		"type": "RP",
		"updated": "ASX*LE*S CRS/4.60",
	},
	{
		"name": "WOLFE",
		"latitude": "41-2-34.23 N",
		"longitude": "95-48-41.69 W",
		"state": "IOWA",
		"artcc": "ZMP",
		"type": "MR",
		"updated": "OFF*TACAN*133.00/6.00",
	},
	{
		"name": "WOLIR",
		"latitude": "41-14-32.57 N",
		"longitude": "95-50-25.79 W",
		"state": "IOWA",
		"artcc": "ZMP",
		"type": "RNAV",
		"updated": "08/14/2012",
	},
	{
		"name": "WOLTA",
		"latitude": "44-52-2.38 N",
		"longitude": "97-40-19.83 W",
		"state": "SOUTH DAKOTA",
		"artcc": "ZMP",
		"type": "RNAV",
		"updated": "06/08/2017",
	},
	{
		"name": "WOLUV",
		"latitude": "46-38-19.69 N",
		"longitude": "96-49-10.62 W",
		"state": "NORTH DAKOTA",
		"artcc": "ZMP",
		"type": "RP",
		"updated": "FAR*VOR/DME*160.21/7.00",
	},
	{
		"name": "WOLVA",
		"latitude": "48-36-2.81 N",
		"longitude": "97-33-54.5 W",
		"state": "NORTH DAKOTA",
		"artcc": "ZMP",
		"type": "RNAV",
		"updated": "08/11/2012",
	},
	{
		"name": "WOLVS",
		"latitude": "45-0-14.73 N",
		"longitude": "92-34-22.91 W",
		"state": "WISCONSIN",
		"artcc": "ZMP",
		"type": "RP",
		"updated": "MSP*VOR/DME*074.90/29.00",
	},
	{
		"name": "WOMAD",
		"latitude": "41-58-58.31 N",
		"longitude": "94-18-55.93 W",
		"state": "IOWA",
		"artcc": "ZMP",
		"type": "RNAV",
		"updated": "08/19/2010",
	},
	{
		"name": "WOMAM",
		"latitude": "41-11-37.94 N",
		"longitude": "98-5-3.02 W",
		"state": "NEBRASKA",
		"artcc": "ZMP",
		"type": "RNAV",
		"updated": "05/26/2011",
	},
	{
		"name": "WOMOP",
		"latitude": "45-14-52.03 N",
		"longitude": "84-41-20.79 W",
		"state": "MICHIGAN",
		"artcc": "ZMP",
		"type": "RP",
		"updated": "PLN*VORTAC*188.64/23.00",
	},
	{
		"name": "WONDD",
		"latitude": "43-37-1.37 N",
		"longitude": "95-27-51.44 W",
		"state": "MINNESOTA",
		"artcc": "ZMP",
		"type": "RP",
		"updated": "OTG*VOR/DME*101.22/5.43",
	},
	{
		"name": "WONID",
		"latitude": "39-51-13.97 N",
		"longitude": "98-51-42.74 W",
		"state": "KANSAS",
		"artcc": "ZMP",
		"type": "RNAV",
		"updated": "02/04/2014",
	},
	{
		"name": "WONOD",
		"latitude": "47-42-19.86 N",
		"longitude": "93-35-8.9 W",
		"state": "MINNESOTA",
		"artcc": "ZMP",
		"type": "RNAV",
		"updated": "11/07/2011",
	},
	{
		"name": "WONSI",
		"latitude": "41-4-30.35 N",
		"longitude": "95-50-11.56 W",
		"state": "IOWA",
		"artcc": "ZMP",
		"type": "MW",
		"updated": "03/10/2014",
	},
	{
		"name": "WONUG",
		"latitude": "45-41-10.89 N",
		"longitude": "90-26-53.58 W",
		"state": "WISCONSIN",
		"artcc": "ZMP",
		"type": "RNAV",
		"updated": "10/24/2011",
	},
	{
		"name": "WONUV",
		"latitude": "42-31-40.34 N",
		"longitude": "96-48-4.95 W",
		"state": "NEBRASKA",
		"artcc": "ZMP",
		"type": "RNAV",
		"updated": "04/25/2013",
	},
	{
		"name": "WOODA",
		"latitude": "41-25-1.81 N",
		"longitude": "95-45-31.15 W",
		"state": "IOWA",
		"artcc": "ZMP",
		"type": "RNAV",
		"updated": "08/14/2012",
	},
	{
		"name": "WOOHU",
		"latitude": "41-12-38.05 N",
		"longitude": "95-48-15.23 W",
		"state": "IOWA",
		"artcc": "ZMP",
		"type": "RNAV",
		"updated": "08/14/2012",
	},
	{
		"name": "WOOOD",
		"latitude": "44-41-28.81 N",
		"longitude": "94-56-17.5 W",
		"state": "MINNESOTA",
		"artcc": "ZMP",
		"type": "RNAV",
		"updated": "07/11/2005",
	},
	{
		"name": "WOPGA",
		"latitude": "41-9-49.27 N",
		"longitude": "95-58-50.48 W",
		"state": "NEBRASKA",
		"artcc": "ZMP",
		"type": "MW",
		"updated": "03/10/2014",
	},
	{
		"name": "WOPIK",
		"latitude": "43-10-53.14 N",
		"longitude": "93-19-39.85 W",
		"state": "IOWA",
		"artcc": "ZMP",
		"type": "RP",
		"updated": "MCW*VOR/DME*/5.20",
	},
	{
		"name": "WOPOB",
		"latitude": "45-0-50.6 N",
		"longitude": "97-52-52.74 W",
		"state": "SOUTH DAKOTA",
		"artcc": "ZMP",
		"type": "RNAV",
		"updated": "06/08/2017",
	},
	{
		"name": "WOPUW",
		"latitude": "44-41-54.12 N",
		"longitude": "94-49-21.42 W",
		"state": "MINNESOTA",
		"artcc": "ZMP",
		"type": "RNAV",
		"updated": "10/06/2000",
	},
	{
		"name": "WORBI",
		"latitude": "43-41-39.99 N",
		"longitude": "95-41-44.72 W",
		"state": "MINNESOTA",
		"artcc": "ZMP",
		"type": "RNAV",
		"updated": "11/15/2012",
	},
	{
		"name": "WOREB",
		"latitude": "42-58-29.97 N",
		"longitude": "95-49-58.16 W",
		"state": "IOWA",
		"artcc": "ZMP",
		"type": "RNAV",
		"updated": "04/19/2012",
	},
	{
		"name": "WORMA",
		"latitude": "44-35-18 N",
		"longitude": "91-12-44.66 W",
		"state": "WISCONSIN",
		"artcc": "ZMP",
		"type": "RNAV",
		"updated": "07/28/2015",
	},
	{
		"name": "WORMU",
		"latitude": "44-52-33.47 N",
		"longitude": "97-9-4.78 W",
		"state": "SOUTH DAKOTA",
		"artcc": "ZMP",
		"type": "RP",
		"updated": "ATY*LD*354.24/2.93",
	},
	{
		"name": "WORSI",
		"latitude": "45-3-58.73 N",
		"longitude": "83-26-57.84 W",
		"state": "MICHIGAN",
		"artcc": "ZMP",
		"type": "RNAV",
		"updated": "08/31/2015",
	},
	{
		"name": "WOTIM",
		"latitude": "42-40-56.98 N",
		"longitude": "93-52-51.19 W",
		"state": "IOWA",
		"artcc": "ZMP",
		"type": "RNAV",
		"updated": "06/21/2013",
	},
	{
		"name": "WOTPA",
		"latitude": "47-13-38.88 N",
		"longitude": "95-55-10.68 W",
		"state": "MINNESOTA",
		"artcc": "ZMP",
		"type": "RNAV",
		"updated": "07/13/2015",
	},
	{
		"name": "WOTVI",
		"latitude": "43-7-1.76 N",
		"longitude": "93-7-38.65 W",
		"state": "IOWA",
		"artcc": "ZMP",
		"type": "RP",
		"updated": "MCW*VOR/DME*075.34/9.00",
	},
	{
		"name": "WOTVO",
		"latitude": "44-23-25.72 N",
		"longitude": "94-33-29.8 W",
		"state": "MINNESOTA",
		"artcc": "ZMP",
		"type": "RNAV",
		"updated": "03/21/2013",
	},
	{
		"name": "WOVED",
		"latitude": "48-2-39.87 N",
		"longitude": "98-48-46.76 W",
		"state": "NORTH DAKOTA",
		"artcc": "ZMP",
		"type": "RP",
		"updated": "DVL*VOR/DME*129.68/5.84",
	},
	{
		"name": "WOVER",
		"latitude": "39-55-4.21 N",
		"longitude": "98-54-26.98 W",
		"state": "KANSAS",
		"artcc": "ZMP",
		"type": "RNAV",
		"updated": "08/04/2017",
	},
	{
		"name": "WOVET",
		"latitude": "44-37-57.85 N",
		"longitude": "88-33-21.36 W",
		"state": "WISCONSIN",
		"artcc": "ZMP",
		"type": "RP",
		"updated": "OSH*VORTAC*358.00",
	},
	{
		"name": "WOVLA",
		"latitude": "42-38-12.48 N",
		"longitude": "94-24-50.16 W",
		"state": "IOWA",
		"artcc": "ZMP",
		"type": "RP",
		"updated": "06/30/2011",
	},
	{
		"name": "WOVOP",
		"latitude": "39-55-44.2 N",
		"longitude": "97-2-47.85 W",
		"state": "KANSAS",
		"artcc": "ZMP",
		"type": "RNAV",
		"updated": "06/09/2014",
	},
	{
		"name": "WOVUR",
		"latitude": "45-50-28.17 N",
		"longitude": "92-46-5.7 W",
		"state": "MINNESOTA",
		"artcc": "ZMP",
		"type": "RNAV",
		"updated": "07/26/2013",
	},
	{
		"name": "WOWLU",
		"latitude": "41-47-32.62 N",
		"longitude": "93-49-0.32 W",
		"state": "IOWA",
		"artcc": "ZMP",
		"type": "RNAV",
		"updated": "04/04/2010",
	},
	{
		"name": "WOXEB",
		"latitude": "45-3-11.7 N",
		"longitude": "93-37-8.36 W",
		"state": "MINNESOTA",
		"artcc": "ZMP",
		"type": "RP",
		"updated": "GEP*VORTAC*236.12/11.83",
	},
	{
		"name": "WOXER",
		"latitude": "46-33-2.33 N",
		"longitude": "93-13-37.44 W",
		"state": "MINNESOTA",
		"artcc": "ZMP",
		"type": "RNAV",
		"updated": "06/13/2005",
	},
	{
		"name": "WOXIG",
		"latitude": "44-10-32.53 N",
		"longitude": "94-54-47.98 W",
		"state": "MINNESOTA",
		"artcc": "ZMP",
		"type": "RNAV",
		"updated": "11/26/2012",
	},
	{
		"name": "WOXOM",
		"latitude": "44-19-14.9 N",
		"longitude": "96-51-36.53 W",
		"state": "SOUTH DAKOTA",
		"artcc": "ZMP",
		"type": "RP",
		"updated": "BKX*LD*295.51/2.77",
	},
	{
		"name": "WPACA",
		"latitude": "44-20-20.4 N",
		"longitude": "89-9-55.34 W",
		"state": "WISCONSIN",
		"artcc": "ZMP",
		"type": "RNAV",
		"updated": "02/24/2017",
	},
	{
		"name": "WRICK",
		"latitude": "45-47-54.04 N",
		"longitude": "92-24-58.82 W",
		"state": "WISCONSIN",
		"artcc": "ZMP",
		"type": "RP",
		"updated": "RZN*VOR/DME*230.94/2.20",
	},
	{
		"name": "WRSAW",
		"latitude": "44-14-53.82 N",
		"longitude": "93-25-55.06 W",
		"state": "MINNESOTA",
		"artcc": "ZMP",
		"type": "RNAV",
		"updated": "11/14/2016",
	},
	{
		"name": "WUBED",
		"latitude": "48-43-30.5 N",
		"longitude": "97-7-40.81 W",
		"state": "MINNESOTA",
		"artcc": "ZMP",
		"type": "RP",
		"updated": "HML*VORTAC*173.87/8.66",
	},
	{
		"name": "WUBER",
		"latitude": "41-1-38.26 N",
		"longitude": "96-45-5.64 W",
		"state": "NEBRASKA",
		"artcc": "ZMP",
		"type": "RP",
		"updated": "OVR*VORTAC*252.00",
	},
	{
		"name": "WUBIL",
		"latitude": "40-19-49.51 N",
		"longitude": "96-47-3.59 W",
		"state": "NEBRASKA",
		"artcc": "ZMP",
		"type": "RNAV",
		"updated": "05/23/2011",
	},
	{
		"name": "WUBMO",
		"latitude": "41-56-46.16 N",
		"longitude": "97-27-8.45 W",
		"state": "NEBRASKA",
		"artcc": "ZMP",
		"type": "RP",
		"updated": "OFK*VOR/DME*/2.63",
	},
	{
		"name": "WUBSO",
		"latitude": "41-39-33.57 N",
		"longitude": "96-37-35.54 W",
		"state": "NEBRASKA",
		"artcc": "ZMP",
		"type": "RNAV",
		"updated": "07/11/2013",
	},
	{
		"name": "WUDIM",
		"latitude": "45-3-55.73 N",
		"longitude": "83-33-41.72 W",
		"state": "MICHIGAN",
		"artcc": "ZMP",
		"type": "MR",
		"updated": "APN*VORTAC*194.00/1.60",
	},
	{
		"name": "WUDOP",
		"latitude": "45-10-23.1 N",
		"longitude": "87-36-8.09 W",
		"state": "MICHIGAN",
		"artcc": "ZMP",
		"type": "RNAV",
		"updated": "06/19/2009",
	},
	{
		"name": "WUFEF",
		"latitude": "46-45-0.26 N",
		"longitude": "92-30-59.96 W",
		"state": "MINNESOTA",
		"artcc": "ZMP",
		"type": "RNAV",
		"updated": "09/29/2006",
	},
	{
		"name": "WUGAX",
		"latitude": "45-41-42.45 N",
		"longitude": "92-25-3.57 W",
		"state": "WISCONSIN",
		"artcc": "ZMP",
		"type": "RNAV",
		"updated": "07/26/2013",
	},
	{
		"name": "WUGBI",
		"latitude": "40-21-49.64 N",
		"longitude": "96-9-6.04 W",
		"state": "NEBRASKA",
		"artcc": "ZMP",
		"type": "RNAV",
		"updated": "04/11/2013",
	},
	{
		"name": "WUGRA",
		"latitude": "41-11-33.29 N",
		"longitude": "94-39-54.15 W",
		"state": "IOWA",
		"artcc": "ZMP",
		"type": "RNAV",
		"updated": "11/17/2010",
	},
	{
		"name": "WUKDI",
		"latitude": "44-49-10.22 N",
		"longitude": "94-22-0.99 W",
		"state": "MINNESOTA",
		"artcc": "ZMP",
		"type": "RP",
		"updated": "DWN*VORTAC*160.00/16.50",
	},
	{
		"name": "WUKES",
		"latitude": "44-24-21.47 N",
		"longitude": "88-5-12.92 W",
		"state": "WISCONSIN",
		"artcc": "ZMP",
		"type": "RNAV",
		"updated": "10/21/2014",
	},
	{
		"name": "WUKIK",
		"latitude": "44-48-20.55 N",
		"longitude": "87-38-26.68 W",
		"state": "WISCONSIN",
		"artcc": "ZMP",
		"type": "RNAV",
		"updated": "07/20/2012",
	},
	{
		"name": "WUKPI",
		"latitude": "44-6-28.62 N",
		"longitude": "91-46-53.46 W",
		"state": "MINNESOTA",
		"artcc": "ZMP",
		"type": "RNAV",
		"updated": "05/16/2017",
	},
	{
		"name": "WUKTU",
		"latitude": "44-43-39.53 N",
		"longitude": "85-18-18.22 W",
		"state": "MICHIGAN",
		"artcc": "ZMP",
		"type": "RNAV",
		"updated": "12/17/2013",
	},
	{
		"name": "WUKVA",
		"latitude": "44-50-35.94 N",
		"longitude": "100-16-28.08 W",
		"state": "SOUTH DAKOTA",
		"artcc": "ZMP",
		"type": "RNAV",
		"updated": "12/19/2017",
	},
	{
		"name": "WULAB",
		"latitude": "46-48-32.45 N",
		"longitude": "100-41-37.04 W",
		"state": "NORTH DAKOTA",
		"artcc": "ZMP",
		"type": "RNAV",
		"updated": "03/30/2011",
	},
	{
		"name": "WULAM",
		"latitude": "44-44-29.6 N",
		"longitude": "92-52-23.75 W",
		"state": "MINNESOTA",
		"artcc": "ZMP",
		"type": "RP",
		"updated": "INN*LD*SE CRS/16.26",
	},
	{
		"name": "WULEP",
		"latitude": "44-35-49.25 N",
		"longitude": "93-37-16.29 W",
		"state": "MINNESOTA",
		"artcc": "ZMP",
		"type": "RP",
		"updated": "FGT*VORTAC*257.98",
	},
	{
		"name": "WULOS",
		"latitude": "39-40-40.56 N",
		"longitude": "98-43-55.59 W",
		"state": "KANSAS",
		"artcc": "ZMP",
		"type": "RNAV",
		"updated": "02/04/2014",
	},
	{
		"name": "WULTU",
		"latitude": "43-43-7.02 N",
		"longitude": "85-30-29.08 W",
		"state": "MICHIGAN",
		"artcc": "ZMP",
		"type": "RP",
		"updated": "HIC*VOR/DME*047.39/12.51",
	},
	{
		"name": "WUMBO",
		"latitude": "44-41-51.67 N",
		"longitude": "91-28-34.7 W",
		"state": "WISCONSIN",
		"artcc": "ZMP",
		"type": "RP",
		"updated": "EAU*VORTAC*175.54/12.00",
	},
	{
		"name": "WUMGA",
		"latitude": "43-42-6.32 N",
		"longitude": "97-56-24.55 W",
		"state": "SOUTH DAKOTA",
		"artcc": "ZMP",
		"type": "RNAV",
		"updated": "07/19/2006",
	},
	{
		"name": "WUMIP",
		"latitude": "41-5-27.71 N",
		"longitude": "93-41-13.28 W",
		"state": "IOWA",
		"artcc": "ZMP",
		"type": "RNAV",
		"updated": "02/13/2012",
	},
	{
		"name": "WUMIR",
		"latitude": "45-2-9.52 N",
		"longitude": "95-46-56.55 W",
		"state": "MINNESOTA",
		"artcc": "ZMP",
		"type": "RNAV",
		"updated": "02/14/2013",
	},
	{
		"name": "WUMPI",
		"latitude": "44-55-50.69 N",
		"longitude": "95-40-10.54 W",
		"state": "MINNESOTA",
		"artcc": "ZMP",
		"type": "RNAV",
		"updated": "02/14/2013",
	},
	{
		"name": "WUMRO",
		"latitude": "47-8-43.02 N",
		"longitude": "88-33-50.02 W",
		"state": "MICHIGAN",
		"artcc": "ZMP",
		"type": "RNAV",
		"updated": "06/28/2013",
	},
	{
		"name": "WUMTE",
		"latitude": "40-11-54.55 N",
		"longitude": "97-50-18.81 W",
		"state": "NEBRASKA",
		"artcc": "ZMP",
		"type": "RNAV",
		"updated": "02/09/2018",
	},
	{
		"name": "WUNAS",
		"latitude": "41-5-37.84 N",
		"longitude": "97-56-4.52 W",
		"state": "NEBRASKA",
		"artcc": "ZMP",
		"type": "RNAV",
		"updated": "07/08/2008",
	},
	{
		"name": "WUNIT",
		"latitude": "42-34-3.87 N",
		"longitude": "97-12-48.81 W",
		"state": "NEBRASKA",
		"artcc": "ZMP",
		"type": "RNAV",
		"updated": "06/28/2011",
	},
	{
		"name": "WUNLI",
		"latitude": "41-9-14.83 N",
		"longitude": "96-5-25.12 W",
		"state": "NEBRASKA",
		"artcc": "ZMP",
		"type": "RNAV",
		"updated": "04/05/2016",
	},
	{
		"name": "WUNOT",
		"latitude": "41-19-44.24 N",
		"longitude": "95-15-7 W",
		"state": "IOWA",
		"artcc": "ZMP",
		"type": "RP",
		"updated": "OVR*VORTAC*058.00/23.99",
	},
	{
		"name": "WUNOV",
		"latitude": "44-46-27.36 N",
		"longitude": "97-32-25.33 W",
		"state": "SOUTH DAKOTA",
		"artcc": "ZMP",
		"type": "RNAV",
		"updated": "06/08/2017",
	},
	{
		"name": "WUNTA",
		"latitude": "44-59-16.68 N",
		"longitude": "92-22-5.79 W",
		"state": "WISCONSIN",
		"artcc": "ZMP",
		"type": "RNAV",
		"updated": "10/05/2007",
	},
	{
		"name": "WUNTI",
		"latitude": "43-58-11.14 N",
		"longitude": "98-2-9.67 W",
		"state": "SOUTH DAKOTA",
		"artcc": "ZMP",
		"type": "RNAV",
		"updated": "11/02/2015",
	},
	{
		"name": "WUNYE",
		"latitude": "45-42-37.91 N",
		"longitude": "95-12-16.19 W",
		"state": "MINNESOTA",
		"artcc": "ZMP",
		"type": "RNAV",
		"updated": "06/13/2008",
	},
	{
		"name": "WUPAP",
		"latitude": "39-54-10.7 N",
		"longitude": "97-55-46.9 W",
		"state": "KANSAS",
		"artcc": "ZMP",
		"type": "RNAV",
		"updated": "03/27/2012",
	},
	{
		"name": "WUPIK",
		"latitude": "39-54-31.64 N",
		"longitude": "97-39-26.03 W",
		"state": "KANSAS",
		"artcc": "ZMP",
		"type": "RNAV",
		"updated": "09/09/2011",
	},
	{
		"name": "WUPON",
		"latitude": "44-24-12.41 N",
		"longitude": "88-17-27.11 W",
		"state": "WISCONSIN",
		"artcc": "ZMP",
		"type": "RNAV",
		"updated": "11/25/2005",
	},
	{
		"name": "WUQPU",
		"latitude": "45-31-37.77 N",
		"longitude": "85-9-26.62 W",
		"state": "MICHIGAN",
		"artcc": "ZMP",
		"type": "RNAV",
		"updated": "01/17/2008",
	},
	{
		"name": "WUQWE",
		"latitude": "44-57-38.34 N",
		"longitude": "92-29-9.94 W",
		"state": "WISCONSIN",
		"artcc": "ZMP",
		"type": "WP",
		"updated": "11/02/1998",
	},
	{
		"name": "WURLU",
		"latitude": "42-34-3.69 N",
		"longitude": "93-13-40.11 W",
		"state": "IOWA",
		"artcc": "ZMP",
		"type": "RNAV",
		"updated": "06/21/2013",
	},
	{
		"name": "WURPU",
		"latitude": "41-58-40.59 N",
		"longitude": "93-56-34.53 W",
		"state": "IOWA",
		"artcc": "ZMP",
		"type": "RP",
		"updated": "JWJ*VOR/DME*259.53/46.92",
	},
	{
		"name": "WURUV",
		"latitude": "47-7-52.62 N",
		"longitude": "98-42-52.08 W",
		"state": "NORTH DAKOTA",
		"artcc": "ZMP",
		"type": "RP",
		"updated": "JMS*VOR/DME*349.00/12.00",
	},
	{
		"name": "WUSCO",
		"latitude": "46-59-40.04 N",
		"longitude": "97-25-4.19 W",
		"state": "NORTH DAKOTA",
		"artcc": "ZMP",
		"type": "RNAV",
		"updated": "05/15/2008",
	},
	{
		"name": "WUSIK",
		"latitude": "47-59-14.62 N",
		"longitude": "97-10-52.33 W",
		"state": "NORTH DAKOTA",
		"artcc": "ZMP",
		"type": "RP",
		"updated": "GFK*LD*354.03/1.52",
	},
	{
		"name": "WUSKA",
		"latitude": "44-25-20.33 N",
		"longitude": "95-46-39.54 W",
		"state": "MINNESOTA",
		"artcc": "ZMP",
		"type": "RNAV",
		"updated": "03/08/2011",
	},
	{
		"name": "WUSMI",
		"latitude": "46-18-20.12 N",
		"longitude": "94-43-47.37 W",
		"state": "MINNESOTA",
		"artcc": "ZMP",
		"type": "RNAV",
		"updated": "03/28/2012",
	},
	{
		"name": "WUSPO",
		"latitude": "44-22-33.48 N",
		"longitude": "91-20-30.55 W",
		"state": "WISCONSIN",
		"artcc": "ZMP",
		"type": "RNAV",
		"updated": "02/26/2015",
	},
	{
		"name": "WUTED",
		"latitude": "46-52-37.83 N",
		"longitude": "95-2-17.26 W",
		"state": "MINNESOTA",
		"artcc": "ZMP",
		"type": "RNAV",
		"updated": "10/17/2011",
	},
	{
		"name": "WUTKI",
		"latitude": "40-7-19.52 N",
		"longitude": "98-33-26.55 W",
		"state": "NEBRASKA",
		"artcc": "ZMP",
		"type": "RNAV",
		"updated": "06/05/2012",
	},
	{
		"name": "WUTON",
		"latitude": "44-9-29.38 N",
		"longitude": "88-35-16.78 W",
		"state": "WISCONSIN",
		"artcc": "ZMP",
		"type": "RNAV",
		"updated": "11/25/2005",
	},
	{
		"name": "WUTSO",
		"latitude": "48-14-59.73 N",
		"longitude": "97-9-48.94 W",
		"state": "NORTH DAKOTA",
		"artcc": "ZMP",
		"type": "RP",
		"updated": "GFK*VOR/DME*353.82/17.74",
	},
	{
		"name": "WUTUT",
		"latitude": "48-45-43.67 N",
		"longitude": "100-41-10.25 W",
		"state": "NORTH DAKOTA",
		"artcc": "ZMP",
		"type": "RNAV",
		"updated": "04/07/2010",
	},
	{
		"name": "WUVAM",
		"latitude": "44-34-21 N",
		"longitude": "99-29-44.82 W",
		"state": "SOUTH DAKOTA",
		"artcc": "ZMP",
		"type": "RNAV",
		"updated": "08/05/2016",
	},
	{
		"name": "WUVIS",
		"latitude": "40-36-42.3 N",
		"longitude": "95-35-0.42 W",
		"state": "IOWA",
		"artcc": "ZMP",
		"type": "RNAV",
		"updated": "07/31/2006",
	},
	{
		"name": "WUVRA",
		"latitude": "45-25-22.95 N",
		"longitude": "90-54-49.21 W",
		"state": "WISCONSIN",
		"artcc": "ZMP",
		"type": "RNAV",
		"updated": "04/26/2011",
	},
	{
		"name": "WUVTI",
		"latitude": "40-53-46.91 N",
		"longitude": "96-45-1.87 W",
		"state": "NEBRASKA",
		"artcc": "ZMP",
		"type": "RNAV",
		"updated": "11/02/2015",
	},
	{
		"name": "WUXER",
		"latitude": "44-3-26.24 N",
		"longitude": "91-27-34.65 W",
		"state": "WISCONSIN",
		"artcc": "ZMP",
		"type": "RP",
		"updated": "LSE*VOR/DME*322.00/14.00",
	},
	{
		"name": "WUXUL",
		"latitude": "45-58-30.07 N",
		"longitude": "86-13-56.78 W",
		"state": "MICHIGAN",
		"artcc": "ZMP",
		"type": "RNAV",
		"updated": "03/27/2012",
	},
	{
		"name": "WUYFO",
		"latitude": "46-21-16.38 N",
		"longitude": "84-59-37.69 W",
		"state": "MICHIGAN",
		"artcc": "ZMP",
		"type": "RP",
		"updated": "SSM*VOR/DME*267.26/28.41",
	},
	{
		"name": "WWEGA",
		"latitude": "44-19-11.94 N",
		"longitude": "88-43-56.68 W",
		"state": "WISCONSIN",
		"artcc": "ZMP",
		"type": "RNAV",
		"updated": "03/30/2011",
	},
	{
		"name": "WYKOF",
		"latitude": "43-38-58.6 N",
		"longitude": "92-3-22.56 W",
		"state": "MINNESOTA",
		"artcc": "ZMP",
		"type": "RNAV",
		"updated": "05/18/2012",
	},
