[
	{
		"name": "BAAGR",
		"latitude": "26-49-3.07 N",
		"longitude": "76-31-18.87 W",
		"state": "OFFSHORE ATLANTIC",
		"artcc": "ZNY",
		"type": "RNAV",
		"updated": "04/07/2008"
	},
	{
		"name": "BAARN",
		"latitude": "40-17-29.35 N",
		"longitude": "76-36-40.78 W",
		"state": "PENNSYLVANIA",
		"artcc": "ZNY",
		"type": "RP",
		"updated": "LRP*VOR/DME*314.06/17.95"
	},
	{
		"name": "BAASE",
		"latitude": "40-25-24.95 N",
		"longitude": "76-27-5.99 W",
		"state": "PENNSYLVANIA",
		"artcc": "ZNY",
		"type": "MR",
		"updated": "BZJ*NDB*108.81"
	},
	{
		"name": "BABEE",
		"latitude": "41-31-57.41 N",
		"longitude": "77-11-50.59 W",
		"state": "PENNSYLVANIA",
		"artcc": "ZNY",
		"type": "RP",
		"updated": "ITH*VOR/DME*220.00/66.48"
	},
	{
		"name": "BADDA",
		"latitude": "40-58-6.17 N",
		"longitude": "74-15-1.76 W",
		"state": "NEW JERSEY",
		"artcc": "ZNY",
		"type": "RP",
		"updated": "08/31/2015"
	},
	{
		"name": "BADDI",
		"latitude": "40-9-26.26 N",
		"longitude": "77-25-7.81 W",
		"state": "PENNSYLVANIA",
		"artcc": "ZNY",
		"type": "RP",
		"updated": "HAR*VORTAC*251.68/18.25"
	},
	{
		"name": "BAGGA",
		"latitude": "40-37-18.48 N",
		"longitude": "74-11-31.86 W",
		"state": "NEW YORK",
		"artcc": "ZNY",
		"type": "RNAV",
		"updated": "06/09/2008"
	},
	{
		"name": "BAIER",
		"latitude": "40-53-43.42 N",
		"longitude": "77-52-21.84 W",
		"state": "PENNSYLVANIA",
		"artcc": "ZNY",
		"type": "RP",
		"updated": "PSB*VORTAC*112.87/5.60"
	},
	{
		"name": "BALDE",
		"latitude": "40-28-41.78 N",
		"longitude": "74-11-32.51 W",
		"state": "NEW YORK",
		"artcc": "ZNY",
		"type": "RNAV",
		"updated": "06/08/2011"
	},
	{
		"name": "BALOO",
		"latitude": "34-24-18.6 N",
		"longitude": "62-8-13.8 W",
		"state": "OFFSHORE ATLANTIC",
		"artcc": "ZNY",
		"type": "RNAV",
		"updated": "01/10/2017"
	},
	{
		"name": "BALTN",
		"latitude": "30-41-25.18 N",
		"longitude": "67-36-19.63 W",
		"state": "OFFSHORE ATLANTIC",
		"artcc": "ZNY",
		"type": "RNAV",
		"updated": "01/10/2017"
	},
	{
		"name": "BANAC",
		"latitude": "39-50-14.9 N",
		"longitude": "77-50-21.63 W",
		"state": "PENNSYLVANIA",
		"artcc": "ZNY",
		"type": "RNAV",
		"updated": "09/03/2003"
	},
	{
		"name": "BANKA",
		"latitude": "40-22-52.69 N",
		"longitude": "74-3-4.2 W",
		"state": "NEW JERSEY",
		"artcc": "ZNY",
		"type": "RNAV",
		"updated": "02/28/2018"
	},
	{
		"name": "BANNK",
		"latitude": "31-58-54.67 N",
		"longitude": "76-24-10.94 W",
		"state": "OFFSHORE ATLANTIC",
		"artcc": "ZNY",
		"type": "RNAV",
		"updated": "06/02/2014"
	},
	{
		"name": "BARJR",
		"latitude": "40-40-2.65 N",
		"longitude": "73-45-0.39 W",
		"state": "NEW YORK",
		"artcc": "ZNY",
		"type": "RNAV",
		"updated": "07/10/2017"
	},
	{
		"name": "BARSY",
		"latitude": "40-26-22.99 N",
		"longitude": "76-29-50.79 W",
		"state": "PENNSYLVANIA",
		"artcc": "ZNY",
		"type": "MW",
		"updated": "10/05/2007"
	},
	{
		"name": "BAUTZ",
		"latitude": "40-36-26.34 N",
		"longitude": "74-17-47.63 W",
		"state": "NEW JERSEY",
		"artcc": "ZNY",
		"type": "RNAV",
		"updated": "02/09/2018"
	},
	{
		"name": "BEBKE",
		"latitude": "40-33-18.28 N",
		"longitude": "73-48-3.57 W",
		"state": "NEW YORK",
		"artcc": "ZNY",
		"type": "RP",
		"updated": "CRI*VOR/DME*139.82"
	},
	{
		"name": "BECKA",
		"latitude": "39-58-11.78 N",
		"longitude": "77-38-51.53 W",
		"state": "PENNSYLVANIA",
		"artcc": "ZNY",
		"type": "RP",
		"updated": "THS*VORTAC*087.96/14.17"
	},
	{
		"name": "BECKR",
		"latitude": "39-35-17.01 N",
		"longitude": "74-17-13.78 W",
		"state": "NEW JERSEY",
		"artcc": "ZNY",
		"type": "RP",
		"updated": "CYN*VORTAC*164.00"
	},
	{
		"name": "BEEBB",
		"latitude": "32-22-20.79 N",
		"longitude": "65-4-54.52 W",
		"state": "OFFSHORE ATLANTIC",
		"artcc": "ZNY",
		"type": "RNAV",
		"updated": "01/10/2017"
	},
	{
		"name": "BEERS",
		"latitude": "40-52-47.5 N",
		"longitude": "75-27-37.36 W",
		"state": "PENNSYLVANIA",
		"artcc": "ZNY",
		"type": "RP",
		"updated": "MIP*VORTAC*107.53/55.45"
	},
	{
		"name": "BEETS",
		"latitude": "39-57-20.57 N",
		"longitude": "77-26-59.55 W",
		"state": "PENNSYLVANIA",
		"artcc": "ZNY",
		"type": "RP",
		"updated": "LRP*VOR/DME*268.92"
	},
	{
		"name": "BEHEM",
		"latitude": "40-35-25.33 N",
		"longitude": "75-19-8.24 W",
		"state": "PENNSYLVANIA",
		"artcc": "ZNY",
		"type": "RNAV",
		"updated": "05/10/2013"
	},
	{
		"name": "BEHHR",
		"latitude": "38-33-15.48 N",
		"longitude": "71-31-50.16 W",
		"state": "OFFSHORE ATLANTIC",
		"artcc": "ZNY",
		"type": "RNAV",
		"updated": "11/14/2016"
	},
	{
		"name": "BEHRR",
		"latitude": "40-45-47.51 N",
		"longitude": "73-50-18.75 W",
		"state": "NEW YORK",
		"artcc": "ZNY",
		"type": "RNAV",
		"updated": "05/04/2017"
	},
	{
		"name": "BEKEL",
		"latitude": "40-7-4.19 N",
		"longitude": "75-17-35.14 W",
		"state": "PENNSYLVANIA",
		"artcc": "ZNY",
		"type": "WP",
		"updated": "06/14/1991"
	},
	{
		"name": "BELAY",
		"latitude": "39-35-15.67 N",
		"longitude": "76-18-2 W",
		"state": "MARYLAND",
		"artcc": "ZNY",
		"type": "RP",
		"updated": "BAL*VORTAC*044.78"
	},
	{
		"name": "BEMGE",
		"latitude": "39-59-43.19 N",
		"longitude": "74-36-28.81 W",
		"state": "NEW JERSEY",
		"artcc": "ZNY",
		"type": "MR",
		"updated": "GXU*VORTAC*224.00/1.00"
	},
	{
		"name": "BENDI",
		"latitude": "39-30-42.47 N",
		"longitude": "76-52-18.72 W",
		"state": "MARYLAND",
		"artcc": "ZNY",
		"type": "RNAV",
		"updated": "07/31/2002"
	},
	{
		"name": "BEREW",
		"latitude": "39-48-31.45 N",
		"longitude": "74-32-24.61 W",
		"state": "NEW JERSEY",
		"artcc": "ZNY",
		"type": "RP",
		"updated": "CYN*VORTAC*274.18"
	},
	{
		"name": "BERGH",
		"latitude": "39-7-56.84 N",
		"longitude": "72-3-5.68 W",
		"state": "OFFSHORE ATLANTIC",
		"artcc": "ZNY",
		"type": "RNAV",
		"updated": "03/23/2018"
	},
	{
		"name": "BERME",
		"latitude": "40-25-41.78 N",
		"longitude": "74-31-0.56 W",
		"state": "NEW JERSEY",
		"artcc": "ZNY",
		"type": "RNAV",
		"updated": "12/20/2013"
	},
	{
		"name": "BETFY",
		"latitude": "41-23-36.85 N",
		"longitude": "74-29-26.71 W",
		"state": "NEW YORK",
		"artcc": "ZNY",
		"type": "RNAV",
		"updated": "07/24/2012"
	},
	{
		"name": "BEUTY",
		"latitude": "40-34-9.11 N",
		"longitude": "75-0-41.32 W",
		"state": "NEW JERSEY",
		"artcc": "ZNY",
		"type": "RP",
		"updated": "COL*VOR/DME*302.87/41.96"
	},
	{
		"name": "BEXUM",
		"latitude": "33-18-8.33 N",
		"longitude": "69-48-44.91 W",
		"state": "OFFSHORE ATLANTIC",
		"artcc": "ZNY",
		"type": "RNAV",
		"updated": "05/27/2008"
	},
	{
		"name": "BEZDO",
		"latitude": "41-29-21.95 N",
		"longitude": "74-12-14.49 W",
		"state": "NEW YORK",
		"artcc": "ZNY",
		"type": "RNAV",
		"updated": "02/09/2018"
	},
	{
		"name": "BIDDU",
		"latitude": "40-14-53.77 N",
		"longitude": "75-26-45.49 W",
		"state": "PENNSYLVANIA",
		"artcc": "ZNY",
		"type": "RNAV",
		"updated": "04/17/2014"
	},
	{
		"name": "BIDVE",
		"latitude": "32-25-30 N",
		"longitude": "64-26-12 W",
		"state": "OFFSHORE ATLANTIC",
		"artcc": "ZNY",
		"type": "RNAV",
		"updated": "01/10/2017"
	},
	{
		"name": "BIGEO",
		"latitude": "41-9-58.81 N",
		"longitude": "77-25-44.89 W",
		"state": "PENNSYLVANIA",
		"artcc": "ZNY",
		"type": "RP",
		"updated": "PSB*VORTAC*069.44/29.66"
	},
	{
		"name": "BIGGY",
		"latitude": "40-25-10.62 N",
		"longitude": "74-58-21.73 W",
		"state": "NEW JERSEY",
		"artcc": "ZNY",
		"type": "RP",
		"updated": "SBJ*VOR/DME*237.25/14.41"
	},
	{
		"name": "BILEY",
		"latitude": "40-47-58.52 N",
		"longitude": "75-44-47.25 W",
		"state": "PENNSYLVANIA",
		"artcc": "ZNY",
		"type": "RP",
		"updated": "FJC*VORTAC*298.29/14.00"
	},
	{
		"name": "BILLZ",
		"latitude": "39-56-58.72 N",
		"longitude": "73-41-33.28 W",
		"state": "NEW JERSEY",
		"artcc": "ZNY",
		"type": "RP",
		"updated": "DPK*VOR/DME*211.58"
	},
	{
		"name": "BINGG",
		"latitude": "40-52-51.36 N",
		"longitude": "74-20-5.36 W",
		"state": "NEW JERSEY",
		"artcc": "ZNY",
		"type": "RP",
		"updated": "SAX*VORTAC*151.36"
	},
	{
		"name": "BINNS",
		"latitude": "39-47-6.22 N",
		"longitude": "77-0-39.58 W",
		"state": "PENNSYLVANIA",
		"artcc": "ZNY",
		"type": "RP",
		"updated": "LRP*VOR/DME*248.07/38.81"
	},
	{
		"name": "BINRE",
		"latitude": "40-13-3.98 N",
		"longitude": "74-38-4.46 W",
		"state": "NEW JERSEY",
		"artcc": "ZDC",
		"type": "MW",
		"updated": "08/12/2009"
	},
	{
		"name": "BIPOD",
		"latitude": "41-52-41.57 N",
		"longitude": "76-40-4.22 W",
		"state": "PENNSYLVANIA",
		"artcc": "ZNY",
		"type": "RP",
		"updated": "ULW*VOR/DME*140.93/20.57"
	},
	{
		"name": "BIRKE",
		"latitude": "40-24-35.3 N",
		"longitude": "74-37-42.32 W",
		"state": "NEW JERSEY",
		"artcc": "ZNY",
		"type": "RNAV",
		"updated": "08/16/2012"
	},
	{
		"name": "BIRTY",
		"latitude": "33-15-53.37 N",
		"longitude": "66-6-4.16 W",
		"state": "OFFSHORE ATLANTIC",
		"artcc": "ZNY",
		"type": "RNAV",
		"updated": "01/10/2017"
	},
	{
		"name": "BITPE",
		"latitude": "40-16-33.43 N",
		"longitude": "76-40-26.99 W",
		"state": "PENNSYLVANIA",
		"artcc": "ZNY",
		"type": "RNAV",
		"updated": "08/21/2017"
	},
	{
		"name": "BIYAS",
		"latitude": "39-22-27.12 N",
		"longitude": "77-25-9.77 W",
		"state": "MARYLAND",
		"artcc": "ZNY",
		"type": "RNAV",
		"updated": "12/19/2003"
	},
	{
		"name": "BKINS",
		"latitude": "33-37-6.04 N",
		"longitude": "66-25-50.17 W",
		"state": "OFFSHORE ATLANTIC",
		"artcc": "ZNY",
		"type": "RNAV",
		"updated": "01/10/2017"
	},
	{
		"name": "BLAZE",
		"latitude": "41-27-34.24 N",
		"longitude": "77-35-41.74 W",
		"state": "PENNSYLVANIA",
		"artcc": "ZNY",
		"type": "RP",
		"updated": "SLT*VORTAC*108.56/17.22"
	},
	{
		"name": "BLESS",
		"latitude": "40-56-21.21 N",
		"longitude": "76-25-12.51 W",
		"state": "PENNSYLVANIA",
		"artcc": "ZNY",
		"type": "RP",
		"updated": "SEG*VOR/DME*075.00/22.92"
	},
	{
		"name": "BLOWN",
		"latitude": "40-49-36.19 N",
		"longitude": "75-27-30.34 W",
		"state": "PENNSYLVANIA",
		"artcc": "ZNY",
		"type": "RP",
		"updated": "FJC*VORTAC*008.40/6.00"
	},
	{
		"name": "BLUUU",
		"latitude": "40-0-50.4 N",
		"longitude": "72-36-6.12 W",
		"state": "OFFSHORE ATLANTIC",
		"artcc": "ZNY",
		"type": "RNAV",
		"updated": "10/20/2016"
	},
	{
		"name": "BNJEE",
		"latitude": "18-0-0 N",
		"longitude": "60-0-0 W",
		"state": "OFFSHORE ATLANTIC",
		"artcc": "ZNY",
		"type": "RNAV",
		"updated": "12/22/2014"
	},
	{
		"name": "BOBBO",
		"latitude": "32-22-11.1 N",
		"longitude": "67-12-15.16 W",
		"state": "OFFSHORE ATLANTIC",
		"artcc": "ZNY",
		"type": "RNAV",
		"updated": "08/25/2009"
	},
	{
		"name": "BOBSS",
		"latitude": "40-17-41.78 N",
		"longitude": "76-45-0.73 W",
		"state": "PENNSYLVANIA",
		"artcc": "ZNY",
		"type": "RP",
		"updated": "ETX*VOR/DME*260.00/51.77"
	},
	{
		"name": "BOBTU",
		"latitude": "44-7-2 N",
		"longitude": "52-49-20 W",
		"state": "",
		"artcc": "ZNY",
		"type": "RNAV",
		"updated": "04/14/2008"
	},
	{
		"name": "BOCKS",
		"latitude": "42-48-15.74 N",
		"longitude": "76-20-30.55 W",
		"state": "NEW YORK",
		"artcc": "ZNY",
		"type": "RP",
		"updated": "GGT*VORTAC*283.50/22.77"
	},
	{
		"name": "BOCRA",
		"latitude": "40-5-25.6 N",
		"longitude": "76-13-39.58 W",
		"state": "PENNSYLVANIA",
		"artcc": "ZNY",
		"type": "RNAV",
		"updated": "06/10/2011"
	},
	{
		"name": "BOHJO",
		"latitude": "39-19-14 N",
		"longitude": "72-15-41 W",
		"state": "OFFSHORE ATLANTIC",
		"artcc": "ZNY",
		"type": "WP",
		"updated": "03/26/2002"
	},
	{
		"name": "BOJAN",
		"latitude": "38-10-54 N",
		"longitude": "72-58-34 W",
		"state": "OFFSHORE ATLANTIC",
		"artcc": "ZNY",
		"type": "RNAV",
		"updated": "03/23/2018"
	},
	{
		"name": "BOJID",
		"latitude": "40-3-20.87 N",
		"longitude": "75-12-16.25 W",
		"state": "PENNSYLVANIA",
		"artcc": "ZNY",
		"type": "RNAV",
		"updated": "09/26/2002"
	},
	{
		"name": "BOJRY",
		"latitude": "40-1-6.96 N",
		"longitude": "76-7-3.21 W",
		"state": "PENNSYLVANIA",
		"artcc": "ZNY",
		"type": "RNAV",
		"updated": "06/18/2008"
	},
	{
		"name": "BOMTE",
		"latitude": "40-45-50.93 N",
		"longitude": "74-51-48.8 W",
		"state": "NEW JERSEY",
		"artcc": "ZNY",
		"type": "RNAV",
		"updated": "02/25/2003"
	},
	{
		"name": "BONIE",
		"latitude": "40-28-22.45 N",
		"longitude": "74-27-29.62 W",
		"state": "NEW JERSEY",
		"artcc": "ZNY",
		"type": "RP",
		"updated": "JFK*VOR/DME*265.24/32.84"
	},
	{
		"name": "BOPLY",
		"latitude": "40-32-47.79 N",
		"longitude": "75-11-7.06 W",
		"state": "PENNSYLVANIA",
		"artcc": "ZNY",
		"type": "RP",
		"updated": "SBJ*VOR/DME*274.00"
	},
	{
		"name": "BOREX",
		"latitude": "28-51-5.1 N",
		"longitude": "70-58-0.44 W",
		"state": "OFFSHORE ATLANTIC",
		"artcc": "ZNY",
		"type": "RNAV",
		"updated": "05/27/2008"
	},
	{
		"name": "BORKE",
		"latitude": "40-10-11.86 N",
		"longitude": "74-22-32.4 W",
		"state": "NEW JERSEY",
		"artcc": "ZNY",
		"type": "MR",
		"updated": "GXU*VORTAC*058.51/14.00"
	},
	{
		"name": "BORNN",
		"latitude": "32-20-41.18 N",
		"longitude": "64-34-0.45 W",
		"state": "OFFSHORE ATLANTIC",
		"artcc": "ZNY",
		"type": "RNAV",
		"updated": "01/10/2017"
	},
	{
		"name": "BOTLS",
		"latitude": "40-55-8.24 N",
		"longitude": "74-49-48.79 W",
		"state": "NEW JERSEY",
		"artcc": "ZNY",
		"type": "RNAV",
		"updated": "06/30/2015"
	},
	{
		"name": "BOUCK",
		"latitude": "40-20-6.94 N",
		"longitude": "74-24-15.67 W",
		"state": "NEW JERSEY",
		"artcc": "ZNY",
		"type": "RP",
		"updated": "11/05/1999"
	},
	{
		"name": "BOUHN",
		"latitude": "40-10-9.12 N",
		"longitude": "76-29-56.19 W",
		"state": "PENNSYLVANIA",
		"artcc": "ZNY",
		"type": "RP",
		"updated": "LRP*VOR/DME*296.24/10.00"
	},
	{
		"name": "BOUNC",
		"latitude": "40-45-57.16 N",
		"longitude": "75-26-9.6 W",
		"state": "PENNSYLVANIA",
		"artcc": "ZNY",
		"type": "RP",
		"updated": "FJC*VORTAC*030.00/2.50"
	},
	{
		"name": "BOUNO",
		"latitude": "40-21-55.55 N",
		"longitude": "73-27-25.39 W",
		"state": "NEW YORK",
		"artcc": "ZNY",
		"type": "RP",
		"updated": "DPK*VOR/DME*207.39/26.51"
	},
	{
		"name": "BOVAY",
		"latitude": "40-55-21.54 N",
		"longitude": "76-46-39.59 W",
		"state": "PENNSYLVANIA",
		"artcc": "ZNY",
		"type": "RNAV",
		"updated": "04/26/2012"
	},
	{
		"name": "BOVIC",
		"latitude": "34-52-24.54 N",
		"longitude": "66-40-3.29 W",
		"state": "OFFSHORE ATLANTIC",
		"artcc": "ZNY",
		"type": "RNAV",
		"updated": "01/10/2017"
	},
	{
		"name": "BOXBU",
		"latitude": "40-13-8 N",
		"longitude": "68-31-55.1 W",
		"state": "OFFSHORE ATLANTIC",
		"artcc": "ZNY",
		"type": "WP",
		"updated": "03/26/2002"
	},
	{
		"name": "BOXZE",
		"latitude": "40-28-34.39 N",
		"longitude": "74-41-31.91 W",
		"state": "NEW JERSEY",
		"artcc": "ZNY",
		"type": "RNAV",
		"updated": "03/10/2011"
	},
	{
		"name": "BOYER",
		"latitude": "40-16-36.84 N",
		"longitude": "76-5-9.38 W",
		"state": "PENNSYLVANIA",
		"artcc": "ZNY",
		"type": "RP",
		"updated": "PTW*VORTAC*286.89"
	},
	{
		"name": "BRACK",
		"latitude": "39-34-56 N",
		"longitude": "71-59-33 W",
		"state": "OFFSHORE ATLANTIC",
		"artcc": "ZNY",
		"type": "WP",
		"updated": "03/26/2002"
	},
	{
		"name": "BRAGG",
		"latitude": "40-27-11.05 N",
		"longitude": "76-7-41.43 W",
		"state": "PENNSYLVANIA",
		"artcc": "ZNY",
		"type": "RP",
		"updated": "LRP*VOR/DME*029.50"
	},
	{
		"name": "BRBER",
		"latitude": "40-11-9.88 N",
		"longitude": "76-55-30.89 W",
		"state": "PENNSYLVANIA",
		"artcc": "ZNY",
		"type": "RNAV",
		"updated": "09/29/2017"
	},
	{
		"name": "BRDDA",
		"latitude": "40-27-23.09 N",
		"longitude": "75-33-42.75 W",
		"state": "PENNSYLVANIA",
		"artcc": "ZNY",
		"type": "RNAV",
		"updated": "04/20/2012"
	},
	{
		"name": "BREZY",
		"latitude": "41-9-29.71 N",
		"longitude": "74-8-5.66 W",
		"state": "NEW YORK",
		"artcc": "ZNY",
		"type": "RP",
		"updated": "IGN*VOR/DME*217.00/33.53"
	},
	{
		"name": "BRGNR",
		"latitude": "41-37-34.25 N",
		"longitude": "74-43-8.63 W",
		"state": "NEW YORK",
		"artcc": "ZNY",
		"type": "RNAV",
		"updated": "07/10/2012"
	},
	{
		"name": "BRIGS",
		"latitude": "39-31-24.72 N",
		"longitude": "74-8-19.67 W",
		"state": "NEW JERSEY",
		"artcc": "ZNY",
		"type": "RP",
		"updated": "VCN*VOR/DME*101.00/38.46"
	},
	{
		"name": "BRKZZ",
		"latitude": "27-19-13.87 N",
		"longitude": "64-57-44.45 W",
		"state": "OFFSHORE ATLANTIC",
		"artcc": "ZNY",
		"type": "RNAV",
		"updated": "10/19/2009"
	},
	{
		"name": "BRNAN",
		"latitude": "40-8-7 N",
		"longitude": "77-50-6.7 W",
		"state": "PENNSYLVANIA",
		"artcc": "ZNY",
		"type": "RNAV",
		"updated": "07/07/2009"
	},
	{
		"name": "BROML",
		"latitude": "40-10-19.17 N",
		"longitude": "76-38-22.7 W",
		"state": "PENNSYLVANIA",
		"artcc": "ZNY",
		"type": "RP",
		"updated": "LRP*VOR/DME*290.13/16.33"
	},
	{
		"name": "BUDDS",
		"latitude": "40-55-3.95 N",
		"longitude": "74-35-15.17 W",
		"state": "NEW JERSEY",
		"artcc": "ZNY",
		"type": "RP",
		"updated": "STW*VOR/DME*121.00/14.00"
	},
	{
		"name": "BUDRY",
		"latitude": "40-34-2.32 N",
		"longitude": "75-20-9.15 W",
		"state": "PENNSYLVANIA",
		"artcc": "ZNY",
		"type": "RNAV",
		"updated": "12/16/2015"
	},
	{
		"name": "BUFFY",
		"latitude": "41-56-27.98 N",
		"longitude": "75-36-45.35 W",
		"state": "PENNSYLVANIA",
		"artcc": "ZNY",
		"type": "RP",
		"updated": "CFB*VOR/DME*128.82/26.77"
	},
	{
		"name": "BUKPE",
		"latitude": "40-45-54.68 N",
		"longitude": "73-31-10.87 W",
		"state": "NEW YORK",
		"artcc": "ZNY",
		"type": "RNAV",
		"updated": "03/03/2010"
	},
	{
		"name": "BULSE",
		"latitude": "42-0-12.24 N",
		"longitude": "76-34-40.88 W",
		"state": "NEW YORK",
		"artcc": "ZNY",
		"type": "RNAV",
		"updated": "05/08/2018"
	},
	{
		"name": "BUNTS",
		"latitude": "40-4-56.01 N",
		"longitude": "75-44-54.95 W",
		"state": "PENNSYLVANIA",
		"artcc": "ZNY",
		"type": "RP",
		"updated": "LRP*VOR/DME*104.00/25.09"
	},
	{
		"name": "BUPDE",
		"latitude": "40-35-53.22 N",
		"longitude": "74-33-55.65 W",
		"state": "NEW JERSEY",
		"artcc": "ZNY",
		"type": "RNAV",
		"updated": "01/27/2015"
	},
	{
		"name": "BURAY",
		"latitude": "40-31-52.24 N",
		"longitude": "75-12-0 W",
		"state": "PENNSYLVANIA",
		"artcc": "ZNY",
		"type": "RNAV",
		"updated": "05/10/2013"
	},
	{
		"name": "BURNI",
		"latitude": "40-39-24.64 N",
		"longitude": "77-48-14.09 W",
		"state": "PENNSYLVANIA",
		"artcc": "ZNY",
		"type": "RP",
		"updated": "EWC*VOR/DME*102.47/110.26"
	},
	{
		"name": "BUSKY",
		"latitude": "40-30-8.15 N",
		"longitude": "75-30-6.86 W",
		"state": "PENNSYLVANIA",
		"artcc": "ZNY",
		"type": "RP",
		"updated": "PTW*VORTAC*018.04/17.00"
	},
	{
		"name": "BUTUX",
		"latitude": "18-0-0 N",
		"longitude": "45-22-48 W",
		"state": "OFFSHORE ATLANTIC",
		"artcc": "ZNY",
		"type": "RNAV",
		"updated": "05/02/2008"
	},
	{
		"name": "BUZZD",
		"latitude": "40-45-55.82 N",
		"longitude": "74-7-6.45 W",
		"state": "NEW JERSEY",
		"artcc": "ZNY",
		"type": "RP",
		"updated": "LGA*VOR/DME*276.52"
	},
	{
		"name": "BYRDD",
		"latitude": "40-5-31.93 N",
		"longitude": "75-49-7.29 W",
		"state": "PENNSYLVANIA",
		"artcc": "ZNY",
		"type": "RP",
		"updated": "PTW*VORTAC*245.82/14.22"
	}
]
