	{
		"name": "CACCU",
		"latitude": "39-39-56 N",
		"longitude": "72-7-45 W",
		"state": "OFFSHORE ATLANTIC",
		"artcc": "ZNY",
		"type": "WP",
		"updated": "03/26/2002",
	},
	{
		"name": "CACRA",
		"latitude": "40-24-22.73 N",
		"longitude": "75-8-30.16 W",
		"state": "PENNSYLVANIA",
		"artcc": "ZNY",
		"type": "RNAV",
		"updated": "04/20/2012",
	},
	{
		"name": "CADAX",
		"latitude": "40-31-53.2 N",
		"longitude": "75-34-7.06 W",
		"state": "PENNSYLVANIA",
		"artcc": "ZNY",
		"type": "RNAV",
		"updated": "10/05/2007",
	},
	{
		"name": "CADDO",
		"latitude": "39-57-58.86 N",
		"longitude": "74-41-7.24 W",
		"state": "NEW JERSEY",
		"artcc": "ZNY",
		"type": "RNAV",
		"updated": "01/26/2009",
	},
	{
		"name": "CAGON",
		"latitude": "39-47-37.91 N",
		"longitude": "74-18-58.77 W",
		"state": "NEW JERSEY",
		"artcc": "ZNY",
		"type": "MW",
		"updated": "09/06/2017",
	},
	{
		"name": "CALOS",
		"latitude": "42-1-28.74 N",
		"longitude": "75-41-47.11 W",
		"state": "NEW YORK",
		"artcc": "ZNY",
		"type": "RNAV",
		"updated": "08/10/2006",
	},
	{
		"name": "CAMRN",
		"latitude": "40-1-2.29 N",
		"longitude": "73-51-39.81 W",
		"state": "NEW JERSEY",
		"artcc": "ZNY",
		"type": "RP",
		"updated": "DPK*VOR/DME*221.00/53.00",
	},
	{
		"name": "CAMRU",
		"latitude": "40-25-23.35 N",
		"longitude": "76-35-10.59 W",
		"state": "PENNSYLVANIA",
		"artcc": "ZNY",
		"type": "MW",
		"updated": "08/30/2007",
	},
	{
		"name": "CANBO",
		"latitude": "40-43-4.98 N",
		"longitude": "74-8-54.64 W",
		"state": "NEW JERSEY",
		"artcc": "ZNY",
		"type": "RNAV",
		"updated": "12/12/2005",
	},
	{
		"name": "CANDR",
		"latitude": "40-58-15.55 N",
		"longitude": "74-57-35.38 W",
		"state": "NEW JERSEY",
		"artcc": "ZNY",
		"type": "RP",
		"updated": "BWZ*VOR/DME*339.79",
	},
	{
		"name": "CAPIK",
		"latitude": "41-18-52.32 N",
		"longitude": "75-43-27.29 W",
		"state": "PENNSYLVANIA",
		"artcc": "ZNY",
		"type": "RNAV",
		"updated": "07/14/2006",
	},
	{
		"name": "CAPIL",
		"latitude": "32-29-18.87 N",
		"longitude": "64-31-17.97 W",
		"state": "OFFSHORE ATLANTIC",
		"artcc": "ZNY",
		"type": "RNAV",
		"updated": "01/10/2017",
	},
	{
		"name": "CAPIT",
		"latitude": "40-45-37.99 N",
		"longitude": "73-37-49.46 W",
		"state": "NEW YORK",
		"artcc": "ZNY",
		"type": "RP",
		"updated": "JFK*VOR/DME*052.00/10.00",
	},
	{
		"name": "CAPUB",
		"latitude": "41-17-42.65 N",
		"longitude": "76-52-5.09 W",
		"state": "PENNSYLVANIA",
		"artcc": "ZNY",
		"type": "RNAV",
		"updated": "07/14/2006",
	},
	{
		"name": "CARAC",
		"latitude": "43-0-0 N",
		"longitude": "60-0-0 W",
		"state": "OFFSHORE ATLANTIC",
		"artcc": "ZNY",
		"type": "RNAV",
		"updated": "04/14/2008",
	},
	{
		"name": "CARAK",
		"latitude": "40-34-17.55 N",
		"longitude": "74-27-52.99 W",
		"state": "NEW JERSEY",
		"artcc": "ZNY",
		"type": "RNAV",
		"updated": "04/20/2012",
	},
	{
		"name": "CARIS",
		"latitude": "39-47-29.64 N",
		"longitude": "77-19-19.25 W",
		"state": "PENNSYLVANIA",
		"artcc": "ZNY",
		"type": "RP",
		"updated": "HAR*VORTAC*210.88",
	},
	{
		"name": "CASHH",
		"latitude": "40-25-32.17 N",
		"longitude": "74-11-11.75 W",
		"state": "NEW JERSEY",
		"artcc": "ZNY",
		"type": "RNAV",
		"updated": "07/13/2015",
	},
	{
		"name": "CASLA",
		"latitude": "40-22-27.33 N",
		"longitude": "77-37-43.47 W",
		"state": "PENNSYLVANIA",
		"artcc": "ZNY",
		"type": "RNAV",
		"updated": "02/05/2002",
	},
	{
		"name": "CASUB",
		"latitude": "40-29-38.93 N",
		"longitude": "74-39-26.3 W",
		"state": "NEW JERSEY",
		"artcc": "ZNY",
		"type": "RNAV",
		"updated": "03/10/2011",
	},
	{
		"name": "CASVI",
		"latitude": "40-6-31.35 N",
		"longitude": "74-11-39.45 W",
		"state": "NEW JERSEY",
		"artcc": "ZNY",
		"type": "RP",
		"updated": "CYN*VORTAC*042.00",
	},
	{
		"name": "CATFE",
		"latitude": "39-24-24 N",
		"longitude": "72-21-27 W",
		"state": "OFFSHORE ATLANTIC",
		"artcc": "ZNY",
		"type": "WP",
		"updated": "03/26/2002",
	},
	{
		"name": "CATGU",
		"latitude": "40-26-50.58 N",
		"longitude": "74-38-11.88 W",
		"state": "NEW JERSEY",
		"artcc": "ZNY",
		"type": "RNAV",
		"updated": "12/20/2013",
	},
	{
		"name": "CATOD",
		"latitude": "40-32-33.38 N",
		"longitude": "73-32-14.04 W",
		"state": "NEW YORK",
		"artcc": "ZNY",
		"type": "RP",
		"updated": "DPK*VOR/DME*227.60",
	},
	{
		"name": "CATON",
		"latitude": "42-15-46.46 N",
		"longitude": "76-55-44.06 W",
		"state": "NEW YORK",
		"artcc": "ZNY",
		"type": "RP",
		"updated": "HNK*VOR/DME*291.00",
	},
	{
		"name": "CATXO",
		"latitude": "40-46-43.69 N",
		"longitude": "74-15-13.15 W",
		"state": "NEW JERSEY",
		"artcc": "ZNY",
		"type": "RNAV",
		"updated": "07/27/2009",
	},
	{
		"name": "CATZZ",
		"latitude": "31-4-57.17 N",
		"longitude": "66-56-30.2 W",
		"state": "OFFSHORE ATLANTIC",
		"artcc": "ZNY",
		"type": "RNAV",
		"updated": "08/25/2009",
	},
	{
		"name": "CAVRU",
		"latitude": "40-43-46.48 N",
		"longitude": "75-36-1.88 W",
		"state": "PENNSYLVANIA",
		"artcc": "ZNY",
		"type": "RP",
		"updated": "ETX*VOR/DME*032.15",
	},
	{
		"name": "CAVZA",
		"latitude": "40-39-22.05 N",
		"longitude": "74-40-46.08 W",
		"state": "NEW JERSEY",
		"artcc": "ZNY",
		"type": "RNAV",
		"updated": "06/15/2009",
	},
	{
		"name": "CAXES",
		"latitude": "40-14-48.3 N",
		"longitude": "74-41-16.97 W",
		"state": "NEW JERSEY",
		"artcc": "ZDC",
		"type": "RNAV",
		"updated": "08/16/2012",
	},
	{
		"name": "CAXOP",
		"latitude": "41-9-48.8 N",
		"longitude": "77-2-29.44 W",
		"state": "PENNSYLVANIA",
		"artcc": "ZNY",
		"type": "RNAV",
		"updated": "03/17/2003",
	},
	{
		"name": "CAXUN",
		"latitude": "40-41-41.17 N",
		"longitude": "73-52-19.18 W",
		"state": "NEW YORK",
		"artcc": "ZNY",
		"type": "RP",
		"updated": "LGA*VOR/DME*193.66",
	},
	{
		"name": "CEDDA",
		"latitude": "40-55-45.22 N",
		"longitude": "74-18-45.22 W",
		"state": "NEW JERSEY",
		"artcc": "ZNY",
		"type": "RNAV",
		"updated": "03/05/2007",
	},
	{
		"name": "CEDRR",
		"latitude": "32-14-44.22 N",
		"longitude": "64-35-23.69 W",
		"state": "OFFSHORE ATLANTIC",
		"artcc": "ZNY",
		"type": "RNAV",
		"updated": "01/10/2017",
	},
	{
		"name": "CEETE",
		"latitude": "39-2-44.53 N",
		"longitude": "73-15-26.89 W",
		"state": "OFFSHORE ATLANTIC",
		"artcc": "ZNY",
		"type": "RP",
		"updated": "RBV*VORTAC*150.00/90.00",
	},
	{
		"name": "CEFSY",
		"latitude": "39-57-1 N",
		"longitude": "75-47-50.33 W",
		"state": "PENNSYLVANIA",
		"artcc": "ZNY",
		"type": "RNAV",
		"updated": "02/21/2003",
	},
	{
		"name": "CEGIN",
		"latitude": "40-43-4.04 N",
		"longitude": "77-30-2.37 W",
		"state": "PENNSYLVANIA",
		"artcc": "ZNY",
		"type": "RNAV",
		"updated": "07/17/2006",
	},
	{
		"name": "CEKAN",
		"latitude": "42-9-37.2 N",
		"longitude": "76-35-9.84 W",
		"state": "NEW YORK",
		"artcc": "ZNY",
		"type": "RNAV",
		"updated": "09/12/2012",
	},
	{
		"name": "CELAC",
		"latitude": "39-53-58.14 N",
		"longitude": "77-54-41.63 W",
		"state": "PENNSYLVANIA",
		"artcc": "ZNY",
		"type": "RNAV",
		"updated": "09/03/2003",
	},
	{
		"name": "CELPA",
		"latitude": "40-0-37.6 N",
		"longitude": "75-28-15.72 W",
		"state": "PENNSYLVANIA",
		"artcc": "ZNY",
		"type": "RNAV",
		"updated": "06/25/2015",
	},
	{
		"name": "CEMBU",
		"latitude": "40-53-50.55 N",
		"longitude": "76-47-42.64 W",
		"state": "PENNSYLVANIA",
		"artcc": "ZNY",
		"type": "RNAV",
		"updated": "01/12/2007",
	},
	{
		"name": "CEMFY",
		"latitude": "40-20-35.55 N",
		"longitude": "75-18-8.64 W",
		"state": "PENNSYLVANIA",
		"artcc": "ZNY",
		"type": "RNAV",
		"updated": "04/17/2014",
	},
	{
		"name": "CEMUG",
		"latitude": "40-40-16.35 N",
		"longitude": "73-43-44.94 W",
		"state": "NEW YORK",
		"artcc": "ZNY",
		"type": "RP",
		"updated": "JFK*VOR/DME*052.00/3.00",
	},
	{
		"name": "CEMUS",
		"latitude": "41-29-17.12 N",
		"longitude": "75-51-45.1 W",
		"state": "PENNSYLVANIA",
		"artcc": "ZNY",
		"type": "RNAV",
		"updated": "12/28/2007",
	},
	{
		"name": "CEPNU",
		"latitude": "41-11-42.46 N",
		"longitude": "76-52-5.09 W",
		"state": "PENNSYLVANIA",
		"artcc": "ZNY",
		"type": "RNAV",
		"updated": "07/18/2006",
	},
	{
		"name": "CERNI",
		"latitude": "40-9-29.99 N",
		"longitude": "76-23-9.11 W",
		"state": "PENNSYLVANIA",
		"artcc": "ZNY",
		"type": "RNAV",
		"updated": "04/12/2004",
	},
	{
		"name": "CERTS",
		"latitude": "39-56-20.92 N",
		"longitude": "75-36-57.51 W",
		"state": "PENNSYLVANIA",
		"artcc": "ZNY",
		"type": "RP",
		"updated": "DQO*VORTAC*008.50",
	},
	{
		"name": "CERUP",
		"latitude": "42-14-25.38 N",
		"longitude": "76-45-43.67 W",
		"state": "NEW YORK",
		"artcc": "ZNY",
		"type": "RNAV",
		"updated": "08/06/2012",
	},
	{
		"name": "CESED",
		"latitude": "40-12-49.56 N",
		"longitude": "76-30-55.78 W",
		"state": "PENNSYLVANIA",
		"artcc": "ZNY",
		"type": "RNAV",
		"updated": "06/10/2011",
	},
	{
		"name": "CESID",
		"latitude": "40-33-7.3 N",
		"longitude": "73-52-59.82 W",
		"state": "NEW YORK",
		"artcc": "ZNY",
		"type": "RNAV",
		"updated": "12/22/2005",
	},
	{
		"name": "CETEL",
		"latitude": "40-8-55.73 N",
		"longitude": "76-13-48.83 W",
		"state": "PENNSYLVANIA",
		"artcc": "ZNY",
		"type": "RP",
		"updated": "LRP*VOR/DME*067.37/3.30",
	},
	{
		"name": "CETZO",
		"latitude": "40-54-10.7 N",
		"longitude": "75-9-27.81 W",
		"state": "PENNSYLVANIA",
		"artcc": "ZNY",
		"type": "RNAV",
		"updated": "06/27/2005",
	},
	{
		"name": "CEXEG",
		"latitude": "41-24-4.23 N",
		"longitude": "75-47-26.3 W",
		"state": "PENNSYLVANIA",
		"artcc": "ZNY",
		"type": "RNAV",
		"updated": "07/18/2006",
	},
	{
		"name": "CEXIR",
		"latitude": "40-19-55.54 N",
		"longitude": "75-29-30.05 W",
		"state": "PENNSYLVANIA",
		"artcc": "ZNY",
		"type": "RNAV",
		"updated": "10/29/2009",
	},
	{
		"name": "CFBGX",
		"latitude": "40-58-16.17 N",
		"longitude": "77-38-13.31 W",
		"state": "PENNSYLVANIA",
		"artcc": "ZNY",
		"type": "CN",
		"updated": "04/04/2012",
	},
	{
		"name": "CFBMF",
		"latitude": "40-37-42.61 N",
		"longitude": "73-50-29.1 W",
		"state": "NEW YORK",
		"artcc": "ZNY",
		"type": "CN",
		"updated": "03/20/2013",
	},
	{
		"name": "CFBMG",
		"latitude": "40-37-58.97 N",
		"longitude": "73-49-32.24 W",
		"state": "NEW YORK",
		"artcc": "ZNY",
		"type": "CN",
		"updated": "03/20/2013",
	},
	{
		"name": "CFBML",
		"latitude": "40-39-23.81 N",
		"longitude": "73-39-5.92 W",
		"state": "NEW YORK",
		"artcc": "ZNY",
		"type": "CN",
		"updated": "05/15/2013",
	},
	{
		"name": "CFBMM",
		"latitude": "40-52-18.18 N",
		"longitude": "74-9-40.09 W",
		"state": "NEW JERSEY",
		"artcc": "ZNY",
		"type": "CN",
		"updated": "04/08/2013",
	},
	{
		"name": "CFBMP",
		"latitude": "40-43-42.11 N",
		"longitude": "74-10-50.07 W",
		"state": "NEW JERSEY",
		"artcc": "ZNY",
		"type": "CN",
		"updated": "04/08/2013",
	},
	{
		"name": "CFBMQ",
		"latitude": "40-50-25.63 N",
		"longitude": "74-8-34.83 W",
		"state": "NEW JERSEY",
		"artcc": "ZNY",
		"type": "CN",
		"updated": "04/08/2013",
	},
	{
		"name": "CFBNN",
		"latitude": "40-15-17.73 N",
		"longitude": "75-21-37.45 W",
		"state": "PENNSYLVANIA",
		"artcc": "ZNY",
		"type": "CN",
		"updated": "04/17/2014",
	},
	{
		"name": "CFBNP",
		"latitude": "40-47-53.95 N",
		"longitude": "73-48-54.63 W",
		"state": "NEW YORK",
		"artcc": "ZNY",
		"type": "CN",
		"updated": "10/31/2013",
	},
	{
		"name": "CFBNQ",
		"latitude": "40-40-18.87 N",
		"longitude": "74-6-32.49 W",
		"state": "NEW JERSEY",
		"artcc": "ZNY",
		"type": "CN",
		"updated": "07/16/2014",
	},
	{
		"name": "CFBNR",
		"latitude": "40-34-30.44 N",
		"longitude": "74-8-25.67 W",
		"state": "NEW YORK",
		"artcc": "ZNY",
		"type": "CN",
		"updated": "07/16/2014",
	},
	{
		"name": "CFBNS",
		"latitude": "40-38-10.24 N",
		"longitude": "74-17-14.57 W",
		"state": "NEW JERSEY",
		"artcc": "ZNY",
		"type": "CN",
		"updated": "07/16/2014",
	},
	{
		"name": "CFCCJ",
		"latitude": "40-23-37.16 N",
		"longitude": "75-19-18.68 W",
		"state": "PENNSYLVANIA",
		"artcc": "ZNY",
		"type": "CN",
		"updated": "01/03/2017",
	},
	{
		"name": "CFCHC",
		"latitude": "40-48-57.04 N",
		"longitude": "76-51-27.6 W",
		"state": "PENNSYLVANIA",
		"artcc": "ZNY",
		"type": "CN",
		"updated": "08/24/2017",
	},
	{
		"name": "CFDRR",
		"latitude": "40-9-11.48 N",
		"longitude": "77-5-46.88 W",
		"state": "PENNSYLVANIA",
		"artcc": "ZNY",
		"type": "CN",
		"updated": "06/12/2014",
	},
	{
		"name": "CFDSB",
		"latitude": "40-4-13.05 N",
		"longitude": "75-1-51.04 W",
		"state": "PENNSYLVANIA",
		"artcc": "ZNY",
		"type": "CN",
		"updated": "04/06/2018",
	},
	{
		"name": "CFFHG",
		"latitude": "40-14-28.15 N",
		"longitude": "74-56-40.36 W",
		"state": "PENNSYLVANIA",
		"artcc": "ZDC",
		"type": "CN",
		"updated": "08/16/2012",
	},
	{
		"name": "CFFHH",
		"latitude": "40-10-37.6 N",
		"longitude": "74-51-54.26 W",
		"state": "PENNSYLVANIA",
		"artcc": "ZDC",
		"type": "CN",
		"updated": "08/16/2012",
	},
	{
		"name": "CFFHJ",
		"latitude": "40-16-43.1 N",
		"longitude": "74-43-35.17 W",
		"state": "NEW JERSEY",
		"artcc": "ZNY",
		"type": "CN",
		"updated": "08/16/2012",
	},
	{
		"name": "CFFHL",
		"latitude": "40-16-38.96 N",
		"longitude": "74-43-35.25 W",
		"state": "NEW JERSEY",
		"artcc": "ZNY",
		"type": "CN",
		"updated": "08/16/2012",
	},
	{
		"name": "CFFOM",
		"latitude": "40-59-45.83 N",
		"longitude": "74-1-27.96 W",
		"state": "NEW JERSEY",
		"artcc": "ZNY",
		"type": "CN",
		"updated": "12/04/2014",
	},
	{
		"name": "CFGDQ",
		"latitude": "40-49-3.12 N",
		"longitude": "74-4-59.46 W",
		"state": "NEW JERSEY",
		"artcc": "ZNY",
		"type": "CN",
		"updated": "12/04/2014",
	},
	{
		"name": "CFRQT",
		"latitude": "41-14-50.39 N",
		"longitude": "76-55-35.39 W",
		"state": "PENNSYLVANIA",
		"artcc": "ZNY",
		"type": "CN",
		"updated": "04/24/2017",
	},
	{
		"name": "CFVFS",
		"latitude": "41-0-55.17 N",
		"longitude": "73-19-59.38 W",
		"state": "CONNECTICUT",
		"artcc": "ZNY",
		"type": "CN",
		"updated": "04/24/2017",
	},
	{
		"name": "CFVHL",
		"latitude": "40-44-49.56 N",
		"longitude": "73-51-6.65 W",
		"state": "NEW YORK",
		"artcc": "ZNY",
		"type": "CN",
		"updated": "12/18/2017",
	},
	{
		"name": "CFVTQ",
		"latitude": "40-48-0.99 N",
		"longitude": "73-31-0.94 W",
		"state": "NEW YORK",
		"artcc": "ZNY",
		"type": "CN",
		"updated": "09/24/2012",
	},
	{
		"name": "CHAIR",
		"latitude": "40-11-49.09 N",
		"longitude": "74-21-48.2 W",
		"state": "NEW JERSEY",
		"artcc": "ZNY",
		"type": "RP",
		"updated": "COL*VOR/DME*244.76",
	},
	{
		"name": "CHALN",
		"latitude": "40-40-27.79 N",
		"longitude": "73-39-11.77 W",
		"state": "NEW YORK",
		"artcc": "ZNY",
		"type": "RNAV",
		"updated": "06/20/2012",
	},
	{
		"name": "CHANT",
		"latitude": "40-18-58.29 N",
		"longitude": "73-45-24.99 W",
		"state": "NEW YORK",
		"artcc": "ZNY",
		"type": "RP",
		"updated": "RBV*VORTAC*088.38/34.58",
	},
	{
		"name": "CHESA",
		"latitude": "40-35-38.64 N",
		"longitude": "74-13-51.78 W",
		"state": "NEW JERSEY",
		"artcc": "ZNY",
		"type": "RP",
		"updated": "EWR*LD*218.82/7.37",
	},
	{
		"name": "CHEWE",
		"latitude": "40-43-57.93 N",
		"longitude": "74-50-15.61 W",
		"state": "NEW JERSEY",
		"artcc": "ZNY",
		"type": "RNAV",
		"updated": "08/25/2015",
	},
	{
		"name": "CHLSE",
		"latitude": "40-40-36.12 N",
		"longitude": "76-14-59.79 W",
		"state": "PENNSYLVANIA",
		"artcc": "ZNY",
		"type": "RP",
		"updated": "LRP*VOR/DME*012.24",
	},
	{
		"name": "CHNZO",
		"latitude": "40-53-54.38 N",
		"longitude": "73-54-37.72 W",
		"state": "NEW YORK",
		"artcc": "ZNY",
		"type": "RNAV",
		"updated": "01/26/2017",
	},
	{
		"name": "CHUBY",
		"latitude": "36-2-23.92 N",
		"longitude": "72-19-36.19 W",
		"state": "OFFSHORE ATLANTIC",
		"artcc": "ZNY",
		"type": "RNAV",
		"updated": "09/15/2016",
	},
	{
		"name": "CHUGG",
		"latitude": "40-49-1.96 N",
		"longitude": "73-56-40.31 W",
		"state": "NEW YORK",
		"artcc": "ZNY",
		"type": "RP",
		"updated": "LGA*VOR/DME*312.16/4.00",
	},
	{
		"name": "CHUMR",
		"latitude": "40-41-57.2 N",
		"longitude": "74-7-34.81 W",
		"state": "NEW JERSEY",
		"artcc": "ZNY",
		"type": "RNAV",
		"updated": "06/20/2012",
	},
	{
		"name": "CICAT",
		"latitude": "40-50-23.79 N",
		"longitude": "75-16-5.02 W",
		"state": "PENNSYLVANIA",
		"artcc": "ZNY",
		"type": "RNAV",
		"updated": "05/13/2013",
	},
	{
		"name": "CIGUN",
		"latitude": "40-38-5.41 N",
		"longitude": "77-25-37.81 W",
		"state": "PENNSYLVANIA",
		"artcc": "ZNY",
		"type": "RNAV",
		"updated": "07/18/2006",
	},
	{
		"name": "CILDA",
		"latitude": "40-25-24.94 N",
		"longitude": "75-17-6.58 W",
		"state": "PENNSYLVANIA",
		"artcc": "ZNY",
		"type": "RNAV",
		"updated": "04/20/2012",
	},
	{
		"name": "CILGI",
		"latitude": "41-25-6.49 N",
		"longitude": "75-37-56.26 W",
		"state": "PENNSYLVANIA",
		"artcc": "ZNY",
		"type": "RNAV",
		"updated": "05/30/2012",
	},
	{
		"name": "CILID",
		"latitude": "41-40-58.29 N",
		"longitude": "76-1-12.94 W",
		"state": "PENNSYLVANIA",
		"artcc": "ZNY",
		"type": "RNAV",
		"updated": "07/19/2006",
	},
	{
		"name": "CIMBL",
		"latitude": "40-45-1.98 N",
		"longitude": "74-0-43.79 W",
		"state": "NEW YORK",
		"artcc": "ZNY",
		"type": "RNAV",
		"updated": "02/04/2010",
	},
	{
		"name": "CINCE",
		"latitude": "38-15-19 N",
		"longitude": "73-7-5 W",
		"state": "OFFSHORE ATLANTIC",
		"artcc": "ZNY",
		"type": "WP",
		"updated": "03/26/2002",
	},
	{
		"name": "CINUP",
		"latitude": "40-19-19.2 N",
		"longitude": "74-19-3.5 W",
		"state": "NEW JERSEY",
		"artcc": "ZNY",
		"type": "RNAV",
		"updated": "03/27/2012",
	},
	{
		"name": "CIPIX",
		"latitude": "40-18-52.07 N",
		"longitude": "75-21-11.53 W",
		"state": "PENNSYLVANIA",
		"artcc": "ZNY",
		"type": "RNAV",
		"updated": "03/13/2017",
	},
	{
		"name": "CISEL",
		"latitude": "42-30-52.75 N",
		"longitude": "76-33-2.44 W",
		"state": "NEW YORK",
		"artcc": "ZNY",
		"type": "RNAV",
		"updated": "11/28/2017",
	},
	{
		"name": "CITIT",
		"latitude": "40-57-45.68 N",
		"longitude": "76-39-54.37 W",
		"state": "PENNSYLVANIA",
		"artcc": "ZNY",
		"type": "RNAV",
		"updated": "12/11/2017",
	},
	{
		"name": "CITOM",
		"latitude": "41-44-29.53 N",
		"longitude": "75-49-1.85 W",
		"state": "PENNSYLVANIA",
		"artcc": "ZNY",
		"type": "RNAV",
		"updated": "07/20/2006",
	},
	{
		"name": "CITRS",
		"latitude": "18-0-0 N",
		"longitude": "59-0-0 W",
		"state": "OFFSHORE ATLANTIC",
		"artcc": "ZNY",
		"type": "RNAV",
		"updated": "08/15/2017",
	},
	{
		"name": "CITUM",
		"latitude": "40-4-30.32 N",
		"longitude": "74-29-53.5 W",
		"state": "NEW JERSEY",
		"artcc": "ZNY",
		"type": "MR",
		"updated": "GXU*VORTAC*061.00/6.00",
	},
	{
		"name": "CIXAL",
		"latitude": "40-39-50.69 N",
		"longitude": "74-10-58.17 W",
		"state": "NEW JERSEY",
		"artcc": "ZNY",
		"type": "RNAV",
		"updated": "01/05/2010",
	},
	{
		"name": "CIXAT",
		"latitude": "41-2-9 N",
		"longitude": "77-32-45.4 W",
		"state": "PENNSYLVANIA",
		"artcc": "ZNY",
		"type": "RNAV",
		"updated": "07/21/2006",
	},
	{
		"name": "CLAKE",
		"latitude": "41-26-11.9 N",
		"longitude": "74-8-29.09 W",
		"state": "NEW YORK",
		"artcc": "ZNY",
		"type": "RNAV",
		"updated": "07/24/2012",
	},
	{
		"name": "CLAMI",
		"latitude": "39-50-39.07 N",
		"longitude": "74-48-38.74 W",
		"state": "NEW JERSEY",
		"artcc": "ZNY",
		"type": "MR",
		"updated": "GXU*VORTAC*/14.00",
	},
	{
		"name": "CLAND",
		"latitude": "42-1-19.64 N",
		"longitude": "76-38-24.8 W",
		"state": "NEW YORK",
		"artcc": "ZNY",
		"type": "RNAV",
		"updated": "05/08/2018",
	},
	{
		"name": "CLEEO",
		"latitude": "40-39-11.56 N",
		"longitude": "74-4-22.22 W",
		"state": "NEW JERSEY",
		"artcc": "ZNY",
		"type": "RNAV",
		"updated": "02/04/2010",
	},
	{
		"name": "CLETT",
		"latitude": "26-38-21.9 N",
		"longitude": "74-45-57.52 W",
		"state": "OFFSHORE ATLANTIC",
		"artcc": "ZNY",
		"type": "RNAV",
		"updated": "04/14/2008",
	},
	{
		"name": "CLIPR",
		"latitude": "39-26-53.17 N",
		"longitude": "76-25-19.09 W",
		"state": "MARYLAND",
		"artcc": "ZNY",
		"type": "RP",
		"updated": "BAL*VORTAC*044.79/20.00",
	},
	{
		"name": "CLUES",
		"latitude": "32-39-28.28 N",
		"longitude": "65-10-49.47 W",
		"state": "OFFSHORE ATLANTIC",
		"artcc": "ZNY",
		"type": "RNAV",
		"updated": "02/27/2018",
	},
	{
		"name": "CNTER",
		"latitude": "42-13-11.04 N",
		"longitude": "76-58-20.57 W",
		"state": "NEW YORK",
		"artcc": "ZNY",
		"type": "RP",
		"updated": "CFB*VOR/DME*286.00",
	},
	{
		"name": "COATE",
		"latitude": "41-8-10.42 N",
		"longitude": "74-41-42.6 W",
		"state": "NEW JERSEY",
		"artcc": "ZNY",
		"type": "RP",
		"updated": "HUO*VOR/DME*206.98/17.05",
	},
	{
		"name": "COBEK",
		"latitude": "41-10-13.74 N",
		"longitude": "76-4-41.39 W",
		"state": "PENNSYLVANIA",
		"artcc": "ZNY",
		"type": "RNAV",
		"updated": "05/30/2012",
	},
	{
		"name": "COBOV",
		"latitude": "40-41-25.49 N",
		"longitude": "75-19-43.69 W",
		"state": "PENNSYLVANIA",
		"artcc": "ZNY",
		"type": "RP",
		"updated": "SBJ*VOR/DME*293.69",
	},
	{
		"name": "CODIP",
		"latitude": "41-12-58.91 N",
		"longitude": "76-47-38.74 W",
		"state": "PENNSYLVANIA",
		"artcc": "ZNY",
		"type": "RNAV",
		"updated": "07/05/2011",
	},
	{
		"name": "CODOL",
		"latitude": "40-43-35.47 N",
		"longitude": "74-28-58.97 W",
		"state": "NEW JERSEY",
		"artcc": "ZNY",
		"type": "RNAV",
		"updated": "04/13/2011",
	},
	{
		"name": "COGIP",
		"latitude": "42-16-17.4 N",
		"longitude": "79-55-50.57 W",
		"state": "PENNSYLVANIA",
		"artcc": "ZNY",
		"type": "RNAV",
		"updated": "02/23/2004",
	},
	{
		"name": "COGSU",
		"latitude": "40-33-15 N",
		"longitude": "74-4-15 W",
		"state": "NEW JERSEY",
		"artcc": "ZNY",
		"type": "RNAV",
		"updated": "01/05/2010",
	},
	{
		"name": "COHOP",
		"latitude": "40-49-58.38 N",
		"longitude": "73-48-29.46 W",
		"state": "NEW YORK",
		"artcc": "ZNY",
		"type": "RP",
		"updated": "JFK*VOR/DME*004.05",
	},
	{
		"name": "COLEX",
		"latitude": "39-45-26 N",
		"longitude": "74-43-33 W",
		"state": "NEW JERSEY",
		"artcc": "ZNY",
		"type": "MW",
		"updated": "08/12/2009",
	},
	{
		"name": "COLLY",
		"latitude": "41-34-42.37 N",
		"longitude": "76-28-0.99 W",
		"state": "PENNSYLVANIA",
		"artcc": "ZNY",
		"type": "RP",
		"updated": "HNK*VOR/DME*252.00",
	},
	{
		"name": "COLOV",
		"latitude": "40-52-35.66 N",
		"longitude": "76-55-26.89 W",
		"state": "PENNSYLVANIA",
		"artcc": "ZNY",
		"type": "RNAV",
		"updated": "12/04/2006",
	},
	{
		"name": "COMOK",
		"latitude": "41-3-32.76 N",
		"longitude": "74-8-46.99 W",
		"state": "NEW JERSEY",
		"artcc": "ZNY",
		"type": "RNAV",
		"updated": "07/28/2009",
	},
	{
		"name": "COMOL",
		"latitude": "40-44-0.78 N",
		"longitude": "77-32-33.29 W",
		"state": "PENNSYLVANIA",
		"artcc": "ZNY",
		"type": "RNAV",
		"updated": "06/17/2008",
	},
	{
		"name": "CONAC",
		"latitude": "42-6-36.75 N",
		"longitude": "76-58-25.51 W",
		"state": "NEW YORK",
		"artcc": "ZNY",
		"type": "RP",
		"updated": "ULW*VOR/DME*/2.48",
	},
	{
		"name": "CONEB",
		"latitude": "39-55-33.6 N",
		"longitude": "74-39-51.28 W",
		"state": "NEW JERSEY",
		"artcc": "ZNY",
		"type": "MR",
		"updated": "GXU*VORTAC*224.00/5.90",
	},
	{
		"name": "CONUL",
		"latitude": "42-25-28 N",
		"longitude": "76-21-37.79 W",
		"state": "NEW YORK",
		"artcc": "ZNY",
		"type": "RNAV",
		"updated": "06/24/2010",
	},
	{
		"name": "COPES",
		"latitude": "40-7-50.57 N",
		"longitude": "75-22-36.37 W",
		"state": "PENNSYLVANIA",
		"artcc": "ZNY",
		"type": "RP",
		"updated": "RBV*VORTAC*274.24/40.78",
	},
	{
		"name": "COPIX",
		"latitude": "40-12-32.9 N",
		"longitude": "74-54-17.24 W",
		"state": "PENNSYLVANIA",
		"artcc": "ZDC",
		"type": "RP",
		"updated": "GXU*VORTAC*322.25",
	},
	{
		"name": "COPKO",
		"latitude": "40-41-51.9 N",
		"longitude": "74-6-17.85 W",
		"state": "NEW JERSEY",
		"artcc": "ZNY",
		"type": "RNAV",
		"updated": "05/24/2012",
	},
	{
		"name": "CORDS",
		"latitude": "41-34-11.04 N",
		"longitude": "75-8-23.5 W",
		"state": "PENNSYLVANIA",
		"artcc": "ZNY",
		"type": "RP",
		"updated": "LGA*VOR/DME*321.71/74.42",
	},
	{
		"name": "COREM",
		"latitude": "40-10-58.7 N",
		"longitude": "75-15-59.08 W",
		"state": "PENNSYLVANIA",
		"artcc": "ZNY",
		"type": "RNAV",
		"updated": "01/26/2012",
	},
	{
		"name": "CORGO",
		"latitude": "40-10-28.93 N",
		"longitude": "76-58-9.55 W",
		"state": "PENNSYLVANIA",
		"artcc": "ZNY",
		"type": "RNAV",
		"updated": "07/24/2006",
	},
	{
		"name": "CORLE",
		"latitude": "41-26-39.5 N",
		"longitude": "75-33-9.21 W",
		"state": "PENNSYLVANIA",
		"artcc": "ZNY",
		"type": "RP",
		"updated": "HUO*VOR/DME*284.06",
	},
	{
		"name": "COROR",
		"latitude": "40-48-12.87 N",
		"longitude": "73-55-23.26 W",
		"state": "NEW YORK",
		"artcc": "ZNY",
		"type": "RP",
		"updated": "GDI*LD*314.13/2.80",
	},
	{
		"name": "CORTA",
		"latitude": "42-40-25.65 N",
		"longitude": "76-4-34.93 W",
		"state": "NEW YORK",
		"artcc": "ZNY",
		"type": "RP",
		"updated": "ITH*VOR/DME*067.64/20.10",
	},
	{
		"name": "CORTO",
		"latitude": "40-38-45.7 N",
		"longitude": "74-6-19.94 W",
		"state": "NEW JERSEY",
		"artcc": "ZNY",
		"type": "RNAV",
		"updated": "02/02/2009",
	},
	{
		"name": "CORUS",
		"latitude": "40-59-46.5 N",
		"longitude": "76-26-27.36 W",
		"state": "PENNSYLVANIA",
		"artcc": "ZNY",
		"type": "RP",
		"updated": "MIP*VORTAC*108.00/10.32",
	},
	{
		"name": "CORVT",
		"latitude": "40-47-59.41 N",
		"longitude": "73-39-28.33 W",
		"state": "NEW YORK",
		"artcc": "ZNY",
		"type": "RP",
		"updated": "JOC*LD*NE CRS/10.09",
	},
	{
		"name": "CORZY",
		"latitude": "41-36-43.32 N",
		"longitude": "74-18-36.64 W",
		"state": "NEW YORK",
		"artcc": "ZNY",
		"type": "RNAV",
		"updated": "02/09/2018",
	},
	{
		"name": "COSAY",
		"latitude": "40-0-2 N",
		"longitude": "76-0-8.5 W",
		"state": "PENNSYLVANIA",
		"artcc": "ZNY",
		"type": "RNAV",
		"updated": "06/18/2008",
	},
	{
		"name": "COSBY",
		"latitude": "41-30-8.48 N",
		"longitude": "75-34-29.29 W",
		"state": "PENNSYLVANIA",
		"artcc": "ZNY",
		"type": "RP",
		"updated": "LVZ*VORTAC*030.58/14.71",
	},
	{
		"name": "COTAX",
		"latitude": "40-19-25.27 N",
		"longitude": "75-57-6.06 W",
		"state": "PENNSYLVANIA",
		"artcc": "ZNY",
		"type": "RNAV",
		"updated": "07/09/2009",
	},
	{
		"name": "COVER",
		"latitude": "42-18-30.56 N",
		"longitude": "76-53-33.25 W",
		"state": "NEW YORK",
		"artcc": "ZNY",
		"type": "RP",
		"updated": "BUF*VOR/DME*123.00",
	},
	{
		"name": "COVIR",
		"latitude": "40-26-46.64 N",
		"longitude": "74-1-35.9 W",
		"state": "NEW JERSEY",
		"artcc": "ZNY",
		"type": "RNAV",
		"updated": "03/20/2013",
	},
	{
		"name": "COVOB",
		"latitude": "40-56-45.21 N",
		"longitude": "77-6-50.28 W",
		"state": "PENNSYLVANIA",
		"artcc": "ZNY",
		"type": "RP",
		"updated": "SEG*VOR/DME*319.69/14.00",
	},
	{
		"name": "COVOJ",
		"latitude": "41-43-51.85 N",
		"longitude": "77-16-46.76 W",
		"state": "PENNSYLVANIA",
		"artcc": "ZNY",
		"type": "RNAV",
		"updated": "09/04/2012",
	},
	{
		"name": "COWAD",
		"latitude": "40-5-24.46 N",
		"longitude": "75-20-13.15 W",
		"state": "PENNSYLVANIA",
		"artcc": "ZNY",
		"type": "RP",
		"updated": "ARD*VOR/DME*253.78",
	},
	{
		"name": "COWPA",
		"latitude": "40-39-52.11 N",
		"longitude": "75-13-2.82 W",
		"state": "PENNSYLVANIA",
		"artcc": "ZNY",
		"type": "RNAV",
		"updated": "12/16/2015",
	},
	{
		"name": "COWWE",
		"latitude": "40-36-16.66 N",
		"longitude": "74-13-13.99 W",
		"state": "NEW JERSEY",
		"artcc": "ZNY",
		"type": "RNAV",
		"updated": "07/16/2014",
	},
	{
		"name": "COYAC",
		"latitude": "40-7-31.24 N",
		"longitude": "76-16-47.71 W",
		"state": "PENNSYLVANIA",
		"artcc": "ZNY",
		"type": "RP",
		"updated": "LRP*VOR/DME*067.38/0.62",
	},
	{
		"name": "CRANK",
		"latitude": "41-24-59.79 N",
		"longitude": "74-23-19.93 W",
		"state": "NEW YORK",
		"artcc": "ZNY",
		"type": "RP",
		"updated": "HUO*VOR/DME*098.34",
	},
	{
		"name": "CREEL",
		"latitude": "40-26-50.51 N",
		"longitude": "73-33-10.68 W",
		"state": "NEW YORK",
		"artcc": "ZNY",
		"type": "RP",
		"updated": "RBV*VORTAC*080.93/45.66",
	},
	{
		"name": "CRMRY",
		"latitude": "40-53-26.57 N",
		"longitude": "77-34-10.7 W",
		"state": "PENNSYLVANIA",
		"artcc": "ZNY",
		"type": "RNAV",
		"updated": "11/21/2005",
	},
	{
		"name": "CUBMO",
		"latitude": "40-50-22.06 N",
		"longitude": "74-4-15.89 W",
		"state": "NEW JERSEY",
		"artcc": "ZNY",
		"type": "RNAV",
		"updated": "12/12/2005",
	},
	{
		"name": "CUDBA",
		"latitude": "40-48-54.58 N",
		"longitude": "77-54-28.43 W",
		"state": "PENNSYLVANIA",
		"artcc": "ZNY",
		"type": "RNAV",
		"updated": "09/01/2016",
	},
	{
		"name": "CUGAN",
		"latitude": "39-23-49.32 N",
		"longitude": "76-39-27.21 W",
		"state": "MARYLAND",
		"artcc": "ZNY",
		"type": "RNAV",
		"updated": "05/20/2009",
	},
	{
		"name": "CUGON",
		"latitude": "40-9-44.8 N",
		"longitude": "74-22-0.53 W",
		"state": "NEW JERSEY",
		"artcc": "ZNY",
		"type": "MR",
		"updated": "GXU*VORTAC*061.00/14.00",
	},
	{
		"name": "CUGPO",
		"latitude": "40-16-0.53 N",
		"longitude": "77-1-13.18 W",
		"state": "PENNSYLVANIA",
		"artcc": "ZNY",
		"type": "RNAV",
		"updated": "01/24/2007",
	},
	{
		"name": "CULAV",
		"latitude": "40-19-5.3 N",
		"longitude": "74-50-55.32 W",
		"state": "NEW JERSEY",
		"artcc": "ZNY",
		"type": "RNAV",
		"updated": "08/16/2012",
	},
	{
		"name": "CULEP",
		"latitude": "39-46-40.23 N",
		"longitude": "77-12-16.18 W",
		"state": "PENNSYLVANIA",
		"artcc": "ZNY",
		"type": "RNAV",
		"updated": "04/25/2010",
	},
	{
		"name": "CUMDO",
		"latitude": "40-37-45.72 N",
		"longitude": "77-33-19.23 W",
		"state": "PENNSYLVANIA",
		"artcc": "ZNY",
		"type": "RNAV",
		"updated": "02/26/2015",
	},
	{
		"name": "CUMEX",
		"latitude": "40-38-27.36 N",
		"longitude": "74-54-14.28 W",
		"state": "NEW JERSEY",
		"artcc": "ZNY",
		"type": "RNAV",
		"updated": "01/12/2015",
	},
	{
		"name": "CUMOS",
		"latitude": "42-7-0.29 N",
		"longitude": "76-6-59.61 W",
		"state": "NEW YORK",
		"artcc": "ZNY",
		"type": "RP",
		"updated": "CFB*VOR/DME*170.00/2.60",
	},
	{
		"name": "CUNRI",
		"latitude": "41-1-38.74 N",
		"longitude": "75-6-27.31 W",
		"state": "PENNSYLVANIA",
		"artcc": "ZNY",
		"type": "RP",
		"updated": "STW*VOR/DME*291.00/11.00",
	},
	{
		"name": "CUPAY",
		"latitude": "40-23-52.78 N",
		"longitude": "74-46-32.65 W",
		"state": "NEW JERSEY",
		"artcc": "ZNY",
		"type": "RNAV",
		"updated": "01/21/2010",
	},
	{
		"name": "CUPGI",
		"latitude": "41-14-42.56 N",
		"longitude": "76-52-7.17 W",
		"state": "PENNSYLVANIA",
		"artcc": "ZNY",
		"type": "RNAV",
		"updated": "10/21/2014",
	},
	{
		"name": "CURNA",
		"latitude": "40-17-1.39 N",
		"longitude": "76-35-46.53 W",
		"state": "PENNSYLVANIA",
		"artcc": "ZNY",
		"type": "RNAV",
		"updated": "08/17/2006",
	},
	{
		"name": "CURUN",
		"latitude": "32-18-36 N",
		"longitude": "64-21-54 W",
		"state": "OFFSHORE ATLANTIC",
		"artcc": "ZNY",
		"type": "RNAV",
		"updated": "01/10/2017",
	},
	{
		"name": "CURVY",
		"latitude": "39-37-31.21 N",
		"longitude": "76-0-58.01 W",
		"state": "MARYLAND",
		"artcc": "ZNY",
		"type": "RP",
		"updated": "PPM*VOR/DME*046.02/11.92",
	},
	{
		"name": "CUSAV",
		"latitude": "40-14-43.82 N",
		"longitude": "75-26-8.73 W",
		"state": "PENNSYLVANIA",
		"artcc": "ZNY",
		"type": "RNAV",
		"updated": "03/24/2015",
	},
	{
		"name": "CUSDI",
		"latitude": "41-13-48.08 N",
		"longitude": "77-21-1.35 W",
		"state": "PENNSYLVANIA",
		"artcc": "ZNY",
		"type": "RNAV",
		"updated": "08/14/2006",
	},
	{
		"name": "CUTIL",
		"latitude": "40-5-23.83 N",
		"longitude": "74-28-59.2 W",
		"state": "NEW JERSEY",
		"artcc": "ZNY",
		"type": "MR",
		"updated": "GXU*VORTAC*/7.11",
	},
	{
		"name": "CUTKO",
		"latitude": "41-10-20.05 N",
		"longitude": "75-28-53.31 W",
		"state": "PENNSYLVANIA",
		"artcc": "ZNY",
		"type": "RNAV",
		"updated": "10/18/2012",
	},
	{
		"name": "CUTLR",
		"latitude": "40-20-2.4 N",
		"longitude": "68-42-30 W",
		"state": "OFFSHORE ATLANTIC",
		"artcc": "ZNY",
		"type": "WP",
		"updated": "03/26/2002",
	},
	{
		"name": "CUVIP",
		"latitude": "41-14-42.62 N",
		"longitude": "76-56-5.79 W",
		"state": "PENNSYLVANIA",
		"artcc": "ZNY",
		"type": "RNAV",
		"updated": "08/16/2006",
	},
	{
		"name": "CUVKU",
		"latitude": "40-35-9.67 N",
		"longitude": "73-40-45.76 W",
		"state": "NEW YORK",
		"artcc": "ZNY",
		"type": "RNAV",
		"updated": "06/11/2014",
	},
	{
		"name": "CUVTO",
		"latitude": "39-27-2.2 N",
		"longitude": "76-30-2.28 W",
		"state": "MARYLAND",
		"artcc": "ZNY",
		"type": "RNAV",
		"updated": "11/30/2016",
	},
