[
	{
		"name": "DABAK",
		"latitude": "18-0-0 N",
		"longitude": "51-19-30 W",
		"state": "OFFSHORE ATLANTIC",
		"artcc": "ZNY",
		"type": "RNAV",
		"updated": "05/02/2008"
	},
	{
		"name": "DACEM",
		"latitude": "38-27-59 N",
		"longitude": "127-0-0 W",
		"state": "OFFSHORE PACIFIC",
		"artcc": "ZOA",
		"type": "RP",
		"updated": "08/27/2003"
	},
	{
		"name": "DAFIX",
		"latitude": "39-54-50.43 N",
		"longitude": "77-42-0.78 W",
		"state": "PENNSYLVANIA",
		"artcc": "ZNY",
		"type": "RP",
		"updated": "PSB*VORTAC*177.33/61.57"
	},
	{
		"name": "DALAC",
		"latitude": "40-2-8.29 N",
		"longitude": "76-34-25.89 W",
		"state": "PENNSYLVANIA",
		"artcc": "ZNY",
		"type": "RP",
		"updated": "LRP*VOR/DME*257.86/13.96"
	},
	{
		"name": "DAMTE",
		"latitude": "39-48-40.79 N",
		"longitude": "74-45-25.09 W",
		"state": "NEW JERSEY",
		"artcc": "ZNY",
		"type": "MR",
		"updated": "GXU*VORTAC*224.00/14.00"
	},
	{
		"name": "DANDY",
		"latitude": "40-46-48.11 N",
		"longitude": "74-10-5.48 W",
		"state": "NEW JERSEY",
		"artcc": "ZNY",
		"type": "RP",
		"updated": "TEB*VOR/DME*/6.34"
	},
	{
		"name": "DANNR",
		"latitude": "40-39-59.12 N",
		"longitude": "76-14-24.68 W",
		"state": "PENNSYLVANIA",
		"artcc": "ZNY",
		"type": "RP",
		"updated": "LRP*VOR/DME*013.07"
	},
	{
		"name": "DAPNY",
		"latitude": "40-15-5.18 N",
		"longitude": "76-43-15.2 W",
		"state": "PENNSYLVANIA",
		"artcc": "ZNY",
		"type": "RNAV",
		"updated": "06/12/2014"
	},
	{
		"name": "DAPVY",
		"latitude": "40-27-44.12 N",
		"longitude": "74-23-18.36 W",
		"state": "NEW JERSEY",
		"artcc": "ZNY",
		"type": "RNAV",
		"updated": "02/09/2018"
	},
	{
		"name": "DARBO",
		"latitude": "41-48-1.16 N",
		"longitude": "75-57-3.98 W",
		"state": "PENNSYLVANIA",
		"artcc": "ZNY",
		"type": "RP",
		"updated": "ULW*VOR/DME*121.78/51.21"
	},
	{
		"name": "DARUX",
		"latitude": "36-9-35.56 N",
		"longitude": "69-27-18.31 W",
		"state": "OFFSHORE ATLANTIC",
		"artcc": "ZNY",
		"type": "RNAV",
		"updated": "06/11/2008"
	},
	{
		"name": "DASDE",
		"latitude": "40-7-7.58 N",
		"longitude": "75-23-36.21 W",
		"state": "PENNSYLVANIA",
		"artcc": "ZNY",
		"type": "RNAV",
		"updated": "06/25/2015"
	},
	{
		"name": "DASER",
		"latitude": "34-8-18.63 N",
		"longitude": "67-34-39.44 W",
		"state": "OFFSHORE ATLANTIC",
		"artcc": "ZNY",
		"type": "RNAV",
		"updated": "BDA*VOR/DME*321.96/180.00"
	},
	{
		"name": "DAVEW",
		"latitude": "40-12-40.81 N",
		"longitude": "77-30-5.93 W",
		"state": "PENNSYLVANIA",
		"artcc": "ZNY",
		"type": "RNAV",
		"updated": "09/03/2003"
	},
	{
		"name": "DAVIM",
		"latitude": "40-49-44.29 N",
		"longitude": "74-5-47.05 W",
		"state": "NEW JERSEY",
		"artcc": "ZNY",
		"type": "RNAV",
		"updated": "05/31/2017"
	},
	{
		"name": "DAVYT",
		"latitude": "34-10-53.24 N",
		"longitude": "66-6-57.21 W",
		"state": "OFFSHORE ATLANTIC",
		"artcc": "ZNY",
		"type": "RNAV",
		"updated": "01/10/2017"
	},
	{
		"name": "DBABE",
		"latitude": "41-8-30 N",
		"longitude": "74-5-46 W",
		"state": "NEW YORK",
		"artcc": "ZNY",
		"type": "RNAV",
		"updated": "06/30/2015"
	},
	{
		"name": "DCOTA",
		"latitude": "40-42-47.14 N",
		"longitude": "74-14-29.86 W",
		"state": "NEW JERSEY",
		"artcc": "ZNY",
		"type": "RP",
		"updated": "JFK*VOR/DME*294.78/22.00"
	},
	{
		"name": "DEACN",
		"latitude": "42-30-30.49 N",
		"longitude": "76-38-45.41 W",
		"state": "NEW YORK",
		"artcc": "ZNY",
		"type": "RNAV",
		"updated": "11/28/2017"
	},
	{
		"name": "DECKR",
		"latitude": "40-39-7.07 N",
		"longitude": "74-2-42.1 W",
		"state": "NEW YORK",
		"artcc": "ZNY",
		"type": "RNAV",
		"updated": "06/08/2011"
	},
	{
		"name": "DEDME",
		"latitude": "39-45-16 N",
		"longitude": "72-16-30 W",
		"state": "OFFSHORE ATLANTIC",
		"artcc": "ZNY",
		"type": "WP",
		"updated": "03/26/2002"
	},
	{
		"name": "DEGDE",
		"latitude": "41-12-52.57 N",
		"longitude": "75-36-5.31 W",
		"state": "PENNSYLVANIA",
		"artcc": "ZNY",
		"type": "RNAV",
		"updated": "10/18/2012"
	},
	{
		"name": "DEGDY",
		"latitude": "40-29-4.38 N",
		"longitude": "75-58-50.26 W",
		"state": "PENNSYLVANIA",
		"artcc": "ZNY",
		"type": "RNAV",
		"updated": "07/09/2009"
	},
	{
		"name": "DELLI",
		"latitude": "40-43-23.74 N",
		"longitude": "74-16-52.63 W",
		"state": "NEW JERSEY",
		"artcc": "ZNY",
		"type": "RP",
		"updated": "TEB*VOR/DME*244.07/12.50"
	},
	{
		"name": "DELRO",
		"latitude": "39-57-55.71 N",
		"longitude": "76-37-31.24 W",
		"state": "PENNSYLVANIA",
		"artcc": "ZNY",
		"type": "RP",
		"updated": "BAL*VORTAC*012.99"
	},
	{
		"name": "DEMGY",
		"latitude": "39-30-31 N",
		"longitude": "72-28-17 W",
		"state": "OFFSHORE ATLANTIC",
		"artcc": "ZNY",
		"type": "WP",
		"updated": "03/26/2002"
	},
	{
		"name": "DEPME",
		"latitude": "41-46-2.74 N",
		"longitude": "75-56-46.42 W",
		"state": "PENNSYLVANIA",
		"artcc": "ZNY",
		"type": "RNAV",
		"updated": "08/16/2006"
	},
	{
		"name": "DETTE",
		"latitude": "40-14-16.74 N",
		"longitude": "76-2-26.43 W",
		"state": "PENNSYLVANIA",
		"artcc": "ZNY",
		"type": "RP",
		"updated": "LRP*VOR/DME*067.37/13.52"
	},
	{
		"name": "DEUCE",
		"latitude": "40-38-34.91 N",
		"longitude": "73-24-46.01 W",
		"state": "NEW YORK",
		"artcc": "ZNY",
		"type": "RNAV",
		"updated": "06/27/2011"
	},
	{
		"name": "DEYEC",
		"latitude": "39-48-57.99 N",
		"longitude": "74-34-5.88 W",
		"state": "NEW JERSEY",
		"artcc": "ZNY",
		"type": "MW",
		"updated": "06/16/2011"
	},
	{
		"name": "DFRTZ",
		"latitude": "40-28-10.09 N",
		"longitude": "74-41-25.99 W",
		"state": "NEW JERSEY",
		"artcc": "ZNY",
		"type": "RP",
		"updated": "SBJ*VOR/DME*170.99"
	},
	{
		"name": "DGRAF",
		"latitude": "41-41-10.52 N",
		"longitude": "76-13-21.15 W",
		"state": "PENNSYLVANIA",
		"artcc": "ZNY",
		"type": "RP",
		"updated": "HNK*VOR/DME*252.22/46.48"
	},
	{
		"name": "DHALP",
		"latitude": "40-57-54.62 N",
		"longitude": "73-43-20.59 W",
		"state": "NEW YORK",
		"artcc": "ZNY",
		"type": "RNAV",
		"updated": "01/26/2017"
	},
	{
		"name": "DIAAN",
		"latitude": "38-26-17.4 N",
		"longitude": "73-29-0 W",
		"state": "OFFSHORE ATLANTIC",
		"artcc": "ZNY",
		"type": "RP",
		"updated": "SIE*VORTAC*131.10/73.29"
	},
	{
		"name": "DIALS",
		"latitude": "40-42-56.05 N",
		"longitude": "73-55-36.36 W",
		"state": "NEW YORK",
		"artcc": "ZNY",
		"type": "RP",
		"updated": "LGA*VOR/DME*225.01/4.87"
	},
	{
		"name": "DIANO",
		"latitude": "41-0-1.99 N",
		"longitude": "76-13-33.78 W",
		"state": "PENNSYLVANIA",
		"artcc": "ZNY",
		"type": "RP",
		"updated": "SEG*VOR/DME*075.00/32.47"
	},
	{
		"name": "DICAN",
		"latitude": "39-56-16.4 N",
		"longitude": "77-41-38.9 W",
		"state": "PENNSYLVANIA",
		"artcc": "ZNY",
		"type": "RNAV",
		"updated": "09/03/2003"
	},
	{
		"name": "DIMPE",
		"latitude": "41-2-11.89 N",
		"longitude": "76-30-18.73 W",
		"state": "PENNSYLVANIA",
		"artcc": "ZNY",
		"type": "RNAV",
		"updated": "04/18/2017"
	},
	{
		"name": "DINSY",
		"latitude": "41-5-26.6 N",
		"longitude": "74-39-51.63 W",
		"state": "NEW JERSEY",
		"artcc": "ZNY",
		"type": "RNAV",
		"updated": "08/20/2009"
	},
	{
		"name": "DIPGE",
		"latitude": "41-51-37.15 N",
		"longitude": "76-21-10.87 W",
		"state": "PENNSYLVANIA",
		"artcc": "ZNY",
		"type": "RNAV",
		"updated": "08/27/2003"
	},
	{
		"name": "DIPPY",
		"latitude": "40-25-52.22 N",
		"longitude": "76-30-55 W",
		"state": "PENNSYLVANIA",
		"artcc": "ZNY",
		"type": "MR",
		"updated": "BZJ*NDB*108.81"
	},
	{
		"name": "DIRMY",
		"latitude": "40-33-48.22 N",
		"longitude": "74-28-13.33 W",
		"state": "NEW JERSEY",
		"artcc": "ZNY",
		"type": "RP",
		"updated": "SAX*VORTAC*185.13/30.39"
	},
	{
		"name": "DIRPE",
		"latitude": "40-28-22.94 N",
		"longitude": "74-59-37.03 W",
		"state": "NEW JERSEY",
		"artcc": "ZNY",
		"type": "RP",
		"updated": "SBJ*VOR/DME*250.29/13.28"
	},
	{
		"name": "DITCH",
		"latitude": "39-47-37.86 N",
		"longitude": "74-42-59.88 W",
		"state": "NEW JERSEY",
		"artcc": "ZNY",
		"type": "RP",
		"updated": "CYN*VORTAC*274.00/13.25"
	},
	{
		"name": "DIVET",
		"latitude": "38-19-44 N",
		"longitude": "73-15-37 W",
		"state": "OFFSHORE ATLANTIC",
		"artcc": "ZNY",
		"type": "WP",
		"updated": "03/26/2002"
	},
	{
		"name": "DIVTE",
		"latitude": "40-54-11.95 N",
		"longitude": "76-42-57.07 W",
		"state": "PENNSYLVANIA",
		"artcc": "ZNY",
		"type": "RNAV",
		"updated": "12/11/2017"
	},
	{
		"name": "DIXIE",
		"latitude": "40-5-57.72 N",
		"longitude": "74-9-52.17 W",
		"state": "NEW JERSEY",
		"artcc": "ZNY",
		"type": "RP",
		"updated": "COL*VOR/DME*191.99"
	},
	{
		"name": "DIYAD",
		"latitude": "41-26-8.92 N",
		"longitude": "74-17-39.72 W",
		"state": "NEW YORK",
		"artcc": "ZNY",
		"type": "RP",
		"updated": "HUO*VOR/DME*094.24/13.51"
	},
	{
		"name": "DLUCA",
		"latitude": "39-26-19.76 N",
		"longitude": "76-25-48.26 W",
		"state": "MARYLAND",
		"artcc": "ZNY",
		"type": "RP",
		"updated": "BAL*VORTAC*044.78/19.33"
	},
	{
		"name": "DMARZ",
		"latitude": "31-21-1.28 N",
		"longitude": "66-42-31.09 W",
		"state": "OFFSHORE ATLANTIC",
		"artcc": "ZNY",
		"type": "RNAV",
		"updated": "01/10/2017"
	},
	{
		"name": "DMYHL",
		"latitude": "40-38-58.52 N",
		"longitude": "73-51-58.71 W",
		"state": "NEW YORK",
		"artcc": "ZNY",
		"type": "RP",
		"updated": "CRI*VOR/DME*041.00/2.57"
	},
	{
		"name": "DNNIS",
		"latitude": "40-41-57.77 N",
		"longitude": "73-56-30.09 W",
		"state": "NEW YORK",
		"artcc": "ZNY",
		"type": "RP",
		"updated": "LGA*VOR/DME*/6.06"
	},
	{
		"name": "DNSTN",
		"latitude": "32-11-59.22 N",
		"longitude": "66-24-51.16 W",
		"state": "OFFSHORE ATLANTIC",
		"artcc": "ZNY",
		"type": "RNAV",
		"updated": "01/10/2017"
	},
	{
		"name": "DOBLE",
		"latitude": "40-5-13.59 N",
		"longitude": "74-28-48.54 W",
		"state": "NEW JERSEY",
		"artcc": "ZNY",
		"type": "MR",
		"updated": "GXU*VORTAC*061.00/7.10"
	},
	{
		"name": "DOCLO",
		"latitude": "42-40-35.15 N",
		"longitude": "76-5-45.47 W",
		"state": "NEW YORK",
		"artcc": "ZNY",
		"type": "CN",
		"updated": "06/07/2002"
	},
	{
		"name": "DOCYU",
		"latitude": "41-21-13.41 N",
		"longitude": "74-35-36.47 W",
		"state": "NEW YORK",
		"artcc": "ZNY",
		"type": "RNAV",
		"updated": "07/24/2012"
	},
	{
		"name": "DODLY",
		"latitude": "40-43-45.78 N",
		"longitude": "74-37-29.39 W",
		"state": "NEW JERSEY",
		"artcc": "ZNY",
		"type": "RNAV",
		"updated": "06/15/2009"
	},
	{
		"name": "DOMVY",
		"latitude": "41-52-16.92 N",
		"longitude": "76-13-45.96 W",
		"state": "PENNSYLVANIA",
		"artcc": "ZNY",
		"type": "RP",
		"updated": "ULW*VOR/DME*122.32/38.02"
	},
	{
		"name": "DONAA",
		"latitude": "39-37-18.12 N",
		"longitude": "72-36-51.12 W",
		"state": "OFFSHORE ATLANTIC",
		"artcc": "ZNY",
		"type": "RNAV",
		"updated": "10/20/2016"
	},
	{
		"name": "DOOIN",
		"latitude": "40-36-7.69 N",
		"longitude": "74-13-19.67 W",
		"state": "NEW JERSEY",
		"artcc": "ZNY",
		"type": "RP",
		"updated": "CRI*VOR/DME*278.74"
	},
	{
		"name": "DOORE",
		"latitude": "41-1-41.44 N",
		"longitude": "74-22-3.73 W",
		"state": "NEW JERSEY",
		"artcc": "ZNY",
		"type": "RP",
		"updated": "LGA*VOR/DME*315.01/27.03"
	},
	{
		"name": "DOOTH",
		"latitude": "40-52-30.41 N",
		"longitude": "77-41-23.46 W",
		"state": "PENNSYLVANIA",
		"artcc": "ZNY",
		"type": "RP",
		"updated": "PSB*VORTAC*110.05/14.00"
	},
	{
		"name": "DOPRE",
		"latitude": "40-29-3.91 N",
		"longitude": "74-33-50.34 W",
		"state": "NEW JERSEY",
		"artcc": "ZNY",
		"type": "RNAV",
		"updated": "12/20/2013"
	},
	{
		"name": "DORTH",
		"latitude": "39-43-34.73 N",
		"longitude": "74-40-14.22 W",
		"state": "NEW JERSEY",
		"artcc": "ZNY",
		"type": "RP",
		"updated": "VCN*VOR/DME*060.46/17.80"
	},
	{
		"name": "DOSAN",
		"latitude": "40-26-31.6 N",
		"longitude": "68-52-29.9 W",
		"state": "OFFSHORE ATLANTIC",
		"artcc": "ZNY",
		"type": "WP",
		"updated": "03/26/2002"
	},
	{
		"name": "DOSTR",
		"latitude": "40-27-40.23 N",
		"longitude": "75-43-0.53 W",
		"state": "PENNSYLVANIA",
		"artcc": "ZNY",
		"type": "RNAV",
		"updated": "10/05/2007"
	},
	{
		"name": "DOVEY",
		"latitude": "41-7-0 N",
		"longitude": "67-0-0 W",
		"state": "OFFSHORE ATLANTIC",
		"artcc": "ZNY",
		"type": "RNAV",
		"updated": "08/27/2015"
	},
	{
		"name": "DOVPY",
		"latitude": "39-56-12.74 N",
		"longitude": "76-8-20.9 W",
		"state": "PENNSYLVANIA",
		"artcc": "ZNY",
		"type": "RNAV",
		"updated": "06/18/2008"
	},
	{
		"name": "DOWDY",
		"latitude": "41-0-47.1 N",
		"longitude": "74-10-38.09 W",
		"state": "NEW JERSEY",
		"artcc": "ZNY",
		"type": "RP",
		"updated": "TEB*VOR/DME*343.08"
	},
	{
		"name": "DRDGE",
		"latitude": "18-0-0 N",
		"longitude": "58-0-0 W",
		"state": "OFFSHORE ATLANTIC",
		"artcc": "ZNY",
		"type": "RNAV",
		"updated": "12/22/2014"
	},
	{
		"name": "DREMS",
		"latitude": "40-25-40.39 N",
		"longitude": "74-32-26.71 W",
		"state": "NEW JERSEY",
		"artcc": "ZNY",
		"type": "RP",
		"updated": "COL*VOR/DME*302.87/18.81"
	},
	{
		"name": "DRIFT",
		"latitude": "39-48-53.56 N",
		"longitude": "73-40-49.53 W",
		"state": "NEW JERSEY",
		"artcc": "ZNY",
		"type": "RP",
		"updated": "CYN*VORTAC*100.00/34.73"
	},
	{
		"name": "DRRES",
		"latitude": "39-54-12.64 N",
		"longitude": "76-32-47.76 W",
		"state": "PENNSYLVANIA",
		"artcc": "ZNY",
		"type": "RNAV",
		"updated": "08/12/2015"
	},
	{
		"name": "DRREW",
		"latitude": "31-50-59.42 N",
		"longitude": "65-27-44.34 W",
		"state": "OFFSHORE ATLANTIC",
		"artcc": "ZNY",
		"type": "RNAV",
		"updated": "01/10/2017"
	},
	{
		"name": "DRYED",
		"latitude": "38-37-56.2 N",
		"longitude": "66-40-2.86 W",
		"state": "OFFSHORE ATLANTIC",
		"artcc": "ZNY",
		"type": "RNAV",
		"updated": "06/09/2008"
	},
	{
		"name": "DUCVA",
		"latitude": "39-56-2.61 N",
		"longitude": "74-55-31.62 W",
		"state": "NEW JERSEY",
		"artcc": "ZNY",
		"type": "RNAV",
		"updated": "09/12/2005"
	},
	{
		"name": "DUFFY",
		"latitude": "40-47-28 N",
		"longitude": "73-31-21.39 W",
		"state": "NEW YORK",
		"artcc": "ZNY",
		"type": "RP",
		"updated": "CMK*VOR/DME*186.79"
	},
	{
		"name": "DUMFY",
		"latitude": "39-45-6.08 N",
		"longitude": "74-51-36.74 W",
		"state": "NEW JERSEY",
		"artcc": "ZNY",
		"type": "RNAV",
		"updated": "05/31/2000"
	},
	{
		"name": "DUMKY",
		"latitude": "41-22-33.54 N",
		"longitude": "74-32-10.06 W",
		"state": "NEW YORK",
		"artcc": "ZNY",
		"type": "RNAV",
		"updated": "07/24/2012"
	},
	{
		"name": "DUMMR",
		"latitude": "40-28-10.68 N",
		"longitude": "76-6-40.18 W",
		"state": "PENNSYLVANIA",
		"artcc": "ZNY",
		"type": "RP",
		"updated": "LRP*VOR/DME*030.47"
	},
	{
		"name": "DUMPR",
		"latitude": "39-44-42.36 N",
		"longitude": "71-59-32.64 W",
		"state": "OFFSHORE ATLANTIC",
		"artcc": "ZNY",
		"type": "RNAV",
		"updated": "10/20/2016"
	},
	{
		"name": "DUMVF",
		"latitude": "40-38-8.8 N",
		"longitude": "76-18-39.26 W",
		"state": "PENNSYLVANIA",
		"artcc": "ZNY",
		"type": "RNAV",
		"updated": "08/17/2006"
	},
	{
		"name": "DUNIG",
		"latitude": "28-49-24.12 N",
		"longitude": "68-44-26.85 W",
		"state": "OFFSHORE ATLANTIC",
		"artcc": "ZNY",
		"type": "RNAV",
		"updated": "02/07/2008"
	},
	{
		"name": "DUNKY",
		"latitude": "32-53-53.74 N",
		"longitude": "63-55-50.99 W",
		"state": "OFFSHORE ATLANTIC",
		"artcc": "ZNY",
		"type": "RNAV",
		"updated": "01/10/2017"
	},
	{
		"name": "DUNVE",
		"latitude": "40-25-46.8 N",
		"longitude": "75-20-9.44 W",
		"state": "PENNSYLVANIA",
		"artcc": "ZNY",
		"type": "RNAV",
		"updated": "04/20/2012"
	},
	{
		"name": "DUOVR",
		"latitude": "40-7-6.59 N",
		"longitude": "74-37-5.24 W",
		"state": "NEW JERSEY",
		"artcc": "ZNY",
		"type": "MW",
		"updated": "11/03/2015"
	},
	{
		"name": "DUPAN",
		"latitude": "25-30-45.02 N",
		"longitude": "64-34-54.91 W",
		"state": "OFFSHORE ATLANTIC",
		"artcc": "ZNY",
		"type": "RNAV",
		"updated": "04/16/2008"
	},
	{
		"name": "DUPOX",
		"latitude": "27-56-27.49 N",
		"longitude": "68-32-27.98 W",
		"state": "OFFSHORE ATLANTIC",
		"artcc": "ZNY",
		"type": "RNAV",
		"updated": "04/11/2008"
	},
	{
		"name": "DUTTU",
		"latitude": "39-45-37 N",
		"longitude": "74-53-50.94 W",
		"state": "NEW JERSEY",
		"artcc": "ZNY",
		"type": "RNAV",
		"updated": "01/26/2009"
	},
	{
		"name": "DUYAB",
		"latitude": "40-32-33.08 N",
		"longitude": "74-33-46.75 W",
		"state": "NEW JERSEY",
		"artcc": "ZNY",
		"type": "RNAV",
		"updated": "03/10/2011"
	},
	{
		"name": "DVETO",
		"latitude": "40-27-5.42 N",
		"longitude": "73-57-38.66 W",
		"state": "NEW YORK",
		"artcc": "ZNY",
		"type": "RNAV",
		"updated": "06/02/2009"
	},
	{
		"name": "DWIZZ",
		"latitude": "40-35-47.97 N",
		"longitude": "74-24-23.56 W",
		"state": "NEW JERSEY",
		"artcc": "ZNY",
		"type": "RNAV",
		"updated": "07/13/2015"
	},
	{
		"name": "DWURF",
		"latitude": "40-46-50.05 N",
		"longitude": "74-20-19.7 W",
		"state": "NEW JERSEY",
		"artcc": "ZNY",
		"type": "RNAV",
		"updated": "04/01/2008"
	}
]
