	{
		"name": "FAAIR",
		"latitude": "40-57-22.53 N",
		"longitude": "74-13-11.9 W",
		"state": "NEW JERSEY",
		"artcc": "ZNY",
		"type": "RP",
		"updated": "SAX*VORTAC*125.67/15.93",
	},
	{
		"name": "FAAYE",
		"latitude": "40-45-20.36 N",
		"longitude": "73-27-7.88 W",
		"state": "NEW YORK",
		"artcc": "ZNY",
		"type": "RNAV",
		"updated": "02/26/2010",
	},
	{
		"name": "FABDI",
		"latitude": "40-56-28.68 N",
		"longitude": "76-27-54.35 W",
		"state": "PENNSYLVANIA",
		"artcc": "ZNY",
		"type": "RNAV",
		"updated": "04/18/2017",
	},
	{
		"name": "FABDU",
		"latitude": "40-36-28.22 N",
		"longitude": "75-11-56.05 W",
		"state": "PENNSYLVANIA",
		"artcc": "ZNY",
		"type": "RNAV",
		"updated": "12/16/2015",
	},
	{
		"name": "FABOK",
		"latitude": "39-54-38.26 N",
		"longitude": "74-37-0.63 W",
		"state": "NEW JERSEY",
		"artcc": "ZNY",
		"type": "MR",
		"updated": "GXU*VORTAC*201.00/6.00",
	},
	{
		"name": "FABRY",
		"latitude": "40-43-31.61 N",
		"longitude": "73-45-53.76 W",
		"state": "NEW YORK",
		"artcc": "ZNY",
		"type": "RP",
		"updated": "CRI*VOR/DME*052.07",
	},
	{
		"name": "FAGHU",
		"latitude": "40-11-26.33 N",
		"longitude": "76-11-56.28 W",
		"state": "PENNSYLVANIA",
		"artcc": "ZNY",
		"type": "CN",
		"updated": "12/04/2014",
	},
	{
		"name": "FAINT",
		"latitude": "39-52-7.83 N",
		"longitude": "76-44-54.68 W",
		"state": "PENNSYLVANIA",
		"artcc": "ZNY",
		"type": "RNAV",
		"updated": "07/26/2013",
	},
	{
		"name": "FALAS",
		"latitude": "40-22-23.94 N",
		"longitude": "76-39-0.14 W",
		"state": "PENNSYLVANIA",
		"artcc": "ZNY",
		"type": "MW",
		"updated": "08/30/2007",
	},
	{
		"name": "FALLZ",
		"latitude": "41-4-17.29 N",
		"longitude": "74-7-30.24 W",
		"state": "NEW JERSEY",
		"artcc": "ZNY",
		"type": "RP",
		"updated": "HUO*VOR/DME*144.69/29.28",
	},
	{
		"name": "FALNA",
		"latitude": "41-59-6.69 N",
		"longitude": "76-39-57.78 W",
		"state": "PENNSYLVANIA",
		"artcc": "ZNY",
		"type": "RNAV",
		"updated": "08/17/2006",
	},
	{
		"name": "FALON",
		"latitude": "39-49-0.73 N",
		"longitude": "74-6-37.8 W",
		"state": "NEW JERSEY",
		"artcc": "ZNY",
		"type": "RP",
		"updated": "CYN*VORTAC*100.01/14.85",
	},
	{
		"name": "FALTY",
		"latitude": "41-1-24.04 N",
		"longitude": "74-26-8.66 W",
		"state": "NEW JERSEY",
		"artcc": "ZNY",
		"type": "RNAV",
		"updated": "08/31/2015",
	},
	{
		"name": "FALUT",
		"latitude": "41-23-0.02 N",
		"longitude": "74-20-17.2 W",
		"state": "NEW YORK",
		"artcc": "ZNY",
		"type": "RNAV",
		"updated": "04/28/2010",
	},
	{
		"name": "FAMAV",
		"latitude": "40-4-21.8 N",
		"longitude": "76-45-57.83 W",
		"state": "PENNSYLVANIA",
		"artcc": "ZNY",
		"type": "RP",
		"updated": "HAR*VORTAC*144.50/19.60",
	},
	{
		"name": "FANRU",
		"latitude": "40-5-18.98 N",
		"longitude": "76-24-16.87 W",
		"state": "PENNSYLVANIA",
		"artcc": "ZNY",
		"type": "RNAV",
		"updated": "06/10/2011",
	},
	{
		"name": "FANSI",
		"latitude": "40-24-0.87 N",
		"longitude": "77-33-28.53 W",
		"state": "PENNSYLVANIA",
		"artcc": "ZNY",
		"type": "RP",
		"updated": "HAR*VORTAC*294.86/23.16",
	},
	{
		"name": "FANUS",
		"latitude": "41-4-52.9 N",
		"longitude": "77-34-24.04 W",
		"state": "PENNSYLVANIA",
		"artcc": "ZNY",
		"type": "RNAV",
		"updated": "11/07/2014",
	},
	{
		"name": "FAPAV",
		"latitude": "41-0-57.74 N",
		"longitude": "74-53-29.04 W",
		"state": "NEW JERSEY",
		"artcc": "ZNY",
		"type": "RNAV",
		"updated": "01/12/2011",
	},
	{
		"name": "FARAL",
		"latitude": "40-20-52.9 N",
		"longitude": "75-16-40.31 W",
		"state": "PENNSYLVANIA",
		"artcc": "ZNY",
		"type": "RNAV",
		"updated": "05/26/2009",
	},
	{
		"name": "FAVIG",
		"latitude": "41-10-48.54 N",
		"longitude": "77-20-42.63 W",
		"state": "PENNSYLVANIA",
		"artcc": "ZNY",
		"type": "RNAV",
		"updated": "08/30/2016",
	},
	{
		"name": "FAVUM",
		"latitude": "41-15-59.17 N",
		"longitude": "77-35-42.32 W",
		"state": "PENNSYLVANIA",
		"artcc": "ZNY",
		"type": "RP",
		"updated": "SLT*VORTAC*138.97/22.47",
	},
	{
		"name": "FAXAT",
		"latitude": "40-53-15.32 N",
		"longitude": "76-51-35.4 W",
		"state": "PENNSYLVANIA",
		"artcc": "ZNY",
		"type": "RNAV",
		"updated": "09/08/2016",
	},
	{
		"name": "FEBUT",
		"latitude": "42-12-42.1 N",
		"longitude": "75-50-17.05 W",
		"state": "NEW YORK",
		"artcc": "ZNY",
		"type": "RNAV",
		"updated": "02/22/2011",
	},
	{
		"name": "FEDAR",
		"latitude": "40-38-37.41 N",
		"longitude": "73-45-33.4 W",
		"state": "NEW YORK",
		"artcc": "ZNY",
		"type": "RNAV",
		"updated": "07/08/2009",
	},
	{
		"name": "FEDUB",
		"latitude": "40-43-24.72 N",
		"longitude": "74-48-9.68 W",
		"state": "NEW JERSEY",
		"artcc": "ZNY",
		"type": "RNAV",
		"updated": "01/12/2015",
	},
	{
		"name": "FEDUS",
		"latitude": "41-7-35.45 N",
		"longitude": "77-36-6.58 W",
		"state": "PENNSYLVANIA",
		"artcc": "ZNY",
		"type": "RNAV",
		"updated": "08/17/2006",
	},
	{
		"name": "FEGAN",
		"latitude": "40-14-11.26 N",
		"longitude": "74-11-43.17 W",
		"state": "NEW JERSEY",
		"artcc": "ZNY",
		"type": "RNAV",
		"updated": "04/19/2012",
	},
	{
		"name": "FEGLO",
		"latitude": "41-40-12.65 N",
		"longitude": "75-57-20.57 W",
		"state": "PENNSYLVANIA",
		"artcc": "ZNY",
		"type": "RNAV",
		"updated": "10/21/2014",
	},
	{
		"name": "FEGOZ",
		"latitude": "39-34-3.97 N",
		"longitude": "76-26-55.98 W",
		"state": "MARYLAND",
		"artcc": "ZNY",
		"type": "RP",
		"updated": "BAL*VORTAC*033.50",
	},
	{
		"name": "FEGSI",
		"latitude": "41-19-32.31 N",
		"longitude": "75-47-59.89 W",
		"state": "PENNSYLVANIA",
		"artcc": "ZNY",
		"type": "RNAV",
		"updated": "05/30/2012",
	},
	{
		"name": "FEHLO",
		"latitude": "42-40-9.36 N",
		"longitude": "76-37-22.13 W",
		"state": "NEW YORK",
		"artcc": "ZNY",
		"type": "RNAV",
		"updated": "10/23/2014",
	},
	{
		"name": "FELDI",
		"latitude": "41-20-46.16 N",
		"longitude": "75-43-1.33 W",
		"state": "PENNSYLVANIA",
		"artcc": "ZNY",
		"type": "RP",
		"updated": "IZK*LD*045.37/0.22",
	},
	{
		"name": "FELIX",
		"latitude": "35-50-0.75 N",
		"longitude": "69-23-57.64 W",
		"state": "OFFSHORE ATLANTIC",
		"artcc": "ZNY",
		"type": "RP",
		"updated": "04/29/1987",
	},
	{
		"name": "FEMDU",
		"latitude": "41-3-9.71 N",
		"longitude": "73-52-46.89 W",
		"state": "NEW YORK",
		"artcc": "ZNY",
		"type": "RNAV",
		"updated": "10/02/2012",
	},
	{
		"name": "FEMSU",
		"latitude": "42-4-0.94 N",
		"longitude": "75-34-29.23 W",
		"state": "NEW YORK",
		"artcc": "ZNY",
		"type": "RNAV",
		"updated": "08/17/2006",
	},
	{
		"name": "FEMVU",
		"latitude": "40-18-35.3 N",
		"longitude": "74-45-59.29 W",
		"state": "NEW JERSEY",
		"artcc": "ZNY",
		"type": "RNAV",
		"updated": "08/16/2012",
	},
	{
		"name": "FENBU",
		"latitude": "41-45-4.23 N",
		"longitude": "77-25-55.11 W",
		"state": "PENNSYLVANIA",
		"artcc": "ZNY",
		"type": "RNAV",
		"updated": "08/17/2006",
	},
	{
		"name": "FENKA",
		"latitude": "39-56-21.25 N",
		"longitude": "74-41-4.1 W",
		"state": "NEW JERSEY",
		"artcc": "ZNY",
		"type": "MR",
		"updated": "GXU*VORTAC*/5.85",
	},
	{
		"name": "FENLY",
		"latitude": "40-42-20.62 N",
		"longitude": "74-34-6.05 W",
		"state": "NEW JERSEY",
		"artcc": "ZNY",
		"type": "RNAV",
		"updated": "06/24/2008",
	},
	{
		"name": "FENUN",
		"latitude": "41-33-6.48 N",
		"longitude": "75-47-40.05 W",
		"state": "PENNSYLVANIA",
		"artcc": "ZNY",
		"type": "RNAV",
		"updated": "12/28/2007",
	},
	{
		"name": "FEREP",
		"latitude": "41-5-31.38 N",
		"longitude": "74-3-40.84 W",
		"state": "NEW YORK",
		"artcc": "ZNY",
		"type": "RNAV",
		"updated": "11/22/2011",
	},
	{
		"name": "FERIB",
		"latitude": "40-13-15.6 N",
		"longitude": "76-59-38.66 W",
		"state": "PENNSYLVANIA",
		"artcc": "ZNY",
		"type": "RNAV",
		"updated": "08/17/2006",
	},
	{
		"name": "FERKO",
		"latitude": "40-9-42.8 N",
		"longitude": "76-10-7.35 W",
		"state": "PENNSYLVANIA",
		"artcc": "ZNY",
		"type": "RNAV",
		"updated": "06/10/2011",
	},
	{
		"name": "FERUS",
		"latitude": "40-2-55.3 N",
		"longitude": "74-49-26.23 W",
		"state": "NEW JERSEY",
		"artcc": "ZNY",
		"type": "RNAV",
		"updated": "09/26/2002",
	},
	{
		"name": "FEVOR",
		"latitude": "41-19-42.7 N",
		"longitude": "75-43-52.33 W",
		"state": "PENNSYLVANIA",
		"artcc": "ZNY",
		"type": "RP",
		"updated": "AVP*LD*225.47/1.03",
	},
	{
		"name": "FEXGO",
		"latitude": "40-40-13 N",
		"longitude": "69-13-46.8 W",
		"state": "OFFSHORE ATLANTIC",
		"artcc": "ZNY",
		"type": "WP",
		"updated": "03/26/2002",
	},
	{
		"name": "FEXIN",
		"latitude": "41-28-41.33 N",
		"longitude": "75-16-16.75 W",
		"state": "PENNSYLVANIA",
		"artcc": "ZNY",
		"type": "RNAV",
		"updated": "01/31/2002",
	},
	{
		"name": "FEYJA",
		"latitude": "40-46-17.97 N",
		"longitude": "75-53-25.68 W",
		"state": "PENNSYLVANIA",
		"artcc": "ZNY",
		"type": "RNAV",
		"updated": "03/10/2011",
	},
	{
		"name": "FIBTI",
		"latitude": "41-45-18.32 N",
		"longitude": "75-52-53.33 W",
		"state": "PENNSYLVANIA",
		"artcc": "ZNY",
		"type": "RNAV",
		"updated": "08/12/2015",
	},
	{
		"name": "FIDON",
		"latitude": "42-9-33.71 N",
		"longitude": "76-43-13.86 W",
		"state": "NEW YORK",
		"artcc": "ZNY",
		"type": "RNAV",
		"updated": "09/12/2012",
	},
	{
		"name": "FIENE",
		"latitude": "40-47-30.36 N",
		"longitude": "75-27-32.11 W",
		"state": "PENNSYLVANIA",
		"artcc": "ZNY",
		"type": "RNAV",
		"updated": "03/10/2011",
	},
	{
		"name": "FIGAB",
		"latitude": "40-9-32.16 N",
		"longitude": "76-23-13.83 W",
		"state": "PENNSYLVANIA",
		"artcc": "ZNY",
		"type": "RNAV",
		"updated": "02/10/2012",
	},
	{
		"name": "FIGID",
		"latitude": "39-34-56.1 N",
		"longitude": "76-49-17.82 W",
		"state": "MARYLAND",
		"artcc": "ZNY",
		"type": "RNAV",
		"updated": "03/15/2012",
	},
	{
		"name": "FIGON",
		"latitude": "40-56-8.75 N",
		"longitude": "74-25-12.51 W",
		"state": "NEW JERSEY",
		"artcc": "ZNY",
		"type": "RNAV",
		"updated": "06/27/2011",
	},
	{
		"name": "FILNI",
		"latitude": "40-30-43.9 N",
		"longitude": "74-30-34.08 W",
		"state": "NEW JERSEY",
		"artcc": "ZNY",
		"type": "RNAV",
		"updated": "12/20/2013",
	},
	{
		"name": "FIMUB",
		"latitude": "41-21-29.39 N",
		"longitude": "75-45-24.19 W",
		"state": "PENNSYLVANIA",
		"artcc": "ZNY",
		"type": "RNAV",
		"updated": "10/21/2014",
	},
	{
		"name": "FIMUS",
		"latitude": "39-25-14.27 N",
		"longitude": "76-29-56.3 W",
		"state": "MARYLAND",
		"artcc": "ZNY",
		"type": "RNAV",
		"updated": "05/20/2009",
	},
	{
		"name": "FINIT",
		"latitude": "39-54-7 N",
		"longitude": "72-31-25 W",
		"state": "OFFSHORE ATLANTIC",
		"artcc": "ZNY",
		"type": "RNAV",
		"updated": "03/23/2018",
	},
	{
		"name": "FINLY",
		"latitude": "40-57-59.19 N",
		"longitude": "77-38-43.05 W",
		"state": "PENNSYLVANIA",
		"artcc": "ZNY",
		"type": "RNAV",
		"updated": "11/21/2005",
	},
	{
		"name": "FINRA",
		"latitude": "40-38-34.2 N",
		"longitude": "75-6-15.1 W",
		"state": "NEW JERSEY",
		"artcc": "ZNY",
		"type": "RNAV",
		"updated": "05/13/2013",
	},
	{
		"name": "FIPDI",
		"latitude": "40-34-29.87 N",
		"longitude": "75-34-29.84 W",
		"state": "PENNSYLVANIA",
		"artcc": "ZNY",
		"type": "RP",
		"updated": "ETX*VOR/DME*103.14/5.00",
	},
	{
		"name": "FIRIM",
		"latitude": "42-4-8.72 N",
		"longitude": "76-35-34.72 W",
		"state": "NEW YORK",
		"artcc": "ZNY",
		"type": "RNAV",
		"updated": "08/19/2006",
	},
	{
		"name": "FIRSI",
		"latitude": "40-40-40.32 N",
		"longitude": "74-22-0.03 W",
		"state": "NEW JERSEY",
		"artcc": "ZNY",
		"type": "RNAV",
		"updated": "02/02/2009",
	},
	{
		"name": "FISRU",
		"latitude": "40-20-50.95 N",
		"longitude": "76-31-56.01 W",
		"state": "PENNSYLVANIA",
		"artcc": "ZNY",
		"type": "RNAV",
		"updated": "08/28/2008",
	},
	{
		"name": "FISST",
		"latitude": "18-0-0 N",
		"longitude": "56-0-0 W",
		"state": "OFFSHORE ATLANTIC",
		"artcc": "ZNY",
		"type": "RNAV",
		"updated": "01/21/2015",
	},
	{
		"name": "FITVA",
		"latitude": "42-11-18.84 N",
		"longitude": "79-51-19.61 W",
		"state": "PENNSYLVANIA",
		"artcc": "ZNY",
		"type": "RNAV",
		"updated": "02/23/2004",
	},
	{
		"name": "FIVIG",
		"latitude": "41-37-17.92 N",
		"longitude": "75-58-18.68 W",
		"state": "PENNSYLVANIA",
		"artcc": "ZNY",
		"type": "RNAV",
		"updated": "08/18/2006",
	},
	{
		"name": "FIVLU",
		"latitude": "42-2-42.9 N",
		"longitude": "75-38-6.99 W",
		"state": "NEW YORK",
		"artcc": "ZNY",
		"type": "RNAV",
		"updated": "02/26/2015",
	},
	{
		"name": "FIVZE",
		"latitude": "25-0-0 N",
		"longitude": "60-0-0 W",
		"state": "OFFSHORE ATLANTIC",
		"artcc": "ZNY",
		"type": "RNAV",
		"updated": "06/11/2008",
	},
	{
		"name": "FIXIN",
		"latitude": "40-36-32.6 N",
		"longitude": "73-47-36.06 W",
		"state": "NEW YORK",
		"artcc": "ZNY",
		"type": "RNAV",
		"updated": "08/02/2001",
	},
	{
		"name": "FLAAG",
		"latitude": "39-27-57.13 N",
		"longitude": "76-52-16.24 W",
		"state": "MARYLAND",
		"artcc": "ZNY",
		"type": "RNAV",
		"updated": "09/23/2014",
	},
	{
		"name": "FLAMO",
		"latitude": "33-22-36.41 N",
		"longitude": "66-18-34.99 W",
		"state": "OFFSHORE ATLANTIC",
		"artcc": "ZNY",
		"type": "RNAV",
		"updated": "08/25/2009",
	},
	{
		"name": "FLIKR",
		"latitude": "40-22-48.11 N",
		"longitude": "74-15-3.93 W",
		"state": "NEW JERSEY",
		"artcc": "ZNY",
		"type": "RNAV",
		"updated": "07/13/2015",
	},
	{
		"name": "FLING",
		"latitude": "40-29-23.64 N",
		"longitude": "74-53-5.11 W",
		"state": "NEW JERSEY",
		"artcc": "ZNY",
		"type": "RP",
		"updated": "SBJ*VOR/DME*239.55/8.60",
	},
	{
		"name": "FLIRT",
		"latitude": "39-55-43.51 N",
		"longitude": "76-42-15.31 W",
		"state": "PENNSYLVANIA",
		"artcc": "ZNY",
		"type": "RP",
		"updated": "CYN*VORTAC*284.37/105.19",
	},
	{
		"name": "FLOAT",
		"latitude": "40-25-47.84 N",
		"longitude": "75-53-3.87 W",
		"state": "PENNSYLVANIA",
		"artcc": "ZNY",
		"type": "RP",
		"updated": "ETX*VOR/DME*234.42/12.89",
	},
	{
		"name": "FLUPS",
		"latitude": "30-34-36.2 N",
		"longitude": "73-57-24.48 W",
		"state": "OFFSHORE ATLANTIC",
		"artcc": "ZNY",
		"type": "RNAV",
		"updated": "10/19/2009",
	},
	{
		"name": "FLURA",
		"latitude": "34-22-44.62 N",
		"longitude": "65-30-29.1 W",
		"state": "OFFSHORE ATLANTIC",
		"artcc": "ZNY",
		"type": "RNAV",
		"updated": "01/10/2017",
	},
	{
		"name": "FLUTE",
		"latitude": "39-42-0.55 N",
		"longitude": "72-11-15.6 W",
		"state": "OFFSHORE ATLANTIC",
		"artcc": "ZNY",
		"type": "RNAV",
		"updated": "05/02/2008",
	},
	{
		"name": "FOBGO",
		"latitude": "41-59-59.71 N",
		"longitude": "75-36-24.89 W",
		"state": "PENNSYLVANIA",
		"artcc": "ZNY",
		"type": "RNAV",
		"updated": "12/01/2006",
	},
	{
		"name": "FOLAM",
		"latitude": "40-23-47.76 N",
		"longitude": "74-54-31.4 W",
		"state": "NEW JERSEY",
		"artcc": "ZNY",
		"type": "RNAV",
		"updated": "10/03/2006",
	},
	{
		"name": "FOLEP",
		"latitude": "40-37-40.78 N",
		"longitude": "73-46-18.41 W",
		"state": "NEW YORK",
		"artcc": "ZNY",
		"type": "RNAV",
		"updated": "06/19/2015",
	},
	{
		"name": "FOLER",
		"latitude": "40-36-8.07 N",
		"longitude": "73-47-18.41 W",
		"state": "NEW YORK",
		"artcc": "ZNY",
		"type": "RNAV",
		"updated": "06/29/2005",
	},
	{
		"name": "FOLES",
		"latitude": "38-27-54 N",
		"longitude": "73-31-25 W",
		"state": "OFFSHORE ATLANTIC",
		"artcc": "ZNY",
		"type": "WP",
		"updated": "03/26/2002",
	},
	{
		"name": "FOLEV",
		"latitude": "40-57-15.54 N",
		"longitude": "76-32-7.43 W",
		"state": "PENNSYLVANIA",
		"artcc": "ZNY",
		"type": "RNAV",
		"updated": "09/26/2002",
	},
	{
		"name": "FOMDU",
		"latitude": "41-58-43.55 N",
		"longitude": "75-35-37.27 W",
		"state": "PENNSYLVANIA",
		"artcc": "ZNY",
		"type": "RNAV",
		"updated": "08/18/2006",
	},
	{
		"name": "FOMPI",
		"latitude": "41-59-28.23 N",
		"longitude": "76-8-51.75 W",
		"state": "PENNSYLVANIA",
		"artcc": "ZNY",
		"type": "RNAV",
		"updated": "03/25/2010",
	},
	{
		"name": "FONDE",
		"latitude": "39-43-27 N",
		"longitude": "72-43-3 W",
		"state": "OFFSHORE ATLANTIC",
		"artcc": "ZNY",
		"type": "RNAV",
		"updated": "03/23/2018",
	},
	{
		"name": "FONRA",
		"latitude": "39-48-34.49 N",
		"longitude": "77-14-22.4 W",
		"state": "PENNSYLVANIA",
		"artcc": "ZNY",
		"type": "RNAV",
		"updated": "04/25/2010",
	},
	{
		"name": "FONUP",
		"latitude": "40-46-31.88 N",
		"longitude": "75-14-22.25 W",
		"state": "PENNSYLVANIA",
		"artcc": "ZNY",
		"type": "RNAV",
		"updated": "05/13/2013",
	},
	{
		"name": "FOORE",
		"latitude": "24-0-0 N",
		"longitude": "60-0-0 W",
		"state": "OFFSHORE ATLANTIC",
		"artcc": "ZNY",
		"type": "RNAV",
		"updated": "05/28/2008",
	},
	{
		"name": "FOOTH",
		"latitude": "40-40-54.6 N",
		"longitude": "76-9-5.76 W",
		"state": "PENNSYLVANIA",
		"artcc": "ZNY",
		"type": "WP",
		"updated": "RAV*VORTAC*080.23/21.86",
	},
	{
		"name": "FORTT",
		"latitude": "40-50-23.28 N",
		"longitude": "77-26-4.89 W",
		"state": "PENNSYLVANIA",
		"artcc": "ZNY",
		"type": "RP",
		"updated": "AML*VOR/DME*008.73/114.23",
	},
	{
		"name": "FORYA",
		"latitude": "41-19-22.1 N",
		"longitude": "74-20-8.9 W",
		"state": "NEW YORK",
		"artcc": "ZNY",
		"type": "RNAV",
		"updated": "02/03/2010",
	},
	{
		"name": "FOSUR",
		"latitude": "42-1-36.53 N",
		"longitude": "76-37-43.86 W",
		"state": "NEW YORK",
		"artcc": "ZNY",
		"type": "RNAV",
		"updated": "10/21/2014",
	},
	{
		"name": "FOUST",
		"latitude": "39-27-33.69 N",
		"longitude": "76-53-16.03 W",
		"state": "MARYLAND",
		"artcc": "ZNY",
		"type": "RNAV",
		"updated": "04/21/2010",
	},
	{
		"name": "FOVEX",
		"latitude": "40-41-43.8 N",
		"longitude": "74-4-17.63 W",
		"state": "NEW JERSEY",
		"artcc": "ZNY",
		"type": "RNAV",
		"updated": "01/05/2010",
	},
	{
		"name": "FOXIB",
		"latitude": "40-48-0.34 N",
		"longitude": "74-12-9.09 W",
		"state": "NEW JERSEY",
		"artcc": "ZNY",
		"type": "RNAV",
		"updated": "07/28/2009",
	},
	{
		"name": "FOXIT",
		"latitude": "32-35-55.35 N",
		"longitude": "65-38-9.95 W",
		"state": "OFFSHORE ATLANTIC",
		"artcc": "ZNY",
		"type": "RNAV",
		"updated": "01/10/2017",
	},
	{
		"name": "FREEE",
		"latitude": "39-34-42.98 N",
		"longitude": "76-15-58.51 W",
		"state": "MARYLAND",
		"artcc": "ZNY",
		"type": "RNAV",
		"updated": "09/23/2014",
	},
	{
		"name": "FRIKK",
		"latitude": "40-46-35.37 N",
		"longitude": "73-28-56.85 W",
		"state": "NEW YORK",
		"artcc": "ZNY",
		"type": "RP",
		"updated": "DPK*VOR/DME*275.65",
	},
	{
		"name": "FRNKI",
		"latitude": "40-45-58.09 N",
		"longitude": "74-14-59.64 W",
		"state": "NEW JERSEY",
		"artcc": "ZNY",
		"type": "RNAV",
		"updated": "04/09/2014",
	},
	{
		"name": "FRNKY",
		"latitude": "40-24-47.64 N",
		"longitude": "73-44-15.73 W",
		"state": "NEW YORK",
		"artcc": "ZNY",
		"type": "RNAV",
		"updated": "06/11/2014",
	},
	{
		"name": "FROGI",
		"latitude": "40-57-15.2 N",
		"longitude": "73-43-50.44 W",
		"state": "NEW YORK",
		"artcc": "ZNY",
		"type": "RNAV",
		"updated": "04/12/2006",
	},
	{
		"name": "FROSE",
		"latitude": "40-3-43.86 N",
		"longitude": "75-28-18.8 W",
		"state": "PENNSYLVANIA",
		"artcc": "ZNY",
		"type": "RP",
		"updated": "SBJ*VOR/DME*237.25",
	},
	{
		"name": "FRSON",
		"latitude": "31-31-1.43 N",
		"longitude": "66-46-51.06 W",
		"state": "OFFSHORE ATLANTIC",
		"artcc": "ZNY",
		"type": "RNAV",
		"updated": "01/10/2017",
	},
