[
	{
		"name": "GAALO",
		"latitude": "40-40-9.45 N",
		"longitude": "73-44-9.8 W",
		"state": "NEW YORK",
		"artcc": "ZNY",
		"type": "RNAV",
		"updated": "07/10/2017"
	},
	{
		"name": "GAAPP",
		"latitude": "40-32-7.85 N",
		"longitude": "76-53-59.99 W",
		"state": "PENNSYLVANIA",
		"artcc": "ZNY",
		"type": "RP",
		"updated": "HAR*VORTAC*039.00/16.00"
	},
	{
		"name": "GAKEC",
		"latitude": "39-55-1.48 N",
		"longitude": "74-35-5.59 W",
		"state": "NEW JERSEY",
		"artcc": "ZNY",
		"type": "MW",
		"updated": "08/12/2009"
	},
	{
		"name": "GALVN",
		"latitude": "30-9-32.35 N",
		"longitude": "72-26-51.34 W",
		"state": "OFFSHORE ATLANTIC",
		"artcc": "ZNY",
		"type": "RNAV",
		"updated": "10/19/2009"
	},
	{
		"name": "GALWY",
		"latitude": "33-35-0.1 N",
		"longitude": "74-29-12.3 W",
		"state": "OFFSHORE ATLANTIC",
		"artcc": "ZNY",
		"type": "RNAV",
		"updated": "05/02/2008"
	},
	{
		"name": "GAMBY",
		"latitude": "40-0-22.22 N",
		"longitude": "73-52-8.27 W",
		"state": "NEW JERSEY",
		"artcc": "ZNY",
		"type": "RP",
		"updated": "DPK*VOR/DME*221.00/53.76"
	},
	{
		"name": "GANRE",
		"latitude": "40-59-41.45 N",
		"longitude": "76-26-22.43 W",
		"state": "PENNSYLVANIA",
		"artcc": "ZNY",
		"type": "RNAV",
		"updated": "01/04/2016"
	},
	{
		"name": "GATHR",
		"latitude": "39-39-10.83 N",
		"longitude": "77-10-5.71 W",
		"state": "MARYLAND",
		"artcc": "ZNY",
		"type": "RP",
		"updated": "EMI*VORTAC*325.17"
	},
	{
		"name": "GAYEL",
		"latitude": "41-24-24.09 N",
		"longitude": "74-21-25.72 W",
		"state": "NEW YORK",
		"artcc": "ZNY",
		"type": "RP",
		"updated": "DPK*VOR/DME*320.00/60.36"
	},
	{
		"name": "GBINS",
		"latitude": "33-34-7.34 N",
		"longitude": "64-43-42.1 W",
		"state": "OFFSHORE ATLANTIC",
		"artcc": "ZNY",
		"type": "RNAV",
		"updated": "01/10/2017"
	},
	{
		"name": "GEBLE",
		"latitude": "40-36-56.38 N",
		"longitude": "75-30-6.64 W",
		"state": "PENNSYLVANIA",
		"artcc": "ZNY",
		"type": "RNAV",
		"updated": "05/13/2013"
	},
	{
		"name": "GECAL",
		"latitude": "29-25-28.17 N",
		"longitude": "65-25-16.91 W",
		"state": "OFFSHORE ATLANTIC",
		"artcc": "ZNY",
		"type": "RNAV",
		"updated": "01/10/2017"
	},
	{
		"name": "GECEC",
		"latitude": "40-14-38.09 N",
		"longitude": "74-46-56.95 W",
		"state": "NEW JERSEY",
		"artcc": "ZDC",
		"type": "RNAV",
		"updated": "08/16/2012"
	},
	{
		"name": "GECVE",
		"latitude": "41-14-50.36 N",
		"longitude": "76-52-56.29 W",
		"state": "PENNSYLVANIA",
		"artcc": "ZNY",
		"type": "RNAV",
		"updated": "07/15/2011"
	},
	{
		"name": "GEDIC",
		"latitude": "40-8-46.1 N",
		"longitude": "73-12-6.99 W",
		"state": "NEW JERSEY",
		"artcc": "ZNY",
		"type": "RP",
		"updated": "CCC*VOR/DME*214.56/50.47"
	},
	{
		"name": "GEDSE",
		"latitude": "40-44-6.32 N",
		"longitude": "76-19-36.93 W",
		"state": "PENNSYLVANIA",
		"artcc": "ZNY",
		"type": "RNAV",
		"updated": "08/19/2006"
	},
	{
		"name": "GEEKS",
		"latitude": "39-59-51.41 N",
		"longitude": "75-32-27.98 W",
		"state": "PENNSYLVANIA",
		"artcc": "ZNY",
		"type": "RNAV",
		"updated": "06/25/2015"
	},
	{
		"name": "GEENE",
		"latitude": "39-50-58 N",
		"longitude": "72-51-37 W",
		"state": "OFFSHORE ATLANTIC",
		"artcc": "ZNY",
		"type": "RNAV",
		"updated": "03/23/2018"
	},
	{
		"name": "GEERI",
		"latitude": "39-56-59.7 N",
		"longitude": "76-17-38.99 W",
		"state": "PENNSYLVANIA",
		"artcc": "ZNY",
		"type": "RP",
		"updated": "LRP*VOR/DME*189.74/10.20"
	},
	{
		"name": "GEFWI",
		"latitude": "40-33-20.62 N",
		"longitude": "76-8-22.22 W",
		"state": "PENNSYLVANIA",
		"artcc": "ZNY",
		"type": "RNAV",
		"updated": "02/09/2018"
	},
	{
		"name": "GEHRG",
		"latitude": "37-56-29.4 N",
		"longitude": "72-30-46.8 W",
		"state": "OFFSHORE ATLANTIC",
		"artcc": "ZNY",
		"type": "RNAV",
		"updated": "10/20/2016"
	},
	{
		"name": "GEKDE",
		"latitude": "40-55-25.51 N",
		"longitude": "77-43-10.56 W",
		"state": "PENNSYLVANIA",
		"artcc": "ZNY",
		"type": "RNAV",
		"updated": "09/01/2016"
	},
	{
		"name": "GEMGE",
		"latitude": "39-57-32.24 N",
		"longitude": "74-3-19.01 W",
		"state": "NEW JERSEY",
		"artcc": "ZNY",
		"type": "MW",
		"updated": "09/06/2017"
	},
	{
		"name": "GEMTE",
		"latitude": "39-57-4.21 N",
		"longitude": "74-17-10.22 W",
		"state": "NEW JERSEY",
		"artcc": "ZNY",
		"type": "MR",
		"updated": "NEL*TACAN*160.00/6.00"
	},
	{
		"name": "GENNA",
		"latitude": "40-46-39.1 N",
		"longitude": "69-23-52.2 W",
		"state": "OFFSHORE ATLANTIC",
		"artcc": "ZNY",
		"type": "WP",
		"updated": "03/26/2002"
	},
	{
		"name": "GEPGE",
		"latitude": "40-46-46.87 N",
		"longitude": "76-50-34.71 W",
		"state": "PENNSYLVANIA",
		"artcc": "ZNY",
		"type": "RNAV",
		"updated": "11/04/2009"
	},
	{
		"name": "GESMY",
		"latitude": "40-8-18.45 N",
		"longitude": "75-46-16.51 W",
		"state": "PENNSYLVANIA",
		"artcc": "ZNY",
		"type": "RNAV",
		"updated": "04/17/2014"
	},
	{
		"name": "GETPE",
		"latitude": "40-36-28.92 N",
		"longitude": "74-54-8.9 W",
		"state": "NEW JERSEY",
		"artcc": "ZNY",
		"type": "RNAV",
		"updated": "04/17/2012"
	},
	{
		"name": "GETRO",
		"latitude": "29-30-1.25 N",
		"longitude": "67-26-56.88 W",
		"state": "OFFSHORE ATLANTIC",
		"artcc": "ZNY",
		"type": "RP",
		"updated": "11/13/1978"
	},
	{
		"name": "GEZSY",
		"latitude": "40-32-14.64 N",
		"longitude": "74-20-27.24 W",
		"state": "NEW JERSEY",
		"artcc": "ZNY",
		"type": "RNAV",
		"updated": "02/09/2018"
	},
	{
		"name": "GIBTE",
		"latitude": "40-54-6.96 N",
		"longitude": "74-2-5.94 W",
		"state": "NEW JERSEY",
		"artcc": "ZNY",
		"type": "RNAV",
		"updated": "03/07/2006"
	},
	{
		"name": "GIMEE",
		"latitude": "40-48-47.27 N",
		"longitude": "74-5-16.45 W",
		"state": "NEW JERSEY",
		"artcc": "ZNY",
		"type": "RP",
		"updated": "JFK*VOR/DME*318.92"
	},
	{
		"name": "GISGE",
		"latitude": "39-33-35.84 N",
		"longitude": "77-12-52.31 W",
		"state": "MARYLAND",
		"artcc": "ZNY",
		"type": "RNAV",
		"updated": "07/02/2003"
	},
	{
		"name": "GLAAS",
		"latitude": "18-0-0 N",
		"longitude": "55-0-0 W",
		"state": "OFFSHORE ATLANTIC",
		"artcc": "ZNY",
		"type": "RNAV",
		"updated": "12/22/2014"
	},
	{
		"name": "GLDMN",
		"latitude": "40-42-12.49 N",
		"longitude": "73-58-11.94 W",
		"state": "NEW YORK",
		"artcc": "ZNY",
		"type": "RNAV",
		"updated": "02/04/2010"
	},
	{
		"name": "GLENA",
		"latitude": "38-32-13 N",
		"longitude": "73-40-2 W",
		"state": "OFFSHORE ATLANTIC",
		"artcc": "ZNY",
		"type": "WP",
		"updated": "03/26/2002"
	},
	{
		"name": "GLINN",
		"latitude": "40-0-39.13 N",
		"longitude": "73-2-44.46 W",
		"state": "OFFSHORE ATLANTIC",
		"artcc": "ZNY",
		"type": "RP",
		"updated": "JFK*VOR/DME*150.00/50.00"
	},
	{
		"name": "GLOBS",
		"latitude": "40-31-41.79 N",
		"longitude": "76-17-28.62 W",
		"state": "PENNSYLVANIA",
		"artcc": "ZNY",
		"type": "RP",
		"updated": "LRP*VOR/DME*009.00"
	},
	{
		"name": "GLOMO",
		"latitude": "39-51-54.76 N",
		"longitude": "75-58-45.22 W",
		"state": "PENNSYLVANIA",
		"artcc": "ZNY",
		"type": "RP",
		"updated": "PTW*VORTAC*231.18/28.83"
	},
	{
		"name": "GODLY",
		"latitude": "41-2-41.49 N",
		"longitude": "74-19-4.15 W",
		"state": "NEW JERSEY",
		"artcc": "ZNY",
		"type": "RNAV",
		"updated": "08/31/2015"
	},
	{
		"name": "GOKYI",
		"latitude": "41-57-17.56 N",
		"longitude": "76-10-8.44 W",
		"state": "PENNSYLVANIA",
		"artcc": "ZNY",
		"type": "RNAV",
		"updated": "03/25/2010"
	},
	{
		"name": "GOLDE",
		"latitude": "40-7-40.79 N",
		"longitude": "74-34-56.15 W",
		"state": "NEW JERSEY",
		"artcc": "ZDC",
		"type": "RP",
		"updated": "CYN*VORTAC*349.59"
	},
	{
		"name": "GOLFF",
		"latitude": "40-53-5.88 N",
		"longitude": "74-5-39.66 W",
		"state": "NEW JERSEY",
		"artcc": "ZNY",
		"type": "RNAV",
		"updated": "04/13/2012"
	},
	{
		"name": "GOLSN",
		"latitude": "40-39-9.58 N",
		"longitude": "74-5-9.73 W",
		"state": "NEW JERSEY",
		"artcc": "ZNY",
		"type": "RNAV",
		"updated": "02/02/2009"
	},
	{
		"name": "GONVE",
		"latitude": "40-1-46.57 N",
		"longitude": "75-21-57.36 W",
		"state": "PENNSYLVANIA",
		"artcc": "ZNY",
		"type": "RNAV",
		"updated": "06/25/2015"
	},
	{
		"name": "GOOGL",
		"latitude": "40-14-53.47 N",
		"longitude": "75-26-49.43 W",
		"state": "PENNSYLVANIA",
		"artcc": "ZNY",
		"type": "RP",
		"updated": "ETX*VOR/DME*160.37"
	},
	{
		"name": "GOOSY",
		"latitude": "40-16-20.95 N",
		"longitude": "73-56-39.6 W",
		"state": "NEW JERSEY",
		"artcc": "ZNY",
		"type": "WP",
		"updated": "RBV*VORTAC*090.39/25.65"
	},
	{
		"name": "GORDI",
		"latitude": "34-30-31.54 N",
		"longitude": "64-45-42.67 W",
		"state": "OFFSHORE ATLANTIC",
		"artcc": "ZNY",
		"type": "RNAV",
		"updated": "01/10/2017"
	},
	{
		"name": "GORTT",
		"latitude": "40-26-32.94 N",
		"longitude": "75-26-37.43 W",
		"state": "PENNSYLVANIA",
		"artcc": "ZNY",
		"type": "RNAV",
		"updated": "04/20/2012"
	},
	{
		"name": "GOUGH",
		"latitude": "34-40-11.08 N",
		"longitude": "71-16-50.36 W",
		"state": "OFFSHORE ATLANTIC",
		"artcc": "ZNY",
		"type": "RNAV",
		"updated": "10/19/2009"
	},
	{
		"name": "GOVET",
		"latitude": "21-0-15.47 N",
		"longitude": "71-36-43.61 W",
		"state": "OFFSHORE ATLANTIC",
		"artcc": "ZNY",
		"type": "RP",
		"updated": "PTA*VOR/DME*330.91/94.80"
	},
	{
		"name": "GOWZO",
		"latitude": "39-51-27.02 N",
		"longitude": "75-38-17.18 W",
		"state": "PENNSYLVANIA",
		"artcc": "ZNY",
		"type": "RNAV",
		"updated": "06/18/2008"
	},
	{
		"name": "GOZLE",
		"latitude": "39-33-50.91 N",
		"longitude": "76-18-33.35 W",
		"state": "MARYLAND",
		"artcc": "ZNY",
		"type": "WP",
		"updated": "06/01/1995"
	},
	{
		"name": "GPOLE",
		"latitude": "40-47-59.36 N",
		"longitude": "73-31-37.37 W",
		"state": "NEW YORK",
		"artcc": "ZNY",
		"type": "RP",
		"updated": "JFK*VOR/DME*060.00/14.98"
	},
	{
		"name": "GRAMN",
		"latitude": "30-22-8.73 N",
		"longitude": "70-15-13.98 W",
		"state": "OFFSHORE ATLANTIC",
		"artcc": "ZNY",
		"type": "RNAV",
		"updated": "08/01/2008"
	},
	{
		"name": "GRAMO",
		"latitude": "39-57-44.85 N",
		"longitude": "76-46-56.45 W",
		"state": "PENNSYLVANIA",
		"artcc": "ZNY",
		"type": "RP",
		"updated": "THS*VORTAC*094.76/53.95"
	},
	{
		"name": "GRAPT",
		"latitude": "40-0-15 N",
		"longitude": "72-41-42 W",
		"state": "OFFSHORE ATLANTIC",
		"artcc": "ZNY",
		"type": "RNAV",
		"updated": "03/23/2018"
	},
	{
		"name": "GRATX",
		"latitude": "26-54-40.73 N",
		"longitude": "74-17-30.09 W",
		"state": "OFFSHORE ATLANTIC",
		"artcc": "ZNY",
		"type": "RNAV",
		"updated": "04/08/2008"
	},
	{
		"name": "GREKO",
		"latitude": "40-51-55.66 N",
		"longitude": "73-48-15.87 W",
		"state": "NEW YORK",
		"artcc": "ZNY",
		"type": "RP",
		"updated": "DPK*VOR/DME*293.13"
	},
	{
		"name": "GRENE",
		"latitude": "40-37-41.37 N",
		"longitude": "74-0-1.09 W",
		"state": "NEW YORK",
		"artcc": "ZNY",
		"type": "RP",
		"updated": "LGA*VOR/DME*/11.10"
	},
	{
		"name": "GRITY",
		"latitude": "40-30-56.12 N",
		"longitude": "74-16-36.95 W",
		"state": "NEW JERSEY",
		"artcc": "ZNY",
		"type": "RP",
		"updated": "RBV*VORTAC*037.97"
	},
	{
		"name": "GROOM",
		"latitude": "40-23-23.05 N",
		"longitude": "75-2-15.89 W",
		"state": "PENNSYLVANIA",
		"artcc": "ZNY",
		"type": "RP",
		"updated": "SBJ*VOR/DME*239.55/17.83"
	},
	{
		"name": "GUESS",
		"latitude": "40-11-29.14 N",
		"longitude": "74-13-59.14 W",
		"state": "NEW JERSEY",
		"artcc": "ZNY",
		"type": "RP",
		"updated": "COL*VOR/DME*216.09"
	},
	{
		"name": "GUICE",
		"latitude": "32-44-25.28 N",
		"longitude": "66-9-40.91 W",
		"state": "OFFSHORE ATLANTIC",
		"artcc": "ZNY",
		"type": "RNAV",
		"updated": "08/25/2009"
	},
	{
		"name": "GUYED",
		"latitude": "41-38-12.37 N",
		"longitude": "76-52-22.06 W",
		"state": "PENNSYLVANIA",
		"artcc": "ZNY",
		"type": "RP",
		"updated": "SFK*VOR/DME*106.00"
	},
	{
		"name": "GUZTI",
		"latitude": "40-42-34.71 N",
		"longitude": "74-20-10.23 W",
		"state": "NEW JERSEY",
		"artcc": "ZNY",
		"type": "RNAV",
		"updated": "07/28/2009"
	},
	{
		"name": "GYNTS",
		"latitude": "40-52-6.37 N",
		"longitude": "75-23-56.36 W",
		"state": "PENNSYLVANIA",
		"artcc": "ZNY",
		"type": "RP",
		"updated": "SBJ*VOR/DME*309.93"
	}
]
