[
	{
		"name": "HAAGN",
		"latitude": "39-57-41.39 N",
		"longitude": "76-4-34.32 W",
		"state": "PENNSYLVANIA",
		"artcc": "ZNY",
		"type": "RP",
		"updated": "ETX*VOR/DME*215.00/41.28"
	},
	{
		"name": "HAAYS",
		"latitude": "41-19-12.02 N",
		"longitude": "74-28-1.85 W",
		"state": "NEW YORK",
		"artcc": "ZNY",
		"type": "RP",
		"updated": "HUO*VOR/DME*144.69/7.78"
	},
	{
		"name": "HAAYY",
		"latitude": "35-18-30 N",
		"longitude": "74-50-0 W",
		"state": "OFFSHORE ATLANTIC",
		"artcc": "ZNY",
		"type": "RNAV",
		"updated": "12/29/2015"
	},
	{
		"name": "HABER",
		"latitude": "40-1-3.98 N",
		"longitude": "76-8-7.45 W",
		"state": "PENNSYLVANIA",
		"artcc": "ZNY",
		"type": "RP",
		"updated": "LRP*VOR/DME*139.42/9.44"
	},
	{
		"name": "HABOM",
		"latitude": "42-9-22.52 N",
		"longitude": "77-3-17.49 W",
		"state": "NEW YORK",
		"artcc": "ZNY",
		"type": "RNAV",
		"updated": "09/12/2012"
	},
	{
		"name": "HADAD",
		"latitude": "40-24-33.36 N",
		"longitude": "75-33-33.26 W",
		"state": "PENNSYLVANIA",
		"artcc": "ZNY",
		"type": "RNAV",
		"updated": "05/13/2013"
	},
	{
		"name": "HAGOD",
		"latitude": "41-48-12.27 N",
		"longitude": "75-51-51.08 W",
		"state": "PENNSYLVANIA",
		"artcc": "ZNY",
		"type": "RNAV",
		"updated": "08/19/2006"
	},
	{
		"name": "HAGRU",
		"latitude": "40-56-2.47 N",
		"longitude": "78-23-18.57 W",
		"state": "PENNSYLVANIA",
		"artcc": "ZNY",
		"type": "RNAV",
		"updated": "08/19/2006"
	},
	{
		"name": "HAILS",
		"latitude": "40-34-13.43 N",
		"longitude": "76-3-31.77 W",
		"state": "PENNSYLVANIA",
		"artcc": "ZNY",
		"type": "RP",
		"updated": "LRP*VOR/DME*030.47"
	},
	{
		"name": "HALNI",
		"latitude": "41-6-9.07 N",
		"longitude": "77-30-48.32 W",
		"state": "PENNSYLVANIA",
		"artcc": "ZNY",
		"type": "RNAV",
		"updated": "11/07/2014"
	},
	{
		"name": "HALPA",
		"latitude": "40-41-52.17 N",
		"longitude": "74-6-21.7 W",
		"state": "NEW JERSEY",
		"artcc": "ZNY",
		"type": "RNAV",
		"updated": "02/02/2009"
	},
	{
		"name": "HALVE",
		"latitude": "40-8-5.22 N",
		"longitude": "75-16-11.86 W",
		"state": "PENNSYLVANIA",
		"artcc": "ZNY",
		"type": "WP",
		"updated": "PTW*VORTAC*120.35/14.34"
	},
	{
		"name": "HAMMA",
		"latitude": "40-12-16.84 N",
		"longitude": "74-44-51.19 W",
		"state": "NEW JERSEY",
		"artcc": "ZDC",
		"type": "RNAV",
		"updated": "08/16/2012"
	},
	{
		"name": "HAMOR",
		"latitude": "39-51-20.69 N",
		"longitude": "75-47-16.79 W",
		"state": "PENNSYLVANIA",
		"artcc": "ZNY",
		"type": "RNAV",
		"updated": "06/08/2011"
	},
	{
		"name": "HAMPR",
		"latitude": "39-30-55.34 N",
		"longitude": "77-6-29.37 W",
		"state": "MARYLAND",
		"artcc": "ZNY",
		"type": "RNAV",
		"updated": "12/07/2011"
	},
	{
		"name": "HANRI",
		"latitude": "31-45-52.7 N",
		"longitude": "77-0-0 W",
		"state": "OFFSHORE ATLANTIC",
		"artcc": "ZNY",
		"type": "RNAV",
		"updated": "05/02/2008"
	},
	{
		"name": "HANSS",
		"latitude": "40-38-58.88 N",
		"longitude": "74-50-50 W",
		"state": "NEW JERSEY",
		"artcc": "ZNY",
		"type": "RNAV",
		"updated": "08/25/2015"
	},
	{
		"name": "HAPVY",
		"latitude": "38-30-48 N",
		"longitude": "73-37-36 W",
		"state": "OFFSHORE ATLANTIC",
		"artcc": "ZNY",
		"type": "RNAV",
		"updated": "03/23/2018"
	},
	{
		"name": "HARBO",
		"latitude": "39-36-27.04 N",
		"longitude": "74-0-26.56 W",
		"state": "NEW JERSEY",
		"artcc": "ZNY",
		"type": "RP",
		"updated": "CYN*VORTAC*132.50"
	},
	{
		"name": "HARLM",
		"latitude": "40-29-26.68 N",
		"longitude": "74-44-56.73 W",
		"state": "NEW JERSEY",
		"artcc": "ZNY",
		"type": "RP",
		"updated": "COL*VOR/DME*302.87/29.07"
	},
	{
		"name": "HARRS",
		"latitude": "40-20-26.55 N",
		"longitude": "75-5-1.29 W",
		"state": "PENNSYLVANIA",
		"artcc": "ZNY",
		"type": "RP",
		"updated": "SBJ*VOR/DME*237.25/21.36"
	},
	{
		"name": "HARRY",
		"latitude": "40-47-10.58 N",
		"longitude": "73-52-41.14 W",
		"state": "NEW YORK",
		"artcc": "ZNY",
		"type": "RP",
		"updated": "BDR*VOR/DME*249.00"
	},
	{
		"name": "HARTY",
		"latitude": "41-4-16.28 N",
		"longitude": "75-5-23.62 W",
		"state": "PENNSYLVANIA",
		"artcc": "ZNY",
		"type": "RP",
		"updated": "STW*VOR/DME*305.33/11.00"
	},
	{
		"name": "HASIS",
		"latitude": "40-45-53.59 N",
		"longitude": "75-40-20.44 W",
		"state": "PENNSYLVANIA",
		"artcc": "ZNY",
		"type": "RP",
		"updated": "ETX*VOR/DME*011.77"
	},
	{
		"name": "HATBU",
		"latitude": "40-8-42.51 N",
		"longitude": "76-13-22.16 W",
		"state": "PENNSYLVANIA",
		"artcc": "ZNY",
		"type": "RNAV",
		"updated": "06/10/2011"
	},
	{
		"name": "HAVES",
		"latitude": "41-7-0.83 N",
		"longitude": "77-29-20.77 W",
		"state": "PENNSYLVANIA",
		"artcc": "ZNY",
		"type": "RNAV",
		"updated": "08/19/2006"
	},
	{
		"name": "HAVUM",
		"latitude": "40-46-36.15 N",
		"longitude": "76-41-27.35 W",
		"state": "PENNSYLVANIA",
		"artcc": "ZNY",
		"type": "RNAV",
		"updated": "08/19/2006"
	},
	{
		"name": "HAVVI",
		"latitude": "41-0-41.93 N",
		"longitude": "75-14-2.74 W",
		"state": "PENNSYLVANIA",
		"artcc": "ZNY",
		"type": "RNAV",
		"updated": "07/24/2012"
	},
	{
		"name": "HAWLY",
		"latitude": "41-32-23.31 N",
		"longitude": "75-5-25.66 W",
		"state": "PENNSYLVANIA",
		"artcc": "ZNY",
		"type": "RP",
		"updated": "LGA*VOR/DME*321.71/71.57"
	},
	{
		"name": "HAWNS",
		"latitude": "40-58-51.04 N",
		"longitude": "75-53-13.66 W",
		"state": "PENNSYLVANIA",
		"artcc": "ZNY",
		"type": "RP",
		"updated": "ETX*VOR/DME*347.95"
	},
	{
		"name": "HAXEL",
		"latitude": "40-41-56.89 N",
		"longitude": "74-47-0.83 W",
		"state": "NEW JERSEY",
		"artcc": "ZNY",
		"type": "RNAV",
		"updated": "03/13/2017"
	},
	{
		"name": "HAYED",
		"latitude": "41-8-38.1 N",
		"longitude": "76-3-12.43 W",
		"state": "PENNSYLVANIA",
		"artcc": "ZNY",
		"type": "RP",
		"updated": "LVZ*VORTAC*255.00/18.21"
	},
	{
		"name": "HAYER",
		"latitude": "40-18-6.98 N",
		"longitude": "74-41-57.37 W",
		"state": "NEW JERSEY",
		"artcc": "ZNY",
		"type": "WP",
		"updated": "06/14/1991"
	},
	{
		"name": "HAZNN",
		"latitude": "41-12-5.44 N",
		"longitude": "75-50-22.55 W",
		"state": "PENNSYLVANIA",
		"artcc": "ZNY",
		"type": "RNAV",
		"updated": "09/05/2013"
	},
	{
		"name": "HEAPP",
		"latitude": "41-5-59.56 N",
		"longitude": "75-56-18.83 W",
		"state": "PENNSYLVANIA",
		"artcc": "ZNY",
		"type": "RP",
		"updated": "LVZ*VORTAC*237.50/15.33"
	},
	{
		"name": "HEBAD",
		"latitude": "40-44-57.15 N",
		"longitude": "74-53-19.7 W",
		"state": "NEW JERSEY",
		"artcc": "ZNY",
		"type": "RNAV",
		"updated": "05/21/2009"
	},
	{
		"name": "HEBAR",
		"latitude": "40-38-11 N",
		"longitude": "74-42-41.32 W",
		"state": "NEW JERSEY",
		"artcc": "ZNY",
		"type": "RNAV",
		"updated": "02/25/2003"
	},
	{
		"name": "HEBIL",
		"latitude": "40-58-25.76 N",
		"longitude": "78-20-54.65 W",
		"state": "PENNSYLVANIA",
		"artcc": "ZNY",
		"type": "RNAV",
		"updated": "03/20/2015"
	},
	{
		"name": "HEDED",
		"latitude": "40-12-15.02 N",
		"longitude": "76-1-53.76 W",
		"state": "PENNSYLVANIA",
		"artcc": "ZNY",
		"type": "RNAV",
		"updated": "06/10/2011"
	},
	{
		"name": "HEDIB",
		"latitude": "40-49-21.59 N",
		"longitude": "76-39-53.63 W",
		"state": "PENNSYLVANIA",
		"artcc": "ZNY",
		"type": "RNAV",
		"updated": "10/21/2014"
	},
	{
		"name": "HEERO",
		"latitude": "41-10-7.88 N",
		"longitude": "74-6-56.09 W",
		"state": "NEW YORK",
		"artcc": "ZNY",
		"type": "RNAV",
		"updated": "08/29/2011"
	},
	{
		"name": "HEGIN",
		"latitude": "40-38-29.8 N",
		"longitude": "76-27-57.75 W",
		"state": "PENNSYLVANIA",
		"artcc": "ZNY",
		"type": "RP",
		"updated": "RAV*VORTAC*060.00/8.07"
	},
	{
		"name": "HELEP",
		"latitude": "41-16-40.36 N",
		"longitude": "74-2-48.1 W",
		"state": "NEW YORK",
		"artcc": "ZNY",
		"type": "RNAV",
		"updated": "08/06/2010"
	},
	{
		"name": "HELIN",
		"latitude": "40-36-0.53 N",
		"longitude": "73-37-19.39 W",
		"state": "NEW YORK",
		"artcc": "ZNY",
		"type": "RP",
		"updated": "DPK*VOR/DME*243.77"
	},
	{
		"name": "HELOD",
		"latitude": "41-22-59.49 N",
		"longitude": "75-41-57.18 W",
		"state": "PENNSYLVANIA",
		"artcc": "ZNY",
		"type": "RNAV",
		"updated": "08/19/2006"
	},
	{
		"name": "HELOG",
		"latitude": "40-32-48.18 N",
		"longitude": "73-59-39.75 W",
		"state": "NEW YORK",
		"artcc": "ZNY",
		"type": "RNAV",
		"updated": "06/10/2002"
	},
	{
		"name": "HENEB",
		"latitude": "40-43-24.01 N",
		"longitude": "73-42-22.71 W",
		"state": "NEW YORK",
		"artcc": "ZNY",
		"type": "RNAV",
		"updated": "06/29/2005"
	},
	{
		"name": "HENIB",
		"latitude": "40-40-8.45 N",
		"longitude": "74-11-0.57 W",
		"state": "NEW JERSEY",
		"artcc": "ZNY",
		"type": "RNAV",
		"updated": "03/07/2006"
	},
	{
		"name": "HEPIS",
		"latitude": "41-30-52.12 N",
		"longitude": "75-15-11.26 W",
		"state": "PENNSYLVANIA",
		"artcc": "ZNY",
		"type": "RP",
		"updated": "LVZ*VORTAC*063.52/24.46"
	},
	{
		"name": "HEPOP",
		"latitude": "40-58-25.4 N",
		"longitude": "76-30-39.54 W",
		"state": "PENNSYLVANIA",
		"artcc": "ZNY",
		"type": "RNAV",
		"updated": "04/26/2012"
	},
	{
		"name": "HEPVO",
		"latitude": "41-51-41.9 N",
		"longitude": "76-13-24.99 W",
		"state": "PENNSYLVANIA",
		"artcc": "ZNY",
		"type": "RNAV",
		"updated": "11/02/2017"
	},
	{
		"name": "HERDA",
		"latitude": "40-37-51.78 N",
		"longitude": "77-14-51.96 W",
		"state": "PENNSYLVANIA",
		"artcc": "ZNY",
		"type": "RP",
		"updated": "HAR*VORTAC*347.57"
	},
	{
		"name": "HERES",
		"latitude": "39-33-13.08 N",
		"longitude": "76-48-0.31 W",
		"state": "MARYLAND",
		"artcc": "ZNY",
		"type": "RP",
		"updated": "EMI*VORTAC*074.96/9.00"
	},
	{
		"name": "HERHY",
		"latitude": "39-59-28.27 N",
		"longitude": "75-34-33.95 W",
		"state": "PENNSYLVANIA",
		"artcc": "ZNY",
		"type": "RP",
		"updated": "MXE*VORTAC*053.87/6.19"
	},
	{
		"name": "HEROS",
		"latitude": "40-42-44.16 N",
		"longitude": "74-0-47.3 W",
		"state": "NEW YORK",
		"artcc": "ZNY",
		"type": "RNAV",
		"updated": "01/16/2004"
	},
	{
		"name": "HERUB",
		"latitude": "40-57-7.08 N",
		"longitude": "76-28-51.69 W",
		"state": "PENNSYLVANIA",
		"artcc": "ZNY",
		"type": "RNAV",
		"updated": "04/19/2017"
	},
	{
		"name": "HESIN",
		"latitude": "41-5-49.88 N",
		"longitude": "74-23-31.37 W",
		"state": "NEW JERSEY",
		"artcc": "ZNY",
		"type": "RNAV",
		"updated": "12/12/2011"
	},
	{
		"name": "HESIP",
		"latitude": "40-47-8.85 N",
		"longitude": "73-33-53.38 W",
		"state": "NEW YORK",
		"artcc": "ZNY",
		"type": "RNAV",
		"updated": "04/25/2005"
	},
	{
		"name": "HESOR",
		"latitude": "40-41-17.59 N",
		"longitude": "73-43-16.46 W",
		"state": "NEW YORK",
		"artcc": "ZNY",
		"type": "RNAV",
		"updated": "08/11/2008"
	},
	{
		"name": "HESPO",
		"latitude": "41-24-50.7 N",
		"longitude": "75-20-32.05 W",
		"state": "PENNSYLVANIA",
		"artcc": "ZNY",
		"type": "RNAV",
		"updated": "01/31/2002"
	},
	{
		"name": "HEVIR",
		"latitude": "39-34-26.53 N",
		"longitude": "76-58-48.14 W",
		"state": "MARYLAND",
		"artcc": "ZNY",
		"type": "RNAV",
		"updated": "04/21/2010"
	},
	{
		"name": "HEVNO",
		"latitude": "40-51-28.13 N",
		"longitude": "77-52-15.93 W",
		"state": "PENNSYLVANIA",
		"artcc": "ZNY",
		"type": "RNAV",
		"updated": "08/14/2013"
	},
	{
		"name": "HEVNU",
		"latitude": "40-54-1.85 N",
		"longitude": "74-1-55.35 W",
		"state": "NEW JERSEY",
		"artcc": "ZNY",
		"type": "RNAV",
		"updated": "12/12/2005"
	},
	{
		"name": "HEWFY",
		"latitude": "40-1-14.8 N",
		"longitude": "75-35-37.65 W",
		"state": "PENNSYLVANIA",
		"artcc": "ZNY",
		"type": "RNAV",
		"updated": "06/18/2008"
	},
	{
		"name": "HEXEF",
		"latitude": "41-2-44.85 N",
		"longitude": "72-48-21.71 W",
		"state": "NEW YORK",
		"artcc": "ZNY",
		"type": "WP",
		"updated": "04/10/2001"
	},
	{
		"name": "HIFAL",
		"latitude": "39-58-19.2 N",
		"longitude": "75-10-28.56 W",
		"state": "PENNSYLVANIA",
		"artcc": "ZNY",
		"type": "RNAV",
		"updated": "09/26/2002"
	},
	{
		"name": "HIGAD",
		"latitude": "40-6-30.86 N",
		"longitude": "74-36-52.74 W",
		"state": "NEW JERSEY",
		"artcc": "ZDC",
		"type": "MR",
		"updated": "GXU*VORTAC*004.00/6.00"
	},
	{
		"name": "HIKES",
		"latitude": "40-22-55.93 N",
		"longitude": "75-36-54.9 W",
		"state": "PENNSYLVANIA",
		"artcc": "ZNY",
		"type": "RP",
		"updated": "ARD*VOR/DME*293.61/33.38"
	},
	{
		"name": "HIKIM",
		"latitude": "41-50-8.24 N",
		"longitude": "75-51-9.55 W",
		"state": "PENNSYLVANIA",
		"artcc": "ZNY",
		"type": "RNAV",
		"updated": "08/12/2015"
	},
	{
		"name": "HILKI",
		"latitude": "40-51-32.56 N",
		"longitude": "74-28-59.06 W",
		"state": "NEW JERSEY",
		"artcc": "ZNY",
		"type": "RNAV",
		"updated": "11/04/2011"
	},
	{
		"name": "HILOG",
		"latitude": "40-18-47.58 N",
		"longitude": "74-54-25.72 W",
		"state": "PENNSYLVANIA",
		"artcc": "ZNY",
		"type": "RNAV",
		"updated": "10/16/2006"
	},
	{
		"name": "HIMAR",
		"latitude": "40-29-3.87 N",
		"longitude": "74-24-42.38 W",
		"state": "NEW JERSEY",
		"artcc": "ZNY",
		"type": "RNAV",
		"updated": "10/16/2006"
	},
	{
		"name": "HIMDA",
		"latitude": "39-57-13.59 N",
		"longitude": "74-16-6.28 W",
		"state": "NEW JERSEY",
		"artcc": "ZNY",
		"type": "MW",
		"updated": "09/06/2017"
	},
	{
		"name": "HIMVU",
		"latitude": "40-17-3.3 N",
		"longitude": "76-40-0.68 W",
		"state": "PENNSYLVANIA",
		"artcc": "ZNY",
		"type": "RNAV",
		"updated": "09/02/2008"
	},
	{
		"name": "HINDU",
		"latitude": "40-22-36.78 N",
		"longitude": "75-28-42.86 W",
		"state": "PENNSYLVANIA",
		"artcc": "ZNY",
		"type": "RP",
		"updated": "PTW*VORTAC*031.00/10.00"
	},
	{
		"name": "HINSA",
		"latitude": "40-56-11.5 N",
		"longitude": "76-52-24.74 W",
		"state": "PENNSYLVANIA",
		"artcc": "ZNY",
		"type": "RNAV",
		"updated": "12/04/2006"
	},
	{
		"name": "HINTO",
		"latitude": "40-8-47.06 N",
		"longitude": "76-38-30.98 W",
		"state": "PENNSYLVANIA",
		"artcc": "ZNY",
		"type": "RP",
		"updated": "HQA*LS*SE CRS"
	},
	{
		"name": "HIPSI",
		"latitude": "40-40-33.52 N",
		"longitude": "77-27-52.4 W",
		"state": "PENNSYLVANIA",
		"artcc": "ZNY",
		"type": "RNAV",
		"updated": "02/26/2015"
	},
	{
		"name": "HIPUT",
		"latitude": "40-21-27.28 N",
		"longitude": "77-40-17.29 W",
		"state": "PENNSYLVANIA",
		"artcc": "ZNY",
		"type": "RNAV",
		"updated": "02/05/2002"
	},
	{
		"name": "HIRIG",
		"latitude": "41-42-18.1 N",
		"longitude": "77-24-22.31 W",
		"state": "PENNSYLVANIA",
		"artcc": "ZNY",
		"type": "RNAV",
		"updated": "11/07/2014"
	},
	{
		"name": "HIVIL",
		"latitude": "41-14-42.69 N",
		"longitude": "77-0-4.41 W",
		"state": "PENNSYLVANIA",
		"artcc": "ZNY",
		"type": "RNAV",
		"updated": "10/21/2014"
	},
	{
		"name": "HNNAH",
		"latitude": "40-28-12.73 N",
		"longitude": "74-2-36.62 W",
		"state": "NEW JERSEY",
		"artcc": "ZNY",
		"type": "RP",
		"updated": "VCN*VOR/DME*047.00/70.28"
	},
	{
		"name": "HOBIB",
		"latitude": "41-59-58.5 N",
		"longitude": "76-34-21.31 W",
		"state": "PENNSYLVANIA",
		"artcc": "ZNY",
		"type": "RNAV",
		"updated": "08/22/2006"
	},
	{
		"name": "HOBOD",
		"latitude": "40-57-33.71 N",
		"longitude": "76-52-47.78 W",
		"state": "PENNSYLVANIA",
		"artcc": "ZNY",
		"type": "RNAV",
		"updated": "12/04/2006"
	},
	{
		"name": "HOBOH",
		"latitude": "36-42-7.17 N",
		"longitude": "72-32-30.92 W",
		"state": "OFFSHORE ATLANTIC",
		"artcc": "ZNY",
		"type": "RNAV",
		"updated": "09/15/2016"
	},
	{
		"name": "HOBRA",
		"latitude": "39-49-31.57 N",
		"longitude": "75-55-52.88 W",
		"state": "PENNSYLVANIA",
		"artcc": "ZNY",
		"type": "RNAV",
		"updated": "06/18/2008"
	},
	{
		"name": "HODAB",
		"latitude": "40-23-54.94 N",
		"longitude": "74-42-47.8 W",
		"state": "NEW JERSEY",
		"artcc": "ZNY",
		"type": "RNAV",
		"updated": "01/22/2010"
	},
	{
		"name": "HODET",
		"latitude": "39-52-6.25 N",
		"longitude": "76-50-38.71 W",
		"state": "PENNSYLVANIA",
		"artcc": "ZNY",
		"type": "RNAV",
		"updated": "04/20/2011"
	},
	{
		"name": "HOGDI",
		"latitude": "40-50-45.71 N",
		"longitude": "74-4-10.99 W",
		"state": "NEW JERSEY",
		"artcc": "ZNY",
		"type": "RNAV",
		"updated": "09/23/2010"
	},
	{
		"name": "HOGGS",
		"latitude": "39-34-58.25 N",
		"longitude": "74-16-14.07 W",
		"state": "NEW JERSEY",
		"artcc": "ZNY",
		"type": "RP",
		"updated": "CYN*VORTAC*162.00/15.91"
	},
	{
		"name": "HOGIN",
		"latitude": "34-27-3.96 N",
		"longitude": "63-48-29.04 W",
		"state": "OFFSHORE ATLANTIC",
		"artcc": "ZNY",
		"type": "RNAV",
		"updated": "01/10/2017"
	},
	{
		"name": "HOGUL",
		"latitude": "40-59-38.94 N",
		"longitude": "76-7-52.17 W",
		"state": "PENNSYLVANIA",
		"artcc": "ZNY",
		"type": "RNAV",
		"updated": "03/21/2013"
	},
	{
		"name": "HOIST",
		"latitude": "39-15-39.16 N",
		"longitude": "77-2-3.55 W",
		"state": "MARYLAND",
		"artcc": "ZNY",
		"type": "RNAV",
		"updated": "08/12/2015"
	},
	{
		"name": "HOKIR",
		"latitude": "40-39-20.15 N",
		"longitude": "74-33-3.17 W",
		"state": "NEW JERSEY",
		"artcc": "ZNY",
		"type": "RNAV",
		"updated": "06/09/2008"
	},
	{
		"name": "HOLTU",
		"latitude": "41-7-23.01 N",
		"longitude": "77-28-43.23 W",
		"state": "PENNSYLVANIA",
		"artcc": "ZNY",
		"type": "RNAV",
		"updated": "11/07/2014"
	},
	{
		"name": "HOLUR",
		"latitude": "40-48-9.82 N",
		"longitude": "74-11-37.96 W",
		"state": "NEW JERSEY",
		"artcc": "ZNY",
		"type": "RNAV",
		"updated": "07/28/2009"
	},
	{
		"name": "HOMWE",
		"latitude": "40-14-58.61 N",
		"longitude": "75-4-12.38 W",
		"state": "PENNSYLVANIA",
		"artcc": "ZNY",
		"type": "RNAV",
		"updated": "08/12/2010"
	},
	{
		"name": "HONEP",
		"latitude": "40-38-52.84 N",
		"longitude": "77-31-8.53 W",
		"state": "PENNSYLVANIA",
		"artcc": "ZNY",
		"type": "RNAV",
		"updated": "08/22/2006"
	},
	{
		"name": "HONOD",
		"latitude": "40-5-23.82 N",
		"longitude": "74-28-59.21 W",
		"state": "NEW JERSEY",
		"artcc": "ZNY",
		"type": "MW",
		"updated": "12/24/2014"
	},
	{
		"name": "HONPU",
		"latitude": "40-17-7.12 N",
		"longitude": "75-22-56.97 W",
		"state": "PENNSYLVANIA",
		"artcc": "ZNY",
		"type": "RNAV",
		"updated": "03/24/2015"
	},
	{
		"name": "HOOTH",
		"latitude": "40-58-44.5 N",
		"longitude": "74-4-1.79 W",
		"state": "NEW JERSEY",
		"artcc": "ZNY",
		"type": "RNAV",
		"updated": "07/29/2009"
	},
	{
		"name": "HOPAT",
		"latitude": "40-53-15.45 N",
		"longitude": "74-38-28.77 W",
		"state": "NEW JERSEY",
		"artcc": "ZNY",
		"type": "RP",
		"updated": "BWZ*VOR/DME*067.89"
	},
	{
		"name": "HOPCE",
		"latitude": "41-18-42.65 N",
		"longitude": "74-43-0.7 W",
		"state": "NEW JERSEY",
		"artcc": "ZNY",
		"type": "RP",
		"updated": "HUO*VOR/DME*235.01/8.15"
	},
	{
		"name": "HOPEA",
		"latitude": "40-41-25.73 N",
		"longitude": "73-53-57.33 W",
		"state": "NEW YORK",
		"artcc": "ZNY",
		"type": "RNAV",
		"updated": "04/10/2012"
	},
	{
		"name": "HOPED",
		"latitude": "40-52-17.19 N",
		"longitude": "74-52-8.75 W",
		"state": "NEW JERSEY",
		"artcc": "ZNY",
		"type": "RNAV",
		"updated": "03/03/2003"
	},
	{
		"name": "HOPPS",
		"latitude": "40-51-10.41 N",
		"longitude": "75-23-39.31 W",
		"state": "PENNSYLVANIA",
		"artcc": "ZNY",
		"type": "RP",
		"updated": "SBJ*VOR/DME*308.74/33.88"
	},
	{
		"name": "HOPSU",
		"latitude": "40-14-26.04 N",
		"longitude": "76-56-2.35 W",
		"state": "PENNSYLVANIA",
		"artcc": "ZNY",
		"type": "RNAV",
		"updated": "08/22/2006"
	},
	{
		"name": "HORBO",
		"latitude": "40-6-6.29 N",
		"longitude": "74-14-43.8 W",
		"state": "NEW JERSEY",
		"artcc": "ZNY",
		"type": "MW",
		"updated": "09/06/2017"
	},
	{
		"name": "HORDE",
		"latitude": "40-21-15.54 N",
		"longitude": "74-52-51.73 W",
		"state": "NEW JERSEY",
		"artcc": "ZNY",
		"type": "RNAV",
		"updated": "08/16/2012"
	},
	{
		"name": "HORVI",
		"latitude": "40-11-57.99 N",
		"longitude": "76-55-13.11 W",
		"state": "PENNSYLVANIA",
		"artcc": "ZNY",
		"type": "RP",
		"updated": "HAR*VORTAC*141.90"
	},
	{
		"name": "HOSBE",
		"latitude": "40-44-11.62 N",
		"longitude": "74-28-24.37 W",
		"state": "NEW JERSEY",
		"artcc": "ZNY",
		"type": "RNAV",
		"updated": "06/28/2012"
	},
	{
		"name": "HOSDU",
		"latitude": "39-49-7.15 N",
		"longitude": "77-22-29.03 W",
		"state": "PENNSYLVANIA",
		"artcc": "ZNY",
		"type": "RNAV",
		"updated": "08/22/2006"
	},
	{
		"name": "HOTEE",
		"latitude": "40-20-36 N",
		"longitude": "76-29-37 W",
		"state": "PENNSYLVANIA",
		"artcc": "ZNY",
		"type": "RNAV",
		"updated": "08/25/2011"
	},
	{
		"name": "HOTOX",
		"latitude": "40-42-2.01 N",
		"longitude": "76-22-35.8 W",
		"state": "PENNSYLVANIA",
		"artcc": "ZNY",
		"type": "RP",
		"updated": "RAV*VORTAC*060.00/13.47"
	},
	{
		"name": "HOUTN",
		"latitude": "40-20-15.68 N",
		"longitude": "75-49-38.42 W",
		"state": "PENNSYLVANIA",
		"artcc": "ZNY",
		"type": "RP",
		"updated": "PTW*VORTAC*308.53"
	},
	{
		"name": "HOWYA",
		"latitude": "40-35-36.37 N",
		"longitude": "74-13-53.12 W",
		"state": "NEW JERSEY",
		"artcc": "ZNY",
		"type": "RP",
		"updated": "CRI*VOR/DME*276.87"
	},
	{
		"name": "HOXAG",
		"latitude": "42-11-40.59 N",
		"longitude": "76-13-2.62 W",
		"state": "NEW YORK",
		"artcc": "ZNY",
		"type": "RNAV",
		"updated": "02/22/2011"
	},
	{
		"name": "HUBTU",
		"latitude": "42-27-46.45 N",
		"longitude": "76-25-1.32 W",
		"state": "NEW YORK",
		"artcc": "ZNY",
		"type": "RNAV",
		"updated": "12/30/2009"
	},
	{
		"name": "HUGIE",
		"latitude": "41-53-53.28 N",
		"longitude": "75-35-30.36 W",
		"state": "PENNSYLVANIA",
		"artcc": "ZNY",
		"type": "RP",
		"updated": "CFB*VOR/DME*132.38/28.90"
	},
	{
		"name": "HULBI",
		"latitude": "40-48-45.74 N",
		"longitude": "73-56-32.24 W",
		"state": "NEW YORK",
		"artcc": "ZNY",
		"type": "RP",
		"updated": "GDI*LD*314.13/3.83"
	},
	{
		"name": "HULEP",
		"latitude": "40-38-18.82 N",
		"longitude": "73-47-42.15 W",
		"state": "NEW YORK",
		"artcc": "ZNY",
		"type": "RNAV",
		"updated": "08/11/2008"
	},
	{
		"name": "HULRO",
		"latitude": "41-14-7.42 N",
		"longitude": "76-29-26.85 W",
		"state": "PENNSYLVANIA",
		"artcc": "ZNY",
		"type": "RNAV",
		"updated": "04/25/2017"
	},
	{
		"name": "HUMEL",
		"latitude": "40-11-32.5 N",
		"longitude": "75-55-41.33 W",
		"state": "PENNSYLVANIA",
		"artcc": "ZNY",
		"type": "RP",
		"updated": "LRP*VOR/DME*084.32"
	},
	{
		"name": "HURPU",
		"latitude": "40-11-53.37 N",
		"longitude": "76-33-13.59 W",
		"state": "PENNSYLVANIA",
		"artcc": "ZNY",
		"type": "RNAV",
		"updated": "04/12/2011"
	},
	{
		"name": "HUTMO",
		"latitude": "40-43-5.48 N",
		"longitude": "74-24-57.18 W",
		"state": "NEW JERSEY",
		"artcc": "ZNY",
		"type": "RNAV",
		"updated": "01/05/2010"
	},
	{
		"name": "HUTOD",
		"latitude": "41-3-11.84 N",
		"longitude": "76-49-20.45 W",
		"state": "PENNSYLVANIA",
		"artcc": "ZNY",
		"type": "RNAV",
		"updated": "08/24/2017"
	},
	{
		"name": "HUXET",
		"latitude": "40-59-2.17 N",
		"longitude": "77-36-53.07 W",
		"state": "PENNSYLVANIA",
		"artcc": "ZNY",
		"type": "RNAV",
		"updated": "10/14/2008"
	},
	{
		"name": "HWANG",
		"latitude": "40-24-32.6 N",
		"longitude": "76-19-49.08 W",
		"state": "PENNSYLVANIA",
		"artcc": "ZNY",
		"type": "RP",
		"updated": "ETX*VOR/DME*260.00/31.33"
	},
	{
		"name": "HYDRA",
		"latitude": "40-14-48.93 N",
		"longitude": "75-37-54.12 W",
		"state": "PENNSYLVANIA",
		"artcc": "ZNY",
		"type": "RP",
		"updated": "PTW*VORTAC*303.27/3.60"
	},
	{
		"name": "HYLAN",
		"latitude": "40-35-0.37 N",
		"longitude": "74-5-28.5 W",
		"state": "NEW YORK",
		"artcc": "ZNY",
		"type": "WP",
		"updated": "06/17/1991"
	},
	{
		"name": "HYPER",
		"latitude": "39-41-2.16 N",
		"longitude": "77-13-30.34 W",
		"state": "MARYLAND",
		"artcc": "ZNY",
		"type": "RP",
		"updated": "SEG*VOR/DME*201.40/68.19"
	}
]
