	{
		"name": "IBIYU",
		"latitude": "41-3-53.47 N",
		"longitude": "74-46-32.32 W",
		"state": "NEW JERSEY",
		"artcc": "ZNY",
		"type": "RNAV",
		"updated": "06/27/2005",
	},
	{
		"name": "ICCEY",
		"latitude": "39-30-28.08 N",
		"longitude": "71-42-28.8 W",
		"state": "OFFSHORE ATLANTIC",
		"artcc": "ZNY",
		"type": "RNAV",
		"updated": "10/20/2016",
	},
	{
		"name": "ICIPA",
		"latitude": "41-29-43.62 N",
		"longitude": "74-43-36.66 W",
		"state": "NEW YORK",
		"artcc": "ZNY",
		"type": "RNAV",
		"updated": "07/10/2012",
	},
	{
		"name": "IDACE",
		"latitude": "40-48-42.08 N",
		"longitude": "74-5-33.58 W",
		"state": "NEW JERSEY",
		"artcc": "ZNY",
		"type": "RNAV",
		"updated": "03/07/2006",
	},
	{
		"name": "IDUME",
		"latitude": "41-14-27.19 N",
		"longitude": "77-4-58.04 W",
		"state": "PENNSYLVANIA",
		"artcc": "ZNY",
		"type": "RNAV",
		"updated": "03/17/2003",
	},
	{
		"name": "IDWUN",
		"latitude": "40-41-37.08 N",
		"longitude": "76-15-46.02 W",
		"state": "PENNSYLVANIA",
		"artcc": "ZNY",
		"type": "RNAV",
		"updated": "07/10/2009",
	},
	{
		"name": "IFFLY",
		"latitude": "38-40-31 N",
		"longitude": "73-56-38 W",
		"state": "OFFSHORE ATLANTIC",
		"artcc": "ZNY",
		"type": "WP",
		"updated": "03/26/2002",
	},
	{
		"name": "IGCAS",
		"latitude": "40-45-43.37 N",
		"longitude": "76-6-54.67 W",
		"state": "PENNSYLVANIA",
		"artcc": "ZNY",
		"type": "RNAV",
		"updated": "08/16/2010",
	},
	{
		"name": "IGIDE",
		"latitude": "40-35-45.02 N",
		"longitude": "73-39-13.97 W",
		"state": "NEW YORK",
		"artcc": "ZNY",
		"type": "RNAV",
		"updated": "06/11/2014",
	},
	{
		"name": "IILEN",
		"latitude": "42-31-14.52 N",
		"longitude": "76-12-19.76 W",
		"state": "NEW YORK",
		"artcc": "ZNY",
		"type": "RP",
		"updated": "ITH*VOR/DME*092.14",
	},
	{
		"name": "ILENE",
		"latitude": "40-8-45.09 N",
		"longitude": "75-16-28.27 W",
		"state": "PENNSYLVANIA",
		"artcc": "ZNY",
		"type": "RNAV",
		"updated": "02/12/2008",
	},
	{
		"name": "ILIDO",
		"latitude": "28-14-40.7 N",
		"longitude": "74-7-26.13 W",
		"state": "OFFSHORE ATLANTIC",
		"artcc": "ZNY",
		"type": "RNAV",
		"updated": "08/01/2008",
	},
	{
		"name": "ILINE",
		"latitude": "39-33-48.07 N",
		"longitude": "76-8-25.01 W",
		"state": "MARYLAND",
		"artcc": "ZNY",
		"type": "RNAV",
		"updated": "06/20/2010",
	},
	{
		"name": "ILLGO",
		"latitude": "35-11-0 N",
		"longitude": "74-40-0 W",
		"state": "OFFSHORE ATLANTIC",
		"artcc": "ZNY",
		"type": "RNAV",
		"updated": "12/29/2015",
	},
	{
		"name": "ILLIW",
		"latitude": "40-0-33.82 N",
		"longitude": "76-31-48.77 W",
		"state": "PENNSYLVANIA",
		"artcc": "ZNY",
		"type": "RNAV",
		"updated": "05/20/2009",
	},
	{
		"name": "ILVER",
		"latitude": "40-44-5.61 N",
		"longitude": "76-0-54.38 W",
		"state": "PENNSYLVANIA",
		"artcc": "ZNY",
		"type": "RNAV",
		"updated": "03/11/2011",
	},
	{
		"name": "IMAME",
		"latitude": "41-11-37.02 N",
		"longitude": "74-15-3.98 W",
		"state": "NEW YORK",
		"artcc": "ZNY",
		"type": "RNAV",
		"updated": "12/12/2011",
	},
	{
		"name": "IMULE",
		"latitude": "39-52-35.34 N",
		"longitude": "74-11-9.45 W",
		"state": "NEW JERSEY",
		"artcc": "ZNY",
		"type": "MW",
		"updated": "09/06/2017",
	},
	{
		"name": "IMZIS",
		"latitude": "41-16-19 N",
		"longitude": "74-32-56.86 W",
		"state": "NEW JERSEY",
		"artcc": "ZNY",
		"type": "RNAV",
		"updated": "07/24/2012",
	},
	{
		"name": "INNEZ",
		"latitude": "39-47-18.95 N",
		"longitude": "74-46-45.56 W",
		"state": "NEW JERSEY",
		"artcc": "ZNY",
		"type": "RP",
		"updated": "CYN*VORTAC*273.99/16.17",
	},
	{
		"name": "INOFO",
		"latitude": "41-2-38.29 N",
		"longitude": "72-16-15.67 W",
		"state": "NEW YORK",
		"artcc": "ZNY",
		"type": "WP",
		"updated": "HTO*VORTAC*/7.78",
	},
	{
		"name": "IPURE",
		"latitude": "40-2-1.87 N",
		"longitude": "74-36-13.8 W",
		"state": "NEW JERSEY",
		"artcc": "ZNY",
		"type": "MR",
		"updated": "GXU*VORTAC*359.00/1.50",
	},
	{
		"name": "IRCIT",
		"latitude": "40-43-53.82 N",
		"longitude": "76-37-32.23 W",
		"state": "PENNSYLVANIA",
		"artcc": "ZNY",
		"type": "RNAV",
		"updated": "08/16/2010",
	},
	{
		"name": "IREKE",
		"latitude": "42-18-56.84 N",
		"longitude": "76-38-19.88 W",
		"state": "NEW YORK",
		"artcc": "ZNY",
		"type": "RP",
		"updated": "ULW*VOR/DME*064.19/21.75",
	},
	{
		"name": "IRKUH",
		"latitude": "42-11-35.22 N",
		"longitude": "76-1-43.4 W",
		"state": "NEW YORK",
		"artcc": "ZNY",
		"type": "RNAV",
		"updated": "03/25/2010",
	},
	{
		"name": "ISACE",
		"latitude": "40-30-52.16 N",
		"longitude": "74-16-39.42 W",
		"state": "NEW JERSEY",
		"artcc": "ZNY",
		"type": "RNAV",
		"updated": "12/12/2005",
	},
	{
		"name": "ISERE",
		"latitude": "40-42-1.89 N",
		"longitude": "74-8-47.13 W",
		"state": "NEW JERSEY",
		"artcc": "ZNY",
		"type": "RNAV",
		"updated": "07/13/2015",
	},
	{
		"name": "ISLES",
		"latitude": "39-25-36.84 N",
		"longitude": "71-18-48.6 W",
		"state": "OFFSHORE ATLANTIC",
		"artcc": "ZNY",
		"type": "RNAV",
		"updated": "10/20/2016",
	},
	{
		"name": "ISOLE",
		"latitude": "25-5-31 N",
		"longitude": "74-21-39 W",
		"state": "OFFSHORE ATLANTIC",
		"artcc": "ZNY",
		"type": "RNAV",
		"updated": "04/09/2008",
	},
	{
		"name": "ITEHO",
		"latitude": "41-43-52.75 N",
		"longitude": "77-16-10.65 W",
		"state": "PENNSYLVANIA",
		"artcc": "ZNY",
		"type": "RNAV",
		"updated": "09/04/2012",
	},
	{
		"name": "ITGUW",
		"latitude": "40-22-9.33 N",
		"longitude": "76-58-38.15 W",
		"state": "PENNSYLVANIA",
		"artcc": "ZNY",
		"type": "RNAV",
		"updated": "05/20/2009",
	},
	{
		"name": "IWTOJ",
		"latitude": "40-59-27.03 N",
		"longitude": "76-4-10.53 W",
		"state": "PENNSYLVANIA",
		"artcc": "ZNY",
		"type": "RNAV",
		"updated": "03/21/2013",
	},
	{
		"name": "IXAGE",
		"latitude": "42-13-47.26 N",
		"longitude": "79-53-36.75 W",
		"state": "PENNSYLVANIA",
		"artcc": "ZNY",
		"type": "RNAV",
		"updated": "02/23/2004",
	},
	{
		"name": "IYIKA",
		"latitude": "40-38-13 N",
		"longitude": "77-12-37.59 W",
		"state": "PENNSYLVANIA",
		"artcc": "ZNY",
		"type": "RNAV",
		"updated": "02/22/2006",
	},
	{
		"name": "IZEKO",
		"latitude": "40-51-20.09 N",
		"longitude": "74-3-38.79 W",
		"state": "NEW JERSEY",
		"artcc": "ZNY",
		"type": "RNAV",
		"updated": "01/05/2010",
	},
	{
		"name": "IZIMY",
		"latitude": "41-27-28.61 N",
		"longitude": "73-51-21.45 W",
		"state": "NEW YORK",
		"artcc": "ZNY",
		"type": "RNAV",
		"updated": "02/09/2018",
	},
	{
		"name": "IZIWA",
		"latitude": "40-15-36.66 N",
		"longitude": "75-17-31.82 W",
		"state": "PENNSYLVANIA",
		"artcc": "ZNY",
		"type": "RNAV",
		"updated": "04/17/2014",
	},
	{
		"name": "IZKIP",
		"latitude": "40-40-43.68 N",
		"longitude": "75-29-51.08 W",
		"state": "PENNSYLVANIA",
		"artcc": "ZNY",
		"type": "RP",
		"updated": "ETX*VOR/DME*064.41",
	},
	{
		"name": "IZZEE",
		"latitude": "40-56-29.44 N",
		"longitude": "77-31-44.71 W",
		"state": "PENNSYLVANIA",
		"artcc": "ZNY",
		"type": "RNAV",
		"updated": "08/12/2015",
	},
