	{
		"name": "KACGE",
		"latitude": "40-38-34.39 N",
		"longitude": "76-51-10.61 W",
		"state": "PENNSYLVANIA",
		"artcc": "ZNY",
		"type": "RNAV",
		"updated": "08/24/2017",
	},
	{
		"name": "KAICE",
		"latitude": "32-5-3.56 N",
		"longitude": "66-59-41.71 W",
		"state": "OFFSHORE ATLANTIC",
		"artcc": "ZNY",
		"type": "RNAV",
		"updated": "01/10/2017",
	},
	{
		"name": "KANSE",
		"latitude": "40-5-40.49 N",
		"longitude": "74-8-18.86 W",
		"state": "NEW JERSEY",
		"artcc": "ZNY",
		"type": "RNAV",
		"updated": "01/06/2017",
	},
	{
		"name": "KANUX",
		"latitude": "30-33-35.88 N",
		"longitude": "72-34-2.79 W",
		"state": "OFFSHORE ATLANTIC",
		"artcc": "ZNY",
		"type": "RNAV",
		"updated": "04/09/2008",
	},
	{
		"name": "KAPPI",
		"latitude": "31-41-31.47 N",
		"longitude": "66-14-9.34 W",
		"state": "OFFSHORE ATLANTIC",
		"artcc": "ZNY",
		"type": "RNAV",
		"updated": "01/10/2017",
	},
	{
		"name": "KARRS",
		"latitude": "39-50-27.14 N",
		"longitude": "73-59-9.56 W",
		"state": "NEW JERSEY",
		"artcc": "ZNY",
		"type": "RP",
		"updated": "DPK*VOR/DME*221.00/65.05",
	},
	{
		"name": "KATHH",
		"latitude": "39-32-45.75 N",
		"longitude": "76-57-26.95 W",
		"state": "MARYLAND",
		"artcc": "ZNY",
		"type": "RNAV",
		"updated": "04/23/2010",
	},
	{
		"name": "KATTE",
		"latitude": "40-48-0.74 N",
		"longitude": "73-41-46.68 W",
		"state": "NEW YORK",
		"artcc": "ZNY",
		"type": "RNAV",
		"updated": "02/04/2010",
	},
	{
		"name": "KATVE",
		"latitude": "40-23-49.92 N",
		"longitude": "75-41-57.79 W",
		"state": "PENNSYLVANIA",
		"artcc": "ZNY",
		"type": "RP",
		"updated": "ARD*VOR/DME*293.61/37.34",
	},
	{
		"name": "KAVAX",
		"latitude": "23-0-0 N",
		"longitude": "60-0-0 W",
		"state": "OFFSHORE ATLANTIC",
		"artcc": "ZNY",
		"type": "RNAV",
		"updated": "04/11/2008",
	},
	{
		"name": "KAYNE",
		"latitude": "40-25-27.41 N",
		"longitude": "75-38-27.4 W",
		"state": "PENNSYLVANIA",
		"artcc": "ZNY",
		"type": "RP",
		"updated": "LRP*VOR/DME*067.37/35.00",
	},
	{
		"name": "KAYYT",
		"latitude": "38-52-37.83 N",
		"longitude": "67-34-22.28 W",
		"state": "OFFSHORE ATLANTIC",
		"artcc": "ZNY",
		"type": "RNAV",
		"updated": "02/07/2008",
	},
	{
		"name": "KEAVR",
		"latitude": "41-11-28.24 N",
		"longitude": "74-14-33.66 W",
		"state": "NEW YORK",
		"artcc": "ZNY",
		"type": "RNAV",
		"updated": "06/30/2015",
	},
	{
		"name": "KEBLE",
		"latitude": "39-52-15.15 N",
		"longitude": "74-48-14.05 W",
		"state": "NEW JERSEY",
		"artcc": "ZNY",
		"type": "RNAV",
		"updated": "05/11/2012",
	},
	{
		"name": "KEEKA",
		"latitude": "22-5-49.45 N",
		"longitude": "65-8-5.37 W",
		"state": "OFFSHORE ATLANTIC",
		"artcc": "ZNY",
		"type": "RNAV",
		"updated": "12/20/2011",
	},
	{
		"name": "KEEPM",
		"latitude": "40-50-14.77 N",
		"longitude": "73-32-42.58 W",
		"state": "NEW YORK",
		"artcc": "ZNY",
		"type": "RP",
		"updated": "CCC*VOR/DME*274.00/34.41",
	},
	{
		"name": "KEHSO",
		"latitude": "40-12-48.59 N",
		"longitude": "75-9-12.96 W",
		"state": "PENNSYLVANIA",
		"artcc": "ZNY",
		"type": "RNAV",
		"updated": "01/26/2012",
	},
	{
		"name": "KEMAR",
		"latitude": "39-33-45.29 N",
		"longitude": "77-16-1.97 W",
		"state": "MARYLAND",
		"artcc": "ZNY",
		"type": "RP",
		"updated": "EMI*VORTAC*294.91/14.00",
	},
	{
		"name": "KENDA",
		"latitude": "39-21-10.69 N",
		"longitude": "70-29-58.01 W",
		"state": "OFFSHORE ATLANTIC",
		"artcc": "ZNY",
		"type": "RNAV",
		"updated": "07/25/2008",
	},
	{
		"name": "KERYN",
		"latitude": "40-22-40.19 N",
		"longitude": "76-16-20.61 W",
		"state": "PENNSYLVANIA",
		"artcc": "ZNY",
		"type": "RP",
		"updated": "LRP*VOR/DME*012.21/15.49",
	},
	{
		"name": "KETPE",
		"latitude": "40-1-49.62 N",
		"longitude": "74-33-45.99 W",
		"state": "NEW JERSEY",
		"artcc": "ZNY",
		"type": "MR",
		"updated": "GXU*VORTAC*/2.00",
	},
	{
		"name": "KETTS",
		"latitude": "39-50-21.71 N",
		"longitude": "74-51-17.68 W",
		"state": "NEW JERSEY",
		"artcc": "ZNY",
		"type": "RP",
		"updated": "CYN*VORTAC*284.00/19.60",
	},
	{
		"name": "KEVMY",
		"latitude": "40-35-48.88 N",
		"longitude": "76-8-44.97 W",
		"state": "PENNSYLVANIA",
		"artcc": "ZNY",
		"type": "RNAV",
		"updated": "08/16/2010",
	},
	{
		"name": "KEVNN",
		"latitude": "34-56-0 N",
		"longitude": "74-20-0 W",
		"state": "OFFSHORE ATLANTIC",
		"artcc": "ZNY",
		"type": "RNAV",
		"updated": "12/29/2015",
	},
	{
		"name": "KIACK",
		"latitude": "40-51-46.44 N",
		"longitude": "76-39-34.88 W",
		"state": "PENNSYLVANIA",
		"artcc": "ZNY",
		"type": "RNAV",
		"updated": "09/03/2013",
	},
	{
		"name": "KIETH",
		"latitude": "40-6-31.6 N",
		"longitude": "68-21-50.7 W",
		"state": "OFFSHORE ATLANTIC",
		"artcc": "ZNY",
		"type": "WP",
		"updated": "01/08/2007",
	},
	{
		"name": "KILMA",
		"latitude": "40-29-9.7 N",
		"longitude": "74-24-8.82 W",
		"state": "NEW JERSEY",
		"artcc": "ZNY",
		"type": "RP",
		"updated": "CRI*VOR/DME*263.09/24.44",
	},
	{
		"name": "KIMKE",
		"latitude": "40-47-48.1 N",
		"longitude": "75-10-57.32 W",
		"state": "NEW JERSEY",
		"artcc": "ZNY",
		"type": "RNAV",
		"updated": "07/05/2005",
	},
	{
		"name": "KINER",
		"latitude": "36-34-27.23 N",
		"longitude": "68-17-14.81 W",
		"state": "OFFSHORE ATLANTIC",
		"artcc": "ZNY",
		"type": "RNAV",
		"updated": "06/11/2008",
	},
	{
		"name": "KINGG",
		"latitude": "38-8-19.72 N",
		"longitude": "70-21-35.93 W",
		"state": "OFFSHORE ATLANTIC",
		"artcc": "ZNY",
		"type": "RNAV",
		"updated": "04/17/2008",
	},
	{
		"name": "KIPPI",
		"latitude": "39-56-37.94 N",
		"longitude": "77-6-17.03 W",
		"state": "PENNSYLVANIA",
		"artcc": "ZNY",
		"type": "RP",
		"updated": "CYN*VORTAC*284.37/123.70",
	},
	{
		"name": "KIRSE",
		"latitude": "40-38-51.57 N",
		"longitude": "74-45-16.06 W",
		"state": "NEW JERSEY",
		"artcc": "ZNY",
		"type": "RNAV",
		"updated": "01/12/2015",
	},
	{
		"name": "KITHE",
		"latitude": "39-48-35.53 N",
		"longitude": "76-17-48.12 W",
		"state": "PENNSYLVANIA",
		"artcc": "ZNY",
		"type": "RP",
		"updated": "LRP*VOR/DME*189.77/18.59",
	},
	{
		"name": "KIWIE",
		"latitude": "40-42-46.02 N",
		"longitude": "73-49-33.25 W",
		"state": "NEW YORK",
		"artcc": "ZNY",
		"type": "RNAV",
		"updated": "04/10/2012",
	},
	{
		"name": "KIYEG",
		"latitude": "40-52-4.99 N",
		"longitude": "74-18-21.89 W",
		"state": "NEW JERSEY",
		"artcc": "ZNY",
		"type": "RNAV",
		"updated": "03/05/2007",
	},
	{
		"name": "KLATU",
		"latitude": "40-27-59.5 N",
		"longitude": "75-38-53.89 W",
		"state": "PENNSYLVANIA",
		"artcc": "ZNY",
		"type": "RNAV",
		"updated": "04/20/2012",
	},
	{
		"name": "KLOND",
		"latitude": "40-13-19.99 N",
		"longitude": "74-42-51.13 W",
		"state": "NEW JERSEY",
		"artcc": "ZDC",
		"type": "RNAV",
		"updated": "04/19/2012",
	},
	{
		"name": "KLOOF",
		"latitude": "39-50-49.15 N",
		"longitude": "76-49-49.96 W",
		"state": "PENNSYLVANIA",
		"artcc": "ZNY",
		"type": "RNAV",
		"updated": "07/26/2013",
	},
	{
		"name": "KMCHI",
		"latitude": "40-37-31.16 N",
		"longitude": "74-2-38.28 W",
		"state": "NEW YORK",
		"artcc": "ZNY",
		"type": "RNAV",
		"updated": "07/14/2015",
	},
	{
		"name": "KN45C",
		"latitude": "37-30-0 N",
		"longitude": "72-0-0 W",
		"state": "OFFSHORE ATLANTIC",
		"artcc": "ZNY",
		"type": "NRS",
		"updated": "03/05/2005",
	},
	{
		"name": "KN48A",
		"latitude": "38-0-0 N",
		"longitude": "74-0-0 W",
		"state": "OFFSHORE ATLANTIC",
		"artcc": "ZNY",
		"type": "NRS",
		"updated": "03/05/2005",
	},
	{
		"name": "KN48C",
		"latitude": "38-0-0 N",
		"longitude": "72-0-0 W",
		"state": "OFFSHORE ATLANTIC",
		"artcc": "ZNY",
		"type": "NRS",
		"updated": "03/05/2005",
	},
	{
		"name": "KN51A",
		"latitude": "38-30-0 N",
		"longitude": "74-0-0 W",
		"state": "OFFSHORE ATLANTIC",
		"artcc": "ZNY",
		"type": "NRS",
		"updated": "03/05/2005",
	},
	{
		"name": "KN51C",
		"latitude": "38-30-0 N",
		"longitude": "72-0-0 W",
		"state": "OFFSHORE ATLANTIC",
		"artcc": "ZNY",
		"type": "NRS",
		"updated": "03/05/2005",
	},
	{
		"name": "KN51E",
		"latitude": "38-30-0 N",
		"longitude": "70-0-0 W",
		"state": "OFFSHORE ATLANTIC",
		"artcc": "ZNY",
		"type": "NRS",
		"updated": "03/05/2005",
	},
	{
		"name": "KN54C",
		"latitude": "39-0-0 N",
		"longitude": "72-0-0 W",
		"state": "OFFSHORE ATLANTIC",
		"artcc": "ZNY",
		"type": "NRS",
		"updated": "03/05/2005",
	},
	{
		"name": "KN54E",
		"latitude": "39-0-0 N",
		"longitude": "70-0-0 W",
		"state": "OFFSHORE ATLANTIC",
		"artcc": "ZNY",
		"type": "NRS",
		"updated": "03/05/2005",
	},
	{
		"name": "KN54G",
		"latitude": "39-0-0 N",
		"longitude": "68-0-0 W",
		"state": "OFFSHORE ATLANTIC",
		"artcc": "ZNY",
		"type": "NRS",
		"updated": "03/05/2005",
	},
	{
		"name": "KN57C",
		"latitude": "39-30-0 N",
		"longitude": "72-0-0 W",
		"state": "OFFSHORE ATLANTIC",
		"artcc": "ZNY",
		"type": "NRS",
		"updated": "03/05/2005",
	},
	{
		"name": "KN57E",
		"latitude": "39-30-0 N",
		"longitude": "70-0-0 W",
		"state": "OFFSHORE ATLANTIC",
		"artcc": "ZNY",
		"type": "NRS",
		"updated": "03/05/2005",
	},
	{
		"name": "KN57G",
		"latitude": "39-30-0 N",
		"longitude": "68-0-0 W",
		"state": "OFFSHORE ATLANTIC",
		"artcc": "ZNY",
		"type": "NRS",
		"updated": "03/05/2005",
	},
	{
		"name": "KN60C",
		"latitude": "40-0-0 N",
		"longitude": "72-0-0 W",
		"state": "OFFSHORE ATLANTIC",
		"artcc": "ZNY",
		"type": "NRS",
		"updated": "03/05/2005",
	},
	{
		"name": "KN60E",
		"latitude": "40-0-0 N",
		"longitude": "70-0-0 W",
		"state": "OFFSHORE ATLANTIC",
		"artcc": "ZNY",
		"type": "NRS",
		"updated": "03/05/2005",
	},
	{
		"name": "KN60G",
		"latitude": "40-0-0 N",
		"longitude": "68-0-0 W",
		"state": "OFFSHORE ATLANTIC",
		"artcc": "ZNY",
		"type": "NRS",
		"updated": "03/05/2005",
	},
	{
		"name": "KN60Y",
		"latitude": "40-0-0 N",
		"longitude": "76-0-0 W",
		"state": "PENNSYLVANIA",
		"artcc": "ZNY",
		"type": "NRS",
		"updated": "03/05/2005",
	},
	{
		"name": "KN63A",
		"latitude": "40-30-0 N",
		"longitude": "74-0-0 W",
		"state": "NEW YORK",
		"artcc": "ZNY",
		"type": "NRS",
		"updated": "03/05/2005",
	},
	{
		"name": "KN63E",
		"latitude": "40-30-0 N",
		"longitude": "70-0-0 W",
		"state": "OFFSHORE ATLANTIC",
		"artcc": "ZNY",
		"type": "NRS",
		"updated": "03/05/2005",
	},
	{
		"name": "KN63G",
		"latitude": "40-30-0 N",
		"longitude": "68-0-0 W",
		"state": "OFFSHORE ATLANTIC",
		"artcc": "ZNY",
		"type": "NRS",
		"updated": "03/05/2005",
	},
	{
		"name": "KN63Y",
		"latitude": "40-30-0 N",
		"longitude": "76-0-0 W",
		"state": "PENNSYLVANIA",
		"artcc": "ZNY",
		"type": "NRS",
		"updated": "03/05/2005",
	},
	{
		"name": "KN66A",
		"latitude": "41-0-0 N",
		"longitude": "74-0-0 W",
		"state": "NEW JERSEY",
		"artcc": "ZNY",
		"type": "NRS",
		"updated": "03/05/2005",
	},
	{
		"name": "KN66G",
		"latitude": "41-0-0 N",
		"longitude": "68-0-0 W",
		"state": "OFFSHORE ATLANTIC",
		"artcc": "ZNY",
		"type": "NRS",
		"updated": "03/05/2005",
	},
	{
		"name": "KN66W",
		"latitude": "41-0-0 N",
		"longitude": "78-0-0 W",
		"state": "PENNSYLVANIA",
		"artcc": "ZNY",
		"type": "NRS",
		"updated": "03/05/2005",
	},
	{
		"name": "KN66Y",
		"latitude": "41-0-0 N",
		"longitude": "76-0-0 W",
		"state": "PENNSYLVANIA",
		"artcc": "ZNY",
		"type": "NRS",
		"updated": "03/05/2005",
	},
	{
		"name": "KN69Y",
		"latitude": "41-30-0 N",
		"longitude": "76-0-0 W",
		"state": "PENNSYLVANIA",
		"artcc": "ZNY",
		"type": "NRS",
		"updated": "03/05/2005",
	},
	{
		"name": "KN72Y",
		"latitude": "42-0-0 N",
		"longitude": "76-0-0 W",
		"state": "NEW YORK",
		"artcc": "ZNY",
		"type": "NRS",
		"updated": "03/05/2005",
	},
	{
		"name": "KOCEC",
		"latitude": "40-36-41.81 N",
		"longitude": "75-21-42.47 W",
		"state": "PENNSYLVANIA",
		"artcc": "ZNY",
		"type": "RNAV",
		"updated": "05/13/2013",
	},
	{
		"name": "KOLBY",
		"latitude": "40-4-24.63 N",
		"longitude": "77-2-36.75 W",
		"state": "PENNSYLVANIA",
		"artcc": "ZNY",
		"type": "RP",
		"updated": "HAR*VORTAC*185.01/13.77",
	},
	{
		"name": "KOLLI",
		"latitude": "40-54-47.13 N",
		"longitude": "74-15-8.53 W",
		"state": "NEW JERSEY",
		"artcc": "ZNY",
		"type": "RP",
		"updated": "TEB*VOR/DME*305.10",
	},
	{
		"name": "KONAA",
		"latitude": "41-25-52.96 N",
		"longitude": "75-38-38.1 W",
		"state": "PENNSYLVANIA",
		"artcc": "ZNY",
		"type": "RNAV",
		"updated": "09/05/2013",
	},
	{
		"name": "KONFY",
		"latitude": "40-6-11.49 N",
		"longitude": "77-20-10.16 W",
		"state": "PENNSYLVANIA",
		"artcc": "ZNY",
		"type": "WP",
		"updated": "11/17/1998",
	},
	{
		"name": "KONJE",
		"latitude": "41-49-14.5 N",
		"longitude": "77-6-33.42 W",
		"state": "PENNSYLVANIA",
		"artcc": "ZNY",
		"type": "RP",
		"updated": "ULW*VOR/DME*205.00/16.84",
	},
	{
		"name": "KOORT",
		"latitude": "40-9-10.84 N",
		"longitude": "76-30-41.66 W",
		"state": "PENNSYLVANIA",
		"artcc": "ZNY",
		"type": "RP",
		"updated": "LRP*VOR/DME*290.13/10.33",
	},
	{
		"name": "KOPPS",
		"latitude": "40-22-9.54 N",
		"longitude": "74-31-49.3 W",
		"state": "NEW JERSEY",
		"artcc": "ZNY",
		"type": "RP",
		"updated": "SBJ*VOR/DME*152.87/16.06",
	},
	{
		"name": "KORRY",
		"latitude": "40-5-37.83 N",
		"longitude": "74-39-5.56 W",
		"state": "NEW JERSEY",
		"artcc": "ZNY",
		"type": "RP",
		"updated": "ARD*VOR/DME*139.00/15.17",
	},
	{
		"name": "KOZIK",
		"latitude": "26-48-26.75 N",
		"longitude": "63-45-1.63 W",
		"state": "OFFSHORE ATLANTIC",
		"artcc": "ZNY",
		"type": "RNAV",
		"updated": "10/19/2009",
	},
	{
		"name": "KRAZE",
		"latitude": "40-50-13.14 N",
		"longitude": "75-55-10.83 W",
		"state": "PENNSYLVANIA",
		"artcc": "ZNY",
		"type": "RP",
		"updated": "MIP*VORTAC*117.00/35.70",
	},
	{
		"name": "KRSTL",
		"latitude": "40-33-31.4 N",
		"longitude": "73-50-5.89 W",
		"state": "NEW YORK",
		"artcc": "ZNY",
		"type": "RP",
		"updated": "HIQ*LD*224.75/4.95",
	},
	{
		"name": "KRVER",
		"latitude": "39-36-31.89 N",
		"longitude": "76-5-22.77 W",
		"state": "MARYLAND",
		"artcc": "ZNY",
		"type": "RNAV",
		"updated": "08/12/2015",
	},
	{
		"name": "KTAIT",
		"latitude": "40-33-54.17 N",
		"longitude": "73-50-45.04 W",
		"state": "NEW YORK",
		"artcc": "ZNY",
		"type": "RP",
		"updated": "CRI*VOR/DME*152.99",
	},
	{
		"name": "KULPE",
		"latitude": "40-8-45.08 N",
		"longitude": "74-49-27.61 W",
		"state": "PENNSYLVANIA",
		"artcc": "ZDC",
		"type": "RNAV",
		"updated": "08/16/2012",
	},
	{
		"name": "KUNVE",
		"latitude": "40-27-49.87 N",
		"longitude": "74-10-32.12 W",
		"state": "NEW JERSEY",
		"artcc": "ZNY",
		"type": "RNAV",
		"updated": "07/07/2009",
	},
	{
		"name": "KUPPS",
		"latitude": "40-17-14.32 N",
		"longitude": "76-27-7.01 W",
		"state": "PENNSYLVANIA",
		"artcc": "ZNY",
		"type": "RP",
		"updated": "LRP*VOR/DME*332.69/12.46",
	},
	{
		"name": "KURNL",
		"latitude": "41-12-4.7 N",
		"longitude": "74-27-30.37 W",
		"state": "NEW JERSEY",
		"artcc": "ZNY",
		"type": "RNAV",
		"updated": "08/29/2011",
	},
	{
		"name": "KURTS",
		"latitude": "30-9-58.88 N",
		"longitude": "64-29-42.76 W",
		"state": "OFFSHORE ATLANTIC",
		"artcc": "ZNY",
		"type": "RNAV",
		"updated": "08/26/2009",
	},
	{
		"name": "KUVTE",
		"latitude": "40-5-26.63 N",
		"longitude": "74-37-15.37 W",
		"state": "NEW JERSEY",
		"artcc": "ZDC",
		"type": "MR",
		"updated": "GXU*VORTAC*359.00/5.00",
	},
	{
		"name": "KUZZZ",
		"latitude": "40-50-26.59 N",
		"longitude": "73-47-55.46 W",
		"state": "NEW YORK",
		"artcc": "ZNY",
		"type": "RNAV",
		"updated": "07/06/2007",
	},
	{
		"name": "KWITE",
		"latitude": "40-38-39.3 N",
		"longitude": "74-33-41.98 W",
		"state": "NEW JERSEY",
		"artcc": "ZNY",
		"type": "RNAV",
		"updated": "04/13/2011",
	},
	{
		"name": "KYILL",
		"latitude": "39-56-8.16 N",
		"longitude": "75-22-48.43 W",
		"state": "PENNSYLVANIA",
		"artcc": "ZNY",
		"type": "RNAV",
		"updated": "09/26/2002",
	},
	{
		"name": "KYLIE",
		"latitude": "40-48-49.24 N",
		"longitude": "73-50-50.34 W",
		"state": "NEW YORK",
		"artcc": "ZNY",
		"type": "RNAV",
		"updated": "07/11/2007",
	},
