[
	{
		"name": "PACHU",
		"latitude": "40-39-36.59 N",
		"longitude": "73-58-26.34 W",
		"state": "NEW YORK",
		"artcc": "ZNY",
		"type": "RNAV",
		"updated": "05/04/2017"
	},
	{
		"name": "PACKS",
		"latitude": "40-8-5.31 N",
		"longitude": "75-4-9.95 W",
		"state": "PENNSYLVANIA",
		"artcc": "ZDC",
		"type": "RNAV",
		"updated": "02/08/2012"
	},
	{
		"name": "PADRE",
		"latitude": "39-56-16.67 N",
		"longitude": "76-3-18.63 W",
		"state": "PENNSYLVANIA",
		"artcc": "ZNY",
		"type": "RP",
		"updated": "LRP*VOR/DME*144.00"
	},
	{
		"name": "PAEPR",
		"latitude": "35-2-31.2 N",
		"longitude": "72-24-59.7 W",
		"state": "OFFSHORE ATLANTIC",
		"artcc": "ZNY",
		"type": "RNAV",
		"updated": "04/14/2008"
	},
	{
		"name": "PAGED",
		"latitude": "40-30-16.41 N",
		"longitude": "74-47-31.18 W",
		"state": "NEW JERSEY",
		"artcc": "ZNY",
		"type": "WP",
		"updated": "11/02/1998"
	},
	{
		"name": "PALET",
		"latitude": "39-53-39.23 N",
		"longitude": "74-20-7.96 W",
		"state": "NEW JERSEY",
		"artcc": "ZNY",
		"type": "RP",
		"updated": "CYN*VORTAC*053.89/6.40"
	},
	{
		"name": "PALVE",
		"latitude": "40-33-25.1 N",
		"longitude": "73-56-24.7 W",
		"state": "NEW YORK",
		"artcc": "ZNY",
		"type": "RNAV",
		"updated": "04/25/2012"
	},
	{
		"name": "PAMRE",
		"latitude": "40-6-13.91 N",
		"longitude": "74-14-37.93 W",
		"state": "NEW JERSEY",
		"artcc": "ZNY",
		"type": "MR",
		"updated": "NEL*NDB*061.00"
	},
	{
		"name": "PANNE",
		"latitude": "41-10-40.12 N",
		"longitude": "75-28-35.29 W",
		"state": "PENNSYLVANIA",
		"artcc": "ZNY",
		"type": "RP",
		"updated": "LVZ*VORTAC*130.50/11.20"
	},
	{
		"name": "PANZE",
		"latitude": "39-40-33.58 N",
		"longitude": "74-10-5.45 W",
		"state": "NEW JERSEY",
		"artcc": "ZNY",
		"type": "RP",
		"updated": "CYN*VORTAC*134.71"
	},
	{
		"name": "PAOLI",
		"latitude": "39-58-32.29 N",
		"longitude": "75-32-3.73 W",
		"state": "PENNSYLVANIA",
		"artcc": "ZNY",
		"type": "WP",
		"updated": "06/13/1991"
	},
	{
		"name": "PARGS",
		"latitude": "40-49-21.18 N",
		"longitude": "73-50-8.82 W",
		"state": "NEW YORK",
		"artcc": "ZNY",
		"type": "RNAV",
		"updated": "07/11/2007"
	},
	{
		"name": "PARKE",
		"latitude": "40-40-59.46 N",
		"longitude": "75-4-35.32 W",
		"state": "NEW JERSEY",
		"artcc": "ZNY",
		"type": "RP",
		"updated": "SBJ*VOR/DME*301.55"
	},
	{
		"name": "PATRN",
		"latitude": "40-56-28.4 N",
		"longitude": "74-9-3.32 W",
		"state": "NEW JERSEY",
		"artcc": "ZNY",
		"type": "RP",
		"updated": "HUO*VOR/DME*155.45"
	},
	{
		"name": "PATTI",
		"latitude": "41-1-28.31 N",
		"longitude": "74-44-13.83 W",
		"state": "NEW JERSEY",
		"artcc": "ZNY",
		"type": "RP",
		"updated": "BWZ*VOR/DME*026.83/14.09"
	},
	{
		"name": "PAYCO",
		"latitude": "39-44-46.78 N",
		"longitude": "76-34-34.37 W",
		"state": "PENNSYLVANIA",
		"artcc": "ZNY",
		"type": "RNAV",
		"updated": "04/20/2011"
	},
	{
		"name": "PAYMI",
		"latitude": "40-51-32.41 N",
		"longitude": "74-2-22.34 W",
		"state": "NEW JERSEY",
		"artcc": "ZNY",
		"type": "RP",
		"updated": "LGA*VOR/DME*312.16"
	},
	{
		"name": "PEETS",
		"latitude": "32-36-46.26 N",
		"longitude": "64-45-10.8 W",
		"state": "OFFSHORE ATLANTIC",
		"artcc": "ZNY",
		"type": "RNAV",
		"updated": "01/10/2017"
	},
	{
		"name": "PEGDE",
		"latitude": "40-27-37.97 N",
		"longitude": "76-20-37.9 W",
		"state": "PENNSYLVANIA",
		"artcc": "ZNY",
		"type": "RNAV",
		"updated": "11/16/2006"
	},
	{
		"name": "PENNS",
		"latitude": "40-52-50.29 N",
		"longitude": "75-6-34.38 W",
		"state": "PENNSYLVANIA",
		"artcc": "ZNY",
		"type": "RP",
		"updated": "BWZ*VOR/DME*301.71/14.00"
	},
	{
		"name": "PENSY",
		"latitude": "39-54-25.96 N",
		"longitude": "76-10-57.13 W",
		"state": "PENNSYLVANIA",
		"artcc": "ZNY",
		"type": "RP",
		"updated": "PTW*VORTAC*245.82/34.33"
	},
	{
		"name": "PENUE",
		"latitude": "40-54-38.71 N",
		"longitude": "77-44-31.91 W",
		"state": "PENNSYLVANIA",
		"artcc": "ZNY",
		"type": "RNAV",
		"updated": "02/28/2014"
	},
	{
		"name": "PENYT",
		"latitude": "39-13-52.06 N",
		"longitude": "68-29-57.75 W",
		"state": "OFFSHORE ATLANTIC",
		"artcc": "ZNY",
		"type": "RNAV",
		"updated": "09/09/2008"
	},
	{
		"name": "PEPLE",
		"latitude": "40-55-14.83 N",
		"longitude": "74-57-27.53 W",
		"state": "NEW JERSEY",
		"artcc": "ZNY",
		"type": "RNAV",
		"updated": "03/03/2003"
	},
	{
		"name": "PERDO",
		"latitude": "33-41-13.78 N",
		"longitude": "71-2-13.16 W",
		"state": "OFFSHORE ATLANTIC",
		"artcc": "ZNY",
		"type": "RNAV",
		"updated": "05/27/2008"
	},
	{
		"name": "PERSD",
		"latitude": "32-22-20.41 N",
		"longitude": "65-26-2.96 W",
		"state": "OFFSHORE ATLANTIC",
		"artcc": "ZNY",
		"type": "RNAV",
		"updated": "02/27/2018"
	},
	{
		"name": "PESME",
		"latitude": "40-47-14.564 N",
		"longitude": "74-11-16.625 W",
		"state": "NEW JERSEY",
		"artcc": "ZNY",
		"type": "RNAV",
		"updated": "11/20/2013"
	},
	{
		"name": "PGODA",
		"latitude": "40-25-45.76 N",
		"longitude": "76-4-36.96 W",
		"state": "PENNSYLVANIA",
		"artcc": "ZNY",
		"type": "RP",
		"updated": "LRP*VOR/DME*036.88"
	},
	{
		"name": "PHILA",
		"latitude": "40-1-24.55 N",
		"longitude": "75-27-44.98 W",
		"state": "PENNSYLVANIA",
		"artcc": "ZNY",
		"type": "RNAV",
		"updated": "08/16/2010"
	},
	{
		"name": "PHLBO",
		"latitude": "40-49-49.39 N",
		"longitude": "74-33-36.68 W",
		"state": "NEW JERSEY",
		"artcc": "ZNY",
		"type": "RNAV",
		"updated": "01/11/2007"
	},
	{
		"name": "PHYLS",
		"latitude": "39-33-1.55 N",
		"longitude": "72-41-31.8 W",
		"state": "OFFSHORE ATLANTIC",
		"artcc": "ZNY",
		"type": "WP",
		"updated": "03/26/2002"
	},
	{
		"name": "PICKE",
		"latitude": "40-0-13.32 N",
		"longitude": "74-11-36.04 W",
		"state": "NEW JERSEY",
		"artcc": "ZNY",
		"type": "RP",
		"updated": "CYN*VORTAC*054.48/15.68"
	},
	{
		"name": "PIDTO",
		"latitude": "40-36-49.58 N",
		"longitude": "73-47-31.3 W",
		"state": "NEW YORK",
		"artcc": "ZNY",
		"type": "RNAV",
		"updated": "06/29/2005"
	},
	{
		"name": "PIERC",
		"latitude": "32-2-6.59 N",
		"longitude": "65-59-58.15 W",
		"state": "OFFSHORE ATLANTIC",
		"artcc": "ZNY",
		"type": "RNAV",
		"updated": "08/25/2009"
	},
	{
		"name": "PIERO",
		"latitude": "40-43-43.33 N",
		"longitude": "73-50-47.65 W",
		"state": "NEW YORK",
		"artcc": "ZNY",
		"type": "RNAV",
		"updated": "05/04/2017"
	},
	{
		"name": "PIFER",
		"latitude": "39-57-26.03 N",
		"longitude": "77-1-49.4 W",
		"state": "PENNSYLVANIA",
		"artcc": "ZNY",
		"type": "RP",
		"updated": "THS*VORTAC*094.76/42.50"
	},
	{
		"name": "PIJAY",
		"latitude": "40-33-56.15 N",
		"longitude": "74-2-16.83 W",
		"state": "NEW YORK",
		"artcc": "ZNY",
		"type": "RNAV",
		"updated": "07/13/2015"
	},
	{
		"name": "PILES",
		"latitude": "39-59-25.31 N",
		"longitude": "74-15-43.09 W",
		"state": "NEW JERSEY",
		"artcc": "ZNY",
		"type": "RP",
		"updated": "GXU*VORTAC*105.16"
	},
	{
		"name": "PIMUE",
		"latitude": "40-42-16.58 N",
		"longitude": "75-5-13.44 W",
		"state": "NEW JERSEY",
		"artcc": "ZNY",
		"type": "RNAV",
		"updated": "05/13/2013"
	},
	{
		"name": "PINEZ",
		"latitude": "40-44-19.5 N",
		"longitude": "74-23-40.91 W",
		"state": "NEW JERSEY",
		"artcc": "ZNY",
		"type": "RP",
		"updated": "JFK*VOR/DME*294.78/29.15"
	},
	{
		"name": "PINNA",
		"latitude": "40-36-30.59 N",
		"longitude": "75-50-12.16 W",
		"state": "PENNSYLVANIA",
		"artcc": "ZNY",
		"type": "RP",
		"updated": "ETX*VOR/DME*292.33/7.17"
	},
	{
		"name": "PINNS",
		"latitude": "41-14-42.8 N",
		"longitude": "73-57-2.97 W",
		"state": "NEW YORK",
		"artcc": "ZNY",
		"type": "RP",
		"updated": "CMK*VOR/DME*275.00/16.85"
	},
	{
		"name": "PIREX",
		"latitude": "29-22-27.7 N",
		"longitude": "64-19-16.28 W",
		"state": "OFFSHORE ATLANTIC",
		"artcc": "ZNY",
		"type": "RP",
		"updated": "BDA*VOR/DME*188.84/180.00"
	},
	{
		"name": "PISTE",
		"latitude": "41-17-1.63 N",
		"longitude": "75-46-11.1 W",
		"state": "PENNSYLVANIA",
		"artcc": "ZNY",
		"type": "RNAV",
		"updated": "09/05/2013"
	},
	{
		"name": "PIXDY",
		"latitude": "40-53-40.2 N",
		"longitude": "73-59-59.9 W",
		"state": "NEW JERSEY",
		"artcc": "ZNY",
		"type": "RNAV",
		"updated": "07/29/2009"
	},
	{
		"name": "PIYIN",
		"latitude": "40-46-35.75 N",
		"longitude": "74-29-56.34 W",
		"state": "NEW JERSEY",
		"artcc": "ZNY",
		"type": "RP",
		"updated": "BWZ*VOR/DME*105.98"
	},
	{
		"name": "PLAYS",
		"latitude": "40-5-2.42 N",
		"longitude": "75-21-28.62 W",
		"state": "PENNSYLVANIA",
		"artcc": "ZNY",
		"type": "RNAV",
		"updated": "08/17/2010"
	},
	{
		"name": "PLEXS",
		"latitude": "40-27-5.98 N",
		"longitude": "74-32-52.38 W",
		"state": "NEW JERSEY",
		"artcc": "ZNY",
		"type": "RP",
		"updated": "SBJ*VOR/DME*141.54"
	},
	{
		"name": "PLUME",
		"latitude": "40-7-6.67 N",
		"longitude": "73-17-8.03 W",
		"state": "NEW JERSEY",
		"artcc": "ZNY",
		"type": "RP",
		"updated": "JFK*VOR/DME*156.00"
	},
	{
		"name": "POKOE",
		"latitude": "41-19-5.53 N",
		"longitude": "77-7-27 W",
		"state": "PENNSYLVANIA",
		"artcc": "ZNY",
		"type": "RNAV",
		"updated": "03/17/2003"
	},
	{
		"name": "POLCU",
		"latitude": "40-4-47.03 N",
		"longitude": "76-25-59.46 W",
		"state": "PENNSYLVANIA",
		"artcc": "ZNY",
		"type": "RP",
		"updated": "LRP*VOR/DME*258.77/6.96"
	},
	{
		"name": "POMUF",
		"latitude": "40-13-44.77 N",
		"longitude": "75-41-16.54 W",
		"state": "PENNSYLVANIA",
		"artcc": "ZNY",
		"type": "RNAV",
		"updated": "04/17/2014"
	},
	{
		"name": "PONAE",
		"latitude": "40-35-58.57 N",
		"longitude": "74-1-25.53 W",
		"state": "NEW YORK",
		"artcc": "ZNY",
		"type": "RNAV",
		"updated": "07/12/2007"
	},
	{
		"name": "PONEY",
		"latitude": "40-41-36.9 N",
		"longitude": "73-52-10.06 W",
		"state": "NEW YORK",
		"artcc": "ZNY",
		"type": "RP",
		"updated": "LGA*VOR/DME*192.41"
	},
	{
		"name": "POPOP",
		"latitude": "32-7-11.98 N",
		"longitude": "65-38-4.17 W",
		"state": "OFFSHORE ATLANTIC",
		"artcc": "ZNY",
		"type": "RNAV",
		"updated": "01/10/2017"
	},
	{
		"name": "POPPN",
		"latitude": "39-38-57.48 N",
		"longitude": "72-11-35.88 W",
		"state": "OFFSHORE ATLANTIC",
		"artcc": "ZNY",
		"type": "RNAV",
		"updated": "10/20/2016"
	},
	{
		"name": "PORTT",
		"latitude": "40-35-26.9 N",
		"longitude": "74-17-38.22 W",
		"state": "NEW JERSEY",
		"artcc": "ZNY",
		"type": "RNAV",
		"updated": "06/09/2008"
	},
	{
		"name": "POTTE",
		"latitude": "39-57-33.21 N",
		"longitude": "77-44-12.78 W",
		"state": "PENNSYLVANIA",
		"artcc": "ZNY",
		"type": "RP",
		"updated": "THS*VORTAC*087.96/10.00"
	},
	{
		"name": "POTVN",
		"latitude": "39-5-43.44 N",
		"longitude": "68-43-51.24 W",
		"state": "OFFSHORE ATLANTIC",
		"artcc": "ZNY",
		"type": "RNAV",
		"updated": "10/20/2016"
	},
	{
		"name": "PRCHA",
		"latitude": "22-55-28.34 N",
		"longitude": "66-21-10.46 W",
		"state": "OFFSHORE ATLANTIC",
		"artcc": "ZNY",
		"type": "RNAV",
		"updated": "12/20/2009"
	},
	{
		"name": "PREPI",
		"latitude": "39-48-41.06 N",
		"longitude": "73-15-40.7 W",
		"state": "OFFSHORE ATLANTIC",
		"artcc": "ZNY",
		"type": "RP",
		"updated": "CYN*VORTAC*100.00/54.11"
	},
	{
		"name": "PRIVO",
		"latitude": "40-4-58.57 N",
		"longitude": "77-44-56.01 W",
		"state": "PENNSYLVANIA",
		"artcc": "ZNY",
		"type": "RP",
		"updated": "THS*VORTAC*053.00"
	},
	{
		"name": "PRLJM",
		"latitude": "40-0-0 N",
		"longitude": "71-49-0 W",
		"state": "OFFSHORE ATLANTIC",
		"artcc": "ZNY",
		"type": "RNAV",
		"updated": "02/12/2016"
	},
	{
		"name": "PROPP",
		"latitude": "40-11-37.28 N",
		"longitude": "75-11-46.02 W",
		"state": "PENNSYLVANIA",
		"artcc": "ZNY",
		"type": "RP",
		"updated": "ARD*VOR/DME*265.00/14.00"
	},
	{
		"name": "PROUD",
		"latitude": "40-37-47.25 N",
		"longitude": "73-59-59.12 W",
		"state": "NEW YORK",
		"artcc": "ZNY",
		"type": "RP",
		"updated": "LGA*VOR/DME*225.00/11.00"
	},
	{
		"name": "PRTZL",
		"latitude": "40-4-20.17 N",
		"longitude": "77-6-24.16 W",
		"state": "PENNSYLVANIA",
		"artcc": "ZNY",
		"type": "RP",
		"updated": "SEG*VOR/DME*201.40/44.28"
	},
	{
		"name": "PRUZK",
		"latitude": "40-47-12.03 N",
		"longitude": "73-53-15.7 W",
		"state": "NEW YORK",
		"artcc": "ZNY",
		"type": "RNAV",
		"updated": "01/26/2017"
	},
	{
		"name": "PTAKI",
		"latitude": "42-39-0.31 N",
		"longitude": "76-36-4.77 W",
		"state": "NEW YORK",
		"artcc": "ZNY",
		"type": "RP",
		"updated": "ITH*VOR/DME*336.07"
	},
	{
		"name": "PUNLE",
		"latitude": "40-58-50.26 N",
		"longitude": "76-41-13.39 W",
		"state": "PENNSYLVANIA",
		"artcc": "ZNY",
		"type": "RNAV",
		"updated": "09/26/2002"
	},
	{
		"name": "PYCAT",
		"latitude": "40-26-46.59 N",
		"longitude": "77-17-21.34 W",
		"state": "PENNSYLVANIA",
		"artcc": "ZNY",
		"type": "RP",
		"updated": "HAR*VORTAC*320.68/13.27"
	}
]
