[
	{
		"name": "SAAME",
		"latitude": "40-1-51.82 N",
		"longitude": "76-29-2.39 W",
		"state": "PENNSYLVANIA",
		"artcc": "ZNY",
		"type": "RP",
		"updated": "RBV*VORTAC*274.24/92.13"
	},
	{
		"name": "SACRI",
		"latitude": "39-36-7.34 N",
		"longitude": "76-10-24.7 W",
		"state": "MARYLAND",
		"artcc": "ZNY",
		"type": "RP",
		"updated": "MXE*VORTAC*240.00/30.00"
	},
	{
		"name": "SAKEY",
		"latitude": "40-12-36.06 N",
		"longitude": "76-48-22.09 W",
		"state": "PENNSYLVANIA",
		"artcc": "ZNY",
		"type": "RNAV",
		"updated": "05/20/2009"
	},
	{
		"name": "SARAA",
		"latitude": "40-26-21.57 N",
		"longitude": "75-53-16.3 W",
		"state": "PENNSYLVANIA",
		"artcc": "ZNY",
		"type": "RP",
		"updated": "LRP*VOR/DME*052.92"
	},
	{
		"name": "SATES",
		"latitude": "40-8-23.9 N",
		"longitude": "73-46-25.46 W",
		"state": "NEW JERSEY",
		"artcc": "ZNY",
		"type": "RP",
		"updated": "DPK*VOR/DME*221.00/44.62"
	},
	{
		"name": "SAUCR",
		"latitude": "34-43-27.57 N",
		"longitude": "72-22-54.78 W",
		"state": "OFFSHORE ATLANTIC",
		"artcc": "ZNY",
		"type": "RNAV",
		"updated": "06/02/2014"
	},
	{
		"name": "SAVIK",
		"latitude": "37-42-41.53 N",
		"longitude": "70-59-1.76 W",
		"state": "OFFSHORE ATLANTIC",
		"artcc": "ZNY",
		"type": "RNAV",
		"updated": "02/07/2008"
	},
	{
		"name": "SAVON",
		"latitude": "31-26-36.73 N",
		"longitude": "70-30-4.27 W",
		"state": "OFFSHORE ATLANTIC",
		"artcc": "ZNY",
		"type": "RNAV",
		"updated": "04/08/2008"
	},
	{
		"name": "SAYOV",
		"latitude": "40-37-47.88 N",
		"longitude": "75-47-32.88 W",
		"state": "PENNSYLVANIA",
		"artcc": "ZNY",
		"type": "RNAV",
		"updated": "05/13/2013"
	},
	{
		"name": "SAYRE",
		"latitude": "41-59-16.01 N",
		"longitude": "76-38-30.74 W",
		"state": "PENNSYLVANIA",
		"artcc": "ZNY",
		"type": "RP",
		"updated": "ULW*VOR/DME*122.31/18.27"
	},
	{
		"name": "SCAPE",
		"latitude": "39-56-41.76 N",
		"longitude": "77-32-12.33 W",
		"state": "PENNSYLVANIA",
		"artcc": "ZNY",
		"type": "RP",
		"updated": "HAR*VORTAC*235.26/30.35"
	},
	{
		"name": "SCIPO",
		"latitude": "42-48-29.07 N",
		"longitude": "76-28-45.68 W",
		"state": "NEW YORK",
		"artcc": "ZNY",
		"type": "RP",
		"updated": "GGT*VORTAC*283.50/28.85"
	},
	{
		"name": "SCLNK",
		"latitude": "40-11-15.9 N",
		"longitude": "77-10-1.57 W",
		"state": "PENNSYLVANIA",
		"artcc": "ZNY",
		"type": "RNAV",
		"updated": "09/29/2017"
	},
	{
		"name": "SCOFF",
		"latitude": "41-30-55.28 N",
		"longitude": "75-48-38.6 W",
		"state": "PENNSYLVANIA",
		"artcc": "ZNY",
		"type": "RP",
		"updated": "LVZ*VORTAC*349.41/15.54"
	},
	{
		"name": "SCOOL",
		"latitude": "40-3-59.93 N",
		"longitude": "75-25-10.55 W",
		"state": "PENNSYLVANIA",
		"artcc": "ZNY",
		"type": "RNAV",
		"updated": "09/26/2002"
	},
	{
		"name": "SCOOR",
		"latitude": "39-47-59 N",
		"longitude": "72-21-10 W",
		"state": "OFFSHORE ATLANTIC",
		"artcc": "ZNY",
		"type": "RNAV",
		"updated": "03/23/2018"
	},
	{
		"name": "SCOUP",
		"latitude": "41-3-18.69 N",
		"longitude": "75-2-34.36 W",
		"state": "PENNSYLVANIA",
		"artcc": "ZNY",
		"type": "RP",
		"updated": "HUO*VOR/DME*235.01/29.48"
	},
	{
		"name": "SEAVR",
		"latitude": "29-41-55.89 N",
		"longitude": "63-4-25.02 W",
		"state": "OFFSHORE ATLANTIC",
		"artcc": "ZNY",
		"type": "RNAV",
		"updated": "08/15/2017"
	},
	{
		"name": "SEAVY",
		"latitude": "41-12-30.76 N",
		"longitude": "74-19-35.62 W",
		"state": "NEW JERSEY",
		"artcc": "ZNY",
		"type": "RP",
		"updated": "HUO*VOR/DME*146.10"
	},
	{
		"name": "SEBIS",
		"latitude": "27-45-29.57 N",
		"longitude": "69-40-30.5 W",
		"state": "OFFSHORE ATLANTIC",
		"artcc": "ZNY",
		"type": "RNAV",
		"updated": "04/08/2008"
	},
	{
		"name": "SEBOY",
		"latitude": "40-6-4.78 N",
		"longitude": "76-26-39.29 W",
		"state": "PENNSYLVANIA",
		"artcc": "ZNY",
		"type": "RNAV",
		"updated": "10/22/2007"
	},
	{
		"name": "SEEAL",
		"latitude": "32-22-18.6 N",
		"longitude": "66-28-37.27 W",
		"state": "OFFSHORE ATLANTIC",
		"artcc": "ZNY",
		"type": "RNAV",
		"updated": "01/10/2017"
	},
	{
		"name": "SEHDO",
		"latitude": "40-39-44.91 N",
		"longitude": "73-28-26.07 W",
		"state": "NEW YORK",
		"artcc": "ZNY",
		"type": "RNAV",
		"updated": "06/27/2011"
	},
	{
		"name": "SEILR",
		"latitude": "40-42-46.92 N",
		"longitude": "76-22-23.98 W",
		"state": "PENNSYLVANIA",
		"artcc": "ZNY",
		"type": "RNAV",
		"updated": "03/11/2009"
	},
	{
		"name": "SELIM",
		"latitude": "38-30-0 N",
		"longitude": "62-40-8.16 W",
		"state": "OFFSHORE ATLANTIC",
		"artcc": "ZNY",
		"type": "RNAV",
		"updated": "04/01/2008"
	},
	{
		"name": "SESKE",
		"latitude": "40-39-24.46 N",
		"longitude": "73-25-56.65 W",
		"state": "NEW YORK",
		"artcc": "ZNY",
		"type": "RNAV",
		"updated": "08/03/2001"
	},
	{
		"name": "SETAJ",
		"latitude": "40-27-59.54 N",
		"longitude": "78-3-17.22 W",
		"state": "PENNSYLVANIA",
		"artcc": "ZNY",
		"type": "RNAV",
		"updated": "11/06/2017"
	},
	{
		"name": "SEWEL",
		"latitude": "38-56-1.88 N",
		"longitude": "74-54-18.11 W",
		"state": "NEW JERSEY",
		"artcc": "ZNY",
		"type": "RP",
		"updated": "SIE*VORTAC*215.84/10.86"
	},
	{
		"name": "SHAFF",
		"latitude": "41-17-22.94 N",
		"longitude": "74-26-36.26 W",
		"state": "NEW YORK",
		"artcc": "ZNY",
		"type": "RP",
		"updated": "HUO*VOR/DME*148.01"
	},
	{
		"name": "SHAGY",
		"latitude": "40-34-58.93 N",
		"longitude": "75-33-18.36 W",
		"state": "PENNSYLVANIA",
		"artcc": "ZNY",
		"type": "RP",
		"updated": "ETX*VOR/DME*097.79"
	},
	{
		"name": "SHAYD",
		"latitude": "39-9-22.32 N",
		"longitude": "72-7-36.12 W",
		"state": "OFFSHORE ATLANTIC",
		"artcc": "ZNY",
		"type": "RNAV",
		"updated": "10/20/2016"
	},
	{
		"name": "SHEIL",
		"latitude": "29-54-35.42 N",
		"longitude": "66-42-31.7 W",
		"state": "OFFSHORE ATLANTIC",
		"artcc": "ZNY",
		"type": "RNAV",
		"updated": "01/10/2017"
	},
	{
		"name": "SHERL",
		"latitude": "40-15-20.55 N",
		"longitude": "73-7-18.26 W",
		"state": "NEW YORK",
		"artcc": "ZNY",
		"type": "RP",
		"updated": "CCC*VOR/DME*213.17/43.02"
	},
	{
		"name": "SHILO",
		"latitude": "39-41-0.2 N",
		"longitude": "76-36-53.61 W",
		"state": "MARYLAND",
		"artcc": "ZNY",
		"type": "RP",
		"updated": "BAL*VORTAC*015.00/30.79"
	},
	{
		"name": "SHIPP",
		"latitude": "40-19-45.96 N",
		"longitude": "73-14-50.18 W",
		"state": "OFFSHORE ATLANTIC",
		"artcc": "ZNY",
		"type": "RP",
		"updated": "JFK*VOR/DME*139.00/30.11"
	},
	{
		"name": "SHOKR",
		"latitude": "38-33-5.04 N",
		"longitude": "69-32-5.28 W",
		"state": "OFFSHORE ATLANTIC",
		"artcc": "ZNY",
		"type": "RNAV",
		"updated": "10/20/2016"
	},
	{
		"name": "SHOLL",
		"latitude": "32-45-49.25 N",
		"longitude": "65-33-20.08 W",
		"state": "OFFSHORE ATLANTIC",
		"artcc": "ZNY",
		"type": "RNAV",
		"updated": "01/10/2017"
	},
	{
		"name": "SHOTT",
		"latitude": "40-51-56.91 N",
		"longitude": "74-30-37.43 W",
		"state": "NEW JERSEY",
		"artcc": "ZNY",
		"type": "RP",
		"updated": "BWZ*VOR/DME*085.00"
	},
	{
		"name": "SHUEY",
		"latitude": "39-28-55.39 N",
		"longitude": "77-18-2.17 W",
		"state": "MARYLAND",
		"artcc": "ZNY",
		"type": "RNAV",
		"updated": "07/02/2003"
	},
	{
		"name": "SIBUW",
		"latitude": "40-17-1.92 N",
		"longitude": "76-59-52.34 W",
		"state": "PENNSYLVANIA",
		"artcc": "ZNY",
		"type": "RP",
		"updated": "RAV*VORTAC*239.62"
	},
	{
		"name": "SICKL",
		"latitude": "31-3-32.94 N",
		"longitude": "65-46-46.5 W",
		"state": "OFFSHORE ATLANTIC",
		"artcc": "ZNY",
		"type": "RNAV",
		"updated": "08/25/2009"
	},
	{
		"name": "SICOB",
		"latitude": "40-16-40.69 N",
		"longitude": "74-58-35.29 W",
		"state": "PENNSYLVANIA",
		"artcc": "ZDC",
		"type": "RNAV",
		"updated": "08/16/2012"
	},
	{
		"name": "SIDHE",
		"latitude": "39-48-48.45 N",
		"longitude": "76-57-22.64 W",
		"state": "PENNSYLVANIA",
		"artcc": "ZNY",
		"type": "RNAV",
		"updated": "07/26/2013"
	},
	{
		"name": "SIFEN",
		"latitude": "27-0-0 N",
		"longitude": "60-0-0 W",
		"state": "OFFSHORE ATLANTIC",
		"artcc": "ZNY",
		"type": "RNAV",
		"updated": "05/02/2008"
	},
	{
		"name": "SIGBE",
		"latitude": "39-24-37.2 N",
		"longitude": "77-21-49.2 W",
		"state": "MARYLAND",
		"artcc": "ZNY",
		"type": "RNAV",
		"updated": "07/28/2015"
	},
	{
		"name": "SILLY",
		"latitude": "37-13-40.08 N",
		"longitude": "72-33-12.24 W",
		"state": "OFFSHORE ATLANTIC",
		"artcc": "ZNY",
		"type": "RNAV",
		"updated": "10/20/2016"
	},
	{
		"name": "SIMDE",
		"latitude": "40-5-18.46 N",
		"longitude": "74-14-29.26 W",
		"state": "NEW JERSEY",
		"artcc": "ZNY",
		"type": "MR",
		"updated": "NEL*TACAN*070.00/6.00"
	},
	{
		"name": "SINON",
		"latitude": "40-2-13.78 N",
		"longitude": "75-34-45.93 W",
		"state": "PENNSYLVANIA",
		"artcc": "ZNY",
		"type": "RNAV",
		"updated": "06/10/2011"
	},
	{
		"name": "SIRLY",
		"latitude": "40-39-0.03 N",
		"longitude": "74-24-58.81 W",
		"state": "NEW JERSEY",
		"artcc": "ZNY",
		"type": "RNAV",
		"updated": "06/09/2008"
	},
	{
		"name": "SIXIE",
		"latitude": "40-24-30 N",
		"longitude": "74-59-19.89 W",
		"state": "PENNSYLVANIA",
		"artcc": "ZNY",
		"type": "RNAV",
		"updated": "10/30/2012"
	},
	{
		"name": "SIYOS",
		"latitude": "40-1-4.55 N",
		"longitude": "74-39-37.54 W",
		"state": "NEW JERSEY",
		"artcc": "ZDC",
		"type": "RNAV",
		"updated": "06/29/2011"
	},
	{
		"name": "SKIIP",
		"latitude": "40-38-17.77 N",
		"longitude": "76-27-50.21 W",
		"state": "PENNSYLVANIA",
		"artcc": "ZNY",
		"type": "RNAV",
		"updated": "03/11/2009"
	},
	{
		"name": "SKILL",
		"latitude": "40-47-54.92 N",
		"longitude": "74-8-59.87 W",
		"state": "NEW JERSEY",
		"artcc": "ZNY",
		"type": "RP",
		"updated": "TEB*VOR/DME*244.07/5.00"
	},
	{
		"name": "SKILS",
		"latitude": "39-30-14 N",
		"longitude": "76-37-52.32 W",
		"state": "MARYLAND",
		"artcc": "ZNY",
		"type": "RP",
		"updated": "BAL*VORTAC*015.00/20.00"
	},
	{
		"name": "SKINK",
		"latitude": "30-53-18.55 N",
		"longitude": "66-14-23.23 W",
		"state": "OFFSHORE ATLANTIC",
		"artcc": "ZNY",
		"type": "RNAV",
		"updated": "01/10/2017"
	},
	{
		"name": "SKORR",
		"latitude": "40-36-35.96 N",
		"longitude": "73-53-49.63 W",
		"state": "NEW YORK",
		"artcc": "ZNY",
		"type": "RNAV",
		"updated": "04/10/2010"
	},
	{
		"name": "SKPPR",
		"latitude": "35-45-32.98 N",
		"longitude": "70-26-55.63 W",
		"state": "OFFSHORE ATLANTIC",
		"artcc": "ZNY",
		"type": "RNAV",
		"updated": "10/19/2009"
	},
	{
		"name": "SKUBY",
		"latitude": "41-8-26.49 N",
		"longitude": "74-13-24.21 W",
		"state": "NEW YORK",
		"artcc": "ZNY",
		"type": "RNAV",
		"updated": "11/07/2017"
	},
	{
		"name": "SLATN",
		"latitude": "39-7-0 N",
		"longitude": "67-0-0 W",
		"state": "OFFSHORE ATLANTIC",
		"artcc": "ZNY",
		"type": "RP",
		"updated": "ACK*VOR/DME*147.03/190.28"
	},
	{
		"name": "SLATT",
		"latitude": "40-44-17.64 N",
		"longitude": "75-41-6.83 W",
		"state": "PENNSYLVANIA",
		"artcc": "ZNY",
		"type": "RP",
		"updated": "FJC*VORTAC*283.84/10.54"
	},
	{
		"name": "SLIMR",
		"latitude": "40-43-55.59 N",
		"longitude": "74-4-53.47 W",
		"state": "NEW JERSEY",
		"artcc": "ZNY",
		"type": "RNAV",
		"updated": "06/20/2012"
	},
	{
		"name": "SLONE",
		"latitude": "40-20-37.18 N",
		"longitude": "74-34-6.35 W",
		"state": "NEW JERSEY",
		"artcc": "ZNY",
		"type": "WP",
		"updated": "06/14/1991"
	},
	{
		"name": "SLYNG",
		"latitude": "40-50-23.35 N",
		"longitude": "74-37-51.67 W",
		"state": "NEW JERSEY",
		"artcc": "ZNY",
		"type": "RP",
		"updated": "BWZ*VOR/DME*085.00"
	},
	{
		"name": "SMITE",
		"latitude": "42-6-16.17 N",
		"longitude": "75-53-30.24 W",
		"state": "NEW YORK",
		"artcc": "ZNY",
		"type": "RP",
		"updated": "CFB*VOR/DME*116.03"
	},
	{
		"name": "SNAGY",
		"latitude": "29-36-26.39 N",
		"longitude": "76-51-51.38 W",
		"state": "OFFSHORE ATLANTIC",
		"artcc": "ZNY",
		"type": "RNAV",
		"updated": "04/09/2008"
	},
	{
		"name": "SNAZI",
		"latitude": "39-34-33.86 N",
		"longitude": "76-25-11.92 W",
		"state": "MARYLAND",
		"artcc": "ZNY",
		"type": "RNAV",
		"updated": "06/20/2010"
	},
	{
		"name": "SNOWY",
		"latitude": "40-45-5.77 N",
		"longitude": "75-57-51.63 W",
		"state": "PENNSYLVANIA",
		"artcc": "ZNY",
		"type": "RP",
		"updated": "SEG*VOR/DME*100.91"
	},
	{
		"name": "SOCOP",
		"latitude": "42-21-56.2 N",
		"longitude": "76-6-31.48 W",
		"state": "NEW YORK",
		"artcc": "ZNY",
		"type": "RNAV",
		"updated": "06/04/2004"
	},
	{
		"name": "SOGOE",
		"latitude": "40-42-15.88 N",
		"longitude": "73-42-10.41 W",
		"state": "NEW YORK",
		"artcc": "ZNY",
		"type": "RNAV",
		"updated": "08/11/2008"
	},
	{
		"name": "SOITE",
		"latitude": "39-48-8.88 N",
		"longitude": "74-29-3.38 W",
		"state": "NEW JERSEY",
		"artcc": "ZNY",
		"type": "RP",
		"updated": "GXU*VORTAC*169.30"
	},
	{
		"name": "SOLLY",
		"latitude": "39-57-1.54 N",
		"longitude": "74-16-57.26 W",
		"state": "NEW JERSEY",
		"artcc": "ZNY",
		"type": "MR",
		"updated": "CYN*VORTAC*050.74/10.54"
	},
	{
		"name": "SOLOA",
		"latitude": "40-37-2.58 N",
		"longitude": "74-56-10.78 W",
		"state": "NEW JERSEY",
		"artcc": "ZNY",
		"type": "RNAV",
		"updated": "08/25/2015"
	},
	{
		"name": "SOLYO",
		"latitude": "41-14-50.14 N",
		"longitude": "77-3-7.19 W",
		"state": "PENNSYLVANIA",
		"artcc": "ZNY",
		"type": "RNAV",
		"updated": "07/15/2011"
	},
	{
		"name": "SOMRR",
		"latitude": "32-23-11.45 N",
		"longitude": "64-48-35.2 W",
		"state": "OFFSHORE ATLANTIC",
		"artcc": "ZNY",
		"type": "RNAV",
		"updated": "01/10/2017"
	},
	{
		"name": "SOORY",
		"latitude": "38-30-0 N",
		"longitude": "60-16-3.3 W",
		"state": "OFFSHORE ATLANTIC",
		"artcc": "ZNY",
		"type": "RNAV",
		"updated": "04/01/2008"
	},
	{
		"name": "SOOYS",
		"latitude": "39-52-36.56 N",
		"longitude": "74-38-55.56 W",
		"state": "NEW JERSEY",
		"artcc": "ZNY",
		"type": "RP",
		"updated": "CYN*VORTAC*299.64/10.65"
	},
	{
		"name": "SORAE",
		"latitude": "40-14-53.5 N",
		"longitude": "75-11-52.62 W",
		"state": "PENNSYLVANIA",
		"artcc": "ZNY",
		"type": "MW",
		"updated": "01/27/2009"
	},
	{
		"name": "SPATE",
		"latitude": "40-31-21.96 N",
		"longitude": "74-7-30.46 W",
		"state": "NEW YORK",
		"artcc": "ZNY",
		"type": "RNAV",
		"updated": "06/08/2011"
	},
	{
		"name": "SPERY",
		"latitude": "40-4-50.47 N",
		"longitude": "75-43-37.68 W",
		"state": "PENNSYLVANIA",
		"artcc": "ZNY",
		"type": "RP",
		"updated": "PTW*VORTAC*231.18"
	},
	{
		"name": "SPOTZ",
		"latitude": "40-45-55 N",
		"longitude": "75-22-59 W",
		"state": "PENNSYLVANIA",
		"artcc": "ZNY",
		"type": "RNAV",
		"updated": "08/25/2011"
	},
	{
		"name": "SPUDS",
		"latitude": "40-27-4.91 N",
		"longitude": "75-25-58.56 W",
		"state": "PENNSYLVANIA",
		"artcc": "ZNY",
		"type": "RP",
		"updated": "PTW*VORTAC*032.00/14.93"
	},
	{
		"name": "SPURT",
		"latitude": "40-30-5.37 N",
		"longitude": "74-50-36.99 W",
		"state": "NEW JERSEY",
		"artcc": "ZNY",
		"type": "WP",
		"updated": "06/13/1991"
	},
	{
		"name": "SQUAD",
		"latitude": "37-59-53.37 N",
		"longitude": "70-34-57.1 W",
		"state": "OFFSHORE ATLANTIC",
		"artcc": "ZNY",
		"type": "RNAV",
		"updated": "06/09/2008"
	},
	{
		"name": "SROKA",
		"latitude": "40-17-35.18 N",
		"longitude": "75-56-46.29 W",
		"state": "PENNSYLVANIA",
		"artcc": "ZNY",
		"type": "RP",
		"updated": "LRP*VOR/DME*065.69"
	},
	{
		"name": "SSIXX",
		"latitude": "40-47-1.56 N",
		"longitude": "77-57-43 W",
		"state": "PENNSYLVANIA",
		"artcc": "ZNY",
		"type": "RNAV",
		"updated": "11/23/2005"
	},
	{
		"name": "STAAL",
		"latitude": "24-36-50 N",
		"longitude": "74-43-6 W",
		"state": "OFFSHORE ATLANTIC",
		"artcc": "ZNY",
		"type": "RNAV",
		"updated": "06/11/2008"
	},
	{
		"name": "STALK",
		"latitude": "39-23-15.23 N",
		"longitude": "76-43-22.78 W",
		"state": "MARYLAND",
		"artcc": "ZNY",
		"type": "RNAV",
		"updated": "09/23/2014"
	},
	{
		"name": "STATN",
		"latitude": "42-31-55.07 N",
		"longitude": "76-31-7.97 W",
		"state": "NEW YORK",
		"artcc": "ZNY",
		"type": "RNAV",
		"updated": "12/30/2009"
	},
	{
		"name": "STATU",
		"latitude": "40-41-5.66 N",
		"longitude": "74-4-54.92 W",
		"state": "NEW JERSEY",
		"artcc": "ZNY",
		"type": "RNAV",
		"updated": "07/13/2015"
	},
	{
		"name": "STEED",
		"latitude": "40-49-51.96 N",
		"longitude": "73-58-51.33 W",
		"state": "NEW JERSEY",
		"artcc": "ZNY",
		"type": "RP",
		"updated": "GDI*LD*NW CRS/5.91"
	},
	{
		"name": "STENT",
		"latitude": "41-40-44.57 N",
		"longitude": "77-9-9.92 W",
		"state": "PENNSYLVANIA",
		"artcc": "ZNY",
		"type": "RP",
		"updated": "ULW*VOR/DME*205.01/25.55"
	},
	{
		"name": "STENY",
		"latitude": "40-24-6.07 N",
		"longitude": "74-15-44.93 W",
		"state": "NEW JERSEY",
		"artcc": "ZNY",
		"type": "RP",
		"updated": "COL*VOR/DME*329.91"
	},
	{
		"name": "STERN",
		"latitude": "34-58-4.45 N",
		"longitude": "72-20-31.51 W",
		"state": "OFFSHORE ATLANTIC",
		"artcc": "ZNY",
		"type": "RNAV",
		"updated": "09/15/2016"
	},
	{
		"name": "STHRE",
		"latitude": "40-48-50.82 N",
		"longitude": "77-54-34.59 W",
		"state": "PENNSYLVANIA",
		"artcc": "ZNY",
		"type": "RNAV",
		"updated": "11/23/2005"
	},
	{
		"name": "STICC",
		"latitude": "40-48-13.75 N",
		"longitude": "74-7-59.92 W",
		"state": "NEW JERSEY",
		"artcc": "ZNY",
		"type": "RNAV",
		"updated": "04/01/2008"
	},
	{
		"name": "STINK",
		"latitude": "37-49-40.44 N",
		"longitude": "72-17-16.08 W",
		"state": "OFFSHORE ATLANTIC",
		"artcc": "ZNY",
		"type": "RNAV",
		"updated": "10/20/2016"
	},
	{
		"name": "STOEN",
		"latitude": "39-50-17.54 N",
		"longitude": "75-47-54.92 W",
		"state": "PENNSYLVANIA",
		"artcc": "ZNY",
		"type": "RP",
		"updated": "DQO*VORTAC*327.34/13.06"
	},
	{
		"name": "STOMP",
		"latitude": "41-35-46.78 N",
		"longitude": "74-47-47.79 W",
		"state": "NEW YORK",
		"artcc": "ZNY",
		"type": "RP",
		"updated": "HUO*VOR/DME*331.52/14.52"
	},
	{
		"name": "STOOG",
		"latitude": "39-3-53.2 N",
		"longitude": "69-57-46.31 W",
		"state": "OFFSHORE ATLANTIC",
		"artcc": "ZNY",
		"type": "RNAV",
		"updated": "09/15/2016"
	},
	{
		"name": "STORT",
		"latitude": "40-31-1.23 N",
		"longitude": "75-59-11.26 W",
		"state": "PENNSYLVANIA",
		"artcc": "ZNY",
		"type": "WP",
		"updated": "ETX*VOR/DME*263.60/14.40"
	},
	{
		"name": "STRAD",
		"latitude": "41-10-49.99 N",
		"longitude": "74-19-12.12 W",
		"state": "NEW YORK",
		"artcc": "ZNY",
		"type": "RNAV",
		"updated": "11/07/2017"
	},
	{
		"name": "STROH",
		"latitude": "40-36-56.31 N",
		"longitude": "77-43-9.06 W",
		"state": "PENNSYLVANIA",
		"artcc": "ZNY",
		"type": "RNAV",
		"updated": "06/18/2008"
	},
	{
		"name": "STUFF",
		"latitude": "41-25-15.32 N",
		"longitude": "74-17-59.41 W",
		"state": "NEW YORK",
		"artcc": "ZNY",
		"type": "RNAV",
		"updated": "02/09/2010"
	},
	{
		"name": "SUDOY",
		"latitude": "39-36-33.04 N",
		"longitude": "76-8-20.63 W",
		"state": "MARYLAND",
		"artcc": "ZNY",
		"type": "RP",
		"updated": "LRP*VOR/DME*176.02/31.42"
	},
	{
		"name": "SUEDE",
		"latitude": "39-54-43.35 N",
		"longitude": "76-44-24.22 W",
		"state": "PENNSYLVANIA",
		"artcc": "ZNY",
		"type": "RP",
		"updated": "LRP*VOR/DME*248.07/24.15"
	},
	{
		"name": "SULOY",
		"latitude": "40-51-57.28 N",
		"longitude": "74-24-32.17 W",
		"state": "NEW JERSEY",
		"artcc": "ZNY",
		"type": "RNAV",
		"updated": "11/04/2011"
	},
	{
		"name": "SUMRS",
		"latitude": "28-42-42.08 N",
		"longitude": "76-33-30.59 W",
		"state": "OFFSHORE ATLANTIC",
		"artcc": "ZNY",
		"type": "RNAV",
		"updated": "05/28/2008"
	},
	{
		"name": "SURGE",
		"latitude": "40-37-27.78 N",
		"longitude": "75-29-15.4 W",
		"state": "PENNSYLVANIA",
		"artcc": "ZNY",
		"type": "RNAV",
		"updated": "05/13/2013"
	},
	{
		"name": "SUSLE",
		"latitude": "39-42-1.27 N",
		"longitude": "77-7-8.69 W",
		"state": "MARYLAND",
		"artcc": "ZNY",
		"type": "RNAV",
		"updated": "04/25/2010"
	},
	{
		"name": "SUTKE",
		"latitude": "40-7-39.04 N",
		"longitude": "74-5-31.8 W",
		"state": "NEW JERSEY",
		"artcc": "ZNY",
		"type": "RNAV",
		"updated": "01/06/2017"
	},
	{
		"name": "SUZIE",
		"latitude": "40-27-11.72 N",
		"longitude": "75-58-21.95 W",
		"state": "PENNSYLVANIA",
		"artcc": "ZNY",
		"type": "RP",
		"updated": "RBV*VORTAC*292.98/69.46"
	},
	{
		"name": "SWANK",
		"latitude": "41-18-8.4 N",
		"longitude": "76-9-22.18 W",
		"state": "PENNSYLVANIA",
		"artcc": "ZNY",
		"type": "RP",
		"updated": "LVZ*VORTAC*284.95/21.18"
	},
	{
		"name": "SWEET",
		"latitude": "40-49-41.78 N",
		"longitude": "74-55-27.55 W",
		"state": "NEW JERSEY",
		"artcc": "ZNY",
		"type": "RP",
		"updated": "BWZ*VOR/DME*302.00/5.00"
	},
	{
		"name": "SWICH",
		"latitude": "40-35-25.01 N",
		"longitude": "74-14-0.32 W",
		"state": "NEW JERSEY",
		"artcc": "ZNY",
		"type": "RNAV",
		"updated": "04/23/2014"
	},
	{
		"name": "SWISS",
		"latitude": "41-7-42.69 N",
		"longitude": "77-23-13.8 W",
		"state": "PENNSYLVANIA",
		"artcc": "ZNY",
		"type": "RP",
		"updated": "SLT*VORTAC*138.97/35.01"
	},
	{
		"name": "SWIZL",
		"latitude": "32-42-28.44 N",
		"longitude": "65-15-19.66 W",
		"state": "OFFSHORE ATLANTIC",
		"artcc": "ZNY",
		"type": "RNAV",
		"updated": "01/10/2017"
	},
	{
		"name": "SWOBS",
		"latitude": "42-32-56.49 N",
		"longitude": "73-25-23.21 W",
		"state": "NEW YORK",
		"artcc": "ZNY",
		"type": "RNAV",
		"updated": "08/25/2015"
	}
]
