	{
		"name": "TAFFI",
		"latitude": "39-32-36.64 N",
		"longitude": "76-37-39.39 W",
		"state": "MARYLAND",
		"artcc": "ZNY",
		"type": "RP",
		"updated": "BAL*VORTAC*015.00/22.38",
	},
	{
		"name": "TALLI",
		"latitude": "41-19-1.6 N",
		"longitude": "75-6-43.17 W",
		"state": "PENNSYLVANIA",
		"artcc": "ZNY",
		"type": "RP",
		"updated": "LVZ*VORTAC*094.00/26.25",
	},
	{
		"name": "TALSU",
		"latitude": "24-56-8.11 N",
		"longitude": "65-47-16.41 W",
		"state": "OFFSHORE ATLANTIC",
		"artcc": "ZNY",
		"type": "RNAV",
		"updated": "06/09/2008",
	},
	{
		"name": "TALTE",
		"latitude": "40-45-53.31 N",
		"longitude": "74-7-21.12 W",
		"state": "NEW JERSEY",
		"artcc": "ZNY",
		"type": "RP",
		"updated": "JNN*LD*038.83/4.00",
	},
	{
		"name": "TANBY",
		"latitude": "40-9-1.2 N",
		"longitude": "75-5-49.71 W",
		"state": "PENNSYLVANIA",
		"artcc": "ZDC",
		"type": "MW",
		"updated": "01/27/2009",
	},
	{
		"name": "TARMO",
		"latitude": "23-30-0 N",
		"longitude": "63-3-9.28 W",
		"state": "OFFSHORE ATLANTIC",
		"artcc": "ZNY",
		"type": "RNAV",
		"updated": "02/07/2008",
	},
	{
		"name": "TASBE",
		"latitude": "40-57-8.08 N",
		"longitude": "76-43-46.71 W",
		"state": "PENNSYLVANIA",
		"artcc": "ZNY",
		"type": "RNAV",
		"updated": "12/11/2017",
	},
	{
		"name": "TASNI",
		"latitude": "30-54-1.12 N",
		"longitude": "69-13-29.8 W",
		"state": "OFFSHORE ATLANTIC",
		"artcc": "ZNY",
		"type": "RNAV",
		"updated": "05/27/2008",
	},
	{
		"name": "TATRE",
		"latitude": "40-45-50.88 N",
		"longitude": "74-48-11.88 W",
		"state": "NEW JERSEY",
		"artcc": "ZNY",
		"type": "RNAV",
		"updated": "03/13/2017",
	},
	{
		"name": "TATVE",
		"latitude": "40-17-13.99 N",
		"longitude": "75-0-25.55 W",
		"state": "PENNSYLVANIA",
		"artcc": "ZDC",
		"type": "RP",
		"updated": "ARD*VOR/DME*304.00/5.00",
	},
	{
		"name": "TAYLO",
		"latitude": "39-39-47.98 N",
		"longitude": "76-27-43.17 W",
		"state": "MARYLAND",
		"artcc": "ZNY",
		"type": "RNAV",
		"updated": "06/16/2011",
	},
	{
		"name": "TBERN",
		"latitude": "40-48-18.66 N",
		"longitude": "74-8-9.34 W",
		"state": "NEW JERSEY",
		"artcc": "ZNY",
		"type": "RNAV",
		"updated": "11/20/2013",
	},
	{
		"name": "TCKER",
		"latitude": "33-1-41.34 N",
		"longitude": "64-5-25.65 W",
		"state": "OFFSHORE ATLANTIC",
		"artcc": "ZNY",
		"type": "RNAV",
		"updated": "01/10/2017",
	},
	{
		"name": "TECUM",
		"latitude": "40-54-44.57 N",
		"longitude": "76-32-56.38 W",
		"state": "PENNSYLVANIA",
		"artcc": "ZNY",
		"type": "RP",
		"updated": "MIP*VORTAC*150.51/8.50",
	},
	{
		"name": "TECUT",
		"latitude": "40-28-47.94 N",
		"longitude": "74-54-37.09 W",
		"state": "NEW JERSEY",
		"artcc": "ZNY",
		"type": "RNAV",
		"updated": "09/29/2006",
	},
	{
		"name": "TEDIY",
		"latitude": "33-43-13.66 N",
		"longitude": "65-22-30.03 W",
		"state": "OFFSHORE ATLANTIC",
		"artcc": "ZNY",
		"type": "RNAV",
		"updated": "01/10/2017",
	},
	{
		"name": "TELEX",
		"latitude": "40-42-42.47 N",
		"longitude": "73-54-34.85 W",
		"state": "NEW YORK",
		"artcc": "ZNY",
		"type": "RP",
		"updated": "LGA*VOR/DME*215.49",
	},
	{
		"name": "TELLO",
		"latitude": "40-55-51.45 N",
		"longitude": "74-2-28.2 W",
		"state": "NEW JERSEY",
		"artcc": "ZNY",
		"type": "RP",
		"updated": "TEB*VOR/DME*022.01/5.00",
	},
	{
		"name": "TETER",
		"latitude": "40-51-59.58 N",
		"longitude": "74-3-46.32 W",
		"state": "NEW JERSEY",
		"artcc": "ZNY",
		"type": "RP",
		"updated": "05/24/2012",
	},
	{
		"name": "THLMA",
		"latitude": "23-30-0.02 N",
		"longitude": "62-47-35.16 W",
		"state": "OFFSHORE ATLANTIC",
		"artcc": "ZNY",
		"type": "RP",
		"updated": "07/11/1991",
	},
	{
		"name": "THMAS",
		"latitude": "39-40-7.73 N",
		"longitude": "74-34-16.24 W",
		"state": "NEW JERSEY",
		"artcc": "ZNY",
		"type": "RNAV",
		"updated": "09/06/2013",
	},
	{
		"name": "TICKL",
		"latitude": "40-34-5.06 N",
		"longitude": "74-3-7.69 W",
		"state": "NEW YORK",
		"artcc": "ZNY",
		"type": "RP",
		"updated": "COL*VOR/DME*028.74",
	},
	{
		"name": "TIFZY",
		"latitude": "42-35-58.39 N",
		"longitude": "76-37-8.05 W",
		"state": "NEW YORK",
		"artcc": "ZNY",
		"type": "RNAV",
		"updated": "12/30/2009",
	},
	{
		"name": "TIHWO",
		"latitude": "40-37-15.34 N",
		"longitude": "73-45-22.35 W",
		"state": "NEW YORK",
		"artcc": "ZNY",
		"type": "RNAV",
		"updated": "12/13/2016",
	},
	{
		"name": "TIHYI",
		"latitude": "40-13-12.5 N",
		"longitude": "77-4-29.38 W",
		"state": "PENNSYLVANIA",
		"artcc": "ZNY",
		"type": "RNAV",
		"updated": "05/20/2009",
	},
	{
		"name": "TIKLE",
		"latitude": "40-51-2.98 N",
		"longitude": "75-38-17.73 W",
		"state": "PENNSYLVANIA",
		"artcc": "ZNY",
		"type": "RNAV",
		"updated": "05/13/2013",
	},
	{
		"name": "TILED",
		"latitude": "37-15-57.94 N",
		"longitude": "68-58-23.76 W",
		"state": "OFFSHORE ATLANTIC",
		"artcc": "ZNY",
		"type": "RNAV",
		"updated": "04/01/2008",
	},
	{
		"name": "TINNI",
		"latitude": "40-58-12.85 N",
		"longitude": "74-31-30.46 W",
		"state": "NEW JERSEY",
		"artcc": "ZNY",
		"type": "RP",
		"updated": "STW*VOR/DME*106.49",
	},
	{
		"name": "TIVNE",
		"latitude": "40-10-29.42 N",
		"longitude": "77-0-50.77 W",
		"state": "PENNSYLVANIA",
		"artcc": "ZNY",
		"type": "RP",
		"updated": "HAR*VORTAC*171.53",
	},
	{
		"name": "TIVUC",
		"latitude": "41-55-49.89 N",
		"longitude": "76-26-17.17 W",
		"state": "PENNSYLVANIA",
		"artcc": "ZNY",
		"type": "RP",
		"updated": "ULW*VOR/DME*122.32/28.02",
	},
	{
		"name": "TIYUK",
		"latitude": "40-47-35.68 N",
		"longitude": "73-51-21.11 W",
		"state": "NEW YORK",
		"artcc": "ZNY",
		"type": "RP",
		"updated": "TKD*DD*NE CRS/2.01",
	},
	{
		"name": "TOBME",
		"latitude": "40-1-18.67 N",
		"longitude": "74-20-33.37 W",
		"state": "NEW JERSEY",
		"artcc": "ZNY",
		"type": "MR",
		"updated": "CYN*VORTAC*028.50",
	},
	{
		"name": "TOBUY",
		"latitude": "40-7-1.99 N",
		"longitude": "76-18-46.07 W",
		"state": "PENNSYLVANIA",
		"artcc": "ZNY",
		"type": "RP",
		"updated": "LRP*VOR/DME*269.53/1.00",
	},
	{
		"name": "TOCKS",
		"latitude": "41-1-7.85 N",
		"longitude": "75-2-32.93 W",
		"state": "NEW JERSEY",
		"artcc": "ZNY",
		"type": "RP",
		"updated": "STW*VOR/DME*291.00/8.00",
	},
	{
		"name": "TOCUB",
		"latitude": "40-29-59.74 N",
		"longitude": "74-17-26.02 W",
		"state": "NEW JERSEY",
		"artcc": "ZNY",
		"type": "RNAV",
		"updated": "06/19/2012",
	},
	{
		"name": "TODOY",
		"latitude": "42-19-18.05 N",
		"longitude": "76-12-15.29 W",
		"state": "NEW YORK",
		"artcc": "ZNY",
		"type": "RNAV",
		"updated": "06/04/2004",
	},
	{
		"name": "TOLAN",
		"latitude": "40-21-57.86 N",
		"longitude": "74-25-22.76 W",
		"state": "NEW JERSEY",
		"artcc": "ZNY",
		"type": "RNAV",
		"updated": "06/08/2011",
	},
	{
		"name": "TOLMY",
		"latitude": "41-46-48.45 N",
		"longitude": "74-52-27.24 W",
		"state": "NEW YORK",
		"artcc": "ZBW",
		"type": "RNAV",
		"updated": "07/10/2012",
	},
	{
		"name": "TOMVE",
		"latitude": "40-3-5.15 N",
		"longitude": "74-19-55.79 W",
		"state": "NEW JERSEY",
		"artcc": "ZNY",
		"type": "MR",
		"updated": "COL*VOR/DME*218.00/17.50",
	},
	{
		"name": "TOMYD",
		"latitude": "39-40-52.2 N",
		"longitude": "77-8-26.42 W",
		"state": "MARYLAND",
		"artcc": "ZNY",
		"type": "RNAV",
		"updated": "08/19/2013",
	},
	{
		"name": "TOMYE",
		"latitude": "41-4-48.73 N",
		"longitude": "72-24-18.46 W",
		"state": "NEW YORK",
		"artcc": "ZNY",
		"type": "WP",
		"updated": "04/10/2001",
	},
	{
		"name": "TONEY",
		"latitude": "30-13-23.23 N",
		"longitude": "64-25-24.36 W",
		"state": "OFFSHORE ATLANTIC",
		"artcc": "ZNY",
		"type": "RNAV",
		"updated": "08/25/2009",
	},
	{
		"name": "TOPOE",
		"latitude": "40-19-36.02 N",
		"longitude": "75-16-44.52 W",
		"state": "PENNSYLVANIA",
		"artcc": "ZNY",
		"type": "MW",
		"updated": "01/27/2009",
	},
	{
		"name": "TORET",
		"latitude": "42-32-48.45 N",
		"longitude": "76-36-8.98 W",
		"state": "NEW YORK",
		"artcc": "ZNY",
		"type": "RNAV",
		"updated": "11/28/2017",
	},
	{
		"name": "TORNE",
		"latitude": "39-54-21.9 N",
		"longitude": "75-2-50.31 W",
		"state": "NEW JERSEY",
		"artcc": "ZNY",
		"type": "RP",
		"updated": "GLC*LD*087.49/8.72",
	},
	{
		"name": "TOWIN",
		"latitude": "40-32-6.76 N",
		"longitude": "75-24-1.36 W",
		"state": "PENNSYLVANIA",
		"artcc": "ZNY",
		"type": "RP",
		"updated": "BWZ*VOR/DME*250.33/30.77",
	},
	{
		"name": "TOYOS",
		"latitude": "40-47-0.34 N",
		"longitude": "77-57-45.75 W",
		"state": "PENNSYLVANIA",
		"artcc": "ZNY",
		"type": "RNAV",
		"updated": "09/01/2016",
	},
	{
		"name": "TOYUB",
		"latitude": "40-2-44.02 N",
		"longitude": "74-20-4.35 W",
		"state": "NEW JERSEY",
		"artcc": "ZNY",
		"type": "MR",
		"updated": "NEL*TACAN*070.00/1.00",
	},
	{
		"name": "TRAGG",
		"latitude": "40-5-44.75 N",
		"longitude": "75-56-20.79 W",
		"state": "PENNSYLVANIA",
		"artcc": "ZNY",
		"type": "RP",
		"updated": "LRP*VOR/DME*104.00/16.28",
	},
	{
		"name": "TRISH",
		"latitude": "39-30-12.43 N",
		"longitude": "76-22-25.99 W",
		"state": "MARYLAND",
		"artcc": "ZNY",
		"type": "RP",
		"updated": "BAL*VORTAC*044.79/24.00",
	},
	{
		"name": "TRISK",
		"latitude": "40-40-59.56 N",
		"longitude": "73-51-49.72 W",
		"state": "NEW YORK",
		"artcc": "ZNY",
		"type": "RNAV",
		"updated": "04/10/2012",
	},
	{
		"name": "TRNKY",
		"latitude": "18-25-13.01 N",
		"longitude": "63-11-22.93 W",
		"state": "OFFSHORE ATLANTIC",
		"artcc": "ZNY",
		"type": "RNAV",
		"updated": "04/09/2008",
	},
	{
		"name": "TROGS",
		"latitude": "40-47-54.36 N",
		"longitude": "73-47-46.48 W",
		"state": "NEW YORK",
		"artcc": "ZNY",
		"type": "WP",
		"updated": "09/17/1991",
	},
	{
		"name": "TROVA",
		"latitude": "40-50-42.09 N",
		"longitude": "74-9-55.27 W",
		"state": "NEW JERSEY",
		"artcc": "ZNY",
		"type": "RP",
		"updated": "TEB*VOR/DME*278.33/4.70",
	},
	{
		"name": "TROXL",
		"latitude": "40-33-19.02 N",
		"longitude": "75-18-28.76 W",
		"state": "PENNSYLVANIA",
		"artcc": "ZNY",
		"type": "RP",
		"updated": "ETX*VOR/DME*104.00/17.26",
	},
	{
		"name": "TROYZ",
		"latitude": "39-41-2.4 N",
		"longitude": "76-7-5.67 W",
		"state": "MARYLAND",
		"artcc": "ZNY",
		"type": "RP",
		"updated": "MXE*VORTAC*245.00/25.00",
	},
	{
		"name": "TRRIO",
		"latitude": "31-46-58.7 N",
		"longitude": "66-56-51.09 W",
		"state": "OFFSHORE ATLANTIC",
		"artcc": "ZNY",
		"type": "RNAV",
		"updated": "01/10/2017",
	},
	{
		"name": "TRUEE",
		"latitude": "32-31-56.79 N",
		"longitude": "64-46-34.65 W",
		"state": "OFFSHORE ATLANTIC",
		"artcc": "ZNY",
		"type": "RNAV",
		"updated": "01/10/2017",
	},
	{
		"name": "TRUER",
		"latitude": "41-23-37.76 N",
		"longitude": "77-8-39.49 W",
		"state": "PENNSYLVANIA",
		"artcc": "ZNY",
		"type": "RP",
		"updated": "SEG*VOR/DME*350.00",
	},
	{
		"name": "TRYEB",
		"latitude": "32-22-18.13 N",
		"longitude": "65-40-24.43 W",
		"state": "OFFSHORE ATLANTIC",
		"artcc": "ZNY",
		"type": "RNAV",
		"updated": "01/10/2017",
	},
	{
		"name": "TUBBS",
		"latitude": "31-42-54.58 N",
		"longitude": "76-59-8.78 W",
		"state": "OFFSHORE ATLANTIC",
		"artcc": "ZNY",
		"type": "RNAV",
		"updated": "09/15/2016",
	},
	{
		"name": "TUDIE",
		"latitude": "32-13-42 N",
		"longitude": "64-29-6 W",
		"state": "OFFSHORE ATLANTIC",
		"artcc": "ZNY",
		"type": "RNAV",
		"updated": "01/10/2017",
	},
	{
		"name": "TUDVE",
		"latitude": "42-28-45.35 N",
		"longitude": "76-26-28.08 W",
		"state": "NEW YORK",
		"artcc": "ZNY",
		"type": "RP",
		"updated": "ITH*VOR/DME*/1.26",
	},
	{
		"name": "TUGGZ",
		"latitude": "40-55-47.98 N",
		"longitude": "74-3-13.17 W",
		"state": "NEW JERSEY",
		"artcc": "ZNY",
		"type": "RP",
		"updated": "SAX*VORTAC*121.37",
	},
	{
		"name": "TUHSY",
		"latitude": "42-39-12.27 N",
		"longitude": "76-7-43.12 W",
		"state": "NEW YORK",
		"artcc": "ZNY",
		"type": "WP",
		"updated": "11/02/1998",
	},
	{
		"name": "TUSTE",
		"latitude": "40-47-57.13 N",
		"longitude": "73-29-55.56 W",
		"state": "NEW YORK",
		"artcc": "ZNY",
		"type": "RNAV",
		"updated": "08/11/2008",
	},
	{
		"name": "TUYOT",
		"latitude": "41-17-24.09 N",
		"longitude": "75-45-58.43 W",
		"state": "PENNSYLVANIA",
		"artcc": "ZNY",
		"type": "RP",
		"updated": "AVP*LD*225.47/3.83",
	},
	{
		"name": "TWIIN",
		"latitude": "41-44-57.85 N",
		"longitude": "76-27-25.15 W",
		"state": "PENNSYLVANIA",
		"artcc": "ZNY",
		"type": "RP",
		"updated": "ULW*VOR/DME*140.93/32.78",
	},
	{
		"name": "TYKES",
		"latitude": "40-17-22.38 N",
		"longitude": "74-23-6.13 W",
		"state": "NEW JERSEY",
		"artcc": "ZNY",
		"type": "RP",
		"updated": "COL*VOR/DME*273.78/10.43",
	},
	{
		"name": "TYMAN",
		"latitude": "40-54-32.33 N",
		"longitude": "77-23-7.5 W",
		"state": "PENNSYLVANIA",
		"artcc": "ZNY",
		"type": "RP",
		"updated": "ULW*VOR/DME*205.00/72.91",
	},
	{
		"name": "TYROD",
		"latitude": "42-28-0.76 N",
		"longitude": "76-46-23.61 W",
		"state": "NEW YORK",
		"artcc": "ZNY",
		"type": "RNAV",
		"updated": "09/15/2015",
	},
	{
		"name": "TYYLR",
		"latitude": "41-43-28.82 N",
		"longitude": "75-43-9.51 W",
		"state": "PENNSYLVANIA",
		"artcc": "ZNY",
		"type": "RP",
		"updated": "CFB*VOR/DME*154.12/31.98",
	},
