	{
		"name": "VACHI",
		"latitude": "18-35-28.55 N",
		"longitude": "67-18-46.46 W",
		"state": "OFFSHORE ATLANTIC",
		"artcc": "ZNY",
		"type": "RNAV",
		"updated": "04/09/2008",
	},
	{
		"name": "VADUC",
		"latitude": "40-5-22.37 N",
		"longitude": "76-31-36.9 W",
		"state": "PENNSYLVANIA",
		"artcc": "ZNY",
		"type": "RP",
		"updated": "LRP*VOR/DME*269.53/11.00",
	},
	{
		"name": "VAFKU",
		"latitude": "42-31-56.16 N",
		"longitude": "76-41-30.36 W",
		"state": "NEW YORK",
		"artcc": "ZNY",
		"type": "RP",
		"updated": "ULW*VOR/DME*041.32/30.17",
	},
	{
		"name": "VALID",
		"latitude": "41-31-58.43 N",
		"longitude": "74-39-34.47 W",
		"state": "NEW YORK",
		"artcc": "ZNY",
		"type": "RP",
		"updated": "HUO*VOR/DME*348.49/8.00",
	},
	{
		"name": "VALLO",
		"latitude": "40-37-36.57 N",
		"longitude": "77-26-18.47 W",
		"state": "PENNSYLVANIA",
		"artcc": "ZNY",
		"type": "RP",
		"updated": "EWC*VOR/DME*102.47/127.05",
	},
	{
		"name": "VANER",
		"latitude": "40-37-7.57 N",
		"longitude": "74-35-0.77 W",
		"state": "NEW JERSEY",
		"artcc": "ZNY",
		"type": "RP",
		"updated": "SBJ*VOR/DME*083.43",
	},
	{
		"name": "VANEY",
		"latitude": "42-24-49.86 N",
		"longitude": "76-18-16.68 W",
		"state": "NEW YORK",
		"artcc": "ZNY",
		"type": "WP",
		"updated": "11/02/1998",
	},
	{
		"name": "VAYCU",
		"latitude": "40-13-26.42 N",
		"longitude": "75-19-20.27 W",
		"state": "PENNSYLVANIA",
		"artcc": "ZNY",
		"type": "RNAV",
		"updated": "02/28/2010",
	},
	{
		"name": "VAYRE",
		"latitude": "40-31-30.58 N",
		"longitude": "76-26-0.03 W",
		"state": "PENNSYLVANIA",
		"artcc": "ZNY",
		"type": "RP",
		"updated": "RAV*VORTAC*113.51/7.78",
	},
	{
		"name": "VEGAA",
		"latitude": "35-19-23.38 N",
		"longitude": "72-0-0 W",
		"state": "OFFSHORE ATLANTIC",
		"artcc": "ZNY",
		"type": "RNAV",
		"updated": "06/02/2014",
	},
	{
		"name": "VEHSY",
		"latitude": "40-46-7.98 N",
		"longitude": "77-19-21.41 W",
		"state": "PENNSYLVANIA",
		"artcc": "ZNY",
		"type": "RNAV",
		"updated": "06/17/2008",
	},
	{
		"name": "VERDE",
		"latitude": "40-48-50.81 N",
		"longitude": "74-5-27.88 W",
		"state": "NEW JERSEY",
		"artcc": "ZNY",
		"type": "RP",
		"updated": "JNN*LD*038.83/7.28",
	},
	{
		"name": "VERGE",
		"latitude": "40-37-48.5 N",
		"longitude": "73-58-49.05 W",
		"state": "NEW YORK",
		"artcc": "ZNY",
		"type": "RP",
		"updated": "LGA*VOR/DME*221.00/10.53",
	},
	{
		"name": "VERRU",
		"latitude": "40-28-29.58 N",
		"longitude": "73-53-15.47 W",
		"state": "NEW JERSEY",
		"artcc": "ZNY",
		"type": "RNAV",
		"updated": "06/29/2005",
	},
	{
		"name": "VERVI",
		"latitude": "40-0-25.33 N",
		"longitude": "74-15-41.84 W",
		"state": "NEW JERSEY",
		"artcc": "ZNY",
		"type": "RNAV",
		"updated": "01/06/2017",
	},
	{
		"name": "VESPE",
		"latitude": "42-47-51.64 N",
		"longitude": "76-6-31.73 W",
		"state": "NEW YORK",
		"artcc": "ZNY",
		"type": "RP",
		"updated": "GGT*VORTAC*283.50/12.47",
	},
	{
		"name": "VESRA",
		"latitude": "25-28-29.26 N",
		"longitude": "68-0-0 W",
		"state": "OFFSHORE ATLANTIC",
		"artcc": "ZNY",
		"type": "RNAV",
		"updated": "10/20/2009",
	},
	{
		"name": "VETSY",
		"latitude": "40-55-9.5 N",
		"longitude": "75-7-9.91 W",
		"state": "NEW JERSEY",
		"artcc": "ZNY",
		"type": "RNAV",
		"updated": "06/29/2005",
	},
	{
		"name": "VEWOR",
		"latitude": "40-35-45.88 N",
		"longitude": "75-53-25.29 W",
		"state": "PENNSYLVANIA",
		"artcc": "ZNY",
		"type": "RNAV",
		"updated": "07/09/2009",
	},
	{
		"name": "VIBES",
		"latitude": "40-45-47.61 N",
		"longitude": "75-36-1.87 W",
		"state": "PENNSYLVANIA",
		"artcc": "ZNY",
		"type": "RP",
		"updated": "FJC*VORTAC*298.28/7.00",
	},
	{
		"name": "VIDTU",
		"latitude": "40-14-37.44 N",
		"longitude": "75-12-53.9 W",
		"state": "PENNSYLVANIA",
		"artcc": "ZNY",
		"type": "RNAV",
		"updated": "12/02/2004",
	},
	{
		"name": "VILCU",
		"latitude": "42-22-20.71 N",
		"longitude": "76-38-2.28 W",
		"state": "NEW YORK",
		"artcc": "ZNY",
		"type": "RP",
		"updated": "ITH*VOR/DME*236.48/10.67",
	},
	{
		"name": "VINGS",
		"latitude": "40-42-41.05 N",
		"longitude": "74-16-6.82 W",
		"state": "NEW JERSEY",
		"artcc": "ZNY",
		"type": "RP",
		"updated": "SBJ*VOR/DME*080.24",
	},
	{
		"name": "VINNY",
		"latitude": "39-45-16.64 N",
		"longitude": "76-36-30.16 W",
		"state": "PENNSYLVANIA",
		"artcc": "ZNY",
		"type": "RP",
		"updated": "BAL*VORTAC*015.00/35.07",
	},
	{
		"name": "VINSO",
		"latitude": "27-4-59.24 N",
		"longitude": "67-14-31.26 W",
		"state": "OFFSHORE ATLANTIC",
		"artcc": "ZNY",
		"type": "RNAV",
		"updated": "04/11/2008",
	},
	{
		"name": "VIRST",
		"latitude": "35-2-41.39 N",
		"longitude": "72-32-37.3 W",
		"state": "OFFSHORE ATLANTIC",
		"artcc": "ZNY",
		"type": "RNAV",
		"updated": "09/15/2016",
	},
	{
		"name": "VISBY",
		"latitude": "40-20-15.97 N",
		"longitude": "75-57-15.15 W",
		"state": "PENNSYLVANIA",
		"artcc": "ZNY",
		"type": "RP",
		"updated": "LRP*VOR/DME*058.76",
	},
	{
		"name": "VOKYO",
		"latitude": "41-4-23.26 N",
		"longitude": "75-49-2.58 W",
		"state": "PENNSYLVANIA",
		"artcc": "ZNY",
		"type": "RNAV",
		"updated": "05/19/2009",
	},
	{
		"name": "VOLLU",
		"latitude": "41-11-29.94 N",
		"longitude": "73-59-4.6 W",
		"state": "NEW YORK",
		"artcc": "ZNY",
		"type": "RP",
		"updated": "DPK*VOR/DME*320.00",
	},
	{
		"name": "VOYLU",
		"latitude": "40-58-1.01 N",
		"longitude": "74-34-50.94 W",
		"state": "NEW JERSEY",
		"artcc": "ZNY",
		"type": "RP",
		"updated": "SAX*VORTAC*208.76/6.33",
	},
	{
		"name": "VRNAH",
		"latitude": "42-25-47.15 N",
		"longitude": "76-22-5.93 W",
		"state": "NEW YORK",
		"artcc": "ZNY",
		"type": "RP",
		"updated": "ITH*LS*144.52",
	},
