	{
		"name": "XAGKE",
		"latitude": "41-22-50.02 N",
		"longitude": "75-41-8.85 W",
		"state": "PENNSYLVANIA",
		"artcc": "ZNY",
		"type": "RP",
		"updated": "IZK*LD*045.37/2.71",
	},
	{
		"name": "XAREW",
		"latitude": "40-40-48.21 N",
		"longitude": "73-24-48.51 W",
		"state": "NEW YORK",
		"artcc": "ZNY",
		"type": "RNAV",
		"updated": "06/27/2011",
	},
	{
		"name": "XENIJ",
		"latitude": "40-44-53.42 N",
		"longitude": "73-31-10.9 W",
		"state": "NEW YORK",
		"artcc": "ZNY",
		"type": "CN",
		"updated": "06/27/2011",
	},
	{
		"name": "XETUW",
		"latitude": "41-20-46.89 N",
		"longitude": "75-25-10.39 W",
		"state": "PENNSYLVANIA",
		"artcc": "ZNY",
		"type": "RP",
		"updated": "LVZ*VORTAC*080.04/12.98",
	},
	{
		"name": "XIHGA",
		"latitude": "41-8-19.64 N",
		"longitude": "75-23-21.84 W",
		"state": "PENNSYLVANIA",
		"artcc": "ZNY",
		"type": "RP",
		"updated": "LVZ*VORTAC*130.50/15.79",
	},
	{
		"name": "XIKCY",
		"latitude": "42-10-41.93 N",
		"longitude": "75-57-10.32 W",
		"state": "NEW YORK",
		"artcc": "ZNY",
		"type": "RP",
		"updated": "CFB*VOR/DME*091.27",
	},
	{
		"name": "XILWE",
		"latitude": "40-11-7.8 N",
		"longitude": "76-43-53.43 W",
		"state": "PENNSYLVANIA",
		"artcc": "ZNY",
		"type": "RP",
		"updated": "LRP*VOR/DME*290.12/20.63",
	},
	{
		"name": "XODYU",
		"latitude": "40-43-57.5 N",
		"longitude": "74-6-3.29 W",
		"state": "NEW JERSEY",
		"artcc": "ZNY",
		"type": "CN",
		"updated": "05/24/2012",
	},
	{
		"name": "XOGLY",
		"latitude": "41-27-38.71 N",
		"longitude": "74-29-31.66 W",
		"state": "NEW YORK",
		"artcc": "ZNY",
		"type": "RNAV",
		"updated": "02/09/2010",
	},
	{
		"name": "XOPPA",
		"latitude": "39-44-4.73 N",
		"longitude": "76-45-52.78 W",
		"state": "PENNSYLVANIA",
		"artcc": "ZNY",
		"type": "RNAV",
		"updated": "04/20/2011",
	},
	{
		"name": "XOQUR",
		"latitude": "39-54-6.45 N",
		"longitude": "74-19-54.97 W",
		"state": "NEW JERSEY",
		"artcc": "ZNY",
		"type": "RP",
		"updated": "GXU*VORTAC*129.79",
	},
	{
		"name": "XUCCO",
		"latitude": "42-25-49.64 N",
		"longitude": "76-46-11.07 W",
		"state": "NEW YORK",
		"artcc": "ZNY",
		"type": "RP",
		"updated": "ULW*VOR/DME*041.32/23.15",
	},
	{
		"name": "XUGLY",
		"latitude": "40-54-21.66 N",
		"longitude": "74-22-48.28 W",
		"state": "NEW JERSEY",
		"artcc": "ZNY",
		"type": "CN",
		"updated": "06/27/2011",
	},
	{
		"name": "XULAW",
		"latitude": "40-6-25.81 N",
		"longitude": "76-20-42.51 W",
		"state": "PENNSYLVANIA",
		"artcc": "ZNY",
		"type": "RP",
		"updated": "LRP*VOR/DME*081.77/2.59",
	},
