[
	{
		"name": "YAALE",
		"latitude": "38-16-53.04 N",
		"longitude": "71-57-12.96 W",
		"state": "OFFSHORE ATLANTIC",
		"artcc": "ZNY",
		"type": "RNAV",
		"updated": "10/20/2016"
	},
	{
		"name": "YABUL",
		"latitude": "40-52-8.3 N",
		"longitude": "74-2-15.25 W",
		"state": "NEW JERSEY",
		"artcc": "ZNY",
		"type": "RNAV",
		"updated": "04/01/2008"
	},
	{
		"name": "YALUN",
		"latitude": "41-58-53.14 N",
		"longitude": "76-32-6.33 W",
		"state": "PENNSYLVANIA",
		"artcc": "ZNY",
		"type": "RNAV",
		"updated": "10/21/2014"
	},
	{
		"name": "YANUB",
		"latitude": "40-49-13.54 N",
		"longitude": "76-37-15.31 W",
		"state": "PENNSYLVANIA",
		"artcc": "ZNY",
		"type": "RNAV",
		"updated": "06/28/2011"
	},
	{
		"name": "YANUD",
		"latitude": "41-9-58.55 N",
		"longitude": "74-17-28.14 W",
		"state": "NEW JERSEY",
		"artcc": "ZNY",
		"type": "RNAV",
		"updated": "12/12/2011"
	},
	{
		"name": "YAPSU",
		"latitude": "40-20-23.45 N",
		"longitude": "76-14-5.74 W",
		"state": "PENNSYLVANIA",
		"artcc": "ZNY",
		"type": "RNAV",
		"updated": "04/26/2012"
	},
	{
		"name": "YAZUU",
		"latitude": "39-24-44.82 N",
		"longitude": "74-1-1.55 W",
		"state": "NEW JERSEY",
		"artcc": "ZNY",
		"type": "RP",
		"updated": "HTO*VORTAC*234.44/119.48"
	},
	{
		"name": "YEGXE",
		"latitude": "41-14-55.29 N",
		"longitude": "75-47-58.45 W",
		"state": "PENNSYLVANIA",
		"artcc": "ZNY",
		"type": "RNAV",
		"updated": "09/05/2013"
	},
	{
		"name": "YEPSY",
		"latitude": "31-51-52.64 N",
		"longitude": "62-17-14.62 W",
		"state": "OFFSHORE ATLANTIC",
		"artcc": "ZNY",
		"type": "RNAV",
		"updated": "08/26/2009"
	},
	{
		"name": "YERDU",
		"latitude": "41-13-54.03 N",
		"longitude": "75-58-7.51 W",
		"state": "PENNSYLVANIA",
		"artcc": "ZNY",
		"type": "RNAV",
		"updated": "05/30/2012"
	},
	{
		"name": "YERUY",
		"latitude": "39-34-23.62 N",
		"longitude": "76-21-35.08 W",
		"state": "MARYLAND",
		"artcc": "ZNY",
		"type": "RNAV",
		"updated": "04/23/2007"
	},
	{
		"name": "YETTI",
		"latitude": "38-36-55.44 N",
		"longitude": "71-57-0.36 W",
		"state": "OFFSHORE ATLANTIC",
		"artcc": "ZNY",
		"type": "RNAV",
		"updated": "10/20/2016"
	},
	{
		"name": "YEWSU",
		"latitude": "40-25-43.13 N",
		"longitude": "75-58-13.99 W",
		"state": "PENNSYLVANIA",
		"artcc": "ZNY",
		"type": "RNAV",
		"updated": "07/09/2009"
	},
	{
		"name": "YEXWU",
		"latitude": "41-14-50.39 N",
		"longitude": "76-56-13.52 W",
		"state": "PENNSYLVANIA",
		"artcc": "ZNY",
		"type": "RNAV",
		"updated": "04/24/2017"
	},
	{
		"name": "YEZJO",
		"latitude": "40-30-53.65 N",
		"longitude": "75-36-12.87 W",
		"state": "PENNSYLVANIA",
		"artcc": "ZNY",
		"type": "RNAV",
		"updated": "06/29/2011"
	},
	{
		"name": "YINON",
		"latitude": "40-6-1.06 N",
		"longitude": "73-50-39.84 W",
		"state": "NEW JERSEY",
		"artcc": "ZNY",
		"type": "RNAV",
		"updated": "03/27/2012"
	},
	{
		"name": "YIVUY",
		"latitude": "40-33-54.28 N",
		"longitude": "73-49-37.98 W",
		"state": "NEW YORK",
		"artcc": "ZNY",
		"type": "CN",
		"updated": "08/12/2008"
	},
	{
		"name": "YIYYO",
		"latitude": "20-45-12.84 N",
		"longitude": "63-37-56.9 W",
		"state": "OFFSHORE ATLANTIC",
		"artcc": "ZNY",
		"type": "RNAV",
		"updated": "04/09/2008"
	},
	{
		"name": "YNKEE",
		"latitude": "40-29-0.9 N",
		"longitude": "73-50-57.18 W",
		"state": "NEW YORK",
		"artcc": "ZNY",
		"type": "RNAV",
		"updated": "12/22/2005"
	},
	{
		"name": "YOCTA",
		"latitude": "40-35-5.06 N",
		"longitude": "75-59-55.42 W",
		"state": "PENNSYLVANIA",
		"artcc": "ZNY",
		"type": "RNAV",
		"updated": "07/09/2009"
	},
	{
		"name": "YODAH",
		"latitude": "40-31-28.04 N",
		"longitude": "75-11-27.88 W",
		"state": "PENNSYLVANIA",
		"artcc": "ZNY",
		"type": "RNAV",
		"updated": "08/25/2015"
	},
	{
		"name": "YODUR",
		"latitude": "40-37-47.08 N",
		"longitude": "74-23-31.62 W",
		"state": "NEW JERSEY",
		"artcc": "ZNY",
		"type": "RNAV",
		"updated": "03/10/2011"
	},
	{
		"name": "YOGII",
		"latitude": "37-27-59.04 N",
		"longitude": "72-23-3.48 W",
		"state": "OFFSHORE ATLANTIC",
		"artcc": "ZNY",
		"type": "RNAV",
		"updated": "10/20/2016"
	},
	{
		"name": "YOKRI",
		"latitude": "39-50-32.53 N",
		"longitude": "76-49-42.96 W",
		"state": "PENNSYLVANIA",
		"artcc": "ZNY",
		"type": "RNAV",
		"updated": "04/20/2011"
	},
	{
		"name": "YOLBU",
		"latitude": "40-58-14.09 N",
		"longitude": "75-42-17.88 W",
		"state": "PENNSYLVANIA",
		"artcc": "ZNY",
		"type": "RNAV",
		"updated": "03/21/2013"
	},
	{
		"name": "YOLSU",
		"latitude": "40-8-43.51 N",
		"longitude": "76-38-21.85 W",
		"state": "PENNSYLVANIA",
		"artcc": "ZNY",
		"type": "RNAV",
		"updated": "05/20/2009"
	},
	{
		"name": "YONUP",
		"latitude": "41-6-21.47 N",
		"longitude": "75-24-33.18 W",
		"state": "PENNSYLVANIA",
		"artcc": "ZNY",
		"type": "RNAV",
		"updated": "01/28/2009"
	},
	{
		"name": "YOPUK",
		"latitude": "40-23-2.6 N",
		"longitude": "74-14-41.37 W",
		"state": "NEW JERSEY",
		"artcc": "ZNY",
		"type": "RNAV",
		"updated": "03/27/2012"
	},
	{
		"name": "YOPUS",
		"latitude": "40-9-49.29 N",
		"longitude": "75-38-48.41 W",
		"state": "PENNSYLVANIA",
		"artcc": "ZNY",
		"type": "RNAV",
		"updated": "12/02/2004"
	},
	{
		"name": "YORCI",
		"latitude": "41-0-22.9 N",
		"longitude": "73-35-55.3 W",
		"state": "NEW YORK",
		"artcc": "ZNY",
		"type": "RNAV",
		"updated": "02/22/2010"
	},
	{
		"name": "YOVUN",
		"latitude": "40-41-59.32 N",
		"longitude": "74-24-42.11 W",
		"state": "NEW JERSEY",
		"artcc": "ZNY",
		"type": "RP",
		"updated": "BWZ*VOR/DME*118.41"
	},
	{
		"name": "YOYUL",
		"latitude": "40-36-13.19 N",
		"longitude": "77-23-29.43 W",
		"state": "PENNSYLVANIA",
		"artcc": "ZNY",
		"type": "RNAV",
		"updated": "03/18/2016"
	},
	{
		"name": "YUDUC",
		"latitude": "40-54-34.15 N",
		"longitude": "77-46-7.14 W",
		"state": "PENNSYLVANIA",
		"artcc": "ZNY",
		"type": "RNAV",
		"updated": "08/14/2013"
	},
	{
		"name": "YUKPU",
		"latitude": "41-6-5.36 N",
		"longitude": "75-16-55.93 W",
		"state": "PENNSYLVANIA",
		"artcc": "ZNY",
		"type": "RNAV",
		"updated": "10/18/2012"
	},
	{
		"name": "YULUS",
		"latitude": "41-35-5.64 N",
		"longitude": "76-35-30.8 W",
		"state": "PENNSYLVANIA",
		"artcc": "ZNY",
		"type": "RNAV",
		"updated": "05/30/2012"
	},
	{
		"name": "YUNCU",
		"latitude": "40-49-40.37 N",
		"longitude": "77-55-49 W",
		"state": "PENNSYLVANIA",
		"artcc": "ZNY",
		"type": "RNAV",
		"updated": "08/14/2013"
	},
	{
		"name": "YUTUG",
		"latitude": "41-58-19.91 N",
		"longitude": "75-54-49.34 W",
		"state": "PENNSYLVANIA",
		"artcc": "ZNY",
		"type": "RNAV",
		"updated": "12/08/2009"
	},
	{
		"name": "YUTYO",
		"latitude": "40-48-28.79 N",
		"longitude": "76-40-20.34 W",
		"state": "PENNSYLVANIA",
		"artcc": "ZNY",
		"type": "RNAV",
		"updated": "06/28/2011"
	},
	{
		"name": "YUWSO",
		"latitude": "40-11-20.62 N",
		"longitude": "75-10-32.35 W",
		"state": "PENNSYLVANIA",
		"artcc": "ZNY",
		"type": "RNAV",
		"updated": "08/17/2010"
	},
	{
		"name": "YYOST",
		"latitude": "41-34-57.78 N",
		"longitude": "75-51-21.05 W",
		"state": "PENNSYLVANIA",
		"artcc": "ZNY",
		"type": "RNAV",
		"updated": "08/27/2013"
	}
]
