[
	{
		"name": "ZABKI",
		"latitude": "40-54-8 N",
		"longitude": "73-55-14.1 W",
		"state": "NEW JERSEY",
		"artcc": "ZNY",
		"type": "RNAV",
		"updated": "10/02/2012"
	},
	{
		"name": "ZACHS",
		"latitude": "40-31-43.69 N",
		"longitude": "73-33-13.91 W",
		"state": "NEW YORK",
		"artcc": "ZNY",
		"type": "RP",
		"updated": "DPK*VOR/DME*228.01"
	},
	{
		"name": "ZADUD",
		"latitude": "40-34-40.65 N",
		"longitude": "73-55-26.59 W",
		"state": "NEW YORK",
		"artcc": "ZNY",
		"type": "RNAV",
		"updated": "04/25/2012"
	},
	{
		"name": "ZAGTI",
		"latitude": "41-11-25.42 N",
		"longitude": "77-12-29.51 W",
		"state": "PENNSYLVANIA",
		"artcc": "ZNY",
		"type": "RP",
		"updated": "FQM*VOR/DME*254.77/21.53"
	},
	{
		"name": "ZAGUX",
		"latitude": "40-50-12.04 N",
		"longitude": "73-29-56.27 W",
		"state": "NEW YORK",
		"artcc": "ZNY",
		"type": "RNAV",
		"updated": "04/25/2005"
	},
	{
		"name": "ZAKTU",
		"latitude": "40-3-47.33 N",
		"longitude": "76-37-35.05 W",
		"state": "PENNSYLVANIA",
		"artcc": "ZNY",
		"type": "RNAV",
		"updated": "04/12/2011"
	},
	{
		"name": "ZAKUS",
		"latitude": "40-45-25.11 N",
		"longitude": "73-37-5.17 W",
		"state": "NEW YORK",
		"artcc": "ZNY",
		"type": "RNAV",
		"updated": "08/12/2008"
	},
	{
		"name": "ZALAT",
		"latitude": "40-56-25.69 N",
		"longitude": "73-32-53.67 W",
		"state": "NEW YORK",
		"artcc": "ZNY",
		"type": "RNAV",
		"updated": "11/27/2000"
	},
	{
		"name": "ZALGA",
		"latitude": "40-24-39.89 N",
		"longitude": "75-12-46.66 W",
		"state": "PENNSYLVANIA",
		"artcc": "ZNY",
		"type": "RNAV",
		"updated": "02/01/2001"
	},
	{
		"name": "ZALIT",
		"latitude": "41-13-50.11 N",
		"longitude": "77-6-35.91 W",
		"state": "PENNSYLVANIA",
		"artcc": "ZNY",
		"type": "RNAV",
		"updated": "08/24/2006"
	},
	{
		"name": "ZALPO",
		"latitude": "40-43-19.31 N",
		"longitude": "73-41-41.11 W",
		"state": "NEW YORK",
		"artcc": "ZNY",
		"type": "RP",
		"updated": "DPK*VOR/DME*268.93"
	},
	{
		"name": "ZANDT",
		"latitude": "40-31-54.36 N",
		"longitude": "75-14-1.83 W",
		"state": "PENNSYLVANIA",
		"artcc": "ZNY",
		"type": "WP",
		"updated": "06/13/1991"
	},
	{
		"name": "ZANEN",
		"latitude": "40-41-29.84 N",
		"longitude": "76-15-10.36 W",
		"state": "PENNSYLVANIA",
		"artcc": "ZNY",
		"type": "RNAV",
		"updated": "08/24/2006"
	},
	{
		"name": "ZARID",
		"latitude": "40-43-39.84 N",
		"longitude": "73-45-51.91 W",
		"state": "NEW YORK",
		"artcc": "ZNY",
		"type": "RNAV",
		"updated": "06/20/2012"
	},
	{
		"name": "ZASEB",
		"latitude": "41-8-33.41 N",
		"longitude": "74-22-49.78 W",
		"state": "NEW JERSEY",
		"artcc": "ZNY",
		"type": "RNAV",
		"updated": "03/05/2007"
	},
	{
		"name": "ZASIX",
		"latitude": "40-49-3.3 N",
		"longitude": "76-51-59.71 W",
		"state": "PENNSYLVANIA",
		"artcc": "ZNY",
		"type": "RP",
		"updated": "SEG*VOR/DME*034.39/1.77"
	},
	{
		"name": "ZATAV",
		"latitude": "40-57-58.18 N",
		"longitude": "76-38-36.9 W",
		"state": "PENNSYLVANIA",
		"artcc": "ZNY",
		"type": "RNAV",
		"updated": "12/11/2017"
	},
	{
		"name": "ZAVBU",
		"latitude": "41-1-30.63 N",
		"longitude": "78-26-6.81 W",
		"state": "PENNSYLVANIA",
		"artcc": "ZNY",
		"type": "RNAV",
		"updated": "03/20/2015"
	},
	{
		"name": "ZEBAK",
		"latitude": "40-38-32.95 N",
		"longitude": "73-52-16.5 W",
		"state": "NEW YORK",
		"artcc": "ZNY",
		"type": "RNAV",
		"updated": "12/13/2016"
	},
	{
		"name": "ZEBMU",
		"latitude": "40-53-52.49 N",
		"longitude": "76-54-19.93 W",
		"state": "PENNSYLVANIA",
		"artcc": "ZNY",
		"type": "RNAV",
		"updated": "04/26/2012"
	},
	{
		"name": "ZEBUX",
		"latitude": "40-41-44.51 N",
		"longitude": "76-12-33.78 W",
		"state": "PENNSYLVANIA",
		"artcc": "ZNY",
		"type": "RNAV",
		"updated": "10/21/2014"
	},
	{
		"name": "ZEGAS",
		"latitude": "41-13-39.36 N",
		"longitude": "75-17-20.92 W",
		"state": "PENNSYLVANIA",
		"artcc": "ZNY",
		"type": "RNAV",
		"updated": "01/28/2009"
	},
	{
		"name": "ZEGEB",
		"latitude": "41-3-9.13 N",
		"longitude": "76-52-57.67 W",
		"state": "PENNSYLVANIA",
		"artcc": "ZNY",
		"type": "RNAV",
		"updated": "12/04/2006"
	},
	{
		"name": "ZEGOK",
		"latitude": "41-43-28.52 N",
		"longitude": "77-30-46.03 W",
		"state": "PENNSYLVANIA",
		"artcc": "ZNY",
		"type": "RNAV",
		"updated": "09/04/2012"
	},
	{
		"name": "ZEGUK",
		"latitude": "41-37-35.54 N",
		"longitude": "76-33-11.21 W",
		"state": "PENNSYLVANIA",
		"artcc": "ZNY",
		"type": "RNAV",
		"updated": "05/30/2012"
	},
	{
		"name": "ZEKIX",
		"latitude": "40-6-5.51 N",
		"longitude": "76-21-47.73 W",
		"state": "PENNSYLVANIA",
		"artcc": "ZNY",
		"type": "RNAV",
		"updated": "12/07/2012"
	},
	{
		"name": "ZEKNO",
		"latitude": "41-23-15 N",
		"longitude": "76-32-11.6 W",
		"state": "PENNSYLVANIA",
		"artcc": "ZNY",
		"type": "RNAV",
		"updated": "04/25/2017"
	},
	{
		"name": "ZEKTA",
		"latitude": "40-9-51.91 N",
		"longitude": "75-27-5.21 W",
		"state": "PENNSYLVANIA",
		"artcc": "ZNY",
		"type": "RNAV",
		"updated": "03/24/2015"
	},
	{
		"name": "ZELEN",
		"latitude": "40-40-13.58 N",
		"longitude": "74-42-32.96 W",
		"state": "NEW JERSEY",
		"artcc": "ZNY",
		"type": "RNAV",
		"updated": "04/13/2011"
	},
	{
		"name": "ZELIP",
		"latitude": "41-4-35.14 N",
		"longitude": "78-31-19.58 W",
		"state": "PENNSYLVANIA",
		"artcc": "ZNY",
		"type": "RNAV",
		"updated": "08/24/2006"
	},
	{
		"name": "ZENGU",
		"latitude": "40-48-36.29 N",
		"longitude": "76-39-49.52 W",
		"state": "PENNSYLVANIA",
		"artcc": "ZNY",
		"type": "RNAV",
		"updated": "06/28/2011"
	},
	{
		"name": "ZENNS",
		"latitude": "40-58-54.87 N",
		"longitude": "74-20-39.97 W",
		"state": "NEW JERSEY",
		"artcc": "ZNY",
		"type": "RP",
		"updated": "SBJ*VOR/DME*047.01/30.00"
	},
	{
		"name": "ZENTI",
		"latitude": "40-54-51.78 N",
		"longitude": "75-21-47.48 W",
		"state": "PENNSYLVANIA",
		"artcc": "ZNY",
		"type": "RNAV",
		"updated": "07/24/2012"
	},
	{
		"name": "ZERGU",
		"latitude": "41-58-10.92 N",
		"longitude": "75-35-16.88 W",
		"state": "PENNSYLVANIA",
		"artcc": "ZNY",
		"type": "RNAV",
		"updated": "02/26/2015"
	},
	{
		"name": "ZERPO",
		"latitude": "40-20-26.45 N",
		"longitude": "74-43-26.1 W",
		"state": "NEW JERSEY",
		"artcc": "ZNY",
		"type": "RNAV",
		"updated": "09/17/2013"
	},
	{
		"name": "ZESIB",
		"latitude": "40-7-11.64 N",
		"longitude": "74-40-20.07 W",
		"state": "NEW JERSEY",
		"artcc": "ZDC",
		"type": "RNAV",
		"updated": "08/16/2012"
	},
	{
		"name": "ZESMA",
		"latitude": "41-23-59.55 N",
		"longitude": "75-39-39.13 W",
		"state": "PENNSYLVANIA",
		"artcc": "ZNY",
		"type": "RNAV",
		"updated": "10/21/2014"
	},
	{
		"name": "ZETAL",
		"latitude": "40-29-23.8 N",
		"longitude": "73-52-33.33 W",
		"state": "NEW YORK",
		"artcc": "ZNY",
		"type": "RP",
		"updated": "CRI*VOR/DME*184.42"
	},
	{
		"name": "ZETIN",
		"latitude": "41-25-20.01 N",
		"longitude": "74-28-30.55 W",
		"state": "NEW YORK",
		"artcc": "ZNY",
		"type": "RP",
		"updated": "HUO*VOR/DME*092.82/5.31"
	},
	{
		"name": "ZEVTO",
		"latitude": "41-43-25.62 N",
		"longitude": "77-20-39.49 W",
		"state": "PENNSYLVANIA",
		"artcc": "ZNY",
		"type": "RNAV",
		"updated": "08/24/2006"
	},
	{
		"name": "ZEXES",
		"latitude": "41-15-0.57 N",
		"longitude": "75-48-8.82 W",
		"state": "PENNSYLVANIA",
		"artcc": "ZNY",
		"type": "RP",
		"updated": "AVP*LD*225.47/6.73"
	},
	{
		"name": "ZEZEE",
		"latitude": "41-7-44.64 N",
		"longitude": "74-25-48.27 W",
		"state": "NEW JERSEY",
		"artcc": "ZNY",
		"type": "RNAV",
		"updated": "04/21/2016"
	},
	{
		"name": "ZEZFO",
		"latitude": "41-41-49.74 N",
		"longitude": "74-7-8.37 W",
		"state": "NEW YORK",
		"artcc": "ZNY",
		"type": "RNAV",
		"updated": "02/09/2018"
	},
	{
		"name": "ZIAAA",
		"latitude": "40-30-36.85 N",
		"longitude": "74-5-50.21 W",
		"state": "NEW YORK",
		"artcc": "ZNY",
		"type": "RNAV",
		"updated": "07/13/2015"
	},
	{
		"name": "ZIBEK",
		"latitude": "40-39-24.02 N",
		"longitude": "74-48-48.83 W",
		"state": "NEW JERSEY",
		"artcc": "ZNY",
		"type": "RP",
		"updated": "04/17/2012"
	},
	{
		"name": "ZIDER",
		"latitude": "40-34-57.53 N",
		"longitude": "77-38-45.5 W",
		"state": "PENNSYLVANIA",
		"artcc": "ZNY",
		"type": "RNAV",
		"updated": "09/16/2009"
	},
	{
		"name": "ZIDET",
		"latitude": "40-8-18.09 N",
		"longitude": "74-56-2.48 W",
		"state": "PENNSYLVANIA",
		"artcc": "ZDC",
		"type": "RP",
		"updated": "ARD*VOR/DME*200.00/7.00"
	},
	{
		"name": "ZIDIM",
		"latitude": "40-15-12.99 N",
		"longitude": "76-53-38.11 W",
		"state": "PENNSYLVANIA",
		"artcc": "ZNY",
		"type": "RNAV",
		"updated": "08/14/2006"
	},
	{
		"name": "ZIGAN",
		"latitude": "42-9-31.61 N",
		"longitude": "76-47-33.46 W",
		"state": "NEW YORK",
		"artcc": "ZNY",
		"type": "RNAV",
		"updated": "09/12/2012"
	},
	{
		"name": "ZIGGI",
		"latitude": "40-3-7.01 N",
		"longitude": "74-0-49.34 W",
		"state": "NEW JERSEY",
		"artcc": "ZNY",
		"type": "RP",
		"updated": "RBV*VORTAC*122.00/23.92"
	},
	{
		"name": "ZIGLE",
		"latitude": "40-42-16.91 N",
		"longitude": "76-22-2.12 W",
		"state": "PENNSYLVANIA",
		"artcc": "ZNY",
		"type": "RNAV",
		"updated": "RAV*VORTAC*060.38/13.96"
	},
	{
		"name": "ZIKAN",
		"latitude": "41-32-10.91 N",
		"longitude": "76-4-3.16 W",
		"state": "PENNSYLVANIA",
		"artcc": "ZNY",
		"type": "RNAV",
		"updated": "09/15/2009"
	},
	{
		"name": "ZIKMO",
		"latitude": "40-14-36.22 N",
		"longitude": "76-25-19.67 W",
		"state": "PENNSYLVANIA",
		"artcc": "ZNY",
		"type": "RNAV",
		"updated": "04/26/2012"
	},
	{
		"name": "ZILOV",
		"latitude": "40-53-29.04 N",
		"longitude": "76-38-0.38 W",
		"state": "PENNSYLVANIA",
		"artcc": "ZNY",
		"type": "RNAV",
		"updated": "04/19/2017"
	},
	{
		"name": "ZIMEL",
		"latitude": "41-18-8.8 N",
		"longitude": "77-11-38.91 W",
		"state": "PENNSYLVANIA",
		"artcc": "ZNY",
		"type": "RP",
		"updated": "MIP*VORTAC*314.10"
	},
	{
		"name": "ZIMMZ",
		"latitude": "40-48-11 N",
		"longitude": "75-7-25 W",
		"state": "PENNSYLVANIA",
		"artcc": "ZNY",
		"type": "RP",
		"updated": "SBJ*VOR/DME*317.25"
	},
	{
		"name": "ZIMUD",
		"latitude": "41-32-1.22 N",
		"longitude": "75-39-26.25 W",
		"state": "PENNSYLVANIA",
		"artcc": "ZNY",
		"type": "RNAV",
		"updated": "05/30/2012"
	},
	{
		"name": "ZIPMI",
		"latitude": "41-35-56.36 N",
		"longitude": "75-58-45.74 W",
		"state": "PENNSYLVANIA",
		"artcc": "ZNY",
		"type": "RNAV",
		"updated": "08/14/2006"
	},
	{
		"name": "ZIPTU",
		"latitude": "40-30-14.51 N",
		"longitude": "74-38-17.05 W",
		"state": "NEW JERSEY",
		"artcc": "ZNY",
		"type": "RNAV",
		"updated": "03/10/2011"
	},
	{
		"name": "ZIRID",
		"latitude": "40-52-21.28 N",
		"longitude": "74-20-11.11 W",
		"state": "NEW JERSEY",
		"artcc": "ZNY",
		"type": "RNAV",
		"updated": "11/04/2011"
	},
	{
		"name": "ZIRUM",
		"latitude": "40-45-30.13 N",
		"longitude": "75-27-21.29 W",
		"state": "PENNSYLVANIA",
		"artcc": "ZNY",
		"type": "RP",
		"updated": "FJC*VORTAC*008.40/1.90"
	},
	{
		"name": "ZITIM",
		"latitude": "39-26-40.56 N",
		"longitude": "77-20-30.83 W",
		"state": "MARYLAND",
		"artcc": "ZNY",
		"type": "RNAV",
		"updated": "12/19/2003"
	},
	{
		"name": "ZITSO",
		"latitude": "41-43-57.13 N",
		"longitude": "77-18-55.48 W",
		"state": "PENNSYLVANIA",
		"artcc": "ZNY",
		"type": "RNAV",
		"updated": "08/10/2006"
	},
	{
		"name": "ZITUP",
		"latitude": "41-59-12.76 N",
		"longitude": "76-32-46.82 W",
		"state": "PENNSYLVANIA",
		"artcc": "ZNY",
		"type": "RNAV",
		"updated": "08/10/2006"
	},
	{
		"name": "ZIVIL",
		"latitude": "40-17-9.9 N",
		"longitude": "76-47-37.12 W",
		"state": "PENNSYLVANIA",
		"artcc": "ZNY",
		"type": "RNAV",
		"updated": "07/28/2006"
	},
	{
		"name": "ZIVPA",
		"latitude": "42-2-12.02 N",
		"longitude": "76-27-36.08 W",
		"state": "NEW YORK",
		"artcc": "ZNY",
		"type": "RNAV",
		"updated": "08/04/2006"
	},
	{
		"name": "ZIVSO",
		"latitude": "41-49-14.7 N",
		"longitude": "75-45-5.85 W",
		"state": "PENNSYLVANIA",
		"artcc": "ZNY",
		"type": "RNAV",
		"updated": "08/04/2006"
	},
	{
		"name": "ZIXOL",
		"latitude": "40-30-6.32 N",
		"longitude": "74-17-22.06 W",
		"state": "NEW JERSEY",
		"artcc": "ZNY",
		"type": "RNAV",
		"updated": "06/19/2012"
	},
	{
		"name": "ZIXON",
		"latitude": "39-49-8.61 N",
		"longitude": "77-14-52.69 W",
		"state": "PENNSYLVANIA",
		"artcc": "ZNY",
		"type": "RNAV",
		"updated": "10/21/2014"
	},
	{
		"name": "ZOBAD",
		"latitude": "40-17-58.5 N",
		"longitude": "75-31-10.06 W",
		"state": "PENNSYLVANIA",
		"artcc": "ZNY",
		"type": "RP",
		"updated": "PTW*VORTAC*031.00/5.00"
	},
	{
		"name": "ZOBNI",
		"latitude": "41-53-14.1 N",
		"longitude": "75-34-18.76 W",
		"state": "PENNSYLVANIA",
		"artcc": "ZNY",
		"type": "RNAV",
		"updated": "07/27/2006"
	},
	{
		"name": "ZOCAP",
		"latitude": "40-29-30.25 N",
		"longitude": "78-1-22.54 W",
		"state": "PENNSYLVANIA",
		"artcc": "ZNY",
		"type": "RNAV",
		"updated": "11/06/2017"
	},
	{
		"name": "ZODLO",
		"latitude": "39-54-46.86 N",
		"longitude": "76-52-14.37 W",
		"state": "PENNSYLVANIA",
		"artcc": "ZNY",
		"type": "WP",
		"updated": "11/02/1998"
	},
	{
		"name": "ZOGBA",
		"latitude": "41-19-9.68 N",
		"longitude": "75-31-8.34 W",
		"state": "PENNSYLVANIA",
		"artcc": "ZNY",
		"type": "RP",
		"updated": "LVZ*VORTAC*080.04/8.20"
	},
	{
		"name": "ZOGUD",
		"latitude": "40-47-14.79 N",
		"longitude": "74-20-46.97 W",
		"state": "NEW JERSEY",
		"artcc": "ZNY",
		"type": "RNAV",
		"updated": "11/04/2011"
	},
	{
		"name": "ZOKAL",
		"latitude": "41-10-12.56 N",
		"longitude": "77-18-50.62 W",
		"state": "PENNSYLVANIA",
		"artcc": "ZNY",
		"type": "RNAV",
		"updated": "03/17/2003"
	},
	{
		"name": "ZOKBU",
		"latitude": "40-59-20.29 N",
		"longitude": "76-29-6.49 W",
		"state": "PENNSYLVANIA",
		"artcc": "ZNY",
		"type": "RNAV",
		"updated": "04/19/2017"
	},
	{
		"name": "ZOLRO",
		"latitude": "40-12-33.35 N",
		"longitude": "74-32-20.17 W",
		"state": "NEW JERSEY",
		"artcc": "ZDC",
		"type": "RNAV",
		"updated": "04/20/2012"
	},
	{
		"name": "ZOMEV",
		"latitude": "39-52-21.35 N",
		"longitude": "74-22-36.44 W",
		"state": "NEW JERSEY",
		"artcc": "ZNY",
		"type": "RP",
		"updated": "GXU*VORTAC*140.91"
	},
	{
		"name": "ZOMIM",
		"latitude": "40-34-23.71 N",
		"longitude": "74-30-10.42 W",
		"state": "NEW JERSEY",
		"artcc": "ZNY",
		"type": "RNAV",
		"updated": "03/10/2011"
	},
	{
		"name": "ZOPDU",
		"latitude": "40-31-35.19 N",
		"longitude": "75-3-3.76 W",
		"state": "NEW JERSEY",
		"artcc": "ZNY",
		"type": "RNAV",
		"updated": "11/19/2015"
	},
	{
		"name": "ZOSGO",
		"latitude": "41-44-10.62 N",
		"longitude": "77-18-10.91 W",
		"state": "PENNSYLVANIA",
		"artcc": "ZNY",
		"type": "RNAV",
		"updated": "11/07/2014"
	},
	{
		"name": "ZOTIM",
		"latitude": "40-14-43.78 N",
		"longitude": "74-12-29.75 W",
		"state": "NEW JERSEY",
		"artcc": "ZNY",
		"type": "RNAV",
		"updated": "03/27/2012"
	},
	{
		"name": "ZOVBO",
		"latitude": "41-47-46.99 N",
		"longitude": "77-13-34.07 W",
		"state": "PENNSYLVANIA",
		"artcc": "ZNY",
		"type": "RNAV",
		"updated": "08/14/2006"
	},
	{
		"name": "ZOXIX",
		"latitude": "40-37-33.69 N",
		"longitude": "77-16-12.13 W",
		"state": "PENNSYLVANIA",
		"artcc": "ZNY",
		"type": "RNAV",
		"updated": "02/22/2006"
	},
	{
		"name": "ZUBAX",
		"latitude": "40-8-24.64 N",
		"longitude": "74-59-57.05 W",
		"state": "PENNSYLVANIA",
		"artcc": "ZDC",
		"type": "RP",
		"updated": "GXU*VORTAC*305.03"
	},
	{
		"name": "ZUBOP",
		"latitude": "40-7-26.93 N",
		"longitude": "75-4-12.79 W",
		"state": "PENNSYLVANIA",
		"artcc": "ZDC",
		"type": "MW",
		"updated": "01/27/2009"
	},
	{
		"name": "ZUBSI",
		"latitude": "40-45-25.38 N",
		"longitude": "76-8-11.45 W",
		"state": "PENNSYLVANIA",
		"artcc": "ZNY",
		"type": "RNAV",
		"updated": "08/14/2006"
	},
	{
		"name": "ZUCRY",
		"latitude": "40-52-9.7 N",
		"longitude": "75-14-11.17 W",
		"state": "PENNSYLVANIA",
		"artcc": "ZNY",
		"type": "RNAV",
		"updated": "09/23/2010"
	},
	{
		"name": "ZULAB",
		"latitude": "40-35-47.32 N",
		"longitude": "73-39-19.03 W",
		"state": "NEW YORK",
		"artcc": "ZNY",
		"type": "RP",
		"updated": "DPK*VOR/DME*246.06"
	},
	{
		"name": "ZULBO",
		"latitude": "40-10-32.18 N",
		"longitude": "75-9-44.61 W",
		"state": "PENNSYLVANIA",
		"artcc": "ZNY",
		"type": "RNAV",
		"updated": "08/09/2005"
	},
	{
		"name": "ZUMEV",
		"latitude": "41-16-45.15 N",
		"longitude": "76-42-4.33 W",
		"state": "PENNSYLVANIA",
		"artcc": "ZNY",
		"type": "RP",
		"updated": "IPT*LD*085.96/10.98"
	},
	{
		"name": "ZUMOV",
		"latitude": "41-13-40.98 N",
		"longitude": "77-8-10.68 W",
		"state": "PENNSYLVANIA",
		"artcc": "ZNY",
		"type": "RNAV",
		"updated": "08/14/2006"
	},
	{
		"name": "ZUNGA",
		"latitude": "42-3-34.34 N",
		"longitude": "75-43-23.69 W",
		"state": "NEW YORK",
		"artcc": "ZNY",
		"type": "RNAV",
		"updated": "12/08/2009"
	},
	{
		"name": "ZUNLI",
		"latitude": "41-56-6.99 N",
		"longitude": "73-54-30.34 W",
		"state": "NEW YORK",
		"artcc": "ZNY",
		"type": "RNAV",
		"updated": "05/13/2015"
	},
	{
		"name": "ZURDA",
		"latitude": "40-24-2.24 N",
		"longitude": "75-3-16.86 W",
		"state": "PENNSYLVANIA",
		"artcc": "ZNY",
		"type": "RNAV",
		"updated": "01/27/2010"
	},
	{
		"name": "ZURIL",
		"latitude": "40-50-57.34 N",
		"longitude": "76-52-27.29 W",
		"state": "PENNSYLVANIA",
		"artcc": "ZNY",
		"type": "RNAV",
		"updated": "08/14/2006"
	},
	{
		"name": "ZUROP",
		"latitude": "40-0-46.06 N",
		"longitude": "75-6-54.79 W",
		"state": "PENNSYLVANIA",
		"artcc": "ZNY",
		"type": "RNAV",
		"updated": "08/09/2005"
	},
	{
		"name": "ZURVO",
		"latitude": "40-11-1.59 N",
		"longitude": "75-32-21.62 W",
		"state": "PENNSYLVANIA",
		"artcc": "ZNY",
		"type": "RNAV",
		"updated": "09/25/2007"
	},
	{
		"name": "ZUSLI",
		"latitude": "40-56-54.59 N",
		"longitude": "76-38-38.2 W",
		"state": "PENNSYLVANIA",
		"artcc": "ZNY",
		"type": "RP",
		"updated": "MIP*VORTAC*176.82/4.59"
	},
	{
		"name": "ZUTEG",
		"latitude": "40-46-45.2 N",
		"longitude": "74-43-4.18 W",
		"state": "NEW JERSEY",
		"artcc": "ZNY",
		"type": "RNAV",
		"updated": "05/21/2009"
	},
	{
		"name": "ZUUCS",
		"latitude": "41-22-19.72 N",
		"longitude": "77-38-28.73 W",
		"state": "PENNSYLVANIA",
		"artcc": "ZNY",
		"type": "RP",
		"updated": "BUF*VOR/DME*162.00/103.59"
	},
	{
		"name": "ZUVAK",
		"latitude": "41-28-2.69 N",
		"longitude": "75-35-46.46 W",
		"state": "PENNSYLVANIA",
		"artcc": "ZNY",
		"type": "RNAV",
		"updated": "08/14/2006"
	},
	{
		"name": "ZUVAX",
		"latitude": "40-4-37.52 N",
		"longitude": "74-30-1.27 W",
		"state": "NEW JERSEY",
		"artcc": "ZNY",
		"type": "MW",
		"updated": "12/24/2014"
	},
	{
		"name": "ZUVIV",
		"latitude": "40-23-12.68 N",
		"longitude": "75-18-5.98 W",
		"state": "PENNSYLVANIA",
		"artcc": "ZNY",
		"type": "RP",
		"updated": "PTW*VORTAC*059.18/15.44"
	},
	{
		"name": "ZUXEM",
		"latitude": "40-16-0.99 N",
		"longitude": "74-23-57.97 W",
		"state": "NEW JERSEY",
		"artcc": "ZDC",
		"type": "RNAV",
		"updated": "03/27/2012"
	},
	{
		"name": "ZZTOP",
		"latitude": "33-50-2.93 N",
		"longitude": "73-35-13.4 W",
		"state": "OFFSHORE ATLANTIC",
		"artcc": "ZNY",
		"type": "RNAV",
		"updated": "06/02/2014"
	}
]
