name,latitude,longitude,state,artcc,type,updated
TABEE,64.69146388888889,-147.12444722222222,ALASKA,ZAN,MR,EIL*TACAN*/2.40
TACKT,56.971383333333335,-135.57515833333332,ALASKA,ZAN,WP,06/13/2017
TADYU,61.53832222222222,-150.02183333333335,ALASKA,ZAN,RNAV,08/01/2006
TAGER,61.67294166666667,-150.46040555555555,ALASKA,ZAN,RP,TKA*VOR/DME*176.09/38.97
TAHHI,59.637794444444445,-139.9142527777778,ALASKA,ZAN,RNAV,03/14/2011
TAJAN,61.71993055555556,-166.21734444444445,ALASKA,ZAN,MR,CZF*DME*/6.00
TAKME,69.00337777777777,-165.49450833333333,ALASKA,ZAN,MW,09/24/2014
TAKOC,62.09416388888889,-145.96786944444446,ALASKA,ZAN,RP,GKN*VOR/DME*233.49/15.10
TAKUU,58.495,-133.93166666666664,ALASKA,ZAN,WP,02/27/1998
TALYN,64.811925,-165.39242777777778,ALASKA,ZAN,RP,OME*VOR/DME*338.71/20.00
TAMMO,54.765277777777776,-179.99721666666665,ALASKA,ZAN,RP,02/24/1993
TANIE,57.96973611111111,-158.21280555555555,ALASKA,ZAN,RP,AKN*VORTAC*210.11/64.76
TANPE,67.00459444444445,-146.38614444444443,ALASKA,ZAN,RNAV,03/03/2008
TASAE,59.406327777777776,-155.12178333333335,ALASKA,ZAN,RNAV,05/26/2006
TATBE,59.306441666666665,-139.26525555555557,ALASKA,ZAN,RP,YAK*VOR/DME*/17.00
TATTA,65.46307222222222,-148.1153861111111,ALASKA,ZAN,RP,FAI*VORTAC*335.29/40.00
TAUTS,58.32849166666667,-134.48331944444445,ALASKA,ZAN,RNAV,10/27/2014
TAVPE,66.72453055555556,-150.78665833333332,ALASKA,ZAN,RNAV,07/21/2008
TAVUE,61.04287222222222,-149.8183,ALASKA,ZAN,RNAV,11/18/2014
TAWMO,57.18858611111111,-133.78908333333334,ALASKA,ZAN,RNAV,07/12/2004
TAYKU,63.10573333333333,-163.42715555555554,ALASKA,ZAN,RNAV,12/01/2003
TAYTA,71.56166666666667,-141.0,ALASKA,ZAN,WP,06/19/1996
TAYUC,70.11005555555555,-147.63329166666668,ALASKA,ZAN,RNAV,08/06/2008
TAZLI,61.228475,-148.85838611111112,ALASKA,ZAN,RP,BGQ*VORTAC*103.19/38.00
TBEAR,63.46333611111111,-144.09727777777778,ALASKA,ZAN,RNAV,02/13/2018
TBONE,60.72841944444445,-151.05505833333333,ALASKA,ZAN,RP,EDF*TACAN*212.43/49.15
TDGNY,54.61295833333333,-131.14243333333332,ALASKA,ZAN,CN,06/17/2002
TDNBG,54.643658333333335,-130.9722111111111,ALASKA,ZAN,CN,06/17/2002
TDNSS,54.51831388888889,-131.65750277777778,ALASKA,ZAN,CN,06/17/2002
TEBCY,62.601977777777776,-164.28734444444444,ALASKA,ZAN,RNAV,05/03/2007
TECLY,56.145833333333336,-132.92499999999998,ALASKA,ZAN,RNAV,07/12/2004
TECOD,59.65859722222222,-146.26234722222222,ALASKA,ZAN,RNAV,12/13/2011
TECON,55.00998888888889,-162.20396388888886,ALASKA,ZAN,RP,CDB*VORTAC*114.00/24.99
TECWA,70.60364722222222,-160.2427861111111,ALASKA,ZAN,RNAV,09/25/2009
TEGDE,67.37921666666666,-151.14313888888887,ALASKA,ZAN,RP,EAV*NDB*357.62
TEGNE,63.61669722222222,-144.404725,ALASKA,ZAN,MW,12/09/2013
TEKME,71.28487777777778,-156.71803888888888,ALASKA,ZAN,RP,BRW*VOR/DME*044.00/1.52
TEKOC,60.40356388888889,-162.15318611111113,ALASKA,ZAN,RNAV,04/02/2008
TEKUC,66.89706944444445,-156.1621,ALASKA,ZAN,RNAV,09/21/2007
TEMPS,61.15333333333333,-150.30833333333334,ALASKA,ZAN,WP,10/02/1995
TERNN,58.34814166666667,-134.52741666666668,ALASKA,ZAN,RNAV,05/18/2016
TESMA,68.44500000000001,-168.97333333333333,,ZAN,RNAV,12/05/2016
TESPE,54.933025,-164.78218055555556,ALASKA,ZAN,RP,CDB*VORTAC*/72.07
TESUE,57.75821111111111,-152.43096944444443,ALASKA,ZAN,RP,ODK*VOR/DME*236.98/3.07
TEYUT,62.134175,-163.62916111111113,ALASKA,ZAN,RNAV,03/19/2012
THEPS,64.12287222222221,-160.98437222222222,ALASKA,ZAN,RP,UNK*VOR/DME*315.45/16.00
TIBOY,63.01643888888889,-141.0,ALASKA,ZAN,RP,ORT*VORTAC*056.12/25.33
TICCU,52.01614444444444,-176.10220555555554,ALASKA,ZAN,RP,ADK*NDB/DME*060.44/22.96
TICUR,62.867025,-160.31931944444443,ALASKA,ZAN,RNAV,07/29/2008
TIEKL,61.39376388888889,-145.05849722222223,ALASKA,ZAN,RNAV,11/01/2012
TIGUE,63.20639444444445,-155.61570555555554,ALASKA,ZAN,RNAV,10/26/2011
TIKGU,58.77961944444444,-157.47530833333334,ALASKA,ZAN,RNAV,03/14/2016
TIKOW,55.725,-132.70833333333331,ALASKA,ZAN,RNAV,07/12/2004
TILOY,62.04340555555555,-161.2447222222222,ALASKA,ZAN,RNAV,04/06/2004
TINOC,64.46878055555555,-163.08333611111112,ALASKA,ZAN,RNAV,10/13/2005
TINUC,64.65845555555556,-155.6663027777778,ALASKA,ZAN,RNAV,04/12/2007
TIPEH,57.142041666666664,-135.53320000000002,ALASKA,ZAN,RNAV,02/17/2006
TIQUL,70.23221666666667,-146.56107500000002,ALASKA,ZAN,RNAV,10/23/2008
TIRNE,65.2915,-146.42683333333332,ALASKA,ZAN,RP,FAI*VORTAC*032.01/50.00
TITOC,66.16599166666667,-166.50089444444444,ALASKA,ZAN,RNAV,06/27/2005
TITUY,59.53337222222222,-157.4558722222222,ALASKA,ZAN,RNAV,10/05/2007
TIVSE,64.36699166666666,-165.4290861111111,ALASKA,ZAN,RNAV,08/09/2017
TMSON,61.04349444444444,-145.13073055555557,ALASKA,ZAN,RNAV,11/01/2012
TNAKY,58.057230555555556,-135.05843333333334,ALASKA,ZAN,RNAV,08/23/2016
TOBOY,59.089733333333335,-135.35704166666667,ALASKA,ZAN,RNAV,07/03/2013
TOCOT,64.29913333333333,-163.02800000000002,ALASKA,ZAN,RNAV,10/13/2005
TODCO,67.01275,-146.3465638888889,ALASKA,ZAN,RNAV,03/03/2008
TODME,61.893166666666666,-150.13183333333333,ALASKA,ZAN,CN,06/25/2003
TOFYE,61.63483333333333,-150.92399999999998,ALASKA,ZAN,CN,06/25/2003
TOGGU,64.52133611111111,-165.513575,ALASKA,ZAN,RP,OME*LD*278.74/1.04
TOKEE,55.9125,-133.37880833333335,ALASKA,ZAN,RP,ANN*VOR/DME*289.55/80.00
TOLCI,60.871180555555554,-155.84745,ALASKA,ZAN,MW,11/23/2015
TOLLO,65.10323888888888,-148.97619444444445,ALASKA,ZAN,RP,ENN*VORTAC*343.54/31.00
TOMMM,61.49583333333334,-150.1836111111111,ALASKA,ZAN,RNAV,12/13/2011
TOMMY,59.25264722222222,-155.81835277777776,ALASKA,ZAN,RP,AKN*VORTAC*026.00/43.00
TONGS,55.478125,-131.92543333333333,ALASKA,ZAN,RNAV,03/14/2011
TOORR,61.03445,-161.97770277777778,ALASKA,ZAN,RNAV,02/29/2012
TOPQI,70.67204722222223,-159.74566666666666,ALASKA,ZAN,RNAV,09/24/2009
TORSK,58.34085,-134.50313055555554,ALASKA,ZAN,RNAV,10/27/2014
TORTE,61.170825,-151.92661944444444,ALASKA,ZAN,RP,TED*VOR/DME*253.04/57.14
TOSIN,61.73933888888889,-145.5097,ALASKA,ZAN,RP,GKN*VOR/DME*161.08/25.00
TOSPY,61.46866666666667,-149.624,ALASKA,ZAN,CN,06/25/2003
TOSUE,51.85948611111111,-176.71874166666666,ALASKA,ZAN,RNAV,12/16/2009
TOTLE,64.06175833333333,-149.19230277777777,ALASKA,ZAN,RNAV,04/13/2017
TOTSE,66.777625,-162.10695555555554,ALASKA,ZAN,RNAV,08/09/2017
TOYKU,65.65544166666668,-155.89666666666665,ALASKA,ZAN,RP,HSL*VOR/DME*086.04/12.00
TOYNO,62.50151944444445,-160.22532777777778,ALASKA,ZAN,RNAV,07/29/2008
TOYUP,64.8246361111111,-157.677,ALASKA,ZAN,RNAV,12/01/2016
TRAID,56.504108333333335,-132.4285222222222,ALASKA,ZAN,RNAV,11/29/2012
TRDWL,58.24822777777778,-134.32823888888888,ALASKA,ZAN,RNAV,04/19/2018
TROLS,61.24286388888889,-149.9118527777778,ALASKA,ZAN,MR,EDF*TACAN*242.05/4.20
TRONN,56.61991388888889,-169.80774444444447,ALASKA,ZAN,RP,SRI*NDB/DME*286.61/5.98
TRPLN,65.0837,-147.52225555555557,ALASKA,ZAN,RNAV,10/21/2015
TRUDI,64.0679611111111,-145.595225,ALASKA,ZAN,RP,BIG*VORTAC*017.00/5.00
TRUKE,58.752427777777775,-162.02834722222224,ALASKA,ZAN,MR,EHM*NDB/DME*001.75/5.97
TRUMN,62.001669444444445,-160.0140111111111,ALASKA,ZAN,RNAV,09/25/2009
TTAUN,51.870155555555556,-176.6809111111111,ALASKA,ZAN,RNAV,05/08/2008
TUBDE,66.91845,-163.040625,ALASKA,ZAN,RP,OTZ*LD*W CRS/11.31
TUBNE,64.17776944444445,-145.61823333333334,ALASKA,ZAN,MR,FAI*VORTAC*099.00/72.55
TUBRE,56.85526388888889,-132.8284111111111,ALASKA,ZAN,RNAV,08/08/2016
TUCCI,61.554313888888885,-159.04049166666667,ALASKA,ZAN,RNAV,09/09/2009
TUCDU,61.85191388888889,-165.50541666666666,ALASKA,ZAN,RNAV,06/16/2009
TUCKS,60.22300833333333,-152.46096666666665,ALASKA,ZAN,RP,HOM*VOR/DME*301.00
TUCOD,56.969325000000005,-132.89927777777777,ALASKA,ZAN,RP,PSG*DD*344.00/10.18
TUCUL,61.70849444444445,-165.2034861111111,ALASKA,ZAN,RNAV,08/01/2007
TUDUE,62.46103611111111,-160.41557777777777,ALASKA,ZAN,RNAV,07/29/2008
TUJVE,59.914833333333334,-149.33950555555558,ALASKA,ZAN,RNAV,05/20/2011
TULLI,61.16753055555555,-150.19557222222224,ALASKA,ZAN,RP,ANC*LD*W CRS/6.67
TULOC,56.40418333333333,-157.96146944444445,ALASKA,ZAN,RNAV,10/23/2008
TUNDA,70.88616944444445,-153.30305555555557,ALASKA,ZAN,RP,BRW*VOR/DME*088.25/72.00
TUNLL,62.88995,-148.97151944444445,ALASKA,ZAN,RNAV,12/21/2015
TUNND,68.91785555555556,-165.83166111111112,ALASKA,ZAN,MR,LUR*NDB/DME*050.00/6.00
TURKS,56.716613888888894,-133.38461666666666,ALASKA,ZAN,RP,SQM*NDB*307.96
TURTY,55.807455555555556,-133.14948333333334,ALASKA,ZAN,RNAV,05/12/2016
TUVVO,67.62224166666665,-146.08017222222222,ALASKA,ZAN,RP,FYU*VORTAC*318.74/65.86
TUXTY,64.77930555555555,-147.91401944444445,ALASKA,ZAN,RNAV,03/11/2009
TUYOC,58.33416944444445,-155.92660277777776,ALASKA,ZAN,RNAV,AKN*VORTAC*115.77/35.00
TUYOY,64.99149722222222,-157.3520722222222,ALASKA,ZAN,RNAV,09/09/2009
TWIGI,60.64780555555556,-151.4574111111111,ALASKA,ZAN,RP,ENA*VOR/DME*265.53/8.00
AAMYY,51.50522222222222,-171.15325,ALASKA,ZAN,RP,08/01/2007
ACADE,69.07993055555555,-165.79088611111112,ALASKA,ZAN,MR,LUR*NDB/DME*014.00/14.00
ACATE,59.71414722222222,-162.55269444444446,ALASKA,ZAN,RNAV,07/07/2009
ACEYE,60.57429166666667,-151.38982222222222,ALASKA,ZAN,RNAV,07/19/2007
ACIGE,60.43980555555555,-151.7689,ALASKA,ZAN,RP,ENA*VOR/DME*219.51/20.00
ACIRI,67.81201388888888,-164.75033333333334,ALASKA,ZAN,RNAV,05/30/2008
ACIVE,60.56655555555555,-161.94298333333333,ALASKA,ZAN,RNAV,01/28/2004
ACRAN,61.072383333333335,-156.49089166666664,ALASKA,ZAN,RP,SQA*VOR/DME*248.76/25.00
ACUDU,66.87099444444443,-162.38640555555554,ALASKA,ZAN,RNAV,12/05/2014
ACYIJ,62.24124722222222,-145.4835,ALASKA,ZAN,RNAV,03/28/2018
ADKUH,59.55624722222222,-139.753,ALASKA,ZAN,RP,YAK*VOR/DME*/4.21
ADLEN,64.77304166666667,-169.78166388888891,,ZAN,RP,07/03/2017
ADMRL,58.18594722222222,-134.65613055555556,ALASKA,ZAN,RNAV,08/23/2016
ADREW,69.169675,-141.0025361111111,ALASKA,ZAN,RP,FYU*VORTAC*009.87/183.89
ADTOQ,70.39980833333334,-150.72744166666666,ALASKA,ZAN,RNAV,12/10/2011
AFEDI,68.54855555555555,-149.55300555555556,ALASKA,ZAN,RP,GBH*NDB*321.99
AFPIV,54.001933333333334,-166.5726361111111,ALASKA,ZAN,RNAV,06/08/2000
AFVEK,54.99055833333333,-162.501225,ALASKA,ZAN,RNAV,06/01/2009
AFWAF,59.890480555555555,-151.40550000000002,ALASKA,ZAN,RP,HOM*VOR/DME*353.07/11.00
AGALE,66.5766111111111,-145.22778888888888,ALASKA,ZAN,RNAV,11/04/2016
AGEME,68.18990555555555,-152.42474166666665,ALASKA,ZAN,RNAV,12/26/2012
AGEPE,62.281075,-163.64247777777777,ALASKA,ZAN,RP,ENM*VOR/DME*127.84/38.34
AGESE,55.545608333333334,-132.0428138888889,ALASKA,ZAN,RNAV,05/01/2014
AGGOV,59.75062222222222,-157.42730555555553,ALASKA,ZAN,RNAV,06/03/2015
AGIGE,58.32299166666667,-135.51819166666667,ALASKA,ZAN,RP,SSR*VORTAC*296.86/12.00
AGIVE,64.82742777777777,-154.59979444444446,ALASKA,ZAN,RNAV,04/12/2007
AGMIF,77.0,-141.0,OFFSHORE PACIFIC,ZAN,RNAV,09/23/2015
AGMIV,61.75613055555556,-166.09060833333334,ALASKA,ZAN,MR,CZF*DME*/1.80
AGONE,59.62393888888889,-154.95328888888886,ALASKA,ZAN,RNAV,01/09/2009
AGSIH,63.8746,-160.7909361111111,ALASKA,ZAN,RNAV,02/26/2018
AGUCI,59.206175,-135.47659166666668,ALASKA,ZAN,RNAV,07/03/2013
AGURA,67.46444444444445,-168.97333333333333,,ZAN,RNAV,12/05/2016
AGXAN,71.28325555555556,-155.96184444444444,ALASKA,ZAN,RP,BRW*LD*NE CRS/14.98
AHCUJ,64.43554444444445,-162.50216111111112,ALASKA,ZAN,RNAV,12/16/2009
AHFAX,68.08138055555555,-162.84790555555557,ALASKA,ZAN,RNAV,07/15/2011
AHVUH,64.41958333333334,-156.55771944444444,ALASKA,ZAN,RP,GAL*VOR/DME*146.41/20.00
AHZUT,64.91870555555556,-158.22095833333333,ALASKA,ZAN,RNAV,08/13/2009
AICAP,61.17436111111111,-149.9963611111111,ALASKA,ZAN,RNAV,08/24/2005
AIDIN,58.17077222222222,-134.48549444444444,ALASKA,ZAN,RNAV,05/16/2016
AILEE,63.600011111111115,-149.53985,ALASKA,ZAN,RNAV,05/31/2010
AINKK,61.16827222222222,-150.52139444444447,ALASKA,ZAN,RP,ENA*VOR/DME*011.38
AJABU,64.69586944444445,-162.16495555555557,ALASKA,ZAN,RNAV,12/16/2009
AJBOS,56.555841666666666,-169.8491111111111,ALASKA,ZAN,RNAV,02/09/2018
AKBOY,60.288325,-145.28846944444444,ALASKA,ZAN,RNAV,03/07/2006
AKELT,62.015525,-165.09410555555556,ALASKA,ZAN,RP,HPB*VOR/DME*031.07/42.30
AKERE,70.11128055555555,-146.49671388888888,ALASKA,ZAN,RNAV,06/26/2013
AKGAS,61.00928611111111,-154.69239444444446,ALASKA,ZAN,RP,SQA*VOR/DME*082.65/28.00
AKHAT,57.02495833333333,-136.13662499999998,ALASKA,ZAN,RNAV,03/07/2006
AKHOG,56.89386666666667,-136.3622388888889,ALASKA,ZAN,RNAV,03/10/2006
AKIKE,64.62641666666666,-147.718875,ALASKA,ZAN,RNAV,05/01/2017
AKISU,47.550725,-161.33333333333334,OFFSHORE PACIFIC,ZAN,RP,10/21/2009
AKKID,58.94069444444444,-140.32268333333332,ALASKA,ZAN,RNAV,03/07/2006
AKMAX,62.25751388888889,-151.80743611111112,ALASKA,ZAN,RP,TED*VOR/DME*303.99/84.15
AKRAW,61.230872222222224,-145.583975,ALASKA,ZAN,RP,GKN*VOR/DME*161.08/55.67
AKSEA,54.527699999999996,-131.61166111111112,ALASKA,ZAN,RNAV,03/07/2006
AKTEA,59.95862777777778,-151.43924722222224,ALASKA,ZAN,RP,HOM*VOR/DME*347.00/15.00
AKTEX,56.5,-132.0,ALASKA,ZAN,RNAV,08/03/2007
AKTIE,64.66666666666667,-155.5,ALASKA,ZAN,RNAV,07/31/2007
AKUDY,66.08557777777777,-161.56490555555555,ALASKA,ZAN,RNAV,05/04/2007
AKUMY,67.90778611111112,-152.5834888888889,ALASKA,ZAN,RNAV,09/02/2009
AKUWU,59.31666666666667,-161.86666666666667,ALASKA,ZAN,RNAV,01/28/2004
AKUXE,70.32566388888888,-149.6702611111111,ALASKA,ZAN,RNAV,03/04/2002
AKWAY,54.51368055555555,-132.03475833333334,ALASKA,ZAN,RNAV,03/07/2006
AKZOO,60.14722222222222,-145.48318055555555,ALASKA,ZAN,RNAV,03/07/2006
ALATY,59.421274999999994,-138.24109444444443,ALASKA,ZAN,RNAV,05/18/2016
ALDOZ,55.19302777777777,-178.53697222222223,ALASKA,ZAN,RP,09/19/2000
ALEUT,54.23793888888889,-166.54772777777777,ALASKA,ZAN,RP,DUT*NDB/DME*351.00/20.00
ALIEN,59.68518888888889,-164.68182222222222,ALASKA,ZAN,RP,BET*VORTAC*219.51/108.08
ALMOT,63.45086944444445,-161.8036638888889,ALASKA,ZAN,RP,UNK*VOR/DME*213.92/40.00
ALNOK,61.291155555555555,-149.81169444444447,ALASKA,ZAN,MR,EDF*TACAN*312.50/2.50
ALOLE,67.55592222222222,-162.98628055555554,ALASKA,ZAN,RNAV,05/04/2007
ALTEW,63.550663888888884,-144.83806111111113,ALASKA,ZAN,RP,BIG*VORTAC*116.00/35.67
ALTEY,59.58009722222223,-160.05217222222223,ALASKA,ZAN,RP,BET*VORTAC*129.00/89.84
ALUFF,56.44025,-173.627,ALASKA,ZAN,RP,09/19/2000
ALUKE,62.80670833333333,-155.9856888888889,ALASKA,ZAN,MW,06/03/2011
ALUPE,59.882511111111114,-154.6514,ALASKA,ZAN,RP,AKN*VORTAC*025.96/95.00
ALVAT,55.475175,-160.6952861111111,ALASKA,ZAN,RNAV,04/13/2006
ALYAN,63.786027777777775,-170.1156111111111,ALASKA,ZAN,RP,ULL*VOR/DME*049.00/11.00
AMATI,77.9999888888889,-168.97333055555555,,ZAN,RNAV,07/03/2017
AMOND,54.22708333333333,-178.3026388888889,ALASKA,ZAN,RP,09/19/2000
AMOTT,60.87405277777778,-151.37322222222224,ALASKA,ZAN,RP,HOM*VOR/DME*347.00/70.11
AMTEE,64.55444166666666,-153.51139444444445,ALASKA,ZAN,MW,12/09/2013
AMULE,64.41801944444445,-165.28170277777778,ALASKA,ZAN,RNAV,08/09/2017
ANDDI,61.10095555555556,-150.30521944444445,ALASKA,ZAN,RNAV,05/31/2010
ANECA,61.886113888888886,-161.92162222222223,ALASKA,ZAN,RNAV,03/09/2012
ANESE,61.962522222222226,-162.4441,ALASKA,ZAN,RNAV,03/09/2012
ANEYA,60.706447222222224,-161.91844444444445,ALASKA,ZAN,RP,BET*VORTAC*196.48/5.47
ANIAK,61.61728333333333,-159.63128055555558,ALASKA,ZAN,RP,BET*VORTAC*036.85/81.00
ANNAH,55.06040833333333,-131.5784,ALASKA,ZAN,WP,11/02/1998
ANORE,61.627691666666664,-159.7033722222222,ALASKA,ZAN,RP,ANI*LD*109.18/5.96
ANPAF,70.17845277777778,-151.25466944444443,ALASKA,ZAN,RNAV,07/01/2011
ANUCU,66.06765,-161.212075,ALASKA,ZAN,RP,BVK*NDB/DME*328.84/5.50
ANWEX,64.33400555555555,-165.09348888888888,ALASKA,ZAN,RP,OME*VOR/DME*144.37/10.00
APACU,66.44000277777778,-159.95010555555555,ALASKA,ZAN,RNAV,05/10/2007
APOTE,56.619594444444445,-169.80637777777778,ALASKA,ZAN,RP,SRI*NDB/DME*286.65/5.93
APPEL,65.38290833333333,-146.002475,ALASKA,ZAN,MR,FAI*VORTAC*033.57/61.91
APUYO,64.42157222222222,-164.695125,ALASKA,ZAN,RP,OME*VOR/DME*093.52/15.00
APWIS,61.48222777777778,-159.20133055555556,ALASKA,ZAN,RNAV,05/17/2005
ARBEZ,69.99977222222222,-146.25288055555555,ALASKA,ZAN,RNAV,11/01/2017
ARCAL,58.5,-150.0,ALASKA,ZAN,RNAV,04/13/2001
ARCON,69.9336,-148.4220111111111,ALASKA,ZAN,RP,SCC*VOR/DME*163.43/16.00
ARISE,59.99999444444445,-146.15374166666666,ALASKA,ZAN,RP,MDO*VOR/DME*351.65/35.29
ARORA,64.26785833333334,-145.94996944444443,ALASKA,ZAN,RP,BIG*VORTAC*316.00/17.00
AROTE,61.08822222222222,-149.92703333333333,ALASKA,ZAN,RNAV,11/18/2014
AROXE,64.3726111111111,-165.4651972222222,ALASKA,ZAN,RNAV,08/09/2017
AROYU,64.01710555555556,-145.69281111111113,ALASKA,ZAN,MR,04/12/2007
ARSEN,61.01899722222222,-163.101825,ALASKA,ZAN,RP,BET*VORTAC*277.18/40.00
ARTIC,69.02053333333333,-148.44103333333334,ALASKA,ZAN,RP,SCC*VOR/DME*163.43/71.00
ARUNY,64.30659444444444,-147.13670277777777,ALASKA,ZAN,MR,EIL*TACAN*164.06/20.93
ARWUC,64.271375,-158.85729722222223,ALASKA,ZAN,RNAV,06/26/2009
ASLEE,61.23566666666667,-150.31661666666668,ALASKA,ZAN,RNAV,05/31/2010
ASORT,58.362680555555556,-135.82089166666665,ALASKA,ZAN,RP,CGL*NDB*250.80
ASOVY,59.138822222222224,-158.56095555555558,ALASKA,ZAN,RNAV,07/07/2009
ASPIN,49.69891666666666,-166.21652777777777,ALASKA,ZAN,RP,09/19/2000
ASUKY,71.28400833333333,-156.17071944444444,ALASKA,ZAN,RNAV,12/22/2017
ASVIW,59.75689722222222,-155.25338055555557,ALASKA,ZAN,RNAV,10/24/2001
ATAGA,59.84701944444445,-142.615375,ALASKA,ZAN,RP,CYT*NDB*175.92
ATAGO,65.97525277777778,-157.38930833333333,ALASKA,ZAN,RP,HSL*VOR/DME*283.92/30.00
ATAYI,65.23311944444444,-167.08536111111113,ALASKA,ZAN,RP,TNC*NDB/DME*119.87/28.90
ATDAB,70.5109361111111,-150.60818055555555,ALASKA,ZAN,RNAV,07/24/2009
ATELE,55.19740833333333,-162.69474444444444,ALASKA,ZAN,RNAV,10/30/2017
ATTNN,58.31883055555556,-134.46988055555556,ALASKA,ZAN,RNAV,05/16/2016
ATUTE,61.442116666666664,-158.86255,ALASKA,ZAN,RNAV,09/09/2009
ATYOL,60.74268888888889,-148.72085833333333,ALASKA,ZAN,RP,CMQ*NDB*105.00
AUGEY,59.46971111111111,-152.8887222222222,ALASKA,ZAN,RP,HOM*VOR/DME*237.35/46.00
AVELY,70.48051944444444,-157.1787222222222,ALASKA,ZAN,RNAV,12/22/2005
AVERR,61.47827777777778,-149.83132777777777,ALASKA,ZAN,RNAV,06/12/2014
AVEYU,65.32601666666666,-165.88976944444443,ALASKA,ZAN,RNAV,06/21/2005
AVGIY,64.78167499999999,-161.8285222222222,ALASKA,ZAN,RNAV,12/16/2009
AVICA,55.719094444444444,-161.25811944444445,ALASKA,ZAN,RNAV,10/07/2003
AVILN,59.702672222222226,-157.0934611111111,ALASKA,ZAN,RNAV,06/03/2015
AVNAC,59.83491666666667,-162.30085277777778,ALASKA,ZAN,RNAV,01/21/2016
AVUBA,63.183055555555555,-167.8295,ALASKA,ZAN,RNAV,03/11/2009
AVVUH,55.02780555555555,-162.29711111111112,ALASKA,ZAN,RNAV,10/03/2012
AWACO,69.98860833333333,-148.83219444444444,ALASKA,ZAN,WP,11/02/1998
AWAKA,64.8283,-157.27909444444447,ALASKA,ZAN,RNAV,08/19/2009
AWAMY,67.8389111111111,-163.32101111111112,ALASKA,ZAN,RNAV,09/17/2014
AWIRO,66.6643138888889,-144.83704444444444,ALASKA,ZAN,RNAV,10/21/2013
AWNID,66.68747222222223,-161.43041944444442,ALASKA,ZAN,RNAV,11/24/2009
AWOMY,59.89606944444444,-154.31848333333332,ALASKA,ZAN,RP,ILI*NDB/DME*046.31/20.00
AWXAV,58.09333055555556,-157.02385833333335,ALASKA,ZAN,RNAV,08/15/2005
AXCUP,70.03926944444444,-147.50620833333332,ALASKA,ZAN,RNAV,10/23/2008
AXSEM,65.00291944444444,-146.72899444444445,ALASKA,ZAN,MR,FAI*VORTAC*048.00/35.00
AXUNE,70.57751111111111,-156.92084166666666,ALASKA,ZAN,RNAV,12/22/2005
AXUTE,57.76246388888889,-152.45027777777776,ALASKA,ZAN,RNAV,04/29/2013
AYACO,64.81422777777777,-141.38435833333332,ALASKA,ZAN,RNAV,03/12/2014
AYAGI,62.78708333333333,-155.98741388888888,ALASKA,ZAN,MW,07/03/2013
AYAGU,66.35483333333333,-153.26988611111113,ALASKA,ZAN,RNAV,07/01/2011
AYJAY,64.208575,-145.6852027777778,ALASKA,ZAN,MW,10/23/2008
AYKID,65.84931666666667,-147.2762888888889,ALASKA,ZAN,RP,FYU*VORTAC*209.00/65.33
AYOGU,60.85036388888889,-153.17424166666666,ALASKA,ZAN,RP,ENA*VOR/DME*265.53/60.00
AYWAF,60.81446666666666,-162.00503055555555,ALASKA,ZAN,RNAV,09/11/2008
AYZOL,62.47115277777778,-141.0,ALASKA,ZAN,RP,ORT*VORTAC*114.23/38.17
AZGUC,59.75010277777778,-154.84055555555557,ALASKA,ZAN,RNAV,03/30/2009
XADZY,57.016666666666666,-133.0,ALASKA,ZAN,RNAV,12/14/2011
XAGGY,64.49206666666667,-165.3247361111111,ALASKA,ZAN,RNAV,08/09/2017
XERIC,51.76999444444444,-176.90016666666668,ALASKA,ZAN,RNAV,10/27/2006
XIBLY,61.14472222222222,-149.8563888888889,ALASKA,ZAN,RNAV,07/11/2005
XIRNY,60.780433333333335,-162.5453138888889,ALASKA,ZAN,RNAV,07/03/2013
XUXMO,66.87328333333333,-160.48674166666666,ALASKA,ZAN,RNAV,11/24/2009
MACSU,52.21387777777778,-174.17905277777777,ALASKA,ZAN,RNAV,02/12/2010
MACUP,63.67130833333333,-170.610175,ALASKA,ZAN,RNAV,10/05/2011
MAGNM,59.63922222222222,-136.0956111111111,ALASKA,ZAN,WP,12/30/1998
MAJEF,70.24620277777778,-147.8868222222222,ALASKA,ZAN,RNAV,08/24/2017
MAJLE,58.79118333333333,-159.13110555555556,ALASKA,ZAN,RNAV,07/08/2009
MALAS,59.66625555555555,-140.58266944444443,ALASKA,ZAN,RP,YAK*VOR/DME*268.56/30.00
MALLT,59.36123333333334,-152.49444166666666,ALASKA,ZAN,RP,HOM*VOR/DME*222.00/38.00
MAMOE,60.40309722222222,-146.06365833333334,ALASKA,ZAN,RNAV,08/26/2002
MAMVE,66.90614722222223,-162.81506666666667,ALASKA,ZAN,RNAV,08/09/2017
MANVE,60.47490833333333,-151.18379444444446,ALASKA,ZAN,RNAV,07/19/2007
MAPAE,61.59827777777778,-149.1166638888889,ALASKA,ZAN,RNAV,07/08/2011
MARCC,60.19333333333333,-177.89333333333332,ALASKA,ZAN,RNAV,04/16/2009
MAREE,64.37311666666666,-165.7269861111111,ALASKA,ZAN,RNAV,05/03/2005
MARKX,66.89081944444445,-162.62623611111113,ALASKA,ZAN,RP,OTZ*LD*W CRS/1.37
MARMN,58.192763888888884,-134.21977777777778,ALASKA,ZAN,RNAV,10/24/2014
MARMT,57.099247222222225,-135.47046666666668,ALASKA,ZAN,RNAV,11/04/2014
MARSI,61.40204722222222,-162.334575,ALASKA,ZAN,RP,BET*VORTAC*324.41/40.00
MASNS,64.69230555555556,-157.51405,ALASKA,ZAN,RNAV,11/23/2016
MATGE,65.95875555555556,-161.0350138888889,ALASKA,ZAN,RP,BVK*NDB/DME*099.24/3.07
MATTA,61.647441666666666,-149.43344166666668,ALASKA,ZAN,RP,BGQ*VORTAC*053.71/16.00
MAVUE,61.58389722222223,-149.09450555555557,ALASKA,ZAN,RNAV,02/29/2008
MAWLD,57.74532222222222,-152.48869166666665,ALASKA,ZAN,RNAV,04/30/2013
MAYPO,66.29990833333333,-146.05542222222223,ALASKA,ZAN,RP,FYU*VORTAC*209.00/25.00
MAZAT,70.08106666666666,-148.8782527777778,ALASKA,ZAN,RNAV,02/19/2016
MCKIN,63.34335,-150.59562222222223,ALASKA,ZAN,RNAV,04/17/2015
MEADE,70.68470555555555,-157.72951111111112,ALASKA,ZAN,RP,ATK*NDB*319.15
MEALT,64.58658055555556,-161.42974444444442,ALASKA,ZAN,RNAV,06/26/2009
MEBSY,63.903036111111106,-160.9091916666667,ALASKA,ZAN,RP,UNK*VOR/DME*261.49/6.00
MEFRA,63.14543333333333,-154.92933055555554,ALASKA,ZAN,RP,MCG*VORTAC*038.57/22.00
MEJIL,51.998697222222226,-176.63009722222222,ALASKA,ZAN,RNAV,07/20/2000
MEKAE,65.13521111111112,-147.64403333333334,ALASKA,ZAN,RNAV,08/10/2012
MELME,66.73921111111112,-151.80783333333335,ALASKA,ZAN,RNAV,07/20/2007
MELZI,56.900686111111106,-132.91013611111111,ALASKA,ZAN,RNAV,12/12/2011
MEMRY,61.94787777777778,-151.3281472222222,ALASKA,ZAN,MR,EDF*TACAN*295.70/61.11
MENAE,58.357308333333336,-134.85063888888888,ALASKA,ZAN,RNAV,08/21/2003
MENKE,68.10167222222222,-162.74153055555556,ALASKA,ZAN,RNAV,11/05/2015
MERIE,62.723127777777776,-145.20852499999998,ALASKA,ZAN,RP,GKN*VOR/DME*348.00/35.00
MEVIC,61.69607499999999,-165.2282111111111,ALASKA,ZAN,RP,HPB*VOR/DME*053.77/28.18
MEVPE,70.4111388888889,-150.04425,ALASKA,ZAN,RNAV,10/31/2014
MEXIW,70.71016944444445,-159.46277777777777,ALASKA,ZAN,RNAV,09/24/2009
MEYLE,63.87840277777778,-145.22833333333332,ALASKA,ZAN,RP,BIG*VORTAC*097.15/15.00
MICKA,66.03637777777777,-161.32524166666667,ALASKA,ZAN,RP,BVK*NDB/DME*293.40/5.50
MICZI,55.387,-130.38233333333335,ALASKA,ZAN,RNAV,06/13/2017
MIGKY,64.73691666666667,-156.29165833333334,ALASKA,ZAN,RNAV,07/29/2008
MIKAN,61.42807777777777,-160.66720555555554,ALASKA,ZAN,RNAV,12/28/2004
MILAM,55.308705555555555,-161.90275555555556,ALASKA,ZAN,RP,CDB*VORTAC*/30.00
MINNA,63.98824166666667,-153.01389444444445,ALASKA,ZAN,MW,12/10/2013
MINRR,64.77693611111111,-147.665275,ALASKA,ZAN,RNAV,11/03/2014
MINTO,64.87301388888888,-148.71843333333334,ALASKA,ZAN,RP,ENN*VORTAC*007.00
MIPMY,66.43399444444445,-158.46409166666666,ALASKA,ZAN,RNAV,12/21/2009
MISTC,62.733333333333334,-152.83333333333334,ALASKA,ZAN,RNAV,04/20/2015
MITBE,58.29046944444444,-135.52239722222222,ALASKA,ZAN,RNAV,06/28/2013
MITIH,61.942991666666664,-145.38337777777778,ALASKA,ZAN,RNAV,01/11/2010
MITKF,56.54123333333333,-132.88257777777778,ALASKA,ZAN,RNAV,11/04/2014
MIZZI,64.36862222222221,-145.50782222222222,ALASKA,ZAN,MR,BIG*VORTAC*350.97/22.60
MKNLY,62.761047222222224,-150.44184166666668,ALASKA,ZAN,RNAV,04/04/2014
MMADI,58.20439722222223,-134.61981666666668,ALASKA,ZAN,RNAV,05/18/2016
MMILT,64.66345277777778,-165.59418611111113,ALASKA,ZAN,RNAV,08/09/2017
MMMAT,61.26479166666667,-149.434275,ALASKA,ZAN,RNAV,07/18/2012
MOCHA,54.506708333333336,-133.02095277777778,,ZAN,RP,YZP*VOR/DME*311.73/86.84
MOCHO,58.33099444444445,-151.65110833333333,ALASKA,ZAN,RP,ODK*VOR/DME*019.00/40.03
MOCJU,64.86584444444443,-157.49795277777775,ALASKA,ZAN,RNAV,07/29/2008
MODDS,59.842333333333336,-147.38941944444443,ALASKA,ZAN,RP,JOH*VOR/DME*194.00
MOFOF,60.378544444444444,-152.27308611111113,ALASKA,ZAN,RP,ENA*VOR/DME*221.52/35.00
MOGAZ,57.095850000000006,-135.44956666666667,ALASKA,ZAN,WP,02/27/1998
MOGGY,61.16788888888889,-149.9613222222222,ALASKA,ZAN,RNAV,11/18/2014
MOHTU,57.102775,-133.35960277777778,ALASKA,ZAN,RNAV,01/20/2012
MOLRE,58.35781111111111,-134.6662777777778,ALASKA,ZAN,RNAV,08/21/2003
MOLYY,58.35078055555556,-134.54628333333332,ALASKA,ZAN,RNAV,05/18/2016
MOOSS,65.15080277777778,-147.59977777777777,ALASKA,ZAN,RNAV,10/16/2015
MOPMY,61.03333333333333,-150.36694444444444,ALASKA,ZAN,RNAV,07/11/2005
MORDI,54.880519444444445,-165.05423333333334,ALASKA,ZAN,RP,CDB*VORTAC*/82.00
MORLY,57.49878611111111,-176.41405833333334,ALASKA,ZAN,RNAV,04/16/2009
MOTRS,61.66824166666667,-166.39708888888887,ALASKA,ZAN,MR,CZF*DME*/12.00
MOTTI,61.42059166666667,-149.9304222222222,ALASKA,ZAN,MW,03/30/2017
MOUTN,63.069005555555556,-151.0063888888889,ALASKA,ZAN,RNAV,09/21/2011
MOYGE,65.19830833333334,-166.85772777777777,ALASKA,ZAN,MW,03/25/2010
MRRON,59.083333333333336,-150.41666666666666,OFFSHORE PACIFIC,ZAN,RNAV,11/06/2015
MSKEG,64.88347777777778,-147.72213611111113,ALASKA,ZAN,RNAV,10/16/2015
MUCLA,61.587272222222225,-174.5,ALASKA,ZAN,RP,09/19/2000
MUDIE,61.42126111111111,-150.38358888888888,ALASKA,ZAN,RNAV,05/10/2011
MUFFS,61.23557777777778,-150.3511,ALASKA,ZAN,RNAV,11/18/2014
MUGGZ,58.52303055555556,-135.03845277777776,ALASKA,ZAN,RNAV,01/17/2007
MUHLE,60.88333333333333,-154.65,ALASKA,ZAN,MW,12/10/2013
MUIRR,58.797675,-136.2141722222222,ALASKA,ZAN,RNAV,10/24/2014
MUKDE,64.47993333333334,-165.2470222222222,ALASKA,ZAN,RP,OME*LD*098.77/6.31
MUKTU,69.26449444444444,-149.4092388888889,ALASKA,ZAN,RP,SCC*VOR/DME*183.69/60.00
MUNRI,61.9,-170.03333333333333,ALASKA,ZAN,RNAV,04/16/2009
MUNUE,66.91618055555556,-162.0384861111111,ALASKA,ZAN,RP,OTZ*VOR/DME*065.97/12.00
MUPTE,66.80339722222222,-156.73603888888888,ALASKA,ZAN,RNAV,10/05/2011
MUQIT,56.71473888888889,-132.94194444444446,ALASKA,ZAN,RNAV,03/19/2012
MURRS,61.28726111111111,-150.06370555555557,ALASKA,ZAN,RNAV,11/18/2014
MURYY,60.47945555555556,-149.05830833333334,ALASKA,ZAN,RP,JOH*VOR/DME*253.00/73.01
MUSDE,68.16476944444445,-151.67705277777776,ALASKA,ZAN,RNAV,01/22/2008
MUSHR,65.15809444444444,-147.5442,ALASKA,ZAN,RNAV,10/16/2015
MUSKG,60.371575,-145.3499666666667,ALASKA,ZAN,RNAV,09/12/2016
MUSPT,61.024322222222224,-150.55683055555556,ALASKA,ZAN,RNAV,06/01/2010
MUSUE,55.401263888888884,-132.04609444444444,ALASKA,ZAN,RNAV,ANN*VOR/DME*301.09/26.04
MUTLY,66.33333333333333,-144.89333333333332,ALASKA,ZAN,MW,12/10/2013
MUVME,58.40752222222222,-135.67045,ALASKA,ZAN,RP,SSR*VORTAC*296.86/19.00
MUYWY,59.91741388888889,-154.8604,ALASKA,ZAN,RNAV,01/12/2009
MYATT,56.514291666666665,-132.52516666666668,ALASKA,ZAN,RNAV,10/26/2015
MYCCA,60.840494444444445,-149.70978888888888,ALASKA,ZAN,RP,01/21/2015
LACEG,58.540644444444446,-135.64428611111111,ALASKA,ZAN,RP,SSR*VORTAC*311.00/25.00
LACIL,69.504975,-155.00948055555557,ALASKA,ZAN,RNAV,06/09/2005
LACNI,63.18973888888888,-163.30847222222224,ALASKA,ZAN,RNAV,12/01/2003
LAEVO,60.914738888888884,-161.413475,ALASKA,ZAN,RNAV,05/17/2017
LAHEY,82.0,-141.0,OFFSHORE PACIFIC,ZAN,RNAV,09/23/2015
LAINN,61.586125,-151.07060555555555,ALASKA,ZAN,MR,EDF*TACAN*280.54/42.48
LAIRE,58.804075,-140.52871111111114,ALASKA,ZAN,RP,YAK*VOR/DME*192.99/50.47
LAKPE,55.269755555555555,-131.8842611111111,ALASKA,ZAN,RNAV,03/14/2011
LANEY,55.7802,-163.11948055555555,ALASKA,ZAN,MR,CDB*VORTAC*325.24/33.00
LAPLE,55.44692499999999,-162.44005,ALASKA,ZAN,RP,CDB*VORTAC*/15.73
LARCE,66.57566388888888,-159.77494722222224,ALASKA,ZAN,RNAV,05/10/2007
LAREE,65.78333333333333,-150.7,ALASKA,ZAN,MW,12/10/2013
LARSA,63.993319444444445,-172.37833055555555,,ZAN,RNAV,05/20/2015
LASOE,56.22553333333334,-132.36211111111112,ALASKA,ZAN,RNAV,10/24/2014
LASVE,59.000725,-159.09373611111113,ALASKA,ZAN,RNAV,01/20/2004
LATCH,56.01255833333333,-134.5982888888889,ALASKA,ZAN,RP,BKA*VORTAC*127.66/60.00
LATNA,64.46118333333334,-155.37072777777777,ALASKA,ZAN,MW,12/10/2013
LATRY,55.21576944444445,-131.47471666666667,ALASKA,ZAN,RNAV,07/18/2008
LAZAT,57.706588888888895,-152.50444444444443,ALASKA,ZAN,RNAV,05/24/2002
LEBTE,64.64735277777778,-158.1812,ALASKA,ZAN,RNAV,11/23/2016
LECIB,66.74959166666667,-145.40606666666667,ALASKA,ZAN,RP,FYU*VORTAC*323.75/11.00
LECIC,56.97228888888889,-159.00520833333334,ALASKA,ZAN,RNAV,02/02/2007
LEDHO,71.03345833333333,-156.43603611111112,ALASKA,ZAN,RP,BRW*VOR/DME*135.46/16.00
LEESL,85.5,-141.0,OFFSHORE PACIFIC,ZAN,RNAV,09/09/2014
LEMMR,55.28466944444444,-162.39117222222222,ALASKA,ZAN,RNAV,12/04/2012
LEMRE,64.07569722222222,-158.91764444444445,ALASKA,ZAN,RNAV,09/01/2005
LENAH,64.60183055555555,-165.6594611111111,ALASKA,ZAN,RNAV,08/09/2017
LENOW,64.51793888888889,-158.53218611111112,ALASKA,ZAN,RNAV,06/26/2009
LEPGE,69.97926111111111,-144.23065277777778,ALASKA,ZAN,RNAV,09/29/2016
LERYI,57.0177,-135.38969166666666,ALASKA,ZAN,RP,BKA*VORTAC*009.10/10.90
LESAD,61.185916666666664,-168.9357777777778,ALASKA,ZAN,RNAV,03/11/2009
LETPE,55.34055555555556,-160.55035833333335,ALASKA,ZAN,RNAV,04/17/2006
LETUN,82.16082222222222,-168.97332777777777,,ZAN,RNAV,07/03/2017
LEVGE,66.92686666666667,-151.50823333333332,ALASKA,ZAN,RNAV,07/20/2007
LEWYY,60.50360555555555,-151.4709638888889,ALASKA,ZAN,RNAV,03/24/2014
LEYIT,61.62456111111111,-149.5170527777778,ALASKA,ZAN,RNAV,07/08/2011
LEYIY,70.16068055555556,-146.43693333333334,ALASKA,ZAN,RNAV,08/06/2008
LEYSE,67.0937111111111,-159.799225,ALASKA,ZAN,RNAV,07/07/2005
LIBER,64.04934444444444,-148.5082361111111,ALASKA,ZAN,RP,ENN*VORTAC*134.37
LICIT,67.75814166666666,-152.39294999999998,ALASKA,ZAN,RNAV,12/27/2012
LICUG,58.11613611111111,-157.265375,ALASKA,ZAN,RNAV,08/15/2005
LIFCO,57.04033611111111,-135.5632638888889,ALASKA,ZAN,RNAV,11/04/2014
LIFFE,61.36626944444445,-149.99622777777776,ALASKA,ZAN,RNAV,07/18/2012
LIJFY,56.51408888888889,-169.44155555555557,ALASKA,ZAN,RP,SRI*NDB/DME*106.61/7.74
LIJHA,60.64252777777778,-162.17874999999998,ALASKA,ZAN,RNAV,09/29/2008
LIKIY,60.878838888888886,-162.17925277777778,ALASKA,ZAN,RNAV,08/26/2008
LIKUQ,62.974900000000005,-164.51451944444443,ALASKA,ZAN,RNAV,05/03/2007
LILDE,55.27236111111111,-133.8094166666667,ALASKA,ZAN,RNAV,04/30/2013
LILES,64.64915833333335,-165.1925361111111,ALASKA,ZAN,RP,OME*VOR/DME*358.00/10.00
LIPDE,64.85722222222222,-147.36255,ALASKA,ZAN,MR,FAI*VORTAC*057.03/17.00
LISEY,63.34473055555556,-143.16671944444442,ALASKA,ZAN,RNAV,12/20/2005
LISKI,70.40498611111111,-168.97333055555555,,ZAN,RNAV,07/03/2017
LITHE,61.16672222222222,-150.402025,ALASKA,ZAN,RNAV,11/18/2014
LIVEN,65.38502500000001,-148.92151666666666,ALASKA,ZAN,RP,ENN*VORTAC*343.54/48.02
LIVIC,56.82,-132.81666666666666,ALASKA,ZAN,RNAV,08/30/2004
LIVME,60.871227777777776,-155.3020027777778,ALASKA,ZAN,MW,11/23/2015
LIYEK,59.715561111111114,-164.3141916666667,ALASKA,ZAN,RNAV,12/26/2017
LIYRE,66.7156138888889,-162.1555638888889,ALASKA,ZAN,RNAV,12/05/2014
LIYYA,55.291666666666664,-160.87833333333333,ALASKA,ZAN,MW,12/12/2013
LLMAR,59.51647777777778,-140.2040722222222,ALASKA,ZAN,RP,YAK*VOR/DME*251.39/17.00
LMPEE,61.383966666666666,-149.97520833333334,ALASKA,ZAN,RNAV,07/18/2012
LOCIB,61.09110833333334,-146.59550833333336,ALASKA,ZAN,RP,VDZ*DD*SW CRS/11.24
LOFTT,57.03393333333333,-135.33784166666666,ALASKA,ZAN,RNAV,11/04/2014
LOHNE,56.5,-140.0,ALASKA,ZAN,RP,12/06/1999
LONOK,52.151805555555555,-175.5486138888889,ALASKA,ZAN,RP,ADK*NDB/DME*060.64/45.00
LOTIC,66.88377777777778,-162.39211388888887,ALASKA,ZAN,RP,OTZ*VOR/DME*076.81/3.50
LOUMA,63.641525,-148.91824166666666,ALASKA,ZAN,RNAV,04/13/2017
LOUPS,66.86403055555554,-157.65262222222222,ALASKA,ZAN,RNAV,11/23/2016
LOVLY,60.411141666666666,-146.000075,ALASKA,ZAN,RNAV,01/25/2013
LOVYI,62.04626111111111,-163.30212500000002,ALASKA,ZAN,RNAV,04/13/2006
LOWES,59.06276111111111,-158.48763055555554,ALASKA,ZAN,RP,DLG*LE*191.83/1.78
LUBEE,61.500591666666665,-150.0602888888889,ALASKA,ZAN,MR,EDF*TACAN*312.50/17.00
LUBKE,65.17914444444445,-152.21678888888889,ALASKA,ZAN,RP,TAL*VOR/DME*257.93/1.00
LUCIY,64.20736944444445,-158.93445555555556,ALASKA,ZAN,RNAV,09/01/2005
LUCOF,70.39487222222223,-150.1678083333333,ALASKA,ZAN,RNAV,07/24/2009
LUCOR,64.24844166666666,-157.81889999999999,ALASKA,ZAN,MR,GAL*VOR/DME*200.00/40.00
LUCPI,67.04333333333334,-157.67566666666664,ALASKA,ZAN,RNAV,09/26/2007
LUKEC,55.579233333333335,-133.0759972222222,ALASKA,ZAN,RNAV,07/12/2004
LULIC,59.48823055555555,-139.61905000000002,ALASKA,ZAN,RP,YAK*VOR/DME*/1.62
LULOW,56.50763583333333,-132.439,ALASKA,ZAN,RNAV,05/24/2002
LUMES,53.411655555555555,-167.21611944444444,,ZAN,RNAV,07/03/2017
LURUN,85.41665555555556,-168.97333055555555,,ZAN,RNAV,07/03/2017
LUSBY,59.08476666666667,-158.43816111111113,ALASKA,ZAN,RNAV,07/08/2009
LUYIP,62.919374999999995,-142.29393055555556,ALASKA,ZAN,RP,11/14/2006
LYNNS,58.36129722222223,-135.07912222222222,ALASKA,ZAN,RP,CGL*NDB*250.75
LYNUP,58.35911388888889,-134.6178111111111,ALASKA,ZAN,RNAV,10/24/2014
LYRIC,57.66630833333333,-135.68304444444445,ALASKA,ZAN,RP,BKA*VORTAC*335.00/48.71
LYYLE,50.51522222222222,-175.94533333333334,ALASKA,ZAN,RP,09/19/2000
YACDU,62.03245,-161.069325,ALASKA,ZAN,RNAV,04/06/2004
YADME,70.2286111111111,-151.39038333333332,ALASKA,ZAN,RNAV,09/09/2015
YAGUL,64.73635277777778,-156.82871666666665,ALASKA,ZAN,RNAV,07/26/2012
YAGUN,63.80488333333333,-160.1552388888889,ALASKA,ZAN,RP,UNK*VOR/DME*095.21/15.00
YAKBU,59.270825,-139.35555,ALASKA,ZAN,RP,YAK*VOR/DME*128.00/17.00
YAKUL,51.83466666666667,-176.90207222222222,ALASKA,ZAN,RNAV,05/08/2008
YARUK,56.529447222222224,-132.55645833333335,ALASKA,ZAN,RP,RGL*DD*273.00/7.00
YARUN,64.69221944444445,-155.57006666666666,ALASKA,ZAN,RNAV,04/12/2007
YARUV,59.22831666666667,-159.76251944444445,ALASKA,ZAN,RNAV,04/18/2018
YASCY,55.68888888888888,-132.35277777777776,ALASKA,ZAN,RNAV,12/18/2009
YAXBY,62.08748333333334,-159.90451944444445,ALASKA,ZAN,RNAV,12/27/2005
YAZVU,61.60811944444445,-149.16474444444444,ALASKA,ZAN,RNAV,02/09/2018
YEBUR,58.380858333333336,-135.61868333333334,ALASKA,ZAN,RNAV,04/03/2015
YECUP,64.76838333333333,-161.33237777777777,ALASKA,ZAN,RNAV,09/01/2005
YECUR,59.40029444444444,-154.16911666666667,ALASKA,ZAN,RNAV,05/26/2006
YEDNU,62.65750833333333,-141.34061944444446,ALASKA,ZAN,RP,ORT*VORTAC*113.63/23.50
YEDUD,62.59608333333333,-159.5680861111111,ALASKA,ZAN,RNAV,08/26/2008
YEDUP,63.00913611111111,-155.60324444444444,ALASKA,ZAN,RP,MCG*LE*N CRS/3.78
YEKUN,59.47698611111111,-139.6065722222222,ALASKA,ZAN,RP,YAK*VOR/DME*128.00/2.40
YENSI,57.032605555555556,-132.8889722222222,ALASKA,ZAN,RP,PSG*DD*N CRS/14.00
YENUK,66.92769166666668,-157.36496666666667,ALASKA,ZAN,RNAV,10/05/2011
YENUL,61.90736111111111,-165.12900833333333,ALASKA,ZAN,RNAV,06/16/2009
YENUY,66.53462499999999,-145.98820833333332,ALASKA,ZAN,RNAV,10/29/2013
YESKA,61.00021666666667,-149.33384444444445,ALASKA,ZAN,RP,JOH*VOR/DME*274.39/86.38
YESUP,63.93266944444444,-152.19574722222222,ALASKA,ZAN,RNAV,04/20/2006
YEYGI,62.05135,-145.4195222222222,ALASKA,ZAN,RNAV,11/01/2006
YEYYU,58.772619444444445,-157.058425,ALASKA,ZAN,RP,AKN*VORTAC*270.89/10.00
YICAX,56.6625,-132.61666666666667,ALASKA,ZAN,RNAV,05/06/2013
YIGUF,70.31069444444444,-149.12918333333334,ALASKA,ZAN,RP,SCC*VOR/DME*278.16/16.00
YILUS,60.847480555555556,-151.25135,ALASKA,ZAN,RNAV,12/11/2011
YIPUT,64.79873055555555,-147.61726388888889,ALASKA,ZAN,RNAV,08/10/2012
YIPVU,59.086372222222224,-160.35288888888888,ALASKA,ZAN,RNAV,04/18/2018
YIQTO,52.01706111111111,-176.36745555555555,ALASKA,ZAN,RNAV,07/20/2000
YISPO,59.37515277777778,-139.16132777777779,ALASKA,ZAN,RP,YAK*VOR/DME*098.48/17.00
YOCUT,61.534819444444445,-166.16060000000002,ALASKA,ZAN,RNAV,07/08/2011
YOFIN,64.9032888888889,-164.77854722222224,ALASKA,ZAN,RNAV,08/09/2017
YOHNN,61.515880555555555,-150.1935611111111,ALASKA,ZAN,RP,BSC*LD*328.88/21.79
YOHOE,61.216350000000006,-150.21756666666667,ALASKA,ZAN,RNAV,11/19/2007
YONEK,61.17304722222222,-151.23563888888887,ALASKA,ZAN,RP,TED*VOR/DME*253.04/37.07
YONXU,58.91834166666666,-158.02521944444445,ALASKA,ZAN,RP,DLG*VOR/DME*090.35/17.00
YORVU,58.41885,-156.10184999999998,ALASKA,ZAN,CN,06/21/2004
YOSCI,70.04876388888889,-146.52592777777778,ALASKA,ZAN,RNAV,10/11/2012
YOSCU,61.58873333333334,-161.37041944444445,ALASKA,ZAN,RNAV,04/06/2004
YOTUK,66.25738333333334,-165.5847138888889,ALASKA,ZAN,RNAV,06/27/2005
YOVLU,63.105825,-141.39805555555554,ALASKA,ZAN,RNAV,11/14/2006
YOVUV,69.36425555555554,-152.28718333333333,ALASKA,ZAN,RNAV,10/28/2008
YOYUB,62.06300833333333,-158.32054722222222,ALASKA,ZAN,RNAV,02/27/2014
YOZMO,62.25878888888889,-163.2827138888889,ALASKA,ZAN,RP,ENM*VOR/DME*118.83
YUCON,63.624225,-159.10223888888888,ALASKA,ZAN,RP,UNK*VOR/DME*095.21/45.13
YUGUK,63.05414444444444,-153.78940555555556,ALASKA,ZAN,RNAV,09/01/2005
YUKLA,60.95590277777778,-150.06884444444444,ALASKA,ZAN,MR,EDF*TACAN*188.00/20.00
YUKUN,64.75164722222222,-155.39965277777776,ALASKA,ZAN,RNAV,05/21/2004
YULUP,59.29300277777777,-146.51435833333332,ALASKA,ZAN,RNAV,11/25/2005
YUREE,64.45502777777779,-168.87866666666667,OFFSHORE PACIFIC,ZAN,RNAV,03/02/2016
YURUG,66.83353055555555,-150.61230555555554,ALASKA,ZAN,RNAV,11/18/2014
YURUL,64.1239611111111,-148.92383333333333,ALASKA,ZAN,RNAV,04/13/2017
YURUP,56.48441944444445,-158.00095277777777,ALASKA,ZAN,RNAV,02/13/2004
YURUS,64.03618333333333,-145.65625555555556,ALASKA,ZAN,MR,BIG*VORTAC*017.00/2.50
YUSNU,66.85718055555554,-151.65316944444444,ALASKA,ZAN,RP,BTT*VOR/DME*204.00/4.00
YUSUR,70.08347222222221,-146.72626666666667,ALASKA,ZAN,RNAV,06/26/2013
YUWAR,64.60009722222222,-157.48731666666666,ALASKA,ZAN,RNAV,07/29/2008
YUWGE,67.51035,-149.6682611111111,ALASKA,ZAN,RNAV,08/17/2017
YUZTY,64.0,-142.80986111111113,ALASKA,ZAN,MW,12/09/2013
UBARE,65.46428055555556,-167.88060000000002,ALASKA,ZAN,MR,TNC*NDB/DME*159.32/5.97
UBBOQ,59.01229166666667,-158.77026111111113,ALASKA,ZAN,RNAV,07/08/2009
UBEGE,62.65689444444444,-159.25954444444446,ALASKA,ZAN,RNAV,08/26/2008
UBGEW,65.05005277777778,-147.41728333333333,ALASKA,ZAN,RP,03/19/2012
UBICE,59.471583333333335,-155.34223611111113,ALASKA,ZAN,RNAV,05/26/2006
UBYEF,70.11756944444444,-147.78949166666666,ALASKA,ZAN,RNAV,08/25/2017
UCABU,61.65222222222222,-149.31444444444446,ALASKA,ZAN,RNAV,05/19/2015
UCANE,66.99574722222222,-160.0717138888889,ALASKA,ZAN,RNAV,07/07/2005
UCARU,55.25562222222222,-131.5840527777778,ALASKA,ZAN,RP,CMJ*NDB*123.83
UCEGE,64.89099444444444,-157.54754166666666,ALASKA,ZAN,RNAV,09/09/2009
UCIRO,70.14578611111112,-148.99188333333333,ALASKA,ZAN,RP,SCC*VOR/DME*224.06/12.20
UCLON,55.30709722222222,-162.04896944444445,ALASKA,ZAN,RP,CDB*VORTAC*070.21/24.99
UCOSO,56.994175,-133.98226111111111,ALASKA,ZAN,RNAV,08/31/2004
UCUXY,57.43333333333333,-133.7,ALASKA,ZAN,RNAV,07/12/2004
UDAYE,63.203186111111116,-153.95165555555553,ALASKA,ZAN,RNAV,09/01/2005
UDENE,55.69183611111111,-132.8995611111111,ALASKA,ZAN,RP,AKW*NDB/DME*019.47/9.60
UDOCO,58.963744444444444,-155.93021944444445,ALASKA,ZAN,RNAV,07/07/2014
UFMUP,55.9125,-132.53333333333333,ALASKA,ZAN,RNAV,07/12/2004
UFTIV,58.949841666666664,-158.2419611111111,ALASKA,ZAN,RP,DLG*VOR/DME*090.35/10.00
UGAKY,67.04858333333333,-150.83256666666665,ALASKA,ZAN,RNAV,11/18/2014
UGEDY,70.30366666666666,-146.68608055555555,ALASKA,ZAN,RNAV,08/06/2008
UGIPE,66.09189444444443,-166.4083527777778,ALASKA,ZAN,RNAV,06/27/2005
UGWIX,54.14678611111111,-165.6283138888889,ALASKA,ZAN,RNAV,06/02/2014
UHEPU,61.12277777777778,-149.85666666666665,ALASKA,ZAN,RNAV,07/11/2005
UJPAY,62.99624722222222,-159.62905555555557,ALASKA,ZAN,RNAV,08/17/2017
UJXUW,59.04229722222222,-160.41631944444444,ALASKA,ZAN,RNAV,04/18/2018
UKCOR,64.82190277777778,-148.12047777777778,ALASKA,ZAN,RNAV,05/01/2017
UKEYU,55.51871944444444,-160.57010833333334,ALASKA,ZAN,RNAV,04/17/2006
UKICI,66.89783333333334,-156.80611111111114,ALASKA,ZAN,RNAV,09/21/2007
UKOBE,66.95823055555556,-160.7504361111111,ALASKA,ZAN,RNAV,07/07/2005
UKSEC,56.69799722222222,-134.51309166666667,ALASKA,ZAN,RNAV,07/12/2004
UKUYU,70.16268333333333,-151.24119166666665,ALASKA,ZAN,RNAV,12/03/2003
ULAST,66.73159722222222,-144.4216583333333,ALASKA,ZAN,RNAV,02/09/2018
ULAVY,68.18440277777778,-166.50424166666667,ALASKA,ZAN,RNAV,09/09/2013
ULETE,58.64828055555556,-156.58821666666668,ALASKA,ZAN,RP,AKN*VORTAC*/6.89
ULOVE,60.601908333333334,-161.6621861111111,ALASKA,ZAN,RP,BET*VORTAC*142.44/12.00
UMYAR,67.2675388888889,-151.03966666666668,ALASKA,ZAN,RNAV,03/16/2018
UNAWO,60.69777777777777,-162.56390833333336,ALASKA,ZAN,RNAV,07/03/2013
UNCUS,58.35446944444445,-134.65203333333335,ALASKA,ZAN,RNAV,04/20/2017
UNEKY,57.16695277777777,-133.19504444444445,ALASKA,ZAN,RP,LVD*VOR/DME*335.03/42.21
UNETE,55.248375,-163.06365277777778,ALASKA,ZAN,RP,CDB*VORTAC*249.56/10.00
UPAKY,56.99146666666667,-134.087525,ALASKA,ZAN,RP,AFE*NDB/DME*265.10/6.00
UPINE,68.11968888888889,-151.78780277777778,ALASKA,ZAN,RNAV,12/27/2012
UPPIV,57.11700277777778,-158.83246111111112,ALASKA,ZAN,RNAV,02/09/2018
URAKY,66.54713055555555,-159.53454166666666,ALASKA,ZAN,RNAV,05/10/2007
UREKA,61.972500000000004,-146.9972833333333,ALASKA,ZAN,RP,GKN*VOR/DME*233.69/45.10
URICA,60.52399722222222,-161.79805277777777,ALASKA,ZAN,RNAV,01/28/2004
URSAA,64.55369166666667,-148.24986388888888,ALASKA,ZAN,RNAV,08/08/2012
URTOW,62.06695277777778,-150.06090555555556,ALASKA,ZAN,RP,TKA*VOR/DME*155.84/13.98
URUPE,64.53026388888888,-165.57153888888888,ALASKA,ZAN,RP,OME*LD*W CRS/2.63
URUQU,71.36699444444444,-156.1682722222222,ALASKA,ZAN,RNAV,05/13/2010
USAZY,64.87939999999999,-147.7444138888889,ALASKA,ZAN,RNAV,05/01/2017
USOXY,62.48932777777778,-145.18019999999999,ALASKA,ZAN,MW,12/09/2013
USUHU,53.944155555555554,-166.56023333333334,ALASKA,ZAN,RNAV,06/08/2000
USUKY,61.89816666666667,-150.49016666666665,ALASKA,ZAN,RNAV,01/19/2017
UTANY,60.281438888888886,-149.38417777777778,ALASKA,ZAN,RNAV,05/16/2011
UTICE,62.309822222222216,-157.63243888888888,ALASKA,ZAN,RNAV,03/14/2014
UTIGE,61.877786111111114,-165.33082777777778,ALASKA,ZAN,RNAV,06/16/2009
UTKOW,59.26291666666667,-158.72279444444445,ALASKA,ZAN,RP,DLG*VOR/DME*327.00/17.00
UVALL,69.94814722222223,-148.16191111111112,ALASKA,ZAN,RP,SCC*VOR/DME*143.82/16.00
UVARE,70.413325,-156.84766666666667,ALASKA,ZAN,RNAV,12/27/2005
UVDAH,54.123466666666666,-165.371675,ALASKA,ZAN,RNAV,06/02/2014
UVEPE,59.22459722222222,-159.9975361111111,ALASKA,ZAN,RNAV,04/18/2018
UVHAL,59.13860555555556,-158.08038333333332,ALASKA,ZAN,RP,DLG*VOR/DME*044.08/17.00
UVUTE,62.94438333333333,-141.31154444444445,ALASKA,ZAN,RNAV,11/14/2006
UWUJO,67.54308055555555,-150.02709166666668,ALASKA,ZAN,RNAV,08/17/2017
UXSOJ,62.905744444444444,-160.06505833333335,ALASKA,ZAN,RNAV,08/17/2017
UYABI,60.499855555555555,-145.63380277777776,ALASKA,ZAN,RNAV,09/12/2016
UYADA,62.44268611111111,-160.059,ALASKA,ZAN,RNAV,07/29/2008
UYIJI,62.898044444444444,-159.5913138888889,ALASKA,ZAN,RNAV,08/17/2017
UYOVA,64.87146944444444,-147.28602222222221,ALASKA,ZAN,MR,EIL*TACAN*/14.00
UYUCE,62.68623888888889,-160.37598055555557,ALASKA,ZAN,RNAV,08/17/2017
KACIQ,62.979536111111116,-164.33220555555556,ALASKA,ZAN,RNAV,05/03/2007
KACLE,64.35683055555555,-158.64839166666667,ALASKA,ZAN,RNAV,07/12/2005
KACPO,59.19276111111111,-158.6841388888889,ALASKA,ZAN,RNAV,07/07/2009
KADBE,61.45104444444445,-166.04489999999998,ALASKA,ZAN,RP,HPB*VOR/DME*132.88/4.60
KAGEC,62.56697777777778,-145.50712222222222,ALASKA,ZAN,RP,GKN*VOR/DME*333.38/25.00
KAHTO,62.5,-151.21666666666667,ALASKA,ZAN,RNAV,04/20/2015
KAJBU,56.499658333333336,-132.50169444444444,ALASKA,ZAN,RNAV,11/04/2014
KAKGE,67.12799166666666,-150.40450555555557,ALASKA,ZAN,RNAV,02/27/2012
KALIX,63.67614722222222,-171.7043611111111,ALASKA,ZAN,RNAV,11/24/2014
KALKE,66.03383055555555,-162.10316666666665,ALASKA,ZAN,RNAV,11/23/2016
KANSY,61.265166666666666,-150.0512527777778,ALASKA,ZAN,RP,BSC*LD*328.88/6.15
KANUT,66.52738611111111,-151.0997888888889,ALASKA,ZAN,RP,BTT*VOR/DME*135.24/25.00
KARLL,69.99966111111111,-151.00305,ALASKA,ZAN,RNAV,10/26/2017
KASAN,55.39653611111111,-132.07162499999998,ALASKA,ZAN,RNAV,05/01/2014
KASIA,57.07212222222223,-135.40669166666666,ALASKA,ZAN,RNAV,11/04/2014
KASSI,60.285713888888885,-151.2919,ALASKA,ZAN,RP,ENA*VOR/DME*169.30/20.00
KASWI,56.991675,-135.32370833333334,ALASKA,ZAN,RNAV,11/04/2014
KATAT,60.25810277777778,-144.70521388888886,ALASKA,ZAN,RP,JOH*VOR/DME*084.54/58.00
KATCH,53.99959166666667,-136.00160277777778,ALASKA,ZAN,RP,10/24/1990
KATEL,65.52267222222223,-158.70742222222222,ALASKA,ZAN,RP,GAL*VOR/DME*297.86/68.00
KAVWI,62.70521666666667,-164.48067777777777,ALASKA,ZAN,RNAV,05/03/2007
KAYEC,66.90154722222223,-162.78441944444444,ALASKA,ZAN,RP,OTZ*LD*W CRS/5.16
KAYEF,56.74353611111111,-159.15535833333334,ALASKA,ZAN,MW,12/10/2013
KAYSE,60.86672222222222,-161.75898333333333,ALASKA,ZAN,RP,BET*LD*012.47/6.45
KAYTI,61.31438333333333,-150.76701111111112,ALASKA,ZAN,RP,TED*VOR/DME*273.00/25.00
KAYVE,64.59471666666666,-163.48069722222223,ALASKA,ZAN,RNAV,10/13/2005
KEBAB,60.485575000000004,-147.45280277777778,ALASKA,ZAN,RP,JOH*VOR/DME*253.00/25.34
KEBGE,62.87821666666667,-142.2442861111111,ALASKA,ZAN,RP,ORT*VORTAC*221.63/10.00
KECEY,59.89051666666666,-154.960525,ALASKA,ZAN,RNAV,07/11/2005
KECKI,59.77222222222222,-151.11624166666667,ALASKA,ZAN,RP,HOM*VOR/DME*054.78/11.00
KECTE,63.04760833333333,-156.0768527777778,ALASKA,ZAN,RP,MCG*VORTAC*275.74/14.00
KEGEY,63.11588611111111,-163.41291111111113,ALASKA,ZAN,RP,ENM*VOR/DME*041.35/35.61
KENYY,61.066427777777776,-146.65897777777778,ALASKA,ZAN,RNAV,08/01/2014
KENZE,61.25666666666667,-150.09833333333333,ALASKA,ZAN,WP,10/03/1995
KEPTE,66.89713611111112,-162.73176111111113,ALASKA,ZAN,RP,OTZ*VOR/DME*263.73/4.59
KEREC,57.28227222222222,-169.98789444444444,ALASKA,ZAN,RP,SPY*NDB/DME*036.57/11.00
KESKE,62.180052777777775,-159.78558333333334,ALASKA,ZAN,RNAV,12/27/2005
KIANA,62.55775,-150.4733388888889,ALASKA,ZAN,RNAV,04/04/2014
KIBMY,63.930905555555555,-160.96684166666668,ALASKA,ZAN,RNAV,05/05/2009
KIBNE,70.14614444444445,-148.99097777777777,ALASKA,ZAN,RNAV,09/01/2017
KIBRE,66.53198333333333,-144.12127777777778,ALASKA,ZAN,RNAV,07/11/2005
KICEB,63.07510555555556,-155.1783861111111,ALASKA,ZAN,RP,MCG*VORTAC*038.57/14.00
KICEN,64.1726888888889,-159.2263027777778,ALASKA,ZAN,RNAV,09/01/2005
KICEP,65.19286111111111,-152.4917722222222,ALASKA,ZAN,RP,TAL*VOR/DME*257.93/8.00
KIDRE,55.43150277777777,-160.82018888888888,ALASKA,ZAN,RNAV,04/17/2006
KIHYO,57.74778333333333,-152.29268333333334,ALASKA,ZAN,RNAV,08/30/2015
KINGE,58.73871666666667,-156.78252222222224,ALASKA,ZAN,RP,AKN*LD*NW CRS/6.56
KIPTE,64.46412500000001,-165.14630555555556,ALASKA,ZAN,RNAV,08/09/2017
KISLE,63.89585833333333,-152.2795,ALASKA,ZAN,RNAV,12/22/2005
KIVAK,60.583333333333336,-172.08333333333334,ALASKA,ZAN,RNAV,04/16/2009
KIYAV,61.50293611111111,-149.3900138888889,ALASKA,ZAN,RNAV,03/03/2008
KIYEP,66.9984,-151.41389166666667,ALASKA,ZAN,RNAV,03/16/2018
KIYGE,58.790163888888884,-158.39694722222222,ALASKA,ZAN,RNAV,07/08/2011
KKABN,62.68333333333333,-151.38333333333333,ALASKA,ZAN,RNAV,04/20/2015
KKYLE,62.994280555555555,-153.1607888888889,ALASKA,ZAN,RNAV,12/11/2011
KLOUT,70.02689166666667,-148.60819166666667,ALASKA,ZAN,RNAV,02/19/2016
KLUNG,61.760219444444445,-145.73019444444444,ALASKA,ZAN,RP,GKN*VOR/DME*175.82/25.00
KNARS,70.11302222222221,-143.80431944444445,ALASKA,ZAN,RNAV,09/29/2016
KNOBE,61.20937777777778,-150.29516388888888,ALASKA,ZAN,MR,EDF*TACAN*242.03/15.50
KOBBS,56.79394722222222,-132.9854722222222,ALASKA,ZAN,RNAV,03/19/2012
KOBEY,56.98563055555556,-134.15236944444445,ALASKA,ZAN,RNAV,08/31/2004
KOCCE,55.23167222222222,-162.7443611111111,ALASKA,ZAN,RP,CDB*VORTAC*/2.38
KODEC,55.416025,-133.41590833333333,ALASKA,ZAN,RNAV,08/31/2004
KODNE,58.40468611111111,-151.93519722222223,ALASKA,ZAN,RP,ODK*VOR/DME*004.62/40.03
KOKBE,70.24485277777778,-144.23854166666666,ALASKA,ZAN,RNAV,09/29/2016
KOKCE,60.78468055555555,-161.99333055555553,ALASKA,ZAN,RNAV,08/26/2008
KOKDE,62.89473888888889,-142.50530833333335,ALASKA,ZAN,RNAV,11/14/2006
KOKES,54.74998888888889,-170.10334166666667,OFFSHORE PACIFIC,ZAN,RNAV,07/03/2017
KOKOZ,58.51833055555556,-155.7089361111111,ALASKA,ZAN,RP,AKN*VORTAC*094.32/35.00
KOLEC,65.80585833333333,-160.84358333333336,ALASKA,ZAN,RNAV,05/04/2007
KOLPY,59.700047222222224,-151.26008055555556,ALASKA,ZAN,RNAV,05/17/2013
KOMNA,59.39443611111111,-151.60746388888887,ALASKA,ZAN,RP,HOM*VOR/DME*178.73/19.50
KONIC,58.75063333333333,-155.5381277777778,ALASKA,ZAN,RP,AKN*VORTAC*071.13/38.00
KONKS,59.55055833333333,-144.00193611111112,ALASKA,ZAN,RP,MDO*VOR/DME*064.84/72.25
KOPEC,54.88149166666667,-162.50388611111111,ALASKA,ZAN,RP,CDB*VORTAC*143.99/25.00
KOPGE,66.87904999999999,-157.73661944444444,ALASKA,ZAN,RNAV,09/21/2007
KORKY,67.09243333333333,-157.00016666666667,ALASKA,ZAN,RNAV,06/09/2005
KORRL,57.0,-138.0,OFFSHORE PACIFIC,ZAN,RNAV,11/06/2015
KOSBE,61.872213888888886,-161.29248333333334,ALASKA,ZAN,RNAV,04/06/2004
KOTEC,66.92768055555555,-163.0855527777778,ALASKA,ZAN,RNAV,12/05/2014
KOTGE,58.09512777777778,-135.27780833333335,ALASKA,ZAN,RP,SSR*VORTAC*166.93/5.00
KOTIZ,55.30108055555555,-162.48891388888887,ALASKA,ZAN,RP,CDB*VORTAC*064.19/10.00
KOTKE,62.128875,-145.44554166666666,ALASKA,ZAN,RNAV,11/03/2006
KOTRE,61.76631666666667,-150.0641138888889,ALASKA,ZAN,RNAV,08/03/2006
KOWOK,59.208672222222226,-157.8478888888889,ALASKA,ZAN,RP,AKN*VORTAC*295.01/44.78
KOWWY,61.553549999999994,-159.65515,ALASKA,ZAN,RNAV,09/09/2009
KOYEG,57.05833611111111,-135.82684444444445,ALASKA,ZAN,RP,BKA*VORTAC*303.00/15.00
KOZAK,71.20101944444444,-156.17314444444443,ALASKA,ZAN,RNAV,05/10/2010
KOZMO,64.55141111111111,-147.00265,ALASKA,ZAN,MR,EIL*TACAN*140.00/6.60
KOZOC,63.007847222222225,-163.77054166666667,ALASKA,ZAN,RP,ENM*VOR/DME*041.37/23.84
KRAIT,58.635130555555556,-156.89272777777776,ALASKA,ZAN,RNAV,03/14/2016
KRIIS,64.6519138888889,-147.64948333333334,ALASKA,ZAN,RNAV,08/08/2012
KRNKL,64.66756111111111,-147.6129611111111,ALASKA,ZAN,RP,FAI*VORTAC*106.67/13.00
KROTO,61.696625,-150.29805277777777,ALASKA,ZAN,RNAV,06/01/2010
KRSSS,58.764675,-162.0582277777778,ALASKA,ZAN,MW,11/17/2015
KRUZO,57.29593055555555,-135.81429722222222,ALASKA,ZAN,WP,02/26/1998
KRYYS,61.8619,-162.08103055555554,ALASKA,ZAN,RNAV,03/19/2012
KUBNE,63.33461388888889,-162.4391138888889,ALASKA,ZAN,RNAV,05/05/2005
KUCET,61.10488333333333,-147.06915,ALASKA,ZAN,RP,JOH*VOR/DME*322.00/40.00
KUCYE,58.85456388888889,-162.36589444444445,ALASKA,ZAN,RNAV,07/07/2009
KUDBY,61.87784444444444,-165.73696388888888,ALASKA,ZAN,RNAV,06/22/2016
KUHQY,70.18143888888889,-146.81391944444445,ALASKA,ZAN,RNAV,08/06/2008
KUHZE,64.827325,-156.03163055555558,ALASKA,ZAN,RP,HSL*VOR/DME*151.84
KUKLE,57.75069166666667,-152.44000277777778,ALASKA,ZAN,RP,ADQ*LD*078.03/2.61
KUKYE,64.55432222222223,-165.76700000000002,ALASKA,ZAN,RP,OME*VOR/DME*276.60/13.96
KULBE,66.49690833333334,-147.02066666666667,ALASKA,ZAN,RNAV,12/28/2004
KUNAD,51.69416666666666,-162.6436111111111,,ZAN,RNAV,02/23/2012
KUNNA,57.340183333333336,-170.16788055555554,ALASKA,ZAN,RNAV,10/08/2010
KUNNE,63.385641666666665,-143.3845472222222,ALASKA,ZAN,RNAV,12/20/2005
KUPGE,64.97984444444445,-147.18091666666666,ALASKA,ZAN,RNAV,08/10/2012
KURCE,66.94108055555556,-161.04378333333332,ALASKA,ZAN,RNAV,07/07/2005
KUREY,61.37034166666667,-160.13846944444444,ALASKA,ZAN,RNAV,12/28/2004
KURLL,64.66444166666668,-148.47785277777777,ALASKA,ZAN,RNAV,11/03/2014
KUSEY,64.60268888888888,-163.6190527777778,ALASKA,ZAN,RNAV,10/17/2005
KUSKM,60.86561666666667,-161.75996666666666,ALASKA,ZAN,RNAV,05/17/2017
KUTAL,65.19165277777778,-168.97333333333333,,ZAN,RNAV,07/03/2017
KUTDE,66.32227499999999,-152.48358055555553,ALASKA,ZAN,RNAV,06/09/2005
KUTTE,64.124275,-159.07170555555555,ALASKA,ZAN,RNAV,09/01/2005
KUWOZ,64.32238333333333,-165.17573888888887,ALASKA,ZAN,RP,OME*VOR/DME*157.34/10.00
KUYEC,60.50318055555555,-161.78036944444446,ALASKA,ZAN,RNAV,08/26/2008
KUYNE,66.58660555555555,-150.70887777777776,ALASKA,ZAN,RNAV,07/18/2008
RABSE,69.7393111111111,-163.6082888888889,ALASKA,ZAN,RNAV,11/19/2004
RABUE,65.62482222222222,-156.88859166666666,ALASKA,ZAN,RNAV,08/07/2008
RACOC,56.81592777777777,-158.90167222222223,ALASKA,ZAN,RNAV,01/23/2007
RADKY,58.13344166666666,-134.4987583333333,ALASKA,ZAN,RP,CGL*NDB*134.79
RAGES,59.36204444444444,-158.20614999999998,ALASKA,ZAN,RP,AKN*VORTAC*295.01/59.16
RAKOF,56.75848611111111,-135.31029444444445,ALASKA,ZAN,RNAV,10/24/2014
RALRY,58.86321111111111,-158.67995555555555,ALASKA,ZAN,RNAV,07/08/2011
RAMAW,64.73481944444444,-157.20121944444443,ALASKA,ZAN,RNAV,07/26/2012
RAMEL,84.4999888888889,-168.973325,,ZAN,RNAV,07/03/2017
RAMMA,61.223333333333336,-149.38333333333333,ALASKA,ZAN,RNAV,08/03/2011
RAMPA,65.36534166666667,-149.84475555555557,ALASKA,ZAN,RP,ENN*VORTAC*316.49/50.65
RANMO,60.72933333333334,-147.27700000000002,ALASKA,ZAN,RP,JOH*VOR/DME*289.00/25.00
RANND,56.96434444444445,-169.993025,ALASKA,ZAN,RP,SPY*NDB/DME*135.74/14.00
RAPEE,64.59213333333332,-147.0365138888889,ALASKA,ZAN,MR,EIL*TACAN*/4.00
RAPOC,67.16950833333334,-146.037525,ALASKA,ZAN,RNAV,03/03/2008
RAPUE,57.480113888888894,-157.22403333333332,ALASKA,ZAN,RNAV,10/07/2003
RAPYU,60.6675,-147.35399999999998,ALASKA,ZAN,RP,JOH*VOR/DME*279.00/25.00
RATNE,60.90207777777778,-161.35464444444443,ALASKA,ZAN,RNAV,02/29/2012
RAVAC,66.61784444444444,-144.83050555555556,ALASKA,ZAN,RP,FYU*VORTAC*055.99/11.00
RAVOY,65.85806666666666,-163.16719999999998,ALASKA,ZAN,RNAV,12/01/2016
RAYKO,66.92904444444444,-159.74415,ALASKA,ZAN,RNAV,07/07/2005
RAYMD,55.598200000000006,-160.20929166666664,ALASKA,ZAN,RP,HBT*NDB/DME*016.75/20.00
RAYRE,56.91209722222222,-135.46846944444445,ALASKA,ZAN,WP,02/27/1998
RBURT,58.35798611111111,-134.59797500000002,ALASKA,ZAN,RNAV,05/18/2016
RDFLG,63.59090555555556,-143.8500388888889,ALASKA,ZAN,RP,ORT*VORTAC*283.28/65.26
REBOY,59.160558333333334,-160.26230833333332,ALASKA,ZAN,RNAV,04/18/2018
RECOR,66.83934444444444,-146.7281111111111,ALASKA,ZAN,RNAV,03/03/2008
REDOE,61.81641666666666,-165.21245,ALASKA,ZAN,RNAV,03/19/2012
REDOY,61.713236111111115,-159.55841111111113,ALASKA,ZAN,RNAV,09/09/2009
REDXX,61.909166666666664,-149.12944444444446,ALASKA,ZAN,RNAV,05/07/2015
REEBA,65.08457777777777,-151.0146138888889,ALASKA,ZAN,RP,TAL*VOR/DME*081.18/30.00
REGNE,70.09838333333333,-146.51352222222224,ALASKA,ZAN,RNAV,10/11/2012
REJXO,63.72383611111111,-170.34836111111113,ALASKA,ZAN,RNAV,10/05/2011
RELMY,65.55241111111111,-146.16930555555555,ALASKA,ZAN,RP,FAI*VORTAC*024.00/65.00
RELOC,67.01138055555556,-159.77159444444445,ALASKA,ZAN,RNAV,07/07/2005
REMBY,60.666666666666664,-146.0,ALASKA,ZAN,WP,07/25/2012
REREE,57.750166666666665,-152.41296111111112,ALASKA,ZAN,RP,ADQ*LD*078.03/3.48
RESTO,65.16567222222223,-147.13645555555556,ALASKA,ZAN,MR,EIL*TACAN*339.00/30.92
RESUM,84.24589444444445,-141.0,OFFSHORE PACIFIC,ZAN,RNAV,06/02/2014
RESVE,62.03321388888889,-165.81189722222223,ALASKA,ZAN,RNAV,06/16/2009
REZTO,57.01710277777778,-132.91013611111111,ALASKA,ZAN,RNAV,12/13/2011
RIBIT,55.90555555555555,-129.9186111111111,,ZAN,RNAV,02/16/2010
RICKR,61.236605555555556,-149.988925,ALASKA,ZAN,RNAV,12/13/2011
RICOC,61.91607222222222,-145.61913333333334,ALASKA,ZAN,RP,GKN*VOR/DME*175.82/15.10
RICVO,62.919552777777774,-163.68739444444444,ALASKA,ZAN,RP,OME*VOR/DME*144.37/103.08
RIDOY,55.172533333333334,-162.7033361111111,ALASKA,ZAN,RP,CDB*VORTAC*/6.20
RIFFS,63.54223333333333,-148.93811944444445,ALASKA,ZAN,RNAV,04/13/2017
RIGAE,61.615991666666666,-149.20323055555554,ALASKA,ZAN,RNAV,07/08/2011
RIGGG,70.1373638888889,-147.20745277777777,ALASKA,ZAN,RP,SCC*VOR/DME*081.00/25.00
RIGGS,68.94043888888889,-147.20314444444443,ALASKA,ZAN,RP,SCC*VOR/DME*143.82/80.00
RIGTE,55.47205277777778,-162.66033055555556,ALASKA,ZAN,RNAV,10/03/2012
RIKKO,59.16207222222222,-135.43120277777777,ALASKA,ZAN,RNAV,07/03/2013
RIMSE,64.67925833333334,-148.1110527777778,ALASKA,ZAN,RNAV,10/27/2014
RINGO,59.75022777777778,-154.902075,ALASKA,ZAN,RP,AKN*VORTAC*025.96/84.00
RINLE,70.17113611111111,-148.72303333333335,ALASKA,ZAN,RNAV,02/19/2016
RIPOY,66.53817777777778,-152.73934999999997,ALASKA,ZAN,RNAV,07/08/2011
RIPUE,64.58371944444444,-165.9901222222222,ALASKA,ZAN,RP,OME*VOR/DME*276.60/20.00
RIROE,66.82724999999999,-162.86596666666665,ALASKA,ZAN,RP,08/09/2017
RIROQ,70.48788611111111,-160.4258111111111,ALASKA,ZAN,RNAV,09/25/2009
RITUE,66.91254722222223,-146.82780277777778,ALASKA,ZAN,RNAV,11/18/2008
RIVOR,64.16304722222223,-146.15625,ALASKA,ZAN,RP,BIG*VORTAC*286.74/15.00
RIVVA,61.888533333333335,-145.48745277777778,ALASKA,ZAN,RP,GKN*VOR/DME*161.08/16.00
RIXAE,57.828833333333336,-152.04544444444446,ALASKA,ZAN,RP,ODK*VOR/DME*056.98/10.02
RIYOK,64.82322777777777,-163.50168888888888,ALASKA,ZAN,RNAV,11/05/2013
RIYON,68.02214722222222,-145.8143527777778,ALASKA,ZAN,RNAV,12/01/2005
RNDRR,64.64370555555556,-147.42811666666665,ALASKA,ZAN,RNAV,05/01/2017
RNICH,61.27803333333333,-150.345,ALASKA,ZAN,MR,EDF*TACAN*257.00/16.74
ROAAD,64.74446111111111,-147.49311944444443,ALASKA,ZAN,RNAV,07/26/2012
ROBES,61.09757777777778,-146.19035555555556,ALASKA,ZAN,RP,JOH*VOR/DME*359.78/39.00
ROBUE,62.451975000000004,-160.2372333333333,ALASKA,ZAN,RNAV,07/29/2008
ROCES,70.14285833333334,-144.13766388888888,ALASKA,ZAN,RNAV,09/29/2016
ROCET,62.6,-171.66666666666666,ALASKA,ZAN,RNAV,04/16/2009
ROCMU,66.80618055555556,-160.3033,ALASKA,ZAN,RNAV,11/24/2009
ROCOL,56.795741666666665,-132.7751777777778,ALASKA,ZAN,RNAV,08/31/2004
ROCON,58.27773055555556,-134.98588888888887,ALASKA,ZAN,RNAV,06/04/2003
RODER,68.62840277777777,-149.61603333333332,ALASKA,ZAN,RP,GBH*NDB*321.99
RODMN,57.468183333333336,-135.37634722222222,ALASKA,ZAN,RNAV,10/24/2014
RODOC,56.83721666666667,-132.90786111111112,ALASKA,ZAN,RNAV,12/13/2011
RODOY,62.054138888888886,-161.42024444444442,ALASKA,ZAN,RNAV,04/06/2004
ROFZU,54.290727777777775,-166.3669138888889,ALASKA,ZAN,RNAV,06/08/2000
ROGOC,58.803266666666666,-160.66953055555555,ALASKA,ZAN,RP,TOG*NDB/DME*195.36
ROGVE,60.03671388888889,-162.09985833333334,ALASKA,ZAN,RNAV,04/02/2008
ROHAN,59.43845555555555,-139.79818333333333,ALASKA,ZAN,RNAV,06/24/2013
ROHHN,61.777858333333334,-150.97291666666666,ALASKA,ZAN,RP,BGQ*VORTAC*275.00/31.37
ROJAM,65.33333333333333,-150.08333333333334,ALASKA,ZAN,MW,12/10/2013
ROJAR,60.56022222222222,-150.94864722222223,ALASKA,ZAN,RP,ENA*VOR/DME*095.08/8.00
ROKIY,56.975975000000005,-135.351725,ALASKA,ZAN,RNAV,10/24/2014
ROLLR,60.85635555555556,-162.20561666666666,ALASKA,ZAN,RP,BET*VORTAC*277.18/12.00
ROLOE,65.06298333333334,-147.12784722222224,ALASKA,ZAN,MR,EIL*TACAN*339.00/24.65
ROLOY,59.00159444444444,-155.44885833333333,ALASKA,ZAN,RNAV,07/07/2014
ROMAC,60.60316388888889,-161.99226388888889,ALASKA,ZAN,RNAV,05/17/2017
RONOC,57.42353611111111,-134.68601111111113,ALASKA,ZAN,RNAV,08/31/2004
RONYE,66.92779444444444,-158.0429861111111,ALASKA,ZAN,RNAV,11/23/2016
ROPEE,64.98384722222222,-147.55029722222224,ALASKA,ZAN,RNAV,08/10/2012
ROSII,64.96270555555556,-153.243475,ALASKA,ZAN,RP,TAL*VOR/DME*226.00/30.00
ROSOC,66.21095,-166.28051944444445,ALASKA,ZAN,RNAV,06/27/2005
ROVZU,58.225,-134.65,ALASKA,ZAN,RNAV,07/12/2004
ROXOE,55.61994166666667,-159.55891111111112,ALASKA,ZAN,RNAV,01/10/2005
ROYBO,65.8144361111111,-161.17700555555555,ALASKA,ZAN,RNAV,05/03/2007
ROYLE,55.30256388888888,-131.62284444444444,ALASKA,ZAN,RNAV,09/12/2016
ROYOY,64.51999444444445,-149.55653055555555,ALASKA,ZAN,RNAV,09/09/2009
ROZMO,55.287258333333334,-131.59665833333335,ALASKA,ZAN,RNAV,07/21/2008
RRBEN,62.8,-150.65,ALASKA,ZAN,RNAV,04/20/2015
RRIDG,58.35903611111111,-134.63265833333335,ALASKA,ZAN,RNAV,10/24/2014
RRLND,58.87195,-161.78739444444443,ALASKA,ZAN,MW,10/31/2017
RRROB,61.32519444444445,-150.61703888888889,ALASKA,ZAN,RNAV,12/13/2011
RUBBY,65.13300555555554,-155.51585,ALASKA,ZAN,MW,12/10/2013
RUBYO,64.79225277777778,-155.28245833333335,ALASKA,ZAN,RNAV,06/11/2008
RUDOC,55.35717777777778,-133.557525,ALASKA,ZAN,RNAV,08/31/2004
RUFVY,59.94282222222222,-164.03436666666667,ALASKA,ZAN,RNAV,07/24/2013
RUFZA,63.79792222222222,-170.06003611111112,ALASKA,ZAN,RNAV,10/05/2011
RUGSE,66.76774722222223,-143.318275,ALASKA,ZAN,RNAV,07/11/2005
RUJUV,59.75779166666667,-155.22034444444444,ALASKA,ZAN,RNAV,01/12/2009
RUKIE,58.184066666666666,-135.63640833333332,ALASKA,ZAN,RP,SSR*VORTAC*252.00/12.00
RUKOY,63.02469722222222,-154.33152777777778,ALASKA,ZAN,RNAV,09/01/2005
RUNOC,61.10816388888889,-146.45425277777775,ALASKA,ZAN,RP,VDZ*DD*SW CRS/7.00
RUNOF,60.46623055555556,-145.3597611111111,ALASKA,ZAN,RNAV,09/12/2016
RUNTL,61.440838888888884,-151.492125,ALASKA,ZAN,RP,TED*VOR/DME*273.00/47.27
RUNTZ,61.381908333333335,-150.25863611111112,ALASKA,ZAN,RNAV,01/20/2015
RUNUW,52.00403611111111,-176.15095277777777,ALASKA,ZAN,RP,ADK*NDB/DME*060.64/21.00
RUPTE,66.3359,-147.61497777777777,ALASKA,ZAN,RNAV,12/28/2004
RUROC,59.60221666666667,-146.09988333333334,ALASKA,ZAN,RNAV,11/25/2005
RUSCI,56.50857777777778,-132.45114999999998,ALASKA,ZAN,RNAV,11/29/2012
RUSKE,67.09582222222221,-145.93914444444445,ALASKA,ZAN,RNAV,11/18/2008
RUSOR,61.23313888888889,-177.9308888888889,,ZAN,RNAV,05/20/2015
RUTDO,68.88740277777778,-165.47359444444444,ALASKA,ZAN,MW,02/24/2014
RUTOY,63.96863333333334,-149.04983055555556,ALASKA,ZAN,RNAV,04/13/2017
RUVHO,61.859180555555554,-163.3189972222222,ALASKA,ZAN,RNAV,01/17/2008
RUYOC,55.57573055555556,-132.09484722222223,ALASKA,ZAN,RP,ECH*LD*NW CRS/19.47
RUZOF,63.83040555555556,-171.3772277777778,ALASKA,ZAN,RP,GAM*NDB/DME*064.88/10.00
RYVER,56.99462777777778,-135.3305472222222,ALASKA,ZAN,RNAV,10/24/2014
GABGE,65.8887888888889,-156.0948277777778,ALASKA,ZAN,RNAV,08/07/2008
GABRI,68.58816666666667,-149.6458361111111,ALASKA,ZAN,RP,01/13/2011
GACCU,58.737605555555554,-158.58929722222223,ALASKA,ZAN,RNAV,12/21/2009
GACEY,64.35820833333332,-163.3859611111111,ALASKA,ZAN,RNAV,10/17/2005
GADEK,62.70851944444445,-155.9479861111111,ALASKA,ZAN,MW,06/03/2011
GAGTE,59.216455555555555,-155.42827499999999,ALASKA,ZAN,RNAV,07/07/2014
GAHAM,62.24945833333334,-141.0,,ZAN,RNAV,06/21/2010
GAITS,64.74656944444445,-165.36431666666667,ALASKA,ZAN,RP,OME*VOR/DME*338.71/16.00
GAKCE,61.82848055555556,-163.64400833333332,ALASKA,ZAN,RNAV,03/19/2012
GAKKE,58.52528611111111,-156.3269222222222,ALASKA,ZAN,RNAV,07/17/2008
GALGE,59.43889722222222,-139.55992222222224,ALASKA,ZAN,RP,YAK*VOR/DME*128.00/5.10
GANEF,52.17789444444444,-173.89621666666665,ALASKA,ZAN,RNAV,02/12/2010
GANES,63.102130555555554,-156.3442388888889,ALASKA,ZAN,RP,MCG*VORTAC*275.74/22.00
GARRS,58.31827777777778,-161.34215,ALASKA,ZAN,RP,AUB*NDB*246.00
GARRY,37.318333333333335,-150.52333333333334,OFFSHORE PACIFIC,ZAN,RP,03/27/1995
GASTO,60.94398888888889,-151.0453222222222,ALASKA,ZAN,RP,TED*VOR/DME*229.42/34.40
GATIF,51.951175000000006,-176.44815833333334,ALASKA,ZAN,RP,ADK*NDB/DME*053.55/9.67
GAYEY,60.496969444444446,-161.9483972222222,ALASKA,ZAN,RNAV,08/25/2008
GAYLL,60.885038888888886,-149.21977777777778,ALASKA,ZAN,RNAV,07/18/2012
GECEY,56.90971944444444,-132.89287222222222,ALASKA,ZAN,RNAV,08/31/2004
GECNE,56.78746666666667,-158.84785000000002,ALASKA,ZAN,RP,PDN*NDB/DME*197.28/12.00
GEDEE,60.933522222222216,-152.17887222222222,ALASKA,ZAN,RNAV,03/24/2014
GEIKI,58.63048333333333,-136.44194722222224,ALASKA,ZAN,RNAV,05/16/2016
GELKE,66.50707777777778,-153.00289166666667,ALASKA,ZAN,RNAV,06/16/2004
GELRE,64.38728333333334,-165.9880638888889,ALASKA,ZAN,RP,OME*VOR/DME*242.21/20.00
GENFU,55.38851111111111,-163.1057722222222,ALASKA,ZAN,RP,CDB*VORTAC*288.79/13.50
GERDE,61.89846388888889,-153.39647499999998,ALASKA,ZAN,MW,12/10/2013
GERKS,58.51540277777778,-151.41679166666665,ALASKA,ZAN,RP,HOM*VOR/DME*164.00/71.83
GESSE,55.53810555555555,-159.87788333333333,ALASKA,ZAN,RNAV,05/11/2012
GESTE,68.0335861111111,-152.11462777777777,ALASKA,ZAN,RNAV,01/22/2008
GESTI,55.432630555555555,-131.964,ALASKA,ZAN,RP,ANN*VOR/DME*308.54/26.00
GEVEY,59.30770833333333,-155.28715,ALASKA,ZAN,RNAV,05/26/2006
GEYED,55.899408333333334,-159.17156944444443,ALASKA,ZAN,RNAV,11/14/2006
GEYET,63.35000277777778,-143.04671944444445,ALASKA,ZAN,RNAV,10/05/2006
GEYHY,64.5788861111111,-156.66679444444443,ALASKA,ZAN,RP,GAL*VOR/DME*146.41/10.00
GGABI,58.31928611111111,-134.70400833333332,ALASKA,ZAN,RNAV,05/18/2016
GGOAT,64.68329444444444,-148.4577111111111,ALASKA,ZAN,RNAV,10/16/2015
GIACO,64.11875277777777,-145.49726388888888,ALASKA,ZAN,MR,BIG*VORTAC*017.00/9.00
GIBRY,60.40601111111111,-166.1086861111111,ALASKA,ZAN,RNAV,09/18/2006
GICHY,52.646058333333336,-174.56863055555556,ALASKA,ZAN,MR,SYA*VORTAC*100.00/19.00
GIDBE,66.02517777777777,-162.85068333333334,ALASKA,ZAN,RNAV,11/23/2016
GIDCE,64.55533333333334,-163.02279722222224,ALASKA,ZAN,RNAV,10/17/2005
GIDKE,51.99205555555556,-176.32951111111112,ALASKA,ZAN,CN,11/28/2006
GIDLE,59.9377,-154.90455,ALASKA,ZAN,RNAV,07/11/2005
GIGRE,67.00633611111111,-163.15349166666667,ALASKA,ZAN,RNAV,12/05/2014
GIGZO,58.737655555555556,-159.00866944444445,ALASKA,ZAN,RNAV,07/07/2009
GIKDE,66.79637222222222,-150.6719472222222,ALASKA,ZAN,RNAV,07/01/2008
GIMOW,66.84835277777778,-156.9612972222222,ALASKA,ZAN,RNAV,06/26/2009
GINAA,61.85651111111111,-162.2089222222222,ALASKA,ZAN,RNAV,03/19/2012
GINTE,64.83933333333333,-147.34356944444446,ALASKA,ZAN,MW,05/05/2011
GINTT,57.026130555555554,-135.3238027777778,ALASKA,ZAN,RNAV,11/10/2014
GIRTS,55.12238611111111,-131.64201944444443,ALASKA,ZAN,RP,ANN*VOR/DME*308.54/4.32
GLACR,58.757802777777776,-136.92673333333332,ALASKA,ZAN,RNAV,05/16/2016
GLAZZ,58.1195,-134.13266666666667,ALASKA,ZAN,WP,10/23/2014
GLDHL,64.87253055555554,-148.05538333333334,ALASKA,ZAN,RNAV,10/24/2014
GLENT,55.4077,-162.53128611111111,ALASKA,ZAN,RP,CDB*VORTAC*/11.85
GLIBB,62.67086111111111,-155.99744444444443,ALASKA,ZAN,MW,07/03/2013
GLLOD,57.0,-149.71666666666667,OFFSHORE PACIFIC,ZAN,RNAV,11/06/2015
GLNCO,65.5410888888889,-167.91732499999998,ALASKA,ZAN,MW,04/14/2014
GLOOP,64.44838888888889,-165.57301388888888,ALASKA,ZAN,RNAV,10/08/2014
GLOWS,64.43774444444445,-148.25496666666666,ALASKA,ZAN,RP,ENN*VORTAC*092.00/23.11
GOBNE,69.58520277777777,-163.4308111111111,ALASKA,ZAN,RNAV,11/19/2004
GOCEK,60.468472222222225,-145.36979444444447,ALASKA,ZAN,RNAV,11/20/2012
GOCNE,60.68258888888889,-147.07018888888888,ALASKA,ZAN,RNAV,12/10/2011
GODBE,66.6166611111111,-159.9193111111111,ALASKA,ZAN,RP,WLK*VOR/DME*042.81/2.00
GODVE,70.3221611111111,-149.72058333333334,ALASKA,ZAN,RP,RHF*LD*236.37/3.28
GOLLY,64.90247500000001,-149.01444722222223,ALASKA,ZAN,RP,ENN*VORTAC*343.54/18.87
GOLOS,64.28821666666667,-163.58700000000002,ALASKA,ZAN,RP,OME*VOR/DME*093.52/45.00
GOMRE,66.50691388888889,-160.63977777777777,ALASKA,ZAN,RNAV,05/10/2007
GOOKY,64.51728888888888,-165.09792222222222,ALASKA,ZAN,RNAV,08/09/2017
GOOSE,61.365,-150.08666666666667,ALASKA,ZAN,WP,10/02/1995
GORBY,56.82677777777778,-132.81363611111112,ALASKA,ZAN,RNAV,08/05/2016
GOSKE,64.55045,-147.2748777777778,ALASKA,ZAN,MR,EIL*TACAN*198.02/7.78
GOTGE,65.92770277777778,-162.29935277777778,ALASKA,ZAN,RNAV,11/23/2016
GOTSE,55.98721388888889,-160.82606388888888,ALASKA,ZAN,RNAV,10/07/2003
GOVBE,60.88533611111111,-162.00926666666666,ALASKA,ZAN,RNAV,08/25/2008
GOYWI,62.72184166666667,-163.50310555555555,ALASKA,ZAN,RNAV,09/11/2012
GRAAY,68.96409722222222,-165.58632222222224,ALASKA,ZAN,MR,LUR*NDB/DME*050.00/12.00
GRANL,61.21992777777778,-150.17655,ALASKA,ZAN,MR,EDF*TACAN*242.05/12.00
GRANY,65.08967777777778,-161.0021277777778,ALASKA,ZAN,MR,GAL*VOR/DME*260.00/110.00
GRENN,61.11654722222222,-151.29172777777777,ALASKA,ZAN,MR,EDF*TACAN*235.00/45.00
GRIDE,61.13277222222222,-151.1232277777778,ALASKA,ZAN,MR,EDF*TACAN*235.00/40.00
GRIZZ,57.11494722222223,-148.5019861111111,ALASKA,ZAN,RP,10/24/1990
GRUUB,61.355875000000005,-150.57165,ALASKA,ZAN,MR,EDF*TACAN*267.00/24.00
GRZLE,65.18495,-148.14178333333334,ALASKA,ZAN,RNAV,07/23/2012
GUBEY,56.84075833333333,-154.13468055555555,ALASKA,ZAN,RNAV,02/20/2007
GUCEN,56.34825,-158.3277861111111,ALASKA,ZAN,RNAV,02/13/2004
GUIDE,60.93382777777777,-155.15995555555557,ALASKA,ZAN,MW,06/27/2011
GULEY,64.17050833333334,-157.89376388888888,ALASKA,ZAN,RNAV,07/11/2005
GULGE,55.50378611111111,-132.09964444444446,ALASKA,ZAN,RNAV,08/30/2004
GULME,56.472436111111115,-132.32761666666667,ALASKA,ZAN,RNAV,11/29/2012
GULVY,56.519105555555555,-132.58798333333334,ALASKA,ZAN,RNAV,04/01/2002
GUMEE,56.763616666666664,-132.99781388888889,ALASKA,ZAN,RNAV,08/05/2016
GUMLE,58.588525000000004,-135.04957222222222,ALASKA,ZAN,RNAV,07/03/2013
GUNRE,65.98824166666667,-161.17557777777776,ALASKA,ZAN,RNAV,05/04/2007
GUSPE,65.17880277777778,-166.03011944444447,ALASKA,ZAN,RNAV,04/14/2014
GUSTR,62.084611111111116,-153.2756916666667,ALASKA,ZAN,MR,EDF*TACAN*280.00/112.00
GUVLE,64.78886666666666,-164.93941111111113,ALASKA,ZAN,RP,OME*VOR/DME*012.75/20.00
GUYEL,65.23648888888889,-166.78474722222222,ALASKA,ZAN,RNAV,09/28/2004
GUYER,66.75804444444445,-156.51123055555556,ALASKA,ZAN,RNAV,10/05/2011
GUYET,65.241775,-166.12544444444444,ALASKA,ZAN,RNAV,09/28/2004
GUZHA,64.12157222222221,-145.33883333333335,ALASKA,ZAN,MW,11/28/2006
GYROS,65.53965555555556,-145.38555833333334,ALASKA,ZAN,MR,FAI*VORTAC*034.00/80.00
GYVES,58.12345277777778,-134.52141944444446,ALASKA,ZAN,RP,10/24/2014
FABAX,69.97945833333334,-143.0742972222222,ALASKA,ZAN,RNAV,09/28/2016
FABMU,59.094325000000005,-156.10473888888887,ALASKA,ZAN,RNAV,09/03/2003
FABSO,61.902280555555556,-161.84431666666669,ALASKA,ZAN,RNAV,01/17/2008
FACAD,59.34408333333334,-139.98190833333334,ALASKA,ZAN,RNAV,06/21/2013
FAGIN,59.86559722222222,-155.5453611111111,ALASKA,ZAN,RP,ILI*NDB/DME*273.43
FAIRE,64.15610277777779,-165.36009444444443,ALASKA,ZAN,RP,OME*VOR/DME*177.07/20.00
FAKES,58.98241388888889,-137.80799722222224,ALASKA,ZAN,RP,YAK*VOR/DME*098.48/65.00
FALCO,64.98342777777778,-147.36216666666667,ALASKA,ZAN,MR,EIL*TACAN*322.00/21.00
FALIK,71.28482222222222,-156.59325555555557,ALASKA,ZAN,RNAV,01/25/2017
FALIR,60.47436388888889,-150.6708138888889,ALASKA,ZAN,RNAV,07/19/2007
FALOP,66.60716388888888,-159.95891388888887,ALASKA,ZAN,RNAV,05/14/2007
FALRO,66.79622777777777,-162.30811111111112,ALASKA,ZAN,RNAV,08/09/2017
FALRU,59.08237777777778,-159.43633055555557,ALASKA,ZAN,RNAV,01/20/2004
FALUD,61.60521666666667,-159.40275555555556,ALASKA,ZAN,RNAV,09/09/2009
FALUX,65.03763888888889,-147.43456111111112,ALASKA,ZAN,RNAV,03/23/2009
FAMEK,61.13158888888889,-154.49713888888888,ALASKA,ZAN,RNAV,03/29/2018
FAMUN,70.46600833333333,-150.16755277777776,ALASKA,ZAN,RP,SCC*VOR/DME*272.16/39.00
FAMUR,65.42984722222222,-167.8859111111111,ALASKA,ZAN,RP,TNC*NDB/DME*160.00/8.00
FANCI,61.309083333333334,-164.81511666666668,ALASKA,ZAN,RP,HPB*VOR/DME*094.40/40.00
FANKA,60.759930555555556,-151.3600972222222,ALASKA,ZAN,RP,ENA*VOR/DME*311.97/10.00
FANUB,64.17687222222223,-161.04140555555554,ALASKA,ZAN,RNAV,06/26/2009
FAPEP,65.59909166666667,-145.03726944444443,ALASKA,ZAN,RNAV,03/13/2014
FAPLO,60.85921388888889,-161.7614,ALASKA,ZAN,RNAV,05/17/2017
FAPUK,56.47119166666667,-132.62101944444444,ALASKA,ZAN,RNAV,04/29/2013
FAPUN,61.63685,-149.30559444444447,ALASKA,ZAN,RNAV,07/08/2011
FARME,66.945075,-161.5358361111111,ALASKA,ZAN,RP,OTZ*VOR/DME*065.97/24.00
FARPU,65.92936666666667,-160.94341944444446,ALASKA,ZAN,RNAV,05/04/2007
FASGI,59.221325,-160.18501944444444,ALASKA,ZAN,RNAV,12/21/2005
FATEL,60.650277777777774,-151.15152222222224,ALASKA,ZAN,RP,ENA*VOR/DME*012.10/2.50
FATIS,66.80731944444445,-159.6286138888889,ALASKA,ZAN,RNAV,05/10/2007
FATMU,57.01245,-170.43970277777777,ALASKA,ZAN,RP,SPY*NDB/DME*208.01/11.00
FATUR,66.02936944444444,-153.20648055555554,ALASKA,ZAN,MW,12/29/2014
FAVSO,65.81130277777777,-168.02619444444446,ALASKA,ZAN,RNAV,05/06/2004
FAXEK,68.36666666666666,-145.12244722222223,ALASKA,ZAN,RNAV,12/01/2005
FAXOV,64.64850833333334,-147.19156111111113,ALASKA,ZAN,MR,FAI*VORTAC*092.00/23.00
FEBOD,59.75439444444444,-155.04585,ALASKA,ZAN,RNAV,01/12/2009
FECFO,64.85296944444444,-155.720025,ALASKA,ZAN,RP,GAL*VOR/DME*058.23/28.00
FEDBO,57.579972222222224,-157.88989166666667,ALASKA,ZAN,RNAV,10/07/2003
FEDMA,60.77482222222222,-161.69081111111112,ALASKA,ZAN,RNAV,01/28/2004
FEDNO,61.24283888888889,-149.91184444444445,ALASKA,ZAN,MR,EDF*TACAN*/4.20
FEFTU,71.20086666666667,-157.35963611111112,ALASKA,ZAN,RNAV,05/13/2010
FEGEK,66.25410277777777,-162.40821944444446,ALASKA,ZAN,RNAV,11/23/2016
FEGEL,64.05577777777778,-151.91318611111112,ALASKA,ZAN,RNAV,12/22/2005
FEGVI,54.950005555555556,-162.45629166666666,ALASKA,ZAN,RP,CDB*VORTAC*136.00/22.00
FELAW,60.46942222222222,-145.37406111111113,ALASKA,ZAN,RP,CDV*LD*E CRS/4.10
FELEN,56.96760277777778,-133.93529166666667,ALASKA,ZAN,RP,AFE*NDB/DME*265.10/0.80
FELOS,66.99059444444444,-158.43537777777777,ALASKA,ZAN,RNAV,11/23/2016
FELTI,59.18811944444444,-161.98306666666667,ALASKA,ZAN,RNAV,10/08/2010
FELUM,58.596333333333334,-156.47758333333334,ALASKA,ZAN,RNAV,07/17/2008
FELUN,64.43669444444444,-146.900425,ALASKA,ZAN,MR,EIL*TACAN*/14.00
FEMDA,59.667405555555554,-157.40747222222222,ALASKA,ZAN,RNAV,10/05/2007
FENLO,51.95619444444445,-176.43340555555557,ALASKA,ZAN,RP,ADK*NDB/DME*/10.31
FENOM,68.1283,-166.6685611111111,ALASKA,ZAN,RNAV,09/09/2013
FENUG,61.52656666666667,-160.32112222222221,ALASKA,ZAN,RNAV,12/28/2004
FEPNO,64.45726111111111,-158.40065833333333,ALASKA,ZAN,RNAV,06/26/2009
FEPTO,64.48240555555556,-165.50305277777778,ALASKA,ZAN,RNAV,08/09/2017
FEPUX,69.72303611111111,-162.4131138888889,ALASKA,ZAN,RNAV,11/19/2004
FEREK,64.95859166666666,-147.59742500000002,ALASKA,ZAN,RP,FAI*LD*020.08/12.13
FERKU,66.79433611111111,-161.23924166666666,ALASKA,ZAN,RNAV,11/24/2009
FERSU,65.94284722222223,-160.94899166666667,ALASKA,ZAN,RP,BVK*NDB/DME*099.24/5.39
FESOL,58.647844444444445,-156.58729444444447,ALASKA,ZAN,RNAV,09/09/2004
FESVA,55.31801388888889,-131.64931666666666,ALASKA,ZAN,RNAV,07/17/2008
FETOB,59.53378055555555,-139.7086611111111,ALASKA,ZAN,RP,YAK*VOR/DME*/2.31
FETUP,65.24392777777778,-166.21505833333333,ALASKA,ZAN,RNAV,04/14/2014
FEVBO,55.74606111111111,-159.2636388888889,ALASKA,ZAN,RNAV,05/11/2012
FEVKU,59.06366388888888,-160.3798027777778,ALASKA,ZAN,RNAV,04/19/2018
FEVON,59.233725,-157.33738055555557,ALASKA,ZAN,RNAV,10/05/2007
FEVOV,70.4711638888889,-155.82260833333333,ALASKA,ZAN,RNAV,04/10/2007
FEXIG,59.93315,-157.49685555555556,ALASKA,ZAN,RNAV,07/21/2015
FEXIM,68.60338333333333,-149.66784166666665,ALASKA,ZAN,RNAV,07/28/2008
FFITZ,62.14771944444444,-152.89154166666665,ALASKA,ZAN,RP,MCG*VORTAC*102.40/89.69
FIBAK,70.51158333333333,-158.1580638888889,ALASKA,ZAN,RNAV,12/22/2005
FIBEB,66.11887777777777,-162.93192499999998,ALASKA,ZAN,RNAV,11/23/2016
FIBEX,64.99547777777778,-147.5319777777778,ALASKA,ZAN,RP,FAI*VORTAC*025.00/17.00
FIDAL,60.73408333333333,-146.4334472222222,ALASKA,ZAN,RP,JOH*VOR/DME*359.78/16.00
FIDIP,65.75880555555555,-155.84264722222224,ALASKA,ZAN,RNAV,08/07/2008
FIDKA,66.83476388888889,-143.4426,ALASKA,ZAN,RNAV,07/11/2005
FIDOD,66.61732777777777,-152.04707222222223,ALASKA,ZAN,RNAV,06/16/2004
FIDRO,61.932338888888886,-165.68734444444445,ALASKA,ZAN,RNAV,06/15/2009
FIETR,61.50333611111111,-149.81463611111113,ALASKA,ZAN,MR,EDF*TACAN*337.00/15.00
FIGAN,56.232525,-157.78529444444445,ALASKA,ZAN,RP,PDN*NDB/DME*130.20
FIGED,64.30980277777778,-158.763775,ALASKA,ZAN,RNAV,09/01/2005
FIGRO,63.99906111111111,-149.45957222222222,ALASKA,ZAN,RNAV,04/13/2017
FIGUS,57.70006111111111,-152.32588055555556,ALASKA,ZAN,RNAV,10/26/2015
FIIAT,68.20975,-151.58096388888887,ALASKA,ZAN,RNAV,01/23/2008
FIKBU,64.62339999999999,-163.29991666666666,ALASKA,ZAN,RP,MOS*VOR/DME*246.65/32.00
FIKEV,56.51005277777778,-132.47329166666668,ALASKA,ZAN,RP,RGL*DD*273.00/4.00
FIKOR,70.22351111111111,-150.89718055555554,ALASKA,ZAN,RNAV,07/08/2011
FILAD,57.58027222222223,-157.73510277777777,ALASKA,ZAN,RNAV,10/07/2003
FILAP,60.776938888888886,-146.96688333333333,ALASKA,ZAN,RNAV,12/10/2011
FILIK,63.055658333333334,-154.19525000000002,ALASKA,ZAN,RNAV,09/01/2005
FILIN,64.70274722222223,-155.53996388888888,ALASKA,ZAN,RNAV,03/30/2004
FILKI,51.95539166666667,-176.4356138888889,ALASKA,ZAN,RNAV,12/16/2009
FIMIB,60.72376944444444,-147.72511666666668,ALASKA,ZAN,RNAV,12/10/2011
FIMUN,61.536138888888885,-149.83828055555557,ALASKA,ZAN,RNAV,02/13/2006
FINOD,65.54186944444444,-144.46068333333332,ALASKA,ZAN,RNAV,03/13/2014
FIPAM,56.213275,-132.81875833333334,ALASKA,ZAN,RNAV,07/12/2004
FIPDO,64.43573333333333,-164.8856861111111,ALASKA,ZAN,RP,OME*VOR/DME*096.12/10.00
FIPNU,68.17059166666667,-145.43786666666668,ALASKA,ZAN,RNAV,12/01/2005
FIPSU,67.954425,-148.2258138888889,ALASKA,ZAN,RNAV,02/18/2010
FIPUV,64.49261666666666,-165.24264444444444,ALASKA,ZAN,RNAV,08/09/2017
FIRAV,70.31491666666666,-151.05874444444444,ALASKA,ZAN,RNAV,12/10/2011
FIRDA,69.7276138888889,-163.04415,ALASKA,ZAN,RNAV,06/11/2008
FISEP,65.1742888888889,-152.13218055555555,ALASKA,ZAN,RNAV,05/31/2005
FISHD,57.06285,-135.38993333333332,ALASKA,ZAN,RNAV,11/04/2014
FISHH,61.042969444444445,-160.60313333333332,ALASKA,ZAN,RP,BET*VORTAC*052.00/39.00
FISTT,57.03929722222222,-135.34749166666668,ALASKA,ZAN,RNAV,11/04/2014
FITOD,57.12994722222222,-135.51725833333336,ALASKA,ZAN,RP,SIT*DD*W CRS/7.01
FITUT,65.49086944444444,-156.56510277777778,ALASKA,ZAN,RP,HSL*VOR/DME*182.15/14.00
FITUX,55.047758333333334,-162.04243888888888,ALASKA,ZAN,RNAV,11/19/2004
FIVHD,58.10990555555556,-135.28846944444444,ALASKA,ZAN,RNAV,11/18/2009
FIWWI,67.17171944444445,-163.31022222222222,ALASKA,ZAN,RP,OTZ*VOR/DME*298.90/25.00
FJORD,60.98608333333333,-146.76026666666667,ALASKA,ZAN,RNAV,08/01/2014
FLAAT,64.27333333333333,-146.89499999999998,ALASKA,ZAN,MW,12/10/2013
FLIPS,56.57571666666667,-134.8797138888889,ALASKA,ZAN,RP,BKA*VORTAC*107.25/28.00
FOBAV,56.53615277777777,-132.5238388888889,ALASKA,ZAN,RNAV,04/29/2013
FODAL,62.78854444444444,-159.57035277777777,ALASKA,ZAN,RNAV,08/25/2008
FODEK,60.72061388888889,-162.2807916666667,ALASKA,ZAN,RNAV,08/25/2008
FODOS,67.03901666666667,-150.78305,ALASKA,ZAN,RNAV,06/30/2008
FODUV,66.14389166666668,-153.25584722222223,ALASKA,ZAN,MW,12/29/2014
FODVU,61.97933888888889,-150.288525,ALASKA,ZAN,RNAV,08/01/2006
FOGID,56.72536111111111,-132.70060277777776,ALASKA,ZAN,RNAV,04/29/2013
FOHLI,70.1524388888889,-146.15120833333333,ALASKA,ZAN,RNAV,06/26/2013
FOLAR,59.87335,-151.29580833333333,ALASKA,ZAN,RP,HOM*VOR/DME*011.24/11.00
FOLIL,59.457125000000005,-154.51204444444446,ALASKA,ZAN,RNAV,05/26/2006
FOMBU,58.303675,-135.0047,ALASKA,ZAN,RNAV,08/21/2003
FOMDA,52.62461944444445,-174.5589277777778,ALASKA,ZAN,MR,SYA*VORTAC*104.03/19.00
FOMUT,58.88021944444444,-156.79931944444445,ALASKA,ZAN,RNAV,07/17/2008
FONBA,70.18267222222222,-148.91029444444445,ALASKA,ZAN,RNAV,02/19/2016
FONGE,57.089975,-135.6535388888889,ALASKA,ZAN,WP,02/26/1998
FONUL,70.47814444444445,-150.42165,ALASKA,ZAN,RNAV,07/24/2009
FONUR,56.76121666666667,-154.09598611111113,ALASKA,ZAN,RNAV,02/20/2007
FONUS,60.88035,-161.39109166666665,ALASKA,ZAN,RNAV,12/03/2008
FOPTY,60.40705277777778,-151.4480861111111,ALASKA,ZAN,RNAV,10/28/2015
FORAD,64.68504722222222,-164.9179722222222,ALASKA,ZAN,RNAV,08/09/2017
FORAT,60.18598055555555,-144.14182499999998,ALASKA,ZAN,RP,JOH*VOR/DME*084.54/75.41
FORAX,60.08401666666667,-154.7251138888889,ALASKA,ZAN,RNAV,07/18/2012
FORCS,52.707013888888895,-174.14216666666667,ALASKA,ZAN,MR,SYA*VORTAC*100.00/3.00
FOROD,65.52490833333333,-168.1876861111111,ALASKA,ZAN,RNAV,05/06/2004
FOROE,55.20561666666667,-160.40626944444446,ALASKA,ZAN,RNAV,04/13/2006
FOSAV,60.962944444444446,-161.09786944444446,ALASKA,ZAN,RNAV,03/22/2004
FOSXI,62.408924999999996,-150.12150277777778,ALASKA,ZAN,RNAV,03/26/2010
FOVAG,64.49581666666667,-165.34880833333335,ALASKA,ZAN,RP,OME*LD*098.77/3.50
FOVBI,58.68550555555555,-135.80069166666667,ALASKA,ZAN,RP,SSR*VORTAC*311.00/35.00
FOVIG,64.81992777777778,-147.52869166666667,ALASKA,ZAN,MR,EIL*TACAN*293.00/15.00
FOVPU,59.58411944444445,-151.6494138888889,ALASKA,ZAN,RNAV,05/16/2013
FOVSI,64.42732222222223,-165.45490277777776,ALASKA,ZAN,RNAV,08/09/2017
FOXON,61.12181666666667,-149.97099722222222,ALASKA,ZAN,RNAV,11/18/2014
FOXSO,62.25,-146.58333333333334,ALASKA,ZAN,RNAV,07/31/2007
FOXUB,64.05,-147.99374999999998,ALASKA,ZAN,MW,12/10/2013
FOXUL,60.35875,-144.88361944444443,ALASKA,ZAN,RP,CDV*LD*E CRS/20.14
FOXWE,62.5,-149.16666666666666,ALASKA,ZAN,RNAV,07/31/2007
FREDE,60.637366666666665,-151.16735555555556,ALASKA,ZAN,RP,ENA*LD*016.06/5.36
FRENK,66.61998888888888,-168.97333055555555,OFFSHORE PACIFIC,ZAN,WP,07/03/2017
FRIDA,61.731458333333336,-151.60034166666665,ALASKA,ZAN,RP,TKA*VOR/DME*212.74
FRIED,54.22188055555556,-133.63244722222223,ALASKA,ZAN,RP,YZP*VOR/DME*293.59/87.32
FRIZL,61.524705555555556,-149.68710000000002,ALASKA,ZAN,RNAV,06/12/2014
FRRMN,60.44962222222222,-145.28547777777777,ALASKA,ZAN,RNAV,11/20/2012
FSHON,60.87285277777778,-150.68361944444445,ALASKA,ZAN,RNAV,02/21/2018
FUNTR,58.181711111111106,-134.98985,ALASKA,ZAN,RNAV,08/23/2016
FURDY,56.497791666666664,-132.42846944444443,ALASKA,ZAN,RNAV,11/04/2014
FURZY,63.771169444444446,-148.88943055555555,ALASKA,ZAN,RNAV,04/13/2017
FUSON,59.50132222222222,-139.95063055555553,ALASKA,ZAN,RNAV,03/14/2011
SABOC,62.869991666666664,-157.05802500000001,ALASKA,ZAN,RP,MCG*VORTAC*244.64/40.00
SACRY,52.66526944444444,-174.4354888888889,ALASKA,ZAN,MR,SYA*VORTAC*100.00/14.00
SAFKO,55.78018333333333,-162.03554166666666,ALASKA,ZAN,RP,ELF*NDB*027.12
SAGKO,66.19393333333333,-163.18541666666667,ALASKA,ZAN,RNAV,12/01/2016
SAGOC,61.49028611111111,-160.20453055555555,ALASKA,ZAN,RNAV,12/28/2004
SAHKU,60.51535833333333,-161.58643055555555,ALASKA,ZAN,RP,BET*VORTAC*142.46/17.67
SAHOK,59.57747777777778,-156.58388611111113,ALASKA,ZAN,RP,AKN*VORTAC*349.72/51.56
SAKHI,60.38375277777778,-149.4223333333333,ALASKA,ZAN,RNAV,05/16/2011
SAKIY,56.999766666666666,-134.05619166666668,ALASKA,ZAN,RNAV,08/01/2007
SALET,79.9499888888889,-168.97332777777777,,ZAN,RNAV,07/03/2017
SALIS,57.38500555555556,-136.30098055555555,ALASKA,ZAN,RP,BKA*VORTAC*302.51/40.00
SALMN,58.30481111111111,-134.44649444444445,ALASKA,ZAN,RNAV,10/24/2014
SALSE,51.97878055555556,-176.25224444444444,ALASKA,ZAN,RP,ADK*NDB/DME*060.64/16.96
SANDI,57.07700833333334,-132.88190277777778,ALASKA,ZAN,RP,PSG*DD*344.00/16.68
SANER,59.177527777777776,-151.43851111111113,ALASKA,ZAN,RP,HOM*VOR/DME*164.00/32.00
SANGL,65.11991666666665,-164.24238888888888,ALASKA,ZAN,RNAV,09/27/2010
SANKA,62.34202777777778,-144.65764722222224,ALASKA,ZAN,RP,GKN*VOR/DME*039.49/25.00
SARLE,64.93348055555556,-147.34222222222223,ALASKA,ZAN,MR,EIL*TACAN*/18.00
SAROC,57.15054166666666,-133.93647222222222,ALASKA,ZAN,RNAV,07/12/2004
SASOY,55.38615,-131.76638055555554,ALASKA,ZAN,RNAV,07/21/2008
SATUE,65.14119166666667,-151.71141388888887,ALASKA,ZAN,RP,TAL*VOR/DME*081.18/12.00
SAVGY,64.516075,-165.20363055555555,ALASKA,ZAN,RNAV,08/09/2017
SAWNY,62.15747777777778,-163.29200277777778,ALASKA,ZAN,RP,SMA*LE*N CRS/6.24
SAXRY,57.862500000000004,-133.85833333333332,ALASKA,ZAN,RNAV,07/12/2004
SAYNT,54.249,-140.0,OFFSHORE PACIFIC,ZAN,RNAV,11/04/2013
SAYOP,59.377725,-140.23395,ALASKA,ZAN,RNAV,06/24/2013
SAYOY,61.592019444444446,-166.2338111111111,ALASKA,ZAN,RNAV,07/08/2011
SAZYU,58.350005555555555,-134.6365611111111,ALASKA,ZAN,RNAV,10/24/2014
SCALP,60.98520555555556,-158.69751666666667,ALASKA,ZAN,RP,ANI*NDB*130.00
SEBAW,55.51663611111111,-133.18782222222222,ALASKA,ZAN,RNAV,07/12/2004
SEBEE,62.758763888888886,-160.1628861111111,ALASKA,ZAN,RNAV,08/01/2008
SEBKY,64.49394166666667,-161.34085000000002,ALASKA,ZAN,RNAV,09/21/2014
SEBNE,64.58967222222222,-147.17338055555555,ALASKA,ZAN,MR,EIL*TACAN*189.00/4.37
SECOB,65.73047777777778,-156.25286944444446,ALASKA,ZAN,RNAV,05/09/2006
SEJYY,71.19301111111112,-156.00187777777776,ALASKA,ZAN,RP,BRW*VOR/DME*088.25/16.00
SEKTY,71.28479166666666,-156.56577222222222,ALASKA,ZAN,RP,BRW*LD*071.00/3.30
SELBE,57.986272222222226,-157.2637638888889,ALASKA,ZAN,RNAV,08/15/2005
SELDM,58.89611111111111,-165.95330555555554,ALASKA,ZAN,RP,09/19/2000
SELEE,65.27726388888888,-146.86185833333332,ALASKA,ZAN,MR,FAI*VORTAC*024.00/41.00
SEMKE,62.63363611111111,-160.19339166666668,ALASKA,ZAN,RNAV,07/29/2008
SEOTT,56.468919444444445,-132.28504999999998,ALASKA,ZAN,RNAV,11/04/2014
SEPFY,57.68333333333333,-134.79166666666666,ALASKA,ZAN,RNAV,07/12/2004
SEPME,57.013822222222224,-135.3016638888889,ALASKA,ZAN,WP,02/27/1998
SEPNE,61.916758333333334,-150.3525861111111,ALASKA,ZAN,RNAV,01/19/2017
SETAE,58.43873055555555,-134.96954166666666,ALASKA,ZAN,RNAV,11/28/2006
SETUP,66.4377638888889,-163.09007222222223,ALASKA,ZAN,RP,OTZ*VOR/DME*191.22/30.00
SEVBE,62.85200833333334,-154.67746388888887,ALASKA,ZAN,RNAV,09/01/2005
SEWAR,60.26680277777778,-149.66771666666665,ALASKA,ZAN,RP,TED*VOR/DME*152.84/54.89
SEYMR,58.01948611111111,-134.282825,ALASKA,ZAN,WP,02/27/1998
SHELO,69.95050833333333,-148.68964722222222,ALASKA,ZAN,RP,SCC*VOR/DME*183.69/16.00
SHIPI,56.47947777777778,-132.35547499999998,ALASKA,ZAN,RNAV,11/04/2014
SHMRK,56.82261666666667,-135.0892638888889,ALASKA,ZAN,WP,02/27/1998
SHMUK,63.62628333333333,-160.66776666666667,ALASKA,ZAN,RP,UNK*VOR/DME*163.41/16.00
SHNKN,61.14666666666667,-150.72166666666666,ALASKA,ZAN,RNAV,06/01/2010
SHOJI,66.822175,-162.79810833333332,ALASKA,ZAN,RNAV,08/09/2017
SHOKK,67.5032,-161.90908611111112,ALASKA,ZAN,RP,OTZ*VOR/DME*/40.00
SHOPE,60.72483888888889,-146.4352388888889,ALASKA,ZAN,RP,GCR*NDB*279.00
SHOUP,79.15,-141.0,OFFSHORE PACIFIC,ZAN,RNAV,06/02/2014
SHUYA,58.422875,-152.05515277777778,ALASKA,ZAN,RP,ODK*VOR/DME*358.98/40.03
SHYEP,58.276624999999996,-134.3875138888889,ALASKA,ZAN,RNAV,08/23/2016
SICOV,67.34567222222222,-162.83294999999998,ALASKA,ZAN,RNAV,05/14/2007
SIDZU,60.45473916666667,-145.3053288888889,ALASKA,ZAN,RNAV,05/24/2002
SIKLV,69.58527222222222,-148.3599722222222,ALASKA,ZAN,RNAV,02/18/2010
SILTY,61.10538888888889,-149.93656666666666,ALASKA,ZAN,RNAV,07/18/2012
SIPOC,66.33196388888888,-165.6754472222222,ALASKA,ZAN,RNAV,06/27/2005
SIRKE,64.54598888888889,-165.70427777777778,ALASKA,ZAN,RP,OME*VOR/DME*276.60/12.26
SITGE,57.689905555555555,-152.3116388888889,ALASKA,ZAN,RNAV,07/21/2016
SITWE,62.25,-153.0,ALASKA,ZAN,RNAV,07/31/2007
SIVAE,62.78933611111111,-142.67094166666666,ALASKA,ZAN,RNAV,11/14/2006
SIXEE,71.36683888888888,-157.36495833333333,ALASKA,ZAN,RNAV,05/10/2010
SIYNY,52.20098055555556,-175.34443055555556,ALASKA,ZAN,RP,ADK*NDB/DME*060.64/53.10
SIYOD,66.89230833333335,-151.55357500000002,ALASKA,ZAN,RNAV,03/23/2018
SKENS,61.243700000000004,-149.0830222222222,ALASKA,ZAN,RNAV,07/18/2012
SKILA,60.49723888888889,-150.667125,ALASKA,ZAN,RP,HOM*VOR/DME*011.24
SKIMO,64.68837500000001,-147.59335555555558,ALASKA,ZAN,RNAV,07/26/2012
SKINR,61.416666666666664,-154.01666666666668,ALASKA,ZAN,MW,12/10/2013
SKKOT,63.61833333333333,-145.325,ALASKA,ZAN,MW,12/10/2013
SKOKI,66.59423055555555,-145.07406111111112,ALASKA,ZAN,RP,FYU*VORTAC*055.99/5.00
SKWEN,62.051630555555555,-151.10434166666667,ALASKA,ZAN,MW,12/10/2013
SLAAP,59.88333333333333,-149.5,ALASKA,ZAN,RNAV,03/02/2015
SLEDD,64.10122222222222,-166.10999999999999,ALASKA,ZAN,RNAV,03/11/2009
SLETE,61.383544444444446,-156.244,ALASKA,ZAN,MW,12/10/2013
SLIIM,61.37746666666667,-158.28461666666666,ALASKA,ZAN,RNAV,02/17/2012
SLOOW,60.99682222222222,-149.753875,ALASKA,ZAN,RNAV,07/18/2012
SMOKY,62.05542222222222,-146.30883611111113,ALASKA,ZAN,RP,GKN*VOR/DME*233.69/25.00
SNAAG,60.89885,-151.36277777777778,ALASKA,ZAN,RNAV,12/13/2011
SNDER,64.53596666666667,-165.34248333333335,ALASKA,ZAN,RNAV,08/09/2017
SNETT,57.79849722222222,-133.63368888888888,ALASKA,ZAN,RNAV,10/24/2014
SNIPS,58.16226388888889,-156.4670888888889,ALASKA,ZAN,MR,AKN*VORTAC*144.00/35.00
SNOUT,57.89066111111111,-141.7552861111111,ALASKA,ZAN,RP,YAK*VOR/DME*195.00/117.66
SNRIS,60.96525555555556,-149.37544444444444,ALASKA,ZAN,RP,JOH*VOR/DME*272.81/86.84
SOAPY,64.079025,-145.26102777777777,ALASKA,ZAN,MR,FAI*VORTAC*099.00/83.67
SOBCO,59.10666666666667,-138.2275,ALASKA,ZAN,RP,YAK*VOR/DME*098.48/50.00
SOBGE,60.809686111111105,-148.28543888888888,ALASKA,ZAN,RP,JOH*VOR/DME*274.39/53.59
SOBUE,65.17368611111111,-152.24214444444442,ALASKA,ZAN,RNAV,01/17/2006
SOCBO,68.30905,-144.84924166666667,ALASKA,ZAN,RNAV,12/01/2005
SOCGO,62.69647777777777,-164.61322777777778,ALASKA,ZAN,RNAV,05/04/2007
SOCOY,62.11405833333333,-165.37716944444446,ALASKA,ZAN,RP,HPB*VOR/DME*017.52/42.03
SOGYO,62.39418611111111,-145.5802138888889,ALASKA,ZAN,RP,GKN*VOR/DME*323.00/15.00
SOHOD,59.36343888888889,-139.67857777777778,ALASKA,ZAN,RNAV,03/14/2011
SOKIY,56.33922777777778,-132.34180833333335,ALASKA,ZAN,RNAV,10/24/2014
SOLCO,64.72269444444444,-155.48284722222223,ALASKA,ZAN,RNAV,04/12/2007
SOLEE,68.87958611111111,-165.79517777777778,ALASKA,ZAN,MW,02/24/2014
SOROC,64.32878055555555,-163.20678888888887,ALASKA,ZAN,RNAV,10/13/2005
SORPY,54.034099999999995,-166.54786666666666,ALASKA,ZAN,RP,DUT*NDB/DME*351.00/7.75
SOTGE,69.75776388888889,-144.43546666666668,ALASKA,ZAN,RNAV,11/15/2010
SOTOE,55.21145833333333,-162.55061944444446,ALASKA,ZAN,RNAV,10/31/2017
SOVCO,63.166666666666664,-150.41666666666666,ALASKA,ZAN,RNAV,08/01/2007
SOWAH,65.32333888888888,-146.747425,ALASKA,ZAN,RP,FAI*VORTAC*024.00/45.00
SOYER,66.63964166666668,-150.92117499999998,ALASKA,ZAN,RNAV,07/21/2008
SOYOR,59.80694166666667,-154.89557222222223,ALASKA,ZAN,RNAV,01/12/2009
SPAIR,60.619638888888886,-154.34555277777778,ALASKA,ZAN,RNAV,12/17/2015
SPAKE,59.69851944444444,-156.15335000000002,ALASKA,ZAN,RP,DLG*VOR/DME*044.08/85.00
SPARL,58.22117777777778,-137.55943055555556,ALASKA,ZAN,RP,EEF*NDB*253.34
SPARV,61.111111111111114,-155.18889166666668,ALASKA,ZAN,RP,SQA*VOR/DME*068.48/13.00
SPARX,61.47253888888889,-158.55819444444447,ALASKA,ZAN,MW,12/09/2013
SPIRE,55.26632222222222,-131.50168333333335,ALASKA,ZAN,WP,02/27/1998
SPYVY,64.59283888888888,-165.98331944444445,ALASKA,ZAN,RP,OME*LD*W CRS/13.94
STALE,63.80294444444444,-148.91623333333334,ALASKA,ZAN,RNAV,04/13/2017
STEAK,63.725147222222226,-145.30885555555557,ALASKA,ZAN,MR,BIG*VORTAC*118.00/20.00
STFLR,59.53333333333333,-147.83333333333334,ALASKA,ZAN,RNAV,03/02/2015
STIKE,56.4697,-132.29262777777777,ALASKA,ZAN,RNAV,07/07/2015
STOND,62.71666666666667,-156.0,ALASKA,ZAN,RNAV,07/31/2007
STONO,61.25,-156.41666666666666,ALASKA,ZAN,RNAV,07/31/2007
STONQ,61.25,-152.75,ALASKA,ZAN,RNAV,07/31/2007
STONX,61.46666666666667,-158.3,ALASKA,ZAN,RNAV,07/31/2007
STOON,61.59068055555556,-152.63364444444443,ALASKA,ZAN,MR,EDF*TACAN*267.00/85.00
STREW,58.871744444444445,-156.36420833333332,ALASKA,ZAN,RP,AKN*VORTAC*037.71/15.00
STRUS,58.35991388888889,-134.79466666666667,ALASKA,ZAN,RNAV,10/27/2014
STUMI,56.92075555555555,-132.9044027777778,ALASKA,ZAN,RNAV,03/26/2012
STVNS,57.93333333333333,-133.91666666666666,ALASKA,ZAN,WP,08/23/2016
SUANT,63.049883333333334,-155.67258611111112,ALASKA,ZAN,MW,11/26/2013
SUBWA,58.96291666666667,-158.5843638888889,ALASKA,ZAN,RNAV,07/08/2011
SUCNO,66.80926666666666,-151.77,ALASKA,ZAN,RP,BTT*VOR/DME*204.00/8.00
SUCOD,63.65498888888889,-153.0366361111111,ALASKA,ZAN,RNAV,12/27/2005
SUCON,71.29448055555555,-156.65908055555556,ALASKA,ZAN,RP,BRW*VOR/DME*044.00/2.80
SUDPE,51.39595,-179.39840833333332,ALASKA,ZAN,RNAV,06/27/2001
SUDVE,57.107822222222225,-135.47621388888888,ALASKA,ZAN,RP,SIT*DD*W CRS/5.12
SUGRE,68.07155277777777,-165.9341777777778,ALASKA,ZAN,RP,OTZ*VOR/DME*298.90/106.00
SUKDE,56.60035,-132.91510277777778,ALASKA,ZAN,RNAV,03/26/2012
SUKOI,57.20741944444445,-135.65219166666668,ALASKA,ZAN,WP,02/27/1998
SUKVY,56.356944444444444,-133.1472222222222,ALASKA,ZAN,RNAV,07/12/2004
SULNE,61.09093888888889,-149.9130861111111,ALASKA,ZAN,RNAV,11/18/2014
SUMJE,62.271683333333335,-159.6670083333333,ALASKA,ZAN,RNAV,09/24/2009
SURES,62.271883333333335,-149.57920833333333,ALASKA,ZAN,RP,TKA*VOR/DME*077.00
SURFU,61.95895277777778,-159.862525,ALASKA,ZAN,RNAV,12/27/2005
SUSOC,59.462925000000006,-157.3846472222222,ALASKA,ZAN,RNAV,10/05/2007
SUVRE,59.000875,-135.3,ALASKA,ZAN,RNAV,06/04/2003
SUWWO,61.557427777777775,-160.00027777777777,ALASKA,ZAN,RNAV,04/19/2016
SUYOC,60.96823888888889,-161.66369722222223,ALASKA,ZAN,RNAV,05/17/2017
SUZYY,64.43665,-165.6212638888889,ALASKA,ZAN,RP,OME*VOR/DME*242.21/10.00
SWABI,64.44457777777778,-147.3299888888889,ALASKA,ZAN,MR,EIL*TACAN*187.00/14.00
SWANS,60.728100000000005,-150.94754722222223,ALASKA,ZAN,RP,ENA*VOR/DME*027.87/10.00
SWEPR,64.52326944444444,-148.05422777777778,ALASKA,ZAN,RNAV,11/05/2015
SYGGR,55.475686111111116,-133.25045,ALASKA,ZAN,RNAV,04/30/2013
JABAP,53.97170277777778,-166.54786666666666,ALASKA,ZAN,RP,DUT*NDB/DME*351.00/4.00
JABLU,67.13544166666668,-157.48113333333333,ALASKA,ZAN,RNAV,10/05/2011
JABUV,61.665508333333335,-149.9591333333333,ALASKA,ZAN,RNAV,08/03/2006
JADAM,59.352041666666665,-155.73252222222223,ALASKA,ZAN,RNAV,09/03/2003
JADAS,70.42564722222222,-150.3732611111111,ALASKA,ZAN,RNAV,07/24/2009
JADEV,62.871050000000004,-163.75433611111112,ALASKA,ZAN,RNAV,06/21/2005
JADPI,53.93803333333333,-166.53890555555554,ALASKA,ZAN,RP,DUT*NDB/DME*000.13/2.02
JADSA,58.89201944444444,-161.9127861111111,ALASKA,ZAN,RNAV,09/24/2014
JAGGU,64.74454722222222,-157.71020833333333,ALASKA,ZAN,RP,GAL*VOR/DME*254.34/24.00
JAGIT,60.95955555555556,-141.0,,ZAN,RNAV,06/21/2010
JAGMA,65.2881111111111,-167.51551666666666,ALASKA,ZAN,MW,04/14/2014
JAGTI,66.75596666666667,-157.548625,ALASKA,ZAN,RNAV,06/26/2009
JAGUT,62.02484722222222,-161.72735833333334,ALASKA,ZAN,RNAV,03/19/2012
JAKAB,64.83844444444443,-147.49331944444444,ALASKA,ZAN,MW,05/06/2011
JAKEG,52.70416388888889,-174.155125,ALASKA,ZAN,MR,SYA*VORTAC*/3.50
JAKII,64.43083333333334,-166.0125,ALASKA,ZAN,RNAV,10/26/2015
JAKMU,61.109791666666666,-149.85350833333334,ALASKA,ZAN,RNAV,04/07/2017
JAKOW,67.02233055555556,-157.94323333333332,ALASKA,ZAN,RNAV,11/23/2016
JAKUD,56.80953611111111,-132.9040777777778,ALASKA,ZAN,RNAV,08/08/2016
JALEX,51.913333333333334,-176.55713055555557,ALASKA,ZAN,RNAV,05/08/2008
JALNO,63.948652777777774,-160.8476527777778,ALASKA,ZAN,RP,UNK*LE*330.13/4.32
JALNU,65.821325,-162.49391666666665,ALASKA,ZAN,RNAV,11/23/2016
JAMMM,64.85823888888888,-147.27414722222224,ALASKA,ZAN,MW,03/09/2016
JAMOB,58.357930555555555,-134.59755833333335,ALASKA,ZAN,RNAV,10/24/2014
JAMPA,58.37020833333333,-134.68596666666667,ALASKA,ZAN,RNAV,07/12/2004
JAMUR,65.876475,-160.73692499999999,ALASKA,ZAN,RNAV,05/04/2010
JAMZE,58.35056111111111,-134.54471666666666,ALASKA,ZAN,RNAV,10/24/2014
JANEM,55.52684722222222,-132.01010555555555,ALASKA,ZAN,RNAV,07/17/2008
JANNT,52.07163333333334,-178.26034166666668,ALASKA,ZAN,RNAV,06/15/2005
JANVO,61.43984444444444,-160.04345,ALASKA,ZAN,RNAV,09/11/2012
JAPKI,68.50406666666667,-164.25612222222222,ALASKA,ZAN,RNAV,08/22/2012
JASGO,60.32953888888889,-151.54136666666668,ALASKA,ZAN,RP,HOM*VOR/DME*341.12/37.39
JASOB,65.35784722222222,-167.87618055555555,ALASKA,ZAN,MW,04/14/2014
JAVAH,65.06113611111111,-147.35441111111112,ALASKA,ZAN,MR,FAI*VORTAC*025.60/23.00
JAXAL,56.07073333333334,-132.64547222222222,ALASKA,ZAN,RNAV,12/12/2008
JAXVI,64.3206111111111,-165.30694444444447,ALASKA,ZAN,RP,OME*VOR/DME*177.08/10.00
JAYQE,64.724175,-160.77949166666667,ALASKA,ZAN,RP,MOS*VOR/DME*070.55/33.30
JAYVE,63.56091111111111,-171.6684222222222,ALASKA,ZAN,RNAV,01/15/2015
JEBIP,61.536141666666666,-150.00729166666667,ALASKA,ZAN,RNAV,12/11/2011
JEBOL,62.07011666666667,-150.19869722222222,ALASKA,ZAN,RP,TKA*VOR/DME*171.87/13.99
JEDIT,64.17819444444444,-158.98274444444445,ALASKA,ZAN,RNAV,09/01/2005
JEGNO,55.300888888888885,-162.79253888888888,ALASKA,ZAN,RP,CDB*VORTAC*328.70/2.11
JEGTU,67.67692222222223,-164.74310277777778,ALASKA,ZAN,RP,OTZ*VOR/DME*298.90/70.00
JEGVO,58.665080555555555,-158.80187222222224,ALASKA,ZAN,RNAV,12/21/2009
JEJZO,56.57387777777778,-169.7175611111111,ALASKA,ZAN,RNAV,06/14/2001
JEKEX,59.39040555555555,-151.80280000000002,ALASKA,ZAN,RP,HOM*VOR/DME*194.00/21.91
JEKLI,65.77518333333333,-167.35638333333333,ALASKA,ZAN,RNAV,07/26/2012
JEKPU,67.83081388888888,-146.24906944444444,ALASKA,ZAN,RP,FYU*VORTAC*318.74/79.00
JELLE,66.86081944444445,-158.91825555555553,ALASKA,ZAN,RP,WLK*VOR/DME*041.87/30.00
JEMED,66.89935833333334,-162.73108611111113,ALASKA,ZAN,RNAV,08/09/2017
JEMGA,64.81319166666667,-165.13118333333335,ALASKA,ZAN,RP,OME*VOR/DME*358.00/20.00
JEMOT,61.05448888888888,-150.08668333333335,ALASKA,ZAN,RNAV,11/18/2014
JEMTU,62.115677777777776,-163.29581666666667,ALASKA,ZAN,RP,SMA*LE*350.44/3.73
JEMUM,66.0072611111111,-162.56036666666668,ALASKA,ZAN,RNAV,11/23/2016
JENBA,59.309225,-157.04801944444444,ALASKA,ZAN,RNAV,10/05/2007
JENEP,56.627269444444444,-132.4851611111111,ALASKA,ZAN,RNAV,08/30/2004
JENSU,68.52024444444444,-166.60740277777776,ALASKA,ZAN,RNAV,09/09/2013
JEPGI,64.51224444444445,-165.21836666666667,ALASKA,ZAN,RNAV,08/09/2017
JEPRU,59.05562222222222,-161.86163333333332,ALASKA,ZAN,RNAV,06/26/2017
JERDU,57.159838888888885,-132.86846666666668,ALASKA,ZAN,RP,PSG*DD*344.00/21.68
JEROK,64.44433055555555,-165.51300833333335,ALASKA,ZAN,RNAV,08/09/2017
JESIK,58.231750000000005,-134.6266916666667,ALASKA,ZAN,RNAV,10/24/2014
JESOK,68.55295277777778,-149.59503333333333,ALASKA,ZAN,RNAV,07/28/2008
JESOT,70.11310833333333,-143.67771666666667,ALASKA,ZAN,RNAV,09/29/2016
JESRU,74.94666666666667,-141.0,OFFSHORE PACIFIC,ZAN,RNAV,05/29/2014
JESUX,59.96403333333333,-154.86409722222223,ALASKA,ZAN,RNAV,07/11/2005
JESZU,64.64852777777779,-165.32238055555555,ALASKA,ZAN,RP,OME*VOR/DME*338.71/10.00
JETAD,65.82385,-155.96841944444444,ALASKA,ZAN,RNAV,08/07/2008
JETAS,58.34751111111111,-134.52290833333333,ALASKA,ZAN,RNAV,10/30/2014
JETPI,60.63834444444444,-162.26705833333335,ALASKA,ZAN,RNAV,08/26/2008
JETUT,57.12450833333333,-135.91934444444445,ALASKA,ZAN,RP,BKA*VORTAC*303.00/20.00
JEVUM,67.14428611111111,-151.35862777777777,ALASKA,ZAN,RP,EAV*NDB*357.62
JEXET,57.74860555555556,-152.33905000000001,ALASKA,ZAN,RNAV,10/26/2015
JEXEV,61.615122222222226,-165.49943333333331,ALASKA,ZAN,RNAV,08/01/2007
JEXIM,58.68756944444444,-136.31890833333333,ALASKA,ZAN,RNAV,10/30/2014
JEXOD,57.056174999999996,-135.60085277777776,ALASKA,ZAN,RNAV,11/04/2014
JIBUG,59.759433333333334,-155.30925000000002,ALASKA,ZAN,RNAV,01/12/2009
JIBVO,60.08575555555556,-154.63777777777776,ALASKA,ZAN,RNAV,01/12/2009
JIDGA,66.96122222222222,-157.7062361111111,ALASKA,ZAN,RNAV,09/21/2007
JIDKU,61.405094444444444,-165.78480555555555,ALASKA,ZAN,RNAV,08/01/2007
JIGMI,58.17814722222222,-135.1014888888889,ALASKA,ZAN,RNAV,05/21/2003
JIGMU,57.817080555555556,-152.62005555555555,ALASKA,ZAN,RNAV,10/26/2015
JIGTI,67.05061666666667,-151.99885555555554,ALASKA,ZAN,RNAV,11/15/2010
JIKAB,62.18633055555555,-145.4649222222222,ALASKA,ZAN,RNAV,05/18/2010
JIKAL,59.27155555555555,-157.1928611111111,ALASKA,ZAN,RNAV,10/05/2007
JIKAN,61.083983333333336,-146.65409722222222,ALASKA,ZAN,RP,VDZ*DD*SW CRS/13.00
JIKOV,63.278441666666666,-162.09150277777778,ALASKA,ZAN,RNAV,05/05/2005
JIKSA,66.17034166666667,-162.3330611111111,ALASKA,ZAN,RNAV,11/29/2010
JIKUN,58.36217222222222,-135.58533611111113,ALASKA,ZAN,RP,SSR*VORTAC*297.15/15.17
JIMAV,54.90802222222222,-162.1279,ALASKA,ZAN,RNAV,11/19/2004
