name,latitude,longitude,state,artcc,type,updated
TAALE,42.626263888888886,-70.77187222222223,MASSACHUSETTS,ZBW,RNAV,07/13/2012
TAAPS,40.099247222222225,-73.14766111111112,OFFSHORE ATLANTIC,ZBW,RNAV,03/23/2018
TAATE,43.681225,-69.96477777777778,MAINE,ZBW,RNAV,03/13/2012
TABME,42.97973888888889,-70.92179444444444,NEW HAMPSHIRE,ZBW,RNAV,01/16/2013
TABOC,40.82597500000001,-72.65034722222222,NEW YORK,ZBW,RP,FOK*TACAN*243.01/1.10
TABUU,44.35598888888889,-68.42336666666667,MAINE,ZBW,RNAV,12/27/2010
TABVE,43.25038333333333,-70.81782222222222,MAINE,ZBW,RNAV,01/16/2013
TADBE,42.930699999999995,-71.30021666666666,NEW HAMPSHIRE,ZBW,RNAV,01/16/2013
TADCO,43.091236111111115,-73.49742222222223,NEW YORK,ZBW,RNAV,12/13/2004
TAFFY,47.373380555555556,-67.3039,,ZBW,RNAV,09/10/2015
TAITS,42.657333333333334,-70.99461388888889,MASSACHUSETTS,ZBW,RP,BOS*VOR/DME*015.29
TALCO,42.06276944444444,-74.10773611111111,NEW YORK,ZBW,RP,DNY*VOR/DME*111.07
TALNO,45.00055555555556,-74.33111111111111,,ZBW,RNAV,09/20/2014
TANUE,43.106994444444446,-76.16251944444446,NEW YORK,ZBW,RP,MRZ*LD*280.42/3.23
TAPSE,43.07126388888889,-71.82747777777777,NEW HAMPSHIRE,ZBW,RP,CON*VOR/DME*246.26/14.21
TAPVO,44.87583333333333,-74.9705,NEW YORK,ZBW,WP,10/03/2011
TAQYU,44.77723611111111,-69.96815277777777,MAINE,ZBW,RNAV,03/10/2015
TAREE,44.00223888888889,-76.30769722222222,NEW YORK,ZBW,RNAV,05/24/2011
TARSE,41.61795,-70.70033055555555,MASSACHUSETTS,ZBW,RNAV,07/19/2012
TASHA,42.64943611111111,-75.52044166666667,NEW YORK,ZBW,WP,11/18/1987
TAYUN,42.591519444444444,-71.82296666666666,MASSACHUSETTS,ZBW,RNAV,07/25/2005
TAYVO,43.20838611111111,-73.68993333333334,NEW YORK,ZBW,RNAV,02/03/2009
TAZZY,40.77453611111111,-72.71336111111111,NEW YORK,ZBW,RNAV,04/17/2012
TEBOR,42.98858333333333,-75.73315833333334,NEW YORK,ZBW,RP,RKA*VOR/DME*336.28/38.19
TEBUC,43.27968055555556,-72.41469166666667,VERMONT,ZBW,RNAV,11/06/2009
TECOG,46.393391666666666,-67.81530277777777,MAINE,ZBW,RNAV,05/19/2009
TEDEE,42.47881666666667,-72.51548888888888,MASSACHUSETTS,ZBW,RP,BAF*VORTAC*039.11/21.00
TEETO,42.81309722222222,-71.70761388888889,NEW HAMPSHIRE,ZBW,RNAV,11/17/2014
TEGOC,43.97725555555556,-75.60270277777778,NEW YORK,ZBW,MW,02/13/2017
TEKKK,42.41273611111111,-71.0986361111111,MASSACHUSETTS,ZBW,RNAV,01/15/2013
TEKTE,44.133297222222225,-69.86932777777777,MAINE,ZBW,RNAV,04/24/2010
TELLE,42.37320555555556,-71.463425,MASSACHUSETTS,ZBW,RNAV,10/16/2006
TENEE,41.56173333333333,-72.77815,CONNECTICUT,ZBW,RNAV,02/03/2005
TERIA,42.60548611111111,-72.95935277777778,MASSACHUSETTS,ZBW,RNAV,09/23/2014
TESCO,42.675755555555554,-72.17394722222222,MASSACHUSETTS,ZBW,RNAV,06/13/2008
TETAE,42.77240555555556,-71.98056111111111,NEW HAMPSHIRE,ZBW,RNAV,06/18/2010
TEVME,41.751866666666665,-70.42025000000001,MASSACHUSETTS,ZBW,RP,FMH*TACAN*/7.00
TEWKS,42.58106388888889,-71.26691666666666,MASSACHUSETTS,ZBW,RNAV,09/06/2017
TEYRU,42.96721388888889,-72.26473333333334,NEW HAMPSHIRE,ZBW,RNAV,06/13/2008
THEEO,40.98908055555555,-73.64720000000001,CONNECTICUT,ZBW,RP,LGA*VOR/DME*051.22
THROP,40.10611111111111,-72.86694444444444,OFFSHORE ATLANTIC,ZBW,RNAV,03/23/2018
THUMB,41.52332222222222,-72.35883333333332,CONNECTICUT,ZBW,RP,HTO*VORTAC*010.00/36.29
TICBU,44.559066666666666,-69.20126666666667,MAINE,ZBW,RP,BGR*VORTAC*238.66/22.00
TIDUE,40.96161388888889,-72.47451944444444,NEW YORK,ZBW,RNAV,03/25/2009
TIFZY,42.59955277777778,-76.61890277777778,NEW YORK,ZNY,RNAV,12/30/2009
TIGSE,44.931475,-68.41383333333334,MAINE,ZBW,RNAV,07/27/2010
TIMDE,44.095150000000004,-73.51595555555555,NEW YORK,ZBW,RNAV,01/13/2011
TIMKE,42.85711666666667,-73.59989166666666,NEW YORK,ZBW,RP,CAM*VOR/DME*247.98/13.96
TIMVE,42.751869444444445,-71.48939444444444,NEW HAMPSHIRE,ZBW,RNAV,01/18/2013
TIPKE,44.67335,-69.34475555555555,MAINE,ZBW,RNAV,04/23/2010
TIVME,43.578097222222226,-72.96492222222223,VERMONT,ZBW,RNAV,11/06/2009
TIYUL,42.454663888888895,-75.15632500000001,NEW YORK,ZBW,RNAV,08/13/2008
TJAYS,44.505375,-72.6605,VERMONT,ZBW,RP,BTV*VOR/DME*088.67
TJAYY,42.305052777777775,-70.96048611111111,MASSACHUSETTS,ZBW,RNAV,01/15/2013
TKMAN,42.58193611111111,-71.18088611111112,MASSACHUSETTS,ZBW,RNAV,04/04/2016
TNNIS,40.879444444444445,-73.70375833333334,NEW YORK,ZBW,RNAV,04/15/2011
TNUCK,42.26258333333333,-71.86610277777777,MASSACHUSETTS,ZBW,WP,11/02/1995
TOBKE,43.88390277777778,-70.21523611111111,MAINE,ZBW,RNAV,09/17/2015
TOLMY,41.780125,-74.87423333333332,NEW YORK,ZBW,RNAV,07/10/2012
TOMES,42.14535277777778,-72.96706666666667,MASSACHUSETTS,ZBW,RP,BAF*VORTAC*279.00/11.24
TOMIE,43.16965833333333,-71.45701111111111,NEW HAMPSHIRE,ZBW,RP,MHT*VOR/DME*003.00/18.47
TONNI,42.37335,-70.61353333333332,MASSACHUSETTS,ZBW,RP,LWM*VOR/DME*150.73
TONOE,42.36626388888889,-71.08314444444444,MASSACHUSETTS,ZBW,RNAV,11/14/2013
TONYA,42.64211111111111,-71.74416111111111,MASSACHUSETTS,ZBW,RP,GDM*VOR/DME*081.38
TOPPS,45.340180555555555,-67.73864166666667,MAINE,ZBW,RP,MLT*VOR/DME*134.00
TOPTO,42.49808888888889,-71.483675,MASSACHUSETTS,ZBW,RNAV,07/25/2005
TORPY,41.45849444444445,-70.87838333333333,MASSACHUSETTS,ZBW,RNAV,06/04/2014
TORVE,42.88446666666667,-71.95405277777778,NEW HAMPSHIRE,ZBW,RNAV,03/07/2011
TOSPE,43.409075,-70.39208888888889,MAINE,ZBW,RNAV,09/17/2015
TOTTU,42.76266666666667,-72.01207222222222,NEW HAMPSHIRE,ZBW,RP,GDM*VOR/DME*022.91/13.16
TOVYA,44.593741666666666,-69.20053333333334,MAINE,ZBW,RNAV,04/23/2010
TRAIT,41.28465277777778,-71.91759722222223,RHODE ISLAND,ZBW,RP,SEY*VOR/DME*309.56/16.98
TRANZ,40.858875000000005,-73.37522222222222,NEW YORK,ZBW,RP,DPK*VOR/DME*333.02/5.18
TRASE,41.70823055555556,-74.07832777777777,NEW YORK,ZBW,RNAV,02/09/2010
TRCCY,40.61056388888889,-73.24263055555555,NEW YORK,ZBW,RNAV,02/26/2010
TRESA,41.88044722222222,-73.81855555555555,NEW YORK,ZBW,RP,CMK*VOR/DME*355.56
TRIBS,41.658055555555556,-73.3175,CONNECTICUT,ZBW,RNAV,08/26/2011
TRIDO,43.55857222222222,-70.6436,MAINE,ZBW,RNAV,05/23/2014
TRIKY,44.656508333333335,-73.94374166666667,NEW YORK,ZBW,RP,BTV*VOR/DME*310.74
TRINT,42.65368611111111,-75.46139444444445,NEW YORK,ZBW,RNAV,06/22/2010
TROSI,42.755716666666665,-73.51616944444444,NEW YORK,ZBW,RNAV,06/27/2011
TROYY,42.08043055555556,-71.79509444444444,MASSACHUSETTS,ZBW,RP,PUT*VOR/DME*030.28/7.81
TRUDE,41.33387777777778,-73.19686944444445,CONNECTICUT,ZBW,RP,BDR*VOR/DME*354.52
TTATT,43.05033333333333,-70.80070555555555,NEW HAMPSHIRE,ZBW,RNAV,10/16/2006
TTERI,42.52957222222222,-70.51526111111112,MASSACHUSETTS,ZBW,RNAV,09/28/2014
TUBUY,43.54445,-71.51282222222223,NEW HAMPSHIRE,ZBW,RNAV,07/23/2007
TUDVE,42.47926388888889,-76.44113333333334,NEW YORK,ZNY,RP,ITH*VOR/DME*/1.26
TUGME,40.96423888888889,-73.50128333333333,NEW YORK,ZBW,RNAV,08/17/2010
TUHSY,42.65340833333333,-76.12864444444443,NEW YORK,ZNY,WP,11/02/1998
TUKUY,42.75504166666666,-73.70081111111111,NEW YORK,ZBW,RNAV,06/27/2011
TULSE,42.497975000000004,-73.71419166666666,NEW YORK,ZBW,RNAV,06/27/2011
TULUE,43.88670833333333,-69.32243888888888,MAINE,ZBW,RNAV,10/08/2008
TUMAE,42.98838333333333,-71.67431944444445,NEW HAMPSHIRE,ZBW,RNAV,09/27/2012
TUMPS,43.021741666666664,-76.16780277777778,NEW YORK,ZBW,RP,SYR*VORTAC*180.00/8.48
TUNKE,42.20611111111111,-72.57388888888889,MASSACHUSETTS,ZBW,MW,07/15/2014
TUNUY,42.85501111111111,-70.97480555555556,MASSACHUSETTS,ZBW,RNAV,05/19/2011
TUPER,44.196102777777774,-74.41010277777778,NEW YORK,ZBW,RNAV,09/08/2016
TURES,42.74360277777778,-74.03816666666667,NEW YORK,ZBW,RNAV,04/10/2002
TURTE,45.649880555555555,-68.83067222222222,MAINE,ZBW,RNAV,04/02/2012
TURVE,44.44471111111111,-72.7016388888889,VERMONT,ZBW,RNAV,06/28/2017
TURYN,43.38976944444445,-75.62831944444444,NEW YORK,ZBW,RNAV,04/25/2010
TUSAE,43.01974722222222,-72.38530555555556,NEW HAMPSHIRE,ZBW,RNAV,11/06/2009
TUSKY,43.565,-67.0,OFFSHORE ATLANTIC,ZBW,RP,YQI*VOR/DME*268.98/42.88
TUSON,42.214644444444446,-74.37600833333333,NEW YORK,ZBW,RP,DNY*VOR/DME*095.99/26.00
TUSUY,40.635933333333334,-73.00439444444444,NEW YORK,ZBW,RNAV,12/04/2008
TUTDU,42.698074999999996,-73.45209722222222,NEW YORK,ZBW,RNAV,06/27/2011
TUTOR,41.654630555555556,-70.95801111111112,MASSACHUSETTS,ZBW,RP,PVD*VOR/DME*115.00/21.61
TUYOP,42.89521111111111,-71.53742222222222,NEW HAMPSHIRE,ZBW,RNAV,11/06/2009
TUYUC,43.48161388888889,-71.72034166666667,NEW HAMPSHIRE,ZBW,RNAV,07/23/2007
TYCHO,40.763083333333334,-72.94979166666667,NEW YORK,ZBW,RNAV,06/21/2011
AAALL,42.12018888888889,-71.14176111111112,MASSACHUSETTS,ZBW,RNAV,03/23/2017
AADMS,42.585425,-71.318925,MASSACHUSETTS,ZBW,RNAV,04/04/2016
ACAFO,42.75096944444444,-75.51248055555556,NEW YORK,ZBW,RNAV,06/22/2010
ACCOW,44.707394444444446,-71.20080555555556,NEW HAMPSHIRE,ZBW,RNAV,11/20/2003
ACIDY,43.050216666666664,-75.95369722222223,NEW YORK,ZBW,RNAV,05/02/2013
ACOVE,42.23478333333333,-74.03183055555556,NEW YORK,ZBW,RP,DNY*VOR/DME*095.99/41.39
ACRAM,42.04431111111111,-73.72181944444445,NEW YORK,ZBW,CF,PWL*VOR/DME*354.00
ACROR,44.87971944444445,-71.63517222222222,VERMONT,ZBW,RNAV,01/12/2011
ACYOG,44.54688888888889,-69.21524444444445,MAINE,ZBW,RP,BGR*VORTAC*238.66/22.95
ADDDA,42.605625,-70.78207222222223,MASSACHUSETTS,ZBW,RNAV,09/26/2014
ADIFO,44.09236388888889,-68.53941666666667,MAINE,ZBW,RNAV,11/08/2007
ADJAX,41.62309166666667,-73.68029444444444,NEW YORK,ZBW,RNAV,08/14/2008
ADOLE,42.64613611111111,-73.84662499999999,NEW YORK,ZBW,RNAV,04/10/2002
ADUVE,44.669713888888886,-71.58064444444445,NEW HAMPSHIRE,ZBW,RNAV,01/12/2011
ADVIK,45.13444444444444,-74.77583333333334,,ZBW,RNAV,09/23/2014
AFHAS,41.19340555555555,-70.34603055555556,MASSACHUSETTS,ZBW,RNAV,08/08/2016
AFRED,43.65139444444444,-73.40604722222223,VERMONT,ZBW,RNAV,01/13/2011
AGACO,42.179449999999996,-72.71054444444445,MASSACHUSETTS,ZBW,RP,BAF*VORTAC*027.52/1.08
AGAWA,42.02396944444445,-72.70804166666667,CONNECTICUT,ZBW,MR,CEF*VORTAC*232.00/13.20
AGIXE,44.505183333333335,-70.40926111111112,MAINE,ZBW,RNAV,10/24/2008
AGNEZ,42.22575277777778,-74.18854166666667,NEW YORK,ZBW,RP,DNY*VOR/DME*095.99
AGUGE,43.49758611111111,-72.54786666666666,VERMONT,ZBW,RNAV,01/12/2011
AGZAF,47.32340833333334,-68.42955277777779,,ZBW,RNAV,07/07/2010
AHHOT,47.247708333333335,-68.196825,MAINE,ZBW,RNAV,07/07/2010
AHIZI,46.35243888888889,-68.04861944444444,MAINE,ZBW,RNAV,05/19/2009
AHOLA,46.06018333333333,-67.84680277777777,MAINE,ZBW,RNAV,06/24/2011
AHRON,43.673363888888886,-70.2055888888889,MAINE,ZBW,RNAV,06/01/2012
AHTON,44.77121944444444,-72.16609444444445,VERMONT,ZBW,RNAV,08/10/2015
AIBUX,44.075500000000005,-68.74483333333333,MAINE,ZBW,RNAV,11/08/2007
AIDOT,44.17904444444444,-68.7985,MAINE,ZBW,RNAV,11/08/2007
AIMME,43.66831111111111,-70.66704444444444,MAINE,ZBW,RP,ENE*VOR/DME*007.90
AITAR,44.193105555555555,-68.95378611111111,MAINE,ZBW,RNAV,10/04/2007
AJGUB,45.32537777777778,-67.69279444444444,MAINE,ZBW,CN,02/05/2018
AJJAY,43.72793055555556,-69.60228333333333,MAINE,ZBW,RNAV,09/22/2014
AKACO,43.9482,-69.00096944444445,MAINE,ZBW,RNAV,06/21/2010
AKAVE,42.475797222222226,-73.82138888888889,NEW YORK,ZBW,RNAV,04/10/2002
AKAYU,43.980075,-73.40704722222223,VERMONT,ZBW,RNAV,01/13/2011
AKHOM,43.55598888888888,-72.40984444444445,VERMONT,ZBW,RNAV,10/21/2008
AKIJE,41.304424999999995,-72.46923333333334,CONNECTICUT,ZBW,RNAV,07/07/2009
AKMUY,45.26018055555556,-67.65997222222222,MAINE,ZBW,RNAV,01/22/2015
AKOPE,41.87150833333333,-70.66394444444445,MASSACHUSETTS,ZBW,RNAV,06/04/2014
AKUGE,43.73995,-72.46999444444445,VERMONT,ZBW,RNAV,11/04/2009
AKYAK,47.07054166666667,-68.08186944444444,MAINE,ZBW,RNAV,08/04/2004
ALACE,44.34119166666667,-72.43856944444445,VERMONT,ZBW,RNAV,01/11/2011
ALBOW,41.03445555555555,-71.97519166666667,NEW YORK,ZBW,RNAV,02/23/2017
ALCAR,41.351125,-72.59323055555555,CONNECTICUT,ZBW,RP,MAD*VOR/DME*076.41/5.00
ALCEE,42.94286388888889,-70.98116666666667,NEW HAMPSHIRE,ZBW,WP,MHT*VOR/DME*090.00/17.70
ALCID,42.125230555555554,-72.5578111111111,MASSACHUSETTS,ZBW,RNAV,05/05/2016
ALDEN,43.09865833333333,-73.59981666666665,NEW YORK,ZBW,RP,CAM*VOR/DME*313.17/12.88
ALFED,40.67905,-73.34136666666666,NEW YORK,ZBW,RNAV,02/26/2010
ALFFF,42.34368055555556,-70.97689166666667,MASSACHUSETTS,ZBW,RP,BOS*VOR/DME*161.72/1.00
ALIEH,43.723025,-70.80635555555556,MAINE,ZBW,RNAV,06/26/2012
ALIRE,44.181466666666665,-68.66276666666667,MAINE,ZBW,RNAV,10/01/2009
ALIXX,41.18134722222222,-73.39302500000001,CONNECTICUT,ZBW,RP,DPK*VOR/DME*002.17
ALLEX,44.416666666666664,-67.0,OFFSHORE ATLANTIC,ZBW,RP,YQI*VOR/DME*332.15/53.22
ALLEY,41.69898055555555,-71.39759166666667,RHODE ISLAND,ZBW,RP,UNQ*LD*156.58/2.55
ALMEN,44.01787777777778,-75.82763055555556,NEW YORK,ZBW,MR,ART*VORTAC*080.87/11.00
ALOCO,44.37777222222222,-71.27572777777777,NEW HAMPSHIRE,ZBW,RNAV,10/18/2010
ALOKY,44.32220277777778,-72.69868611111112,VERMONT,ZBW,RNAV,03/11/2011
ALOTY,41.87746111111111,-70.37524444444443,MASSACHUSETTS,ZBW,RNAV,04/07/2009
AMORE,41.34511666666667,-73.58904722222222,NEW YORK,ZBW,RP,IGN*VOR/DME*163.24/21.90
AMUXE,44.3935,-68.99683333333333,MAINE,ZBW,RNAV,06/20/2010
AMZIE,43.10621388888889,-67.28635277777778,MAINE,ZBW,RP,QI*NDB*251.00
ANACI,43.68513055555555,-69.99228055555555,MAINE,ZBW,RNAV,09/29/2009
ANCOR,43.99775,-69.11752777777777,MAINE,ZBW,RP,AUG*VOR/DME*141.16/35.13
ANDRU,43.90266111111111,-70.782625,MAINE,ZBW,RNAV,02/17/2009
ANDRW,41.71942777777778,-73.74624166666666,NEW YORK,ZBW,WP,11/02/1998
ANEES,44.64908333333333,-71.9985638888889,VERMONT,ZBW,RNAV,08/10/2015
ANGLR,41.59059444444445,-73.10505277777777,CONNECTICUT,ZBW,WP,09/27/1991
ANIER,43.59296666666667,-71.65461944444445,NEW HAMPSHIRE,ZBW,RP,LEB*VOR/DME*116.70/25.00
ANIJE,40.94900833333333,-72.10097222222221,NEW YORK,ZBW,RNAV,07/03/2012
ANIZI,44.277675,-69.90174166666667,MAINE,ZBW,RNAV,05/17/2012
ANNEI,41.28606388888889,-73.2559,CONNECTICUT,ZBW,RP,CMK*VOR/DME*100.49/14.73
ANOPE,42.12812777777778,-73.86961666666666,NEW YORK,ZBW,RNAV,10/23/2009
ANSLY,41.923874999999995,-70.97189166666666,MASSACHUSETTS,ZBW,RNAV,09/26/2014
ANSYN,44.746122222222226,-70.00250833333334,MAINE,ZBW,RP,AUG*VOR/DME*359.00
ANTHO,43.0942,-76.53361944444444,NEW YORK,ZBW,MR,SYR*VORTAC*265.73/15.00
ANUDE,45.127519444444445,-69.38629444444445,MAINE,ZBW,RNAV,06/17/2011
APAVE,44.68474166666666,-70.03192222222222,MAINE,ZBW,RNAV,04/24/2007
APGUY,43.68141388888888,-71.271125,NEW HAMPSHIRE,ZBW,RNAV,01/20/2011
APKAF,44.804786111111106,-75.09266944444444,NEW YORK,ZBW,RNAV,11/20/2009
APOCO,45.703986111111114,-69.65552777777778,MAINE,ZBW,RNAV,01/26/2009
APOFA,41.47054722222222,-74.29138055555555,NEW YORK,ZBW,RNAV,07/24/2012
ARARR,43.63243611111111,-70.62296666666666,MAINE,ZBW,RNAV,05/23/2014
ARCAV,40.96605,-71.79878333333333,NEW YORK,ZBW,RP,SEY*VOR/DME*235.00
ARDIS,40.94757499999999,-72.70665833333334,NEW YORK,ZBW,RNAV,04/02/2007
ARENE,41.464261111111114,-72.2645611111111,CONNECTICUT,ZBW,RP,MAD*VOR/DME*077.82/21.31
ARIME,43.19826666666666,-72.12397222222222,NEW HAMPSHIRE,ZBW,RNAV,04/20/2016
ARKKK,42.06347777777778,-75.31678055555555,NEW YORK,ZBW,RNAV,09/20/2014
ARMIE,43.21061944444445,-70.5123,MAINE,ZBW,RP,PSM*VOR/DME*077.57
ARMUN,42.392561111111114,-70.07862777777777,OFFSHORE ATLANTIC,ZBW,RP,LFV*VOR/DME*011.33/22.59
ARNII,43.24997777777778,-74.33337222222222,NEW YORK,ZBW,RP,CAM*VOR/DME*303.77/46.10
AROME,41.86498888888889,-74.07768055555555,NEW YORK,ZBW,RNAV,08/14/2008
ARQEB,41.559275,-73.15268888888889,CONNECTICUT,ZBW,RNAV,11/30/2015
ARRIC,42.42428611111111,-72.65094444444445,MASSACHUSETTS,ZBW,RP,BAF*VORTAC*024.44/16.00
ARTHO,47.18559166666666,-68.47074444444445,MAINE,ZBW,RNAV,08/01/2007
ARVEN,46.19171944444444,-67.84363611111111,MAINE,ZBW,RNAV,06/24/2011
ASACU,42.97995277777778,-71.45088333333334,NEW HAMPSHIRE,ZBW,RNAV,01/15/2013
ASHIP,41.72785277777778,-70.18278611111111,MASSACHUSETTS,ZBW,RNAV,04/07/2009
ASHWY,41.405369444444446,-71.78451388888888,RHODE ISLAND,ZBW,RP,PVD*VOR/DME*234.00/24.93
ASINE,44.546844444444446,-68.67931666666667,MAINE,ZBW,RNAV,03/17/2017
ASKEW,41.592225,-70.37198055555555,MASSACHUSETTS,ZBW,RP,MVY*VOR/DME*057.64/16.00
ASPEN,42.81598611111111,-70.91149722222222,MASSACHUSETTS,ZBW,RP,MHT*VOR/DME*113.70
ASQEV,42.99637777777778,-74.6125111111111,NEW YORK,ZBW,RNAV,08/02/2010
ASVAY,43.34027777777778,-71.0179111111111,NEW HAMPSHIRE,ZBW,RNAV,11/09/2009
ATAKY,42.91598611111111,-74.00745833333333,NEW YORK,ZBW,WP,11/02/1998
ATHOS,42.247080555555556,-73.8121,NEW YORK,ZBW,RP,RKA*VOR/DME*112.22
ATIFU,43.8588,-69.38493333333334,MAINE,ZBW,RNAV,06/21/2010
ATRLO,42.18108888888889,-73.40100833333334,MASSACHUSETTS,ZBW,RNAV,09/06/2012
ATVIW,42.436027777777774,-73.26813888888888,MASSACHUSETTS,ZBW,RNAV,02/26/2010
ATVUW,44.868586111111114,-69.07201111111111,MAINE,ZBW,RNAV,06/17/2011
ATWAN,41.73750833333333,-73.82063055555555,NEW YORK,ZBW,RP,IGN*VOR/DME*012.95/4.32
AUBIN,43.86000277777778,-70.40216666666667,MAINE,ZBW,RNAV,01/26/2005
AUDIL,42.87187222222222,-76.44307500000001,NEW YORK,ZNY,RP,RKA*VOR/DME*305.94
AUTUM,42.550324999999994,-71.59232222222222,MASSACHUSETTS,ZBW,RNAV,04/04/2016
AVJUB,41.65548611111111,-74.74852777777778,NEW YORK,ZBW,RNAV,07/10/2012
AVMAW,44.16251666666667,-69.47755555555555,MAINE,ZBW,RP,RMZ*LD*308.92/18.00
AVOIL,43.90761944444444,-69.80675,MAINE,ZBW,RNAV,04/24/2010
AVONN,41.63591666666667,-71.20726388888889,RHODE ISLAND,ZBW,RP,SEY*VOR/DME*045.54/32.66
AWIPI,44.770944444444446,-75.03503611111111,NEW YORK,ZBW,RNAV,11/20/2009
AWLIN,41.55624444444444,-71.99915833333334,CONNECTICUT,ZBW,RNAV,09/26/2014
AWNUM,43.395383333333335,-69.83864722222222,MAINE,ZBW,CN,02/05/2018
AXITE,42.649175,-71.56441944444444,MASSACHUSETTS,ZBW,RNAV,04/20/2010
AXTER,44.48388888888889,-72.03566388888889,VERMONT,ZBW,RNAV,12/18/2006
AXTIV,42.933324999999996,-73.35229166666666,NEW YORK,ZBW,WP,11/02/1998
AYBEE,42.44055833333333,-70.52791111111111,MASSACHUSETTS,ZBW,RNAV,09/26/2014
AYEDE,41.84305833333334,-70.80406111111111,MASSACHUSETTS,ZBW,RP,PYM*LD*235.55/5.67
AYUHH,44.20226944444445,-70.05988333333333,MAINE,ZBW,RNAV,06/21/2010
AYUYU,44.531875,-67.37690277777777,MAINE,ZBW,RNAV,04/12/2004
AYZOO,44.42266111111111,-71.67866388888889,NEW HAMPSHIRE,ZBW,RP,BML*VOR/DME*256.29/24.63
AZBAF,42.51835555555555,-73.036425,MASSACHUSETTS,ZBW,RNAV,02/26/2010
AZUFY,41.24973888888889,-73.92997222222223,NEW YORK,ZBW,RNAV,02/09/2018
XALAC,42.680477777777774,-73.85379722222221,NEW YORK,ZBW,CN,06/27/2011
XANTY,43.04103333333333,-75.99900555555556,NEW YORK,ZBW,RNAV,07/11/2005
XAWFE,43.36654166666667,-70.76448055555555,MAINE,ZBW,RP,ENE*VOR/DME*/7.50
XCESS,41.166983333333334,-73.80993055555555,NEW YORK,ZBW,RNAV,08/17/2010
XIBUL,45.29493986111111,-67.45446330555556,,ZBW,RNAV,11/12/2016
XIJAF,43.38681388888889,-76.43376388888889,NEW YORK,ZBW,RNAV,04/12/2011
XIMKY,43.97551388888889,-72.39537777777778,VERMONT,ZBW,RNAV,08/14/2014
XIPAQ,42.98110555555556,-73.93708055555555,NEW YORK,ZBW,RNAV,06/27/2011
XOHWA,42.81748055555556,-73.75563055555556,NEW YORK,ZBW,CN,06/27/2011
XOHWI,42.89157222222222,-71.40991944444445,NEW HAMPSHIRE,ZBW,RP,MHT*LD*171.53/3.53
XOWVE,44.429880555555556,-73.08389166666666,VERMONT,ZBW,RP,VOE*LD*145.83/3.20
XUDAJ,41.60833888888889,-71.41315,RHODE ISLAND,ZBW,RP,PVD*VOR/DME*187.91/7.00
MAANO,42.22329722222222,-71.19256944444444,MASSACHUSETTS,ZBW,RP,BOS*VOR/DME*244.40/12.10
MABCE,42.73726944444444,-73.80341388888888,NEW YORK,ZBW,CN,12/04/2014
MABCI,44.45825,-73.14985,VERMONT,ZBW,CN,12/04/2014
MABKV,43.27916666666667,-70.92684444444446,NEW HAMPSHIRE,ZBW,RP,PSM*VOR/DME*356.43/12.40
MABYG,41.923136111111106,-71.49616666666667,RHODE ISLAND,ZBW,CN,08/21/2002
MABYT,41.914430555555555,-71.48835277777778,RHODE ISLAND,ZBW,CN,08/21/2002
MACFI,41.15627222222222,-73.13093888888888,CONNECTICUT,ZBW,CN,12/04/2014
MACKD,44.54005,-72.61484444444444,VERMONT,ZBW,CN,08/21/2002
MACLL,46.86746388888889,-68.02237777777778,MAINE,ZBW,RP,PQI*VOR/DME*049.00/6.34
MACOB,41.3837,-72.50648611111112,CONNECTICUT,ZBW,RP,MAD*VOR/DME*076.41/9.38
MACPC,40.95650277777778,-72.25771388888889,NEW YORK,ZBW,CN,07/17/2002
MACRG,41.36660277777778,-73.48749722222222,CONNECTICUT,ZBW,RNAV,07/13/2017
MACSD,41.733019444444444,-72.64710277777779,CONNECTICUT,ZBW,CN,07/17/2002
MACXE,42.549819444444445,-72.01678055555556,MASSACHUSETTS,ZBW,RP,GDM*VOR/DME*096.78/1.85
MADAF,42.79664444444444,-70.843925,MASSACHUSETTS,ZBW,CN,12/04/2014
MADDG,41.14326111111111,-72.91590833333333,CONNECTICUT,ZBW,RNAV,04/24/2017
MADUY,41.271569444444445,-72.551,CONNECTICUT,ZBW,CN,12/04/2014
MAFJO,41.57619444444445,-73.73275833333334,NEW YORK,ZBW,CN,12/04/2014
MAFYA,41.25182777777778,-72.03175277777778,NEW YORK,ZBW,CN,12/04/2014
MAGAH,43.349986111111114,-73.6107611111111,NEW YORK,ZBW,CN,12/04/2014
MAGRE,41.82051666666667,-71.90062777777779,CONNECTICUT,ZBW,CN,12/04/2014
MAHAD,42.914474999999996,-76.43872777777779,NEW YORK,ZNY,CN,12/04/2014
MAHAG,44.893455555555555,-72.22540000000001,VERMONT,ZBW,CN,12/04/2014
MAHAX,41.73133055555556,-71.422075,RHODE ISLAND,ZBW,CN,12/04/2014
MAHEK,41.1648,-73.11962777777777,CONNECTICUT,ZBW,CN,12/04/2014
MAHGI,42.78403888888889,-71.51118611111112,NEW HAMPSHIRE,ZBW,RP,MHT*VOR/DME*246.03/8.05
MAHGO,43.633519444444445,-72.29424999999999,NEW HAMPSHIRE,ZBW,CN,12/04/2014
MAHIK,44.049638888888886,-70.27461944444444,MAINE,ZBW,RP,AUG*VOR/DME*250.00/26.25
MAIDS,40.76451388888889,-72.94791666666667,NEW YORK,ZBW,RP,DPK*VOR/DME*107.64
MAILS,41.80240833333333,-74.3126861111111,NEW YORK,ZBW,WP,11/02/1998
MAINA,43.65388611111111,-70.44615833333334,MAINE,ZBW,RP,ENE*VOR/DME*045.02
MAJAP,42.59119166666667,-72.518775,MASSACHUSETTS,ZBW,RP,GDM*VOR/DME*291.73/20.60
MAJKI,41.98208888888889,-73.96013055555557,NEW YORK,ZBW,CN,12/04/2014
MAJVY,42.302188888888885,-75.41478333333333,NEW YORK,ZBW,CN,12/04/2014
MAKER,42.48762777777778,-71.47324166666667,MASSACHUSETTS,ZBW,WP,01/29/1986
MALDY,42.43031388888889,-71.09732222222222,MASSACHUSETTS,ZBW,RP,MDC*LD*328.56/6.37
MALLO,43.162797222222224,-74.50776666666667,NEW YORK,ZBW,RP,UCA*VORTAC*085.97/30.01
MANCH,42.87000833333333,-71.36848333333333,NEW HAMPSHIRE,ZBW,RNAV,02/23/2017
MANDE,41.03479722222222,-72.02413055555556,NEW YORK,ZBW,RP,HTO*VORTAC*075.33/15.00
MANIF,44.477247222222225,-73.18061111111112,VERMONT,ZBW,RNAV,03/11/2011
MANIX,42.298825,-72.5957611111111,MASSACHUSETTS,ZBW,MR,CEF*VORTAC*233.00/1.90
MANTA,39.90194722222222,-73.54211944444444,NEW JERSEY,ZNY,RP,SIE*VORTAC*059.00/75.84
MAPKE,44.48316944444445,-71.16859722222223,NEW HAMPSHIRE,ZBW,RNAV,10/18/2010
MAPLE,41.461908333333334,-72.54197222222221,CONNECTICUT,ZBW,RNAV,07/07/2009
MAPME,44.49245,-71.57792777777777,NEW HAMPSHIRE,ZBW,RNAV,01/12/2011
MARBB,42.53351388888888,-70.76591666666667,MASSACHUSETTS,ZBW,RNAV,08/30/2009
MARCY,43.15161666666666,-75.29111388888889,NEW YORK,ZBW,RP,RME*LD*147.07/8.29
MARES,41.14251111111111,-73.33167222222222,CONNECTICUT,ZBW,WP,CMK*VOR/DME*138.00/14.00
MARIA,42.8341,-74.21680555555555,NEW YORK,ZBW,RP,DNY*VOR/DME*050.61
MARLY,42.58232777777778,-72.42705833333333,MASSACHUSETTS,ZBW,RP,GDM*VOR/DME*291.73/16.50
MARQE,44.37379444444444,-68.55015555555555,MAINE,ZBW,RNAV,05/23/2012
MARSO,42.15306388888889,-70.57590833333333,MASSACHUSETTS,ZBW,RP,BOS*VOR/DME*139.49
MARTN,42.581047222222224,-73.27047777777777,MASSACHUSETTS,ZBW,RP,CAM*VOR/DME*186.51/25.00
MASNE,42.88999722222222,-71.61646111111111,NEW HAMPSHIRE,ZBW,RNAV,11/05/2009
MASPE,44.46985277777778,-72.87296666666666,VERMONT,ZBW,RNAV,01/21/2003
MASTI,40.76296111111111,-72.91836944444445,NEW YORK,ZBW,RP,DPK*VOR/DME*107.49
MATHW,40.955308333333335,-72.49386944444444,NEW YORK,ZBW,RNAV,03/06/2009
MATTY,40.97309722222222,-72.47337777777778,NEW YORK,ZBW,RP,HTO*VORTAC*307.54
MAUDE,40.90048611111111,-73.34736666666666,NEW YORK,ZBW,WP,CCC*VOR/DME*279.00/25.00
MAVDE,41.73343055555556,-72.64684444444445,CONNECTICUT,ZBW,RP,HFD*VOR/DME*334.12/7.12
MAVJO,42.15177222222222,-71.29773888888889,MASSACHUSETTS,ZBW,WP,01/03/1996
MAWEL,42.79242222222222,-71.82782499999999,NEW HAMPSHIRE,ZBW,RNAV,07/25/2005
MAYMI,42.960172222222226,-75.81532777777778,NEW YORK,ZBW,RNAV,08/17/2010
MAYTA,41.66665,-70.75304166666666,MASSACHUSETTS,ZBW,RNAV,06/29/2011
MCADM,43.545788888888886,-72.22759444444445,NEW HAMPSHIRE,ZBW,RP,LEB*VOR/DME*198.61/8.00
MCCAB,40.757616666666664,-73.130325,NEW YORK,ZBW,RNAV,06/21/2011
MDSON,41.31384722222222,-72.69217777777779,CONNECTICUT,ZBW,WP,12/28/1995
MEANY,42.29643055555555,-72.46133611111111,MASSACHUSETTS,ZBW,MR,CTR*VOR/DME*102.03
MECEJ,41.76931111111111,-70.11699722222221,MASSACHUSETTS,ZBW,RNAV,10/06/2000
MEEMS,44.67121944444444,-67.74118055555556,MAINE,ZBW,RNAV,11/15/2017
MELTY,43.04768333333333,-76.27814722222222,NEW YORK,ZBW,RNAV,05/03/2013
MEMAE,42.57739444444445,-70.93603333333334,MASSACHUSETTS,ZBW,RNAV,09/08/2016
MENNE,43.259658333333334,-72.60039722222221,VERMONT,ZBW,RP,VSF*LE*231.39/6.67
MEPTE,41.320286111111116,-73.9515,NEW YORK,ZBW,RNAV,08/06/2010
MEQDI,44.76636388888889,-72.79553888888888,VERMONT,ZBW,RNAV,05/10/2017
MERIT,41.38195,-73.13743055555557,CONNECTICUT,ZBW,RP,CMK*VOR/DME*084.92
MESHL,43.32001944444445,-70.16334166666667,MAINE,ZBW,RP,BOS*VOR/DME*048.00
MIAOU,42.58986388888889,-70.87607777777777,MASSACHUSETTS,ZBW,RNAV,09/08/2016
MICAL,41.22126111111111,-73.85024444444444,NEW YORK,ZBW,RP,CMK*VOR/DME*265.93/12.67
MICCI,43.8583,-75.79985833333333,NEW YORK,ZBW,MR,ART*VORTAC*128.00
MIDDL,41.547216666666664,-72.74717222222222,CONNECTICUT,ZBW,RP,MAD*VOR/DME*002.96
MIICH,41.95150277777778,-72.94966944444445,CONNECTICUT,ZBW,RNAV,02/22/2018
MIIKE,44.88045,-68.93320555555556,MAINE,ZBW,RNAV,02/09/2018
MILID,42.50718888888889,-75.03674444444444,NEW YORK,ZBW,RP,RKA*VOR/DME*086.00
MILIS,42.10516388888889,-71.3115611111111,MASSACHUSETTS,ZBW,RP,BOS*VOR/DME*239.60/20.86
MILTT,42.273649999999996,-71.04919166666666,MASSACHUSETTS,ZBW,RP,BOS*LD*214.74/6.93
MILUM,41.22271666666667,-73.05070277777777,CONNECTICUT,ZBW,RP,BDR*VOR/DME*053.92/5.00
MIMDE,44.67165277777777,-75.52278888888888,NEW YORK,ZBW,RNAV,04/13/2012
MIMEO,44.21726944444445,-69.97917777777778,MAINE,ZBW,RP,AUG*VOR/DME*250.00/10.00
MIMIC,41.82656111111111,-71.57123055555556,RHODE ISLAND,ZBW,RP,PUT*VOR/DME*136.21
MINGS,42.05527222222222,-72.74057777777777,MASSACHUSETTS,ZBW,RNAV,04/20/2010
MINNK,41.36129722222223,-71.42422222222223,RHODE ISLAND,ZBW,RP,SEY*VOR/DME*045.54/13.50
MINNT,42.28946111111111,-70.78440833333333,MASSACHUSETTS,ZBW,RP,BOS*VOR/DME*130.00/10.00
MIRKS,44.51828333333333,-69.83324722222221,MAINE,ZBW,RP,AUG*VOR/DME*010.46/12.00
MITAH,44.68911666666666,-74.50482777777778,NEW YORK,ZBW,RNAV,09/14/2012
MITRE,42.76729722222222,-71.39626111111112,NEW HAMPSHIRE,ZBW,RP,MHT*VOR/DME*206.01
MIXOE,44.90721388888889,-71.49831388888889,VERMONT,ZBW,RNAV,01/12/2011
MNSFD,41.99508333333333,-71.18618055555557,MASSACHUSETTS,ZBW,WP,11/02/1998
MNSTA,42.68425833333333,-72.63019166666666,MASSACHUSETTS,ZBW,RNAV,09/28/2014
MNTIN,42.85916944444445,-71.39080833333334,NEW HAMPSHIRE,ZBW,RP,MHT*VOR/DME*254.12
MOBBS,42.125233333333334,-73.26016388888888,MASSACHUSETTS,ZBW,RP,BAF*VORTAC*279.00/24.38
MOBGE,43.58742777777778,-71.188625,NEW HAMPSHIRE,ZBW,RNAV,01/20/2011
MODLE,42.39693055555556,-71.20871666666667,MASSACHUSETTS,ZBW,RNAV,11/14/2013
MOEEE,41.66146944444444,-69.53143333333334,MASSACHUSETTS,ZBW,RNAV,04/09/2010
MOGFE,44.82981111111111,-70.05760833333333,MAINE,ZBW,RNAV,03/10/2015
MOGUL,41.72298888888889,-72.00913055555556,CONNECTICUT,ZBW,RP,PVD*VOR/DME*284.01/26.04
MOISE,41.06154444444444,-73.50352777777778,CONNECTICUT,ZBW,RNAV,10/14/2008
MOLDE,42.24100277777778,-72.48988333333334,MASSACHUSETTS,ZBW,MW,10/11/2017
MOLDS,42.20858611111112,-73.05371944444444,MASSACHUSETTS,ZBW,RP,BAF*VORTAC*294.64
MOLNE,41.54297222222222,-73.85626666666666,NEW YORK,ZBW,RP,CMK*VOR/DME*333.88
MOMDE,41.55789444444444,-72.58650833333333,CONNECTICUT,ZBW,RNAV,07/07/2009
MONDI,41.154783333333334,-72.19965833333333,NEW YORK,ZBW,RP,MAD*VOR/DME*126.00
MONEY,40.125,-72.51666666666667,OFFSHORE ATLANTIC,ZBW,RP,ACY*VORTAC*076.51/103.36
MONGA,41.76669444444445,-74.86066388888888,NEW YORK,ZBW,RP,07/02/2012
MONRC,42.77674444444445,-72.13925277777778,NEW HAMPSHIRE,ZBW,RNAV,11/17/2014
MONSO,41.97677222222222,-70.84089166666666,MASSACHUSETTS,ZBW,RNAV,10/02/2014
MONTK,40.814775,-71.01264166666667,MASSACHUSETTS,ZBW,RNAV,04/09/2010
MONTT,41.18165833333333,-71.39851111111112,NEW YORK,ZBW,RP,PVD*VOR/DME*191.52/32.57
MOONI,41.63146666666667,-73.32206388888889,CONNECTICUT,ZBW,RP,BDR*VOR/DME*354.53
MORIS,42.446124999999995,-71.02621944444445,MASSACHUSETTS,ZBW,RP,LWM*VOR/DME*185.20
MOTEL,42.02110833333333,-72.57960277777778,CONNECTICUT,ZBW,RP,BAF*VORTAC*158.11
MOTEY,43.19694166666666,-76.02988055555555,NEW YORK,ZBW,RNAV,05/03/2013
MOTOR,45.80542777777777,-69.98064722222223,MAINE,ZBW,RP,MLT*VOR/DME*303.00/63.00
MOTPE,43.18921666666667,-71.5701611111111,NEW HAMPSHIRE,ZBW,RNAV,11/05/2009
MOXOE,43.65159166666667,-70.18591944444445,MAINE,ZBW,RNAV,09/28/2009
MOYER,44.20836111111112,-69.96874444444444,MAINE,ZBW,RP,AUG*VOR/DME*246.00/10.00
MOYIK,43.099650000000004,-76.37681111111111,NEW YORK,ZBW,RP,SYR*VORTAC*255.30
MOZMO,45.48208888888889,-68.78540833333334,MAINE,ZBW,RNAV,05/19/2009
MREEE,44.19687777777777,-74.39084722222223,NEW YORK,ZBW,RNAV,08/02/2012
MRKEE,43.7669,-70.38289722222221,MAINE,ZBW,RNAV,06/26/2012
MTAPN,42.28098055555555,-71.05566666666667,MASSACHUSETTS,ZBW,RNAV,03/23/2017
MUCOW,42.483041666666665,-72.9522861111111,MASSACHUSETTS,ZBW,RNAV,11/17/2014
MUDDI,43.74440277777778,-72.85747777777777,VERMONT,ZBW,RP,BTV*VOR/DME*175.13/41.61
MUDME,44.24749722222222,-68.254525,MAINE,ZBW,RNAV,10/01/2009
MUGGY,42.895808333333335,-71.75483611111112,NEW HAMPSHIRE,ZBW,RP,MHT*VOR/DME*290.63/17.08
MUJIK,42.55505833333333,-73.79638333333334,NEW YORK,ZBW,RP,DEJ*LD*191.17/12.50
MULXI,43.03881111111111,-73.80618888888888,NEW YORK,ZBW,RNAV,05/10/2011
MUNKS,43.234175,-72.02756388888889,NEW HAMPSHIRE,ZBW,RNAV,10/02/2012
MUNZA,44.52923333333333,-74.34481111111111,NEW YORK,ZBW,RP,YJN*VOR/DME*241.40
MUVGE,41.243900000000004,-72.89044166666667,CONNECTICUT,ZBW,RP,MAD*VOR/DME*258.00/9.90
MUVRE,43.981344444444446,-75.74656944444445,NEW YORK,ZBW,RNAV,05/24/2011
MUZIK,41.17621111111111,-73.32204722222222,CONNECTICUT,ZBW,RP,DPK*VOR/DME*009.93
MWVYB,44.81295833333333,-75.3385,NEW YORK,ZBW,CN,07/20/2015
MYNOT,42.28550277777778,-70.75055277777778,MASSACHUSETTS,ZBW,RP,BOS*VOR/DME*128.00/11.48
MYOPY,43.13200833333333,-70.6781888888889,MAINE,ZBW,RNAV,01/27/2016
MYRCA,40.34526944444445,-73.94946388888889,NEW JERSEY,ZBW,RNAV,02/23/2017
LABEL,43.78440833333333,-70.76440277777778,MAINE,ZBW,RP,PSM*VOR/DME*020.00
LABRE,46.75192222222222,-69.93551666666667,,ZBW,RP,PQI*VOR/DME*290.66/76.00
LACKO,41.920049999999996,-70.46450555555556,MASSACHUSETTS,ZBW,RNAV,06/04/2014
LADNE,45.19734166666667,-68.3849888888889,MAINE,ZBW,RNAV,05/19/2009
LADTI,42.74314722222222,-71.09032499999999,MASSACHUSETTS,ZBW,RP,PSM*VOR/DME*225.18
LAFAY,41.462561111111114,-71.72123055555556,RHODE ISLAND,ZBW,RP,PVD*VOR/DME*234.00/20.46
LAGGO,47.21828333333333,-68.56338055555555,MAINE,ZBW,RNAV,08/01/2007
LAGGS,44.297125,-74.22894166666667,NEW YORK,ZBW,RNAV,08/24/2016
LAIVS,44.96109722222222,-74.21830277777778,NEW YORK,ZBW,RNAV,09/14/2012
LAMED,43.44795555555555,-73.70383055555556,NEW YORK,ZBW,RP,YSC*VOR/DME*234.00
LANGY,42.76110555555555,-73.66875555555556,NEW YORK,ZBW,RP,ALB*VORTAC*095.01/6.00
LAODE,43.80820555555555,-69.31583055555555,MAINE,ZBW,RNAV,06/21/2010
LAPEL,42.46136666666667,-72.20438611111112,MASSACHUSETTS,ZBW,RP,ENE*VOR/DME*183.00
LARIE,41.82318333333334,-69.97832222222222,MASSACHUSETTS,ZBW,RNAV,04/09/2010
LAROE,43.74964444444444,-71.27998611111111,NEW HAMPSHIRE,ZBW,RP,ENE*VOR/DME*321.00
LATRL,41.16459722222222,-73.11914999999999,CONNECTICUT,ZBW,WP,12/28/1995
LATSE,41.35606111111111,-72.01415555555556,CONNECTICUT,ZBW,RP,GON*VOR/DME*062.00/2.30
LATTS,44.858272222222226,-73.5414611111111,NEW YORK,ZBW,RNAV,05/16/2014
LAUDS,45.41948055555555,-68.20748888888889,MAINE,ZBW,RP,MLT*VOR/DME*147.56
LAWRN,42.203250000000004,-71.82613055555555,MASSACHUSETTS,ZBW,RP,GDM*VOR/DME*167.26/23.00
LAYIR,43.47746388888889,-72.00787222222222,NEW HAMPSHIRE,ZBW,RNAV,10/02/2012
LAZYE,40.95811666666667,-72.3130861111111,NEW YORK,ZBW,RNAV,03/06/2009
LBSTA,42.8,-70.61352777777778,MASSACHUSETTS,ZBW,RP,MHT*VOR/DME*111.76
LEADS,42.374069444444444,-72.66321388888889,MASSACHUSETTS,ZBW,RP,BAF*VORTAC*024.49/12.94
LEAFY,44.300869444444444,-73.54856388888889,NEW YORK,ZBW,RNAV,08/12/2016
LECEG,43.749072222222225,-72.95748888888889,VERMONT,ZBW,RNAV,08/02/2012
LEDEC,41.11295277777778,-71.8689611111111,NEW YORK,ZBW,RNAV,07/03/2012
LEEZI,42.683947222222216,-70.74341666666666,MASSACHUSETTS,ZBW,RNAV,09/28/2014
LELIC,42.603861111111115,-71.81403611111111,MASSACHUSETTS,ZBW,RNAV,07/25/2005
LELSE,45.52732777777778,-68.68590833333333,MAINE,ZBW,RNAV,05/19/2009
LENEC,42.989025,-76.19296944444444,NEW YORK,ZBW,RNAV,05/03/2013
LENNE,40.99628055555556,-72.12177222222222,NEW YORK,ZBW,RP,HTO*VORTAC*075.33/10.00
LENOL,44.26327777777778,-76.16279444444444,NEW YORK,ZBW,RNAV,07/10/2001
LESWL,41.89194444444444,-73.32222222222222,CONNECTICUT,ZBW,RNAV,08/26/2011
LETUS,44.62287222222222,-75.45317777777778,NEW YORK,ZBW,RP,PTD*NDB*270.33
LEWIE,43.96233333333333,-70.3381861111111,MAINE,ZBW,RNAV,02/28/2014
LGURI,43.16260277777778,-70.73869722222223,MAINE,ZBW,RNAV,11/09/2009
LIBBE,41.00440555555556,-71.35565,NEW YORK,ZBW,RP,HTO*VORTAC*096.00/43.98
LIDLE,43.705175000000004,-76.01070555555556,NEW YORK,ZBW,RP,ART*VORTAC*183.00/15.00
LIDOW,44.355891666666665,-71.85970277777777,VERMONT,ZBW,RNAV,04/07/2006
LIEFF,40.82271388888889,-72.87559722222221,NEW YORK,ZBW,RP,CCC*VOR/DME*221.61/7.30
LIGDE,41.89355555555556,-71.96501388888889,CONNECTICUT,ZBW,RNAV,01/21/2010
LIGUW,43.91209444444444,-68.89121944444445,MAINE,ZBW,RNAV,10/08/2008
LIKME,44.72558888888889,-74.64572222222223,NEW YORK,ZBW,RNAV,09/14/2012
LIKRE,43.248666666666665,-71.19692777777779,NEW HAMPSHIRE,ZBW,RNAV,01/16/2013
LILKS,42.328586111111115,-71.08691666666667,MASSACHUSETTS,ZBW,RNAV,11/14/2013
LIMER,43.68372222222222,-70.91076944444445,MAINE,ZBW,RP,ENE*VOR/DME*337.15
LINKS,41.77346388888889,-72.04065555555556,CONNECTICUT,ZBW,RP,PUT*VOR/DME*232.98
LIPVE,44.67344444444444,-69.44625833333333,MAINE,ZBW,RP,AUG*VOR/DME*053.23/26.00
LIQED,44.77000833333333,-72.62343333333332,VERMONT,ZBW,RNAV,05/10/2017
LIRGE,44.23500277777778,-68.2115388888889,MAINE,ZBW,RNAV,10/01/2009
LISBE,43.174252777777774,-72.67666944444444,VERMONT,ZBW,RNAV,04/12/2002
LISDE,46.70970555555556,-67.90553333333334,MAINE,ZBW,RNAV,05/19/2009
LIVGE,41.970647222222226,-71.45048055555556,RHODE ISLAND,ZBW,RNAV,12/13/2012
LIZLU,43.74311111111111,-70.22411666666667,MAINE,ZBW,RNAV,06/26/2012
LIZZZ,44.543330555555556,-73.89284166666667,NEW YORK,ZBW,RP,BTV*VOR/DME*301.29/31.75
LLIVE,42.99112777777778,-71.61938888888888,NEW HAMPSHIRE,ZBW,RNAV,12/03/2014
LLUND,40.86251111111111,-73.78258333333333,NEW YORK,ZBW,RP,LGA*VOR/DME*051.64
LOBBY,42.50431388888889,-71.60945555555556,MASSACHUSETTS,ZBW,RP,MHT*VOR/DME*221.00
LOBME,44.10324166666667,-68.83094166666666,MAINE,ZBW,RNAV,09/28/2009
LOBOS,41.656302777777775,-74.47836111111111,NEW YORK,ZBW,WP,11/02/1998
LOBOW,45.82580277777778,-69.515825,MAINE,ZBW,RNAV,11/28/2016
LOCET,44.06000833333333,-73.40230555555556,VERMONT,ZBW,RNAV,01/13/2011
LODTI,42.85385277777778,-71.66556944444444,NEW HAMPSHIRE,ZBW,RP,MHT*VOR/DME*281.25
LOGLI,45.07333333333334,-74.48166666666667,,ZBW,RP,07/19/2001
LOKZA,46.771652777777774,-68.07916944444445,MAINE,ZBW,RNAV,05/19/2009
LOLLY,41.38550277777778,-74.06348333333334,NEW YORK,ZBW,RP,IGN*VOR/DME*225.00/20.00
LOLYE,42.971627777777776,-75.90086388888889,NEW YORK,ZBW,RNAV,07/11/2005
LOMIS,41.637877777777774,-72.6222111111111,CONNECTICUT,ZBW,RP,HFD*VOR/DME*279.73
LONER,42.39968611111111,-70.76327777777777,MASSACHUSETTS,ZBW,RP,DGU*LD*091.58/11.54
LONEY,42.48200555555556,-69.911725,OFFSHORE ATLANTIC,ZBW,RNAV,09/26/2014
LOTMY,42.25415,-75.51938333333334,NEW YORK,ZBW,RNAV,01/31/2001
LOVES,41.53878888888889,-73.48809444444444,CONNECTICUT,ZBW,RP,BDR*VOR/DME*336.19/28.00
LOVIE,43.88089166666667,-76.37844999999999,NEW YORK,ZBW,RNAV,05/24/2011
LOXFO,43.12860833333333,-73.77695277777778,NEW YORK,ZBW,RNAV,07/08/2009
LOXXE,42.574875000000006,-75.72596944444444,NEW YORK,ZBW,RP,SYR*VORTAC*159.83
LUBCA,42.71471944444445,-71.20239722222223,NEW HAMPSHIRE,ZBW,WP,11/02/1998
LUBCI,44.80458888888889,-66.81265833333333,MAINE,ZBW,RNAV,09/14/2010
LUCEG,44.259683333333335,-70.50919166666667,MAINE,ZBW,RNAV,10/01/2009
LUCEY,43.20236111111112,-73.6036861111111,NEW YORK,ZBW,WP,GFL*VORTAC*191.57/8.37
LUCIB,42.03844722222222,-73.12219166666667,CONNECTICUT,ZBW,RNAV,09/06/2012
LUCIC,42.790013888888886,-72.74296111111111,VERMONT,ZBW,RNAV,11/17/2014
LUCOS,41.638127777777775,-70.76821944444444,MASSACHUSETTS,ZBW,RP,BOS*VOR/DME*183.00/44.26
LUKXA,41.093650000000004,-73.81042777777778,NEW YORK,ZBW,RNAV,02/09/2018
LULIY,41.472408333333334,-70.41329166666667,MASSACHUSETTS,ZBW,RNAV,03/06/2006
LUNFI,44.692344444444444,-72.12490277777778,VERMONT,ZBW,RNAV,08/10/2015
LUPDY,44.54058055555555,-73.40413611111111,NEW YORK,ZBW,RP,05/12/2017
LURCH,42.899344444444445,-71.80651944444445,NEW HAMPSHIRE,ZBW,RP,MHT*VOR/DME*290.63/19.36
LURYO,42.99921111111111,-74.08201388888888,NEW YORK,ZBW,RNAV,08/03/2010
LUSIC,46.66771388888888,-68.14496666666668,MAINE,ZBW,RNAV,05/19/2009
LUYEN,40.99919166666667,-72.94952777777779,NEW YORK,ZBW,RNAV,04/02/2007
LVRON,42.198677777777775,-71.0997,MASSACHUSETTS,ZBW,RNAV,03/23/2017
LWLND,42.58237777777778,-71.01840833333333,MASSACHUSETTS,ZBW,RNAV,04/04/2016
LYHTT,42.32766666666667,-70.89034444444445,MASSACHUSETTS,ZBW,RP,BOS*VOR/DME*128.00/4.76
LYLAC,43.062777777777775,-71.65916666666668,NEW HAMPSHIRE,ZBW,RNAV,12/03/2014
LYNES,42.921475,-71.0158888888889,NEW HAMPSHIRE,ZBW,WP,MHT*VOR/DME*093.00/15.90
LYSAN,43.21241666666667,-76.51431388888889,NEW YORK,ZBW,RP,SYR*VORTAC*294.00/13.95
YAAKK,43.58096666666667,-69.95668333333333,MAINE,ZBW,RNAV,05/23/2014
YAARD,42.22236111111111,-70.83994444444444,MASSACHUSETTS,ZBW,RNAV,10/16/2006
YADPU,42.29289722222222,-71.57133055555555,MASSACHUSETTS,ZBW,RNAV,04/17/2012
YAGUY,42.57398055555556,-72.27823055555555,MASSACHUSETTS,ZBW,RP,GDM*VOR/DME*293.86/9.90
YAHOO,41.069250000000004,-69.74621666666667,OFFSHORE ATLANTIC,ZBW,RP,ACK*VOR/DME*150.00/18.00
YAKUT,42.75374166666667,-73.60888333333332,NEW YORK,ZBW,RNAV,06/27/2011
YALER,41.515725,-72.91085833333334,CONNECTICUT,ZBW,RP,MAD*VOR/DME*333.88
YANRU,42.61326388888889,-71.07093055555555,MASSACHUSETTS,ZBW,RNAV,08/14/2012
YARNN,41.7395,-74.36757499999999,NEW YORK,ZBW,WP,11/02/1998
YARUR,44.104733333333336,-72.49158611111112,VERMONT,ZBW,RNAV,08/14/2014
YARUS,42.849361111111115,-73.93465833333333,NEW YORK,ZBW,RNAV,02/03/2009
YASUP,43.744480555555555,-72.34121944444443,VERMONT,ZBW,RNAV,10/22/2008
YATUT,44.45218333333334,-69.33967222222222,MAINE,ZBW,RNAV,10/23/2014
YAVGU,43.21655833333334,-75.84683333333332,NEW YORK,ZBW,RNAV,02/15/2011
YAWKE,42.33261111111111,-70.85668055555556,MASSACHUSETTS,ZBW,RNAV,02/14/2017
YAYNU,42.649772222222225,-73.77601388888888,NEW YORK,ZBW,RNAV,06/27/2011
YBERA,41.63905833333333,-71.52499444444445,RHODE ISLAND,ZBW,RP,PVD*VOR/DME*234.00/6.67
YECKA,43.46893333333333,-71.43720277777778,NEW HAMPSHIRE,ZBW,RP,CON*VOR/DME*037.00/16.13
YECKU,44.495075,-70.10819166666666,MAINE,ZBW,RNAV,03/11/2015
YEDUL,42.64272222222222,-71.53134166666666,MASSACHUSETTS,ZBW,RNAV,01/16/2013
YEFJI,43.29109166666667,-75.47766111111112,NEW YORK,ZBW,RP,UCA*VORTAC*331.20/21.00
YEKUK,44.67075277777778,-71.17404166666667,NEW HAMPSHIRE,ZBW,RP,BML*VOR/DME*030.00/2.30
YELOW,41.923630555555555,-72.86146388888888,CONNECTICUT,ZBW,RNAV,02/22/2018
YERFO,44.41421944444444,-73.17346388888889,VERMONT,ZBW,RP,BTV*VOR/DME*036.00/1.10
YERNU,41.3154,-72.88424444444445,CONNECTICUT,ZBW,RNAV,10/04/2016
YETGU,42.74366388888889,-73.90853333333334,NEW YORK,ZBW,RNAV,06/27/2011
YEYUV,43.4094,-70.6691388888889,MAINE,ZBW,RNAV,03/23/2011
YIBUK,42.80142222222222,-75.80426666666666,NEW YORK,ZBW,RNAV,08/31/2015
YIDPU,42.56922777777778,-72.29286944444445,MASSACHUSETTS,ZBW,RP,GDM*VOR/DME*291.73/10.50
YIGUC,47.279130555555554,-68.01063888888889,,ZBW,RNAV,07/07/2010
YIKUP,44.567572222222225,-69.64935277777778,MAINE,ZBW,RNAV,05/18/2007
YIRUY,43.695175,-72.29638055555556,NEW HAMPSHIRE,ZBW,RNAV,11/06/2009
YISUV,41.180794444444444,-73.10060833333333,CONNECTICUT,ZBW,RP,BDR*VOR/DME*053.92/1.62
YISUY,44.89114166666667,-68.94904722222222,MAINE,ZBW,RNAV,07/27/2010
YISXI,44.73178333333333,-72.14548611111111,VERMONT,ZBW,RNAV,08/10/2015
YIVUP,41.27780555555555,-70.03157222222222,MASSACHUSETTS,ZBW,RP,ACK*LD*061.02/2.75
YIXCO,44.84623333333334,-68.88425833333334,MAINE,ZBW,RP,JVH*LD*330.17/4.45
YIYIW,42.998530555555554,-74.26075833333333,NEW YORK,ZBW,RNAV,08/03/2010
YNOTT,41.36442777777778,-73.33972777777777,CONNECTICUT,ZBW,WP,09/27/1991
YOBXU,44.588744444444444,-73.37523333333333,VERMONT,ZBW,RP,BJA*TACAN*320.66/11.53
YODAA,41.72255277777778,-74.03132222222222,NEW YORK,ZBW,RP,IGN*VOR/DME*302.09/10.00
YODEL,41.39038055555555,-72.65847777777779,CONNECTICUT,ZBW,RP,MAD*VOR/DME*031.35/4.84
YODER,41.289586111111106,-72.34244166666666,CONNECTICUT,ZBW,RP,CCC*VOR/DME*056.65/29.91
YODGU,43.117602777777776,-71.45013333333334,NEW HAMPSHIRE,ZBW,RNAV,06/02/2005
YOKNZ,42.995847222222224,-70.75627222222222,NEW HAMPSHIRE,ZBW,RP,PSM*VOR/DME*163.90/6.27
YOMAN,40.93703055555555,-73.74497777777778,NEW YORK,ZBW,RP,DPK*VOR/DME*305.59
YOMON,43.49180277777778,-70.02731388888888,MAINE,ZBW,RNAV,05/23/2014
YORKE,41.806041666666665,-73.32058888888889,CONNECTICUT,ZBW,RNAV,08/27/2011
YORNO,41.53981388888889,-74.1665,NEW YORK,ZBW,RNAV,02/09/2010
YORTU,44.745672222222225,-75.10255555555555,NEW YORK,ZBW,RP,MSS*VORTAC*252.16/19.12
YOSTT,44.47593611111111,-69.52399166666666,MAINE,ZBW,RP,AUG*VOR/DME*069.32/15.00
YOSUR,40.73469722222222,-73.18330277777778,NEW YORK,ZBW,RP,DPK*VOR/DME*133.90
YOUGO,41.30041388888888,-73.06434722222222,CONNECTICUT,ZBW,RP,BDR*VOR/DME*029.99
YOULL,42.81307777777778,-71.36365833333333,NEW HAMPSHIRE,ZBW,RP,MHT*VOR/DME*190.54
YUDUK,44.98131666666667,-74.58312222222222,NEW YORK,ZBW,RNAV,11/23/2009
YUDUL,44.60596944444445,-69.89317500000001,MAINE,ZBW,RNAV,03/11/2015
YUGUR,21.27182222222222,-158.11644444444443,HAWAII,ZBW,RNAV,02/23/2017
YUKES,43.27996944444445,-70.8132611111111,NEW HAMPSHIRE,ZBW,RP,PSM*VOR/DME*020.00/11.76
YUKUD,43.678725,-70.14030833333334,MAINE,ZBW,RNAV,09/30/2009
YUKUT,43.646924999999996,-72.95384166666668,VERMONT,ZBW,RP,RUT*LD*013.52/7.39
YUNUD,44.50575555555555,-73.49230277777778,NEW YORK,ZBW,RNAV,03/25/2015
YUQIG,43.31638333333333,-76.34343333333332,NEW YORK,ZBW,RNAV,04/12/2011
YUSUB,44.63267777777778,-75.74017500000001,,ZBW,RNAV,04/13/2012
YUWFY,41.46537777777778,-70.85396388888888,MASSACHUSETTS,ZBW,RNAV,04/13/2012
UBELY,44.463575000000006,-73.3596361111111,NEW YORK,ZBW,RP,05/12/2017
UBISE,43.8495,-73.41478055555557,NEW YORK,ZBW,RNAV,01/13/2011
UCAKE,42.793,-72.00561944444445,NEW HAMPSHIRE,ZBW,RP,GDM*VOR/DME*022.91/15.00
UCANA,42.96996666666667,-74.22219444444444,NEW YORK,ZBW,RNAV,12/13/2004
UCCOX,44.62509166666667,-69.88853611111112,MAINE,ZBW,WP,11/02/1998
UCEKA,43.675555555555555,-72.29601944444444,NEW HAMPSHIRE,ZBW,RNAV,10/21/2008
UCEKU,43.22236111111111,-72.91911111111112,VERMONT,ZBW,RNAV,12/30/2016
UCENO,44.41983333333333,-69.86893888888888,MAINE,ZBW,RNAV,12/22/2005
UCFAM,44.067600000000006,-68.80810833333334,MAINE,ZBW,RNAV,10/08/2008
UCIYE,41.81528333333333,-73.72459166666667,NEW YORK,ZBW,RP,IGN*VOR/DME*038.00/10.00
UCOKE,44.675552777777774,-72.6196361111111,VERMONT,ZBW,RNAV,05/10/2017
UDDEL,42.71088888888889,-76.04682222222222,NEW YORK,ZNY,WP,11/02/1998
UDOYU,43.203541666666666,-72.85836111111111,VERMONT,ZBW,RP,EEN*VORTAC*328.73/35.00
UFAZY,45.572477777777785,-68.58624722222221,MAINE,ZBW,RNAV,05/19/2009
UFERA,44.06658888888889,-72.46313611111111,VERMONT,ZBW,RNAV,08/14/2014
UFTAC,41.116925,-70.24440277777778,MASSACHUSETTS,ZBW,RP,MVY*VOR/DME*150.02
UGIBE,42.19305555555555,-72.49166666666667,MASSACHUSETTS,ZBW,MW,07/15/2014
UGLAH,42.10935833333333,-73.35146944444443,MASSACHUSETTS,ZBW,RP,PWL*VOR/DME*040.62
UGUYU,42.97638333333334,-72.4914111111111,VERMONT,ZBW,RNAV,06/13/2008
UHNUF,41.339936111111115,-73.59403055555555,NEW YORK,ZBW,RNAV,07/13/2017
UJEGE,42.536386111111106,-71.08245,MASSACHUSETTS,ZBW,RNAV,08/13/2012
UJNOZ,44.708913888888894,-69.86866666666666,MAINE,ZBW,RP,AUG*VOR/DME*010.46/23.54
UJTAP,42.33758888888889,-75.34090833333333,NEW YORK,ZBW,RNAV,02/20/2014
UJWUF,44.36168888888889,-72.97559444444444,VERMONT,ZBW,RP,VOE*LD*145.83/9.40
UKAYU,41.68278333333333,-73.7924861111111,NEW YORK,ZBW,RNAV,12/09/2008
UKEGE,40.84848055555556,-73.03363333333333,NEW YORK,ZBW,RNAV,11/04/2015
UKOYO,46.78424166666667,-67.98735833333333,MAINE,ZBW,RNAV,04/29/2016
ULAKY,43.67621666666666,-71.96896666666667,NEW HAMPSHIRE,ZBW,RNAV,03/30/2009
ULOGE,45.630775,-68.62724999999999,MAINE,ZBW,RP,MLT*VOR/DME*319.00/5.40
ULOVY,46.972969444444445,-68.04946944444444,MAINE,ZBW,RNAV,04/29/2016
UMAIN,44.88608333333333,-68.94203888888889,MAINE,ZBW,RP,JVH*LD*330.17/7.88
UMANE,41.835225,-69.80021944444444,MASSACHUSETTS,ZBW,RNAV,04/20/2010
UMUMY,44.944736111111105,-71.45513611111112,NEW HAMPSHIRE,ZBW,RNAV,11/20/2003
UNAVY,44.96261944444445,-68.79373888888888,MAINE,ZBW,RNAV,07/27/2010
UNCAP,44.47541388888889,-69.93225000000001,MAINE,ZBW,RP,AUG*VOR/DME*346.00/11.00
UNINY,42.91797222222222,-75.62909444444443,NEW YORK,ZBW,RNAV,08/17/2010
UNIRE,42.55555277777778,-70.88154444444444,MASSACHUSETTS,ZBW,RNAV,01/18/2013
UNIWY,41.34428888888889,-70.53703333333333,MASSACHUSETTS,ZBW,RNAV,07/19/2012
UNKER,43.34866388888889,-72.24458333333334,NEW HAMPSHIRE,ZBW,RP,LEB*VOR/DME*198.61
UNMIP,42.840411111111116,-74.22434722222222,NEW YORK,ZBW,RNAV,05/10/2011
UNTER,41.83807222222222,-71.46475000000001,RHODE ISLAND,ZBW,RP,PUT*VOR/DME*126.37
UNUYE,45.07783611111111,-68.47462777777778,MAINE,ZBW,RNAV,07/27/2010
UPBIN,41.78288611111111,-71.02227222222223,MASSACHUSETTS,ZBW,RP,PVD*VOR/DME*093.00/18.63
UPDIZ,44.488255555555554,-69.91758611111112,MAINE,ZBW,RNAV,03/10/2011
UPEDE,45.10373611111111,-73.14036111111112,,ZBW,RNAV,03/09/2004
UPESY,43.37391944444445,-72.45365833333334,VERMONT,ZBW,RNAV,10/02/2012
UPEYA,42.96383333333333,-71.75133333333333,NEW HAMPSHIRE,ZBW,RNAV,11/06/2009
UPICE,43.69949444444444,-73.00594166666667,VERMONT,ZBW,RNAV,11/06/2009
URACI,42.65278611111111,-73.95843055555555,NEW YORK,ZBW,RNAV,06/27/2011
UREZI,42.28613055555555,-75.97363611111112,NEW YORK,ZBW,RNAV,03/29/2010
URTOQ,42.47822777777778,-71.45763611111111,MASSACHUSETTS,ZBW,RNAV,08/13/2012
USEZO,44.340763888888894,-68.91086111111112,MAINE,ZBW,RNAV,10/23/2014
USICI,43.18973333333333,-75.05170833333334,NEW YORK,ZBW,RP,UCA*VORTAC*038.82/10.97
USNEC,44.105672222222225,-70.83504444444443,MAINE,ZBW,RNAV,10/23/2014
UTADE,43.86906111111111,-72.83033611111111,VERMONT,ZBW,RP,LEB*VOR/DME*308.35/29.04
UTBEQ,41.71327777777778,-71.01932222222221,MASSACHUSETTS,ZBW,RNAV,04/13/2012
UTUBE,41.609675,-72.87465555555555,CONNECTICUT,ZBW,RNAV,03/20/2015
UTULE,41.59471111111112,-74.44100277777778,NEW YORK,ZBW,RNAV,02/09/2010
UVENE,44.957369444444446,-74.72226944444445,NEW YORK,ZBW,RNAV,11/23/2009
UWAGU,43.741905555555554,-72.95723333333333,VERMONT,ZBW,RP,RUT*LD*013.52/13.09
UXSEZ,44.844858333333335,-73.07252777777778,VERMONT,ZBW,RNAV,04/22/2011
UYIWU,43.32855833333333,-76.35902777777777,NEW YORK,ZBW,RP,FZY*LD*149.90/2.36
UYOSI,45.12535555555556,-68.54359444444444,MAINE,ZBW,RNAV,09/11/2014
UYUNI,42.495844444444444,-74.83204444444443,NEW YORK,ZBW,RNAV,08/13/2008
UYZAY,44.484366666666666,-72.66290833333333,VERMONT,ZBW,RNAV,06/28/2017
UZAZU,41.905125,-72.075525,CONNECTICUT,ZBW,RNAV,01/21/2010
UZUBO,42.31655833333333,-75.11109722222221,NEW YORK,ZBW,RNAV,02/20/2014
KADCE,44.29331111111111,-71.932,NEW HAMPSHIRE,ZBW,RNAV,01/30/2007
KAGZI,42.12343055555556,-72.61943333333333,MASSACHUSETTS,ZBW,RNAV,02/22/2018
KAHLE,43.70603333333334,-76.17195555555556,NEW YORK,ZBW,RNAV,03/25/2011
KAKPE,45.51968055555555,-69.70810555555556,MAINE,ZBW,RNAV,06/09/2016
KALLY,41.53386944444444,-73.92177500000001,NEW YORK,ZBW,WP,IGN*VOR/DME*221.61/9.07
KALTE,44.37467777777778,-68.09694444444445,MAINE,ZBW,RNAV,09/29/2009
KANJI,41.717280555555554,-70.9162,MASSACHUSETTS,ZBW,RNAV,11/05/2014
KANNI,42.63333333333333,-67.0,OFFSHORE ATLANTIC,ZBW,RNAV,09/10/2015
KASYR,41.07848611111111,-73.54010277777778,CONNECTICUT,ZBW,RNAV,08/17/2010
KATEK,44.67629491666666,-75.55054405555555,,ZBW,RNAV,11/09/2016
KAVSU,44.97866666666667,-74.93283333333333,NEW YORK,ZBW,WP,10/03/2011
KAYCC,43.53947222222222,-70.86044722222222,MAINE,ZBW,RNAV,06/01/2012
KAYEB,43.620469444444446,-70.169475,MAINE,ZBW,RNAV,09/28/2009
KB03E,45.5,-70.0,MAINE,ZBW,NRS,03/05/2005
KB03G,45.5,-68.0,MAINE,ZBW,NRS,03/05/2005
KB06E,46.0,-70.0,MAINE,ZBW,NRS,03/05/2005
KB06G,46.0,-68.0,MAINE,ZBW,NRS,03/05/2005
KB09E,46.5,-70.0,MAINE,ZBW,NRS,03/05/2005
KB09G,46.5,-68.0,MAINE,ZBW,NRS,03/05/2005
KB12G,47.0,-68.0,MAINE,ZBW,NRS,03/05/2005
KB63C,40.5,-72.0,OFFSHORE ATLANTIC,ZBW,NRS,03/05/2005
KB66C,41.0,-72.0,NEW YORK,ZBW,NRS,03/05/2005
KB66E,41.0,-70.0,MASSACHUSETTS,ZBW,NRS,03/05/2005
KB69A,41.5,-74.0,NEW YORK,ZBW,NRS,03/05/2005
KB69C,41.5,-72.0,CONNECTICUT,ZBW,NRS,03/05/2005
KB69E,41.5,-70.0,MASSACHUSETTS,ZBW,NRS,03/05/2005
KB69G,41.5,-68.0,OFFSHORE ATLANTIC,ZBW,NRS,03/05/2005
KB72A,42.0,-74.0,NEW YORK,ZBW,NRS,03/05/2005
KB72C,42.0,-72.0,CONNECTICUT,ZBW,NRS,03/05/2005
KB72E,42.0,-70.0,MASSACHUSETTS,ZBW,NRS,03/05/2005
KB72G,42.0,-68.0,OFFSHORE ATLANTIC,ZBW,NRS,03/05/2005
KB75A,42.5,-74.0,NEW YORK,ZBW,NRS,03/05/2005
KB75C,42.5,-72.0,MASSACHUSETTS,ZBW,NRS,03/05/2005
KB75E,42.5,-70.0,OFFSHORE ATLANTIC,ZBW,NRS,03/05/2005
KB75G,42.5,-68.0,OFFSHORE ATLANTIC,ZBW,NRS,03/05/2005
KB75Y,42.5,-76.0,NEW YORK,ZBW,NRS,03/05/2005
KB78A,43.0,-74.0,NEW YORK,ZBW,NRS,03/05/2005
KB78C,43.0,-72.0,NEW HAMPSHIRE,ZBW,NRS,03/05/2005
KB78E,43.0,-70.0,OFFSHORE ATLANTIC,ZBW,NRS,03/05/2005
KB78G,43.0,-68.0,OFFSHORE ATLANTIC,ZBW,NRS,03/05/2005
KB78Y,43.0,-76.0,NEW YORK,ZBW,NRS,03/05/2005
KB81A,43.5,-74.0,NEW YORK,ZBW,NRS,03/05/2005
KB81C,43.5,-72.0,NEW HAMPSHIRE,ZBW,NRS,03/05/2005
KB81E,43.5,-70.0,MAINE,ZBW,NRS,03/05/2005
KB81G,43.5,-68.0,OFFSHORE ATLANTIC,ZBW,NRS,03/05/2005
KB81Y,43.5,-76.0,NEW YORK,ZBW,NRS,03/05/2005
KB84A,44.0,-74.0,NEW YORK,ZBW,NRS,03/05/2005
KB84C,44.0,-72.0,NEW HAMPSHIRE,ZBW,NRS,03/05/2005
KB84E,44.0,-70.0,MAINE,ZBW,NRS,03/05/2005
KB84G,44.0,-68.0,MAINE,ZBW,NRS,03/05/2005
KB84Y,44.0,-76.0,NEW YORK,ZBW,NRS,03/05/2005
KB87A,44.5,-74.0,NEW YORK,ZBW,NRS,03/05/2005
KB87C,44.5,-72.0,VERMONT,ZBW,NRS,03/05/2005
KB87E,44.5,-70.0,MAINE,ZBW,NRS,03/05/2005
KB87G,44.5,-68.0,MAINE,ZBW,NRS,03/05/2005
KB90C,45.0,-72.0,VERMONT,ZBW,NRS,03/05/2005
KB90E,45.0,-70.0,MAINE,ZBW,NRS,03/05/2005
KB90G,45.0,-68.0,MAINE,ZBW,NRS,03/05/2005
KEAND,44.958911111111114,-67.10560555555556,MAINE,ZBW,RNAV,06/19/2017
KEBTY,43.778391666666664,-69.84677777777777,MAINE,ZBW,RNAV,04/24/2010
KEDNE,44.21622777777778,-68.1470888888889,MAINE,ZBW,RNAV,10/01/2009
KEESE,44.51774722222222,-73.533875,NEW YORK,ZBW,RP,BTV*VOR/DME*310.74/16.74
KEKVE,44.64481388888889,-74.56814166666666,NEW YORK,ZBW,RNAV,10/05/2004
KELLI,43.562324999999994,-72.05202777777778,NEW HAMPSHIRE,ZBW,RP,LEB*VOR/DME*149.31/10.00
KELME,43.64652777777778,-70.336,MAINE,ZBW,RNAV,08/15/2003
KELTI,43.2825,-78.93333333333334,NEW YORK,ZBW,RNAV,09/18/2014
KEMPE,44.075208333333336,-73.56412222222222,NEW YORK,ZBW,RNAV,10/18/2017
KENAD,41.74679722222222,-70.37328888888888,MASSACHUSETTS,ZBW,RP,LFV*VOR/DME*239.00
KENAT,42.644197222222225,-71.85454166666666,MASSACHUSETTS,ZBW,RNAV,07/25/2005
KENEE,42.511116666666666,-71.25591388888888,MASSACHUSETTS,ZBW,RNAV,10/26/2015
KENPY,42.099538888888894,-71.3418361111111,MASSACHUSETTS,ZBW,RNAV,03/30/2009
KENWI,42.15969166666667,-70.94083055555556,MASSACHUSETTS,ZBW,RNAV,01/15/2013
KEPRE,44.241597222222225,-72.82443055555555,VERMONT,ZBW,RP,BJA*TACAN*149.51/20.10
KERRI,41.84374722222223,-74.73748055555555,NEW YORK,ZBW,RP,HUO*VOR/DME*356.90
KERST,43.48551111111111,-73.02690833333334,VERMONT,ZBW,RP,GFL*VORTAC*085.16/26.99
KERSY,43.36043888888889,-71.77016388888889,NEW HAMPSHIRE,ZBW,RP,CON*VOR/DME*329.75/12.00
KERVO,45.42099661111111,-70.63960105555556,,ZBW,RNAV,11/09/2016
KETKE,43.0747,-72.69632777777778,VERMONT,ZBW,RNAV,01/16/2013
KEVLE,45.782158333333335,-69.77525555555556,MAINE,ZBW,RNAV,11/28/2016
KEYED,41.014291666666665,-72.69217777777779,NEW YORK,ZBW,RP,CCC*VOR/DME*056.64/7.02
KEYEK,43.355827777777776,-72.01788333333333,NEW HAMPSHIRE,ZBW,RNAV,10/09/2012
KEZAR,43.83643333333334,-70.95489722222223,MAINE,ZBW,MR,ENE*VOR/DME*346.00/28.80
KEZUP,43.474875000000004,-72.52510277777778,VERMONT,ZBW,RNAV,10/21/2008
KFOXX,44.89222777777778,-74.96840277777778,NEW YORK,ZBW,RNAV,01/08/2010
KHRIS,42.95030277777778,-71.25987777777777,NEW HAMPSHIRE,ZBW,RP,MHT*VOR/DME*059.55/6.89
KIBBE,42.104425,-72.46977222222222,MASSACHUSETTS,ZBW,RP,PUT*VOR/DME*301.92/29.37
KIBGE,41.016841666666664,-73.66840277777779,NEW YORK,ZBW,RNAV,08/17/2010
KICPE,44.119525,-75.80829444444444,NEW YORK,ZBW,MW,02/13/2017
KIMBO,43.93790833333333,-75.76845833333333,NEW YORK,ZBW,MR,ART*VORTAC*105.67
KIMIE,44.51605555555555,-73.81958611111111,NEW YORK,ZBW,RNAV,08/02/2012
KINFA,45.00673333333334,-68.6333638888889,MAINE,ZBW,WP,11/02/1998
KINKK,40.958263888888894,-73.43156111111112,NEW YORK,ZBW,WP,09/27/1991
KIRAA,42.27541111111111,-71.12827222222222,MASSACHUSETTS,ZBW,RNAV,01/15/2013
KITRE,44.079727777777784,-68.76971388888889,MAINE,ZBW,RNAV,09/28/2009
KIXIR,44.14833888888889,-76.34438888888889,NEW YORK,ZBW,RNAV,07/10/2001
KIXLO,42.046813888888884,-72.049025,MASSACHUSETTS,ZBW,RNAV,01/21/2010
KIYBE,41.05728333333333,-73.47198333333334,CONNECTICUT,ZBW,RNAV,08/17/2010
KLANE,42.41410555555555,-70.68058055555557,MASSACHUSETTS,ZBW,RP,DGU*LD*091.58/15.32
KLEBB,42.10841111111111,-70.61613333333332,MASSACHUSETTS,ZBW,RNAV,07/13/2012
KLUTZ,41.296791666666664,-71.89704166666667,RHODE ISLAND,ZBW,RP,ORW*VOR/DME*177.45
KLYDE,42.259505555555556,-72.68345833333333,MASSACHUSETTS,ZBW,RP,BAF*VORTAC*028.00/6.03
KMBER,41.78726944444444,-73.79275833333332,NEW YORK,ZBW,RNAV,07/24/2012
KNDCR,44.44741111111111,-69.88855000000001,MAINE,ZBW,CN,05/17/2012
KNELL,41.25989166666667,-73.006375,CONNECTICUT,ZBW,RP,BDR*VOR/DME*053.92/8.00
KNISH,43.01833611111111,-75.77309166666666,NEW YORK,ZBW,RNAV,08/17/2010
KNURS,42.69364444444444,-73.17504722222223,MASSACHUSETTS,ZBW,RNAV,08/25/2015
KOCET,44.733066666666666,-75.17516388888889,NEW YORK,ZBW,RNAV,09/24/2003
KODEY,42.279869444444444,-75.78444444444445,NEW YORK,ZBW,RP,RKA*VOR/DME*256.42/26.70
KOGEY,44.84883333333334,-74.91855833333334,NEW YORK,ZBW,RNAV,11/23/2009
KOHOG,41.893316666666664,-71.10047499999999,MASSACHUSETTS,ZBW,RNAV,04/07/2017
KONDO,43.14694166666666,-76.75047777777777,NEW YORK,ZBW,RP,ITH*VOR/DME*351.94
KONRE,43.27531388888889,-71.97765833333334,NEW HAMPSHIRE,ZBW,RNAV,01/16/2013
KOPDE,44.15378055555556,-68.48948333333334,MAINE,ZBW,RNAV,11/08/2007
KOPME,42.324513888888895,-71.09923333333333,MASSACHUSETTS,ZBW,RNAV,11/14/2013
KOPPY,40.417655555555555,-72.92735555555556,NEW YORK,ZBW,RP,DPK*VOR/DME*154.40/28.27
KOPVE,43.795227777777775,-72.95914166666667,VERMONT,ZBW,RP,CAM*VOR/DME*033.18/50.91
KOSHI,43.655452777777775,-71.14210000000001,NEW HAMPSHIRE,ZBW,RNAV,07/23/2007
KOSPE,43.24001666666667,-73.18606666666668,VERMONT,ZBW,RP,CAM*VOR/DME*039.16/16.29
KOSRE,44.30919722222222,-70.4995,MAINE,ZBW,RNAV,10/01/2009
KOTDE,44.421191666666665,-73.0698361111111,VERMONT,ZBW,RP,VOE*LD*SE CRS/4.00
KOTJI,44.76605833333333,-73.53515,NEW YORK,ZBW,RP,05/12/2017
KOTOW,44.14591111111111,-68.73046388888889,MAINE,ZBW,RNAV,11/08/2007
KOXWA,44.84871944444445,-68.42753888888889,MAINE,ZBW,RNAV,07/27/2010
KOYEN,40.83565277777778,-72.85442222222221,NEW YORK,ZBW,RNAV,04/02/2007
KOYET,42.83496388888889,-71.42588611111111,NEW HAMPSHIRE,ZBW,RP,MHT*VOR/DME*246.03/3.20
KRAAL,41.654624999999996,-74.21464166666667,NEW YORK,ZBW,WP,12/22/1999
KRANK,44.86256111111111,-69.40383055555556,MAINE,ZBW,RNAV,04/23/2010
KRANN,41.85519166666667,-71.1234611111111,MASSACHUSETTS,ZBW,RP,BOS*VOR/DME*208.00
KRAZZ,43.416666666666664,-74.3,NEW YORK,ZBW,RNAV,09/22/2014
KREAK,41.93326388888889,-71.60473055555555,RHODE ISLAND,ZBW,RP,PUT*VOR/DME*111.00/10.80
KREMM,43.03186111111111,-75.6609888888889,NEW YORK,ZBW,RNAV,08/17/2010
KRING,42.58437222222222,-74.98610833333333,NEW YORK,ZBW,RP,07/17/2014
KROWL,42.11146111111111,-73.7599,NEW YORK,ZBW,RNAV,10/23/2009
KRUPP,43.93685,-76.12505833333333,NEW YORK,ZBW,RNAV,03/25/2011
KUBME,44.10873055555556,-68.78361111111111,MAINE,ZBW,RNAV,11/08/2007
KUCAR,41.82000555555556,-70.34646111111111,MASSACHUSETTS,ZBW,RNAV,06/04/2014
KUCEV,44.328475000000005,-68.52071666666667,MAINE,ZBW,RNAV,05/23/2012
KUFOP,41.969625,-72.87470555555555,CONNECTICUT,ZBW,RNAV,04/20/2010
KUGEY,43.518274999999996,-72.95100833333333,VERMONT,ZBW,RP,RUT*VOR/DME*196.70/0.50
KUGSE,41.770830555555555,-72.74677777777778,CONNECTICUT,ZBW,RNAV,07/03/2003
KUKVE,44.77339444444444,-72.45130555555556,VERMONT,ZBW,RNAV,05/10/2017
KUNDE,41.764291666666665,-71.46676944444445,RHODE ISLAND,ZBW,RNAV,08/01/2011
KUNKE,44.14312777777778,-69.02407222222222,MAINE,ZBW,RNAV,10/04/2007
KURLY,41.74608611111111,-69.76437777777778,MASSACHUSETTS,ZBW,RNAV,04/09/2010
KURTE,44.24189722222222,-69.74315,MAINE,ZBW,RNAV,12/22/2005
KURTY,41.34786944444445,-72.26785555555556,CONNECTICUT,ZBW,RP,ORW*VOR/DME*238.18/17.41
KYLES,42.262569444444445,-70.70370555555556,MASSACHUSETTS,ZBW,RP,BOS*VOR/DME*130.00/13.94
KYLOH,43.06475277777778,-71.22930277777778,NEW HAMPSHIRE,ZBW,RNAV,02/23/2017
KYSKY,40.78131944444444,-72.20595833333334,NEW YORK,ZBW,RP,ACK*VOR/DME*268.84/103.40
RAALF,41.29774444444444,-72.78615555555555,CONNECTICUT,ZBW,RP,JFK*VOR/DME*060.00/59.96
RABPO,41.80789444444444,-72.70589444444445,CONNECTICUT,ZBW,RNAV,02/22/2018
RACEY,41.41692777777777,-73.19391666666667,CONNECTICUT,ZBW,RP,CMK*VOR/DME*077.00/19.00
RAEGN,45.28171388888889,-68.46151666666667,MAINE,ZBW,RNAV,09/11/2014
RAKAM,44.02084722222222,-76.49559722222223,NEW YORK,ZBW,RNAV,09/20/2014
RAKET,41.67775555555556,-72.11701111111111,CONNECTICUT,ZBW,RP,HFD*VOR/DME*096.37
RALGE,44.295363888888886,-74.07045555555555,NEW YORK,ZBW,RNAV,04/15/2003
RAMBO,41.801291666666664,-72.43655277777778,CONNECTICUT,ZBW,RP,PUT*VOR/DME*265.00/28.12
RANGY,44.80340277777778,-70.68110277777778,MAINE,ZBW,RP,ENE*VOR/DME*015.00/82.71
RAWNE,47.12907777777778,-68.11679444444444,MAINE,ZBW,RNAV,07/07/2010
RAYMY,43.060247222222216,-71.1117111111111,NEW HAMPSHIRE,ZBW,RP,MHT*VOR/DME*059.56/16.16
RAYNM,41.89313611111111,-70.97326944444444,MASSACHUSETTS,ZBW,RNAV,03/19/2003
RAZZR,44.22125277777778,-69.58673611111111,MAINE,ZBW,RP,AUG*VOR/DME*141.16/10.81
RBELA,42.832775000000005,-70.95498888888889,MASSACHUSETTS,ZBW,RNAV,10/01/2008
RBUDD,41.42214166666666,-70.32012222222222,MASSACHUSETTS,ZBW,RNAV,02/23/2017
RDHOK,42.49336111111111,-71.05581666666666,MASSACHUSETTS,ZBW,RNAV,04/04/2016
RDUKE,42.33099166666667,-70.95990833333333,MASSACHUSETTS,ZBW,RP,LIP*LD*150.18/2.16
REAMY,41.157180555555556,-73.12991388888888,CONNECTICUT,ZBW,WP,MAD*VOR/DME*257.80/21.90
REAVE,42.74996111111111,-74.91165277777779,NEW YORK,ZBW,RP,GGT*VORTAC*104.00
REBRW,44.04940833333333,-72.11134166666666,VERMONT,ZBW,RNAV,01/16/2013
REDLE,42.95095277777778,-70.8768361111111,NEW HAMPSHIRE,ZBW,RNAV,01/16/2013
REDME,41.53577222222222,-73.62089166666667,NEW YORK,ZBW,RNAV,06/16/2008
REDSX,41.92262777777778,-70.23493611111111,MASSACHUSETTS,ZBW,RP,LFV*VOR/DME*253.41/10.51
REENE,40.766758333333335,-72.79856388888889,NEW YORK,ZBW,RNAV,05/19/2009
REGGI,44.46570833333334,-72.76287222222223,VERMONT,ZBW,RP,BTV*VOR/DME*092.00
REMIE,44.00576111111111,-75.74157222222222,NEW YORK,ZBW,MR,AEZ*LD*208.99/4.30
REPOY,41.823,-71.03356666666666,MASSACHUSETTS,ZBW,RNAV,03/19/2003
RESCU,41.65850277777778,-70.071375,MASSACHUSETTS,ZBW,RNAV,06/04/2014
REVEN,45.552705555555555,-70.70052777777778,,ZBW,RNAV,03/26/2018
REVER,42.44096666666666,-70.96147500000001,MASSACHUSETTS,ZBW,RP,BOS*VOR/DME*029.98/5.16
REVLE,44.37433055555556,-73.44965,NEW YORK,ZBW,RNAV,12/22/2015
REVSS,42.34543611111111,-71.81029722222222,MASSACHUSETTS,ZBW,RP,BOS*VOR/DME*285.15/36.52
REZDI,43.60778888888889,-71.30195277777777,NEW HAMPSHIRE,ZBW,RNAV,07/23/2007
RHINA,41.16556111111111,-71.69279444444444,RHODE ISLAND,ZBW,RP,SEY*VOR/DME*283.82/5.29
RHODY,41.69231666666666,-71.21126111111111,RHODE ISLAND,ZBW,RP,PVD*VOR/DME*115.00/10.00
RICEC,42.38457777777778,-73.41197500000001,NEW YORK,ZBW,RNAV,11/03/2014
RICED,40.61196944444445,-72.69218333333333,NEW YORK,ZBW,RP,HTO*VORTAC*236.04/25.14
RICOS,43.993975,-76.07682777777778,NEW YORK,ZBW,RNAV,05/24/2011
RIDKE,42.81500833333333,-73.19341111111112,VERMONT,ZBW,RNAV,01/16/2013
RIDRE,42.997261111111115,-71.11301944444443,NEW HAMPSHIRE,ZBW,RNAV,01/16/2013
RIEBA,43.88567222222222,-75.93282500000001,NEW YORK,ZBW,MW,07/28/1998
RIFER,43.096761111111114,-70.73731666666667,MAINE,ZBW,RNAV,01/27/2016
RIFLE,40.69005,-72.58191388888889,NEW YORK,ZBW,RP,RBV*VORTAC*080.93/92.38
RIFTS,44.303527777777774,-72.72779722222222,VERMONT,ZBW,RNAV,06/28/2017
RIGID,44.58875833333334,-73.74279722222222,NEW YORK,ZBW,RP,BTV*VOR/DME*310.74/26.66
RIGLE,42.817547222222224,-72.000375,NEW HAMPSHIRE,ZBW,RNAV,04/17/2014
RIIKE,44.47856111111111,-74.11744444444444,NEW YORK,ZBW,RP,SLK*VOR/DME*/6.77
RIKAH,42.55139722222222,-71.41867500000001,MASSACHUSETTS,ZBW,RNAV,09/08/2016
RILIE,43.024699999999996,-76.07830555555554,NEW YORK,ZBW,RNAV,05/03/2013
RILMS,43.11821388888889,-73.56889166666666,NEW YORK,ZBW,RP,GFL*VORTAC*186.00/13.50
RIMBA,42.05288888888889,-74.65768333333334,NEW YORK,ZBW,RP,DNY*VOR/DME*130.27/15.33
RINTH,45.018675,-69.09879166666666,MAINE,ZBW,RP,MLT*VOR/DME*236.14/42.10
RINTS,41.23893888888889,-72.07925,CONNECTICUT,ZBW,RP,MAD*VOR/DME*112.00
RIPIT,42.37965555555556,-70.87751388888888,MASSACHUSETTS,ZBW,RP,DGU*LD*091.58/6.32
RIRXI,41.631825,-70.24645555555556,MASSACHUSETTS,ZBW,RNAV,06/04/2014
RISSY,40.397825,-73.58716388888888,NEW YORK,ZBW,RNAV,06/11/2014
RITAS,42.32145555555556,-73.00398055555556,MASSACHUSETTS,ZBW,RP,BAF*VORTAC*320.82/16.00
RITPE,44.938269444444444,-72.2128888888889,VERMONT,ZBW,RNAV,11/06/2009
RIYOV,42.595797222222224,-74.97106388888889,NEW YORK,ZBW,RNAV,08/13/2008
RIZER,40.84331944444445,-73.04042222222222,NEW YORK,ZBW,RP,RXN*LS*059.01
RIZZO,43.547869444444444,-72.45259166666666,VERMONT,ZBW,RP,LEB*VOR/DME*247.77/12.96
RNKRS,44.99483888888889,-74.40027500000001,NEW YORK,ZBW,CN,07/20/2015
RNNDY,44.343325,-74.48111666666667,NEW YORK,ZBW,RNAV,04/17/2018
RNPCY,45.00816666666667,-71.95658055555556,VERMONT,ZBW,CN,06/03/2002
RNPSB,45.013225,-71.51876944444444,NEW HAMPSHIRE,ZBW,CN,06/03/2002
RNSLL,45.423199999999994,-70.62916666666666,MAINE,ZBW,CN,06/03/2002
RNSYN,46.042725,-67.78101388888889,MAINE,ZBW,CN,06/03/2002
ROAME,41.04089444444444,-72.369,NEW YORK,ZBW,RP,CCC*VOR/DME*084.00
ROBER,40.68546388888888,-73.03261111111111,NEW YORK,ZBW,RP,CCC*VOR/DME*229.11/18.10
ROBUC,41.67891944444444,-71.58511666666666,RHODE ISLAND,ZBW,RNAV,09/28/2014
ROCHS,43.26990555555555,-70.93452222222223,NEW HAMPSHIRE,ZBW,RP,PSM*VOR/DME*354.00/12.00
ROCOW,45.69320555555555,-69.21174722222223,MAINE,ZBW,RP,MLT*VOR/DME*302.55/30.00
RODAN,43.047291666666666,-76.46656944444445,NEW YORK,ZBW,RP,GGT*VORTAC*310.00
RODEE,42.59950555555556,-69.94859444444445,OFFSHORE ATLANTIC,ZBW,RNAV,09/26/2014
RODME,41.45015555555556,-71.03865833333333,MASSACHUSETTS,ZBW,RNAV,11/05/2014
RODYO,44.72439166666667,-74.88350833333334,NEW YORK,ZBW,RNAV,10/05/2004
RODYY,41.873847222222224,-74.59705277777778,NEW YORK,ZBW,RNAV,09/20/2014
ROGGR,42.46403333333333,-71.21646944444444,MASSACHUSETTS,ZBW,RP,LWM*VOR/DME*213.05
ROLAF,44.282375,-69.86566388888889,MAINE,ZBW,RP,AUG*VOR/DME*250.84
ROLNS,43.22837777777778,-70.84174999999999,NEW HAMPSHIRE,ZBW,RNAV,11/09/2009
ROMRE,43.748041666666666,-72.02724722222221,NEW HAMPSHIRE,ZBW,RNAV,03/30/2009
ROMUW,44.83202777777778,-72.19789444444444,VERMONT,ZBW,RNAV,08/10/2015
RONGE,41.914658333333335,-73.20591388888889,CONNECTICUT,ZBW,RNAV,08/21/2013
ROOMS,43.0194,-74.58424166666666,NEW YORK,ZBW,RP,DNY*VOR/DME*029.00
ROOTS,44.99106388888889,-70.6658888888889,MAINE,ZBW,RNAV,03/23/2009
ROZZE,42.829238888888895,-71.99245833333333,NEW HAMPSHIRE,ZBW,RNAV,11/17/2014
RSDEE,41.699819444444444,-71.39323055555556,RHODE ISLAND,ZBW,RP,PVD*VOR/DME*145.94/2.20
RUBER,41.625502777777776,-74.55091666666667,NEW YORK,ZBW,RP,HUO*VOR/DME*019.05/13.07
RUBLE,41.47046111111111,-71.23750277777778,RHODE ISLAND,ZBW,RNAV,02/07/2008
RUBOC,45.8474,-67.77441388888889,MAINE,ZBW,RNAV,06/24/2011
RUCKY,43.96393333333334,-72.59554999999999,VERMONT,ZBW,RP,LEB*VOR/DME*331.19/23.75
RUEED,44.18385,-68.33286388888888,MAINE,ZBW,RNAV,07/10/2012
RUIZE,41.47934166666667,-72.20942777777778,CONNECTICUT,ZBW,RNAV,04/04/2016
RUKYA,41.14369722222222,-73.87655555555556,NEW YORK,ZBW,RNAV,02/09/2018
RUNVE,44.21603888888889,-68.60089166666666,MAINE,ZBW,RNAV,11/08/2007
RURBY,42.19795277777777,-72.20852222222223,MASSACHUSETTS,ZBW,RNAV,01/21/2010
RUSEL,42.01014722222222,-71.41726111111112,RHODE ISLAND,ZBW,RNAV,12/13/2012
RUSKY,41.80306944444444,-71.48798055555555,RHODE ISLAND,ZBW,RP,PVD*VOR/DME*345.00/5.39
RYDER,43.35038611111111,-70.59050555555555,MAINE,ZBW,RNAV,03/02/2010
RYMES,41.19166666666666,-73.53075555555556,CONNECTICUT,ZBW,RP,DPK*VOR/DME*348.79
GABME,42.855775,-70.83436944444443,MASSACHUSETTS,ZBW,RNAV,01/15/2013
GACEK,43.38107222222222,-71.94240277777779,NEW HAMPSHIRE,ZBW,RNAV,01/15/2013
GACKE,43.319750000000006,-74.96135555555556,NEW YORK,ZBW,RP,UCA*VORTAC*038.82/19.72
GADRE,41.22567777777778,-70.01802777777777,MASSACHUSETTS,ZBW,RNAV,03/26/2014
GADYE,43.08437222222222,-73.49526944444445,NEW YORK,ZBW,RNAV,04/20/2004
GAGDE,41.54657222222222,-74.38340833333334,NEW YORK,ZBW,RNAV,04/28/2010
GAILS,41.869030555555554,-70.40213611111112,MASSACHUSETTS,ZBW,RP,LFV*VOR/DME*257.58
GALTT,41.07351111111112,-73.29533611111111,CONNECTICUT,ZBW,WP,CMK*VOR/DME*145.60/17.90
GALWA,43.00944444444445,-74.0095861111111,NEW YORK,ZBW,RP,CAM*VOR/DME*286.00/29.32
GALXI,41.271924999999996,-70.42548611111111,MASSACHUSETTS,ZBW,RNAV,07/18/2012
GANDE,41.51018333333333,-73.81445277777777,NEW YORK,ZBW,RP,JFK*VOR/DME*009.89/52.64
GANGE,43.39301388888889,-72.37262222222222,NEW HAMPSHIRE,ZBW,RNAV,01/12/2011
GANSE,43.25512777777778,-73.60565833333332,NEW YORK,ZBW,RP,GFL*LS*192.43
GARRD,41.15898611111111,-72.05543888888889,NEW YORK,ZBW,RP,SEY*VOR/DME*283.82/21.73
GARVE,42.34962777777778,-71.04743611111111,MASSACHUSETTS,ZBW,RNAV,12/18/2003
GASPE,45.48257777777778,-69.61149722222221,MAINE,ZBW,RNAV,01/26/2009
GASSE,42.26283055555555,-71.85486388888889,MASSACHUSETTS,ZBW,RP,HFD*VOR/DME*052.51/48.49
GASSY,43.414794444444446,-73.96412222222223,NEW YORK,ZBW,RP,GFL*VORTAC*300.00/16.03
GAVME,43.78615,-70.18866944444444,MAINE,ZBW,RNAV,09/29/2009
GAVRE,41.42413333333333,-70.66061111111112,MASSACHUSETTS,ZBW,RNAV,07/18/2012
GAYET,43.653591666666664,-70.04539444444444,MAINE,ZBW,RNAV,09/30/2009
GEBDE,41.75953888888889,-74.16840555555557,NEW YORK,ZBW,RNAV,08/06/2010
GEBME,44.47170833333333,-68.12285555555555,MAINE,ZBW,RNAV,09/29/2009
GELAW,41.945947222222216,-73.67824166666666,NEW YORK,ZBW,RP,PWL*VOR/DME*353.78/11.13
GEMIN,44.13776388888889,-69.58897777777777,MAINE,ZBW,RNAV,04/24/2010
GERRE,41.727533333333334,-72.649825,CONNECTICUT,ZBW,RNAV,01/08/2013
GETRE,41.502916666666664,-74.00201666666666,NEW YORK,ZBW,RNAV,02/03/2010
GGABE,42.2748,-70.95091111111111,MASSACHUSETTS,ZBW,RNAV,10/24/2011
GICEN,41.52811944444444,-73.14595277777778,CONNECTICUT,ZBW,RNAV,11/30/2015
GILLA,43.06119444444444,-73.95771666666667,NEW YORK,ZBW,RP,CAM*VOR/DME*292.66/27.30
GINNI,43.912438888888886,-69.668825,MAINE,ZBW,RP,ENE*VOR/DME*071.31
GINNS,42.333986111111116,-75.53825,NEW YORK,ZBW,RNAV,08/31/2015
GINZO,42.130408333333335,-72.60229166666666,MASSACHUSETTS,ZBW,RNAV,05/05/2016
GITEW,43.808,-72.95951111111111,VERMONT,ZBW,RP,LEB*VOR/DME*298.73
GITKE,43.80905833333333,-72.95963888888889,VERMONT,ZBW,RNAV,08/02/2012
GIVHE,42.43564166666666,-72.98295555555556,MASSACHUSETTS,ZBW,RNAV,11/03/2014
GLESO,41.51846666666667,-70.67145555555555,MASSACHUSETTS,ZBW,RNAV,06/04/2014
GLLET,42.27334722222222,-70.72256944444445,MASSACHUSETTS,ZBW,RNAV,01/15/2013
GLOWB,42.28939722222222,-71.21838333333334,MASSACHUSETTS,ZBW,RNAV,01/15/2013
GLUON,43.02041388888889,-76.22051111111111,NEW YORK,ZBW,RNAV,05/03/2013
GLYDE,42.26773333333333,-71.81187777777778,MASSACHUSETTS,ZBW,RP,PUT*VOR/DME*018.38
GNSET,41.931441666666665,-71.26164722222222,MASSACHUSETTS,ZBW,RNAV,04/07/2017
GNVEV,44.075902777777785,-74.24899166666667,NEW YORK,ZBW,RNAV,08/02/2012
GOATR,43.29057777777778,-76.65215277777779,NEW YORK,ZBW,RNAV,09/20/2014
GOCEG,43.59111111111111,-70.08029722222221,MAINE,ZBW,RNAV,09/28/2009
GOCER,43.55425555555555,-73.80935555555556,NEW YORK,ZBW,RNAV,06/22/2010
GOKRE,41.628655555555554,-73.85199166666666,NEW YORK,ZBW,RNAV,04/28/2010
GOLEE,42.49539444444444,-71.64352222222223,MASSACHUSETTS,ZBW,RNAV,09/23/2014
GONNG,41.73398888888889,-71.48894722222222,RHODE ISLAND,ZBW,WP,PVD*VOR/DME*296.30/2.70
GONZZ,43.089444444444446,-76.68666666666667,NEW YORK,ZBW,RNAV,09/20/2014
GOOCH,43.02508611111111,-70.88199722222221,NEW HAMPSHIRE,ZBW,RP,PSM*VOR/DME*228.00/4.00
GOODI,40.95738055555556,-72.36236388888888,NEW YORK,ZBW,RNAV,01/22/2015
GOOTH,45.01802222222222,-73.15098888888889,,ZBW,RP,YJN*VOR/DME*169.06/16.00
GORHM,43.52543333333333,-70.56996111111111,MAINE,ZBW,RNAV,06/01/2012
GORKE,40.85381666666667,-72.61592222222221,NEW YORK,ZBW,MR,FOK*TACAN*049.99/1.20
GOSHI,42.03641388888889,-71.16309444444445,MASSACHUSETTS,ZBW,RNAV,10/24/2011
GRABB,42.40340555555555,-72.56346111111111,MASSACHUSETTS,ZBW,RP,BAF*VORTAC*039.11/16.00
GRAMI,42.17255,-72.55248333333333,MASSACHUSETTS,ZBW,MR,CEF*VORTAC*/1.90
GRAPS,42.688405555555555,-71.15286388888889,MASSACHUSETTS,ZBW,RP,MHT*VOR/DME*153.38
GRAVE,42.77981666666667,-73.372475,NEW YORK,ZBW,RP,CAM*VOR/DME*199.58
GRAYM,42.10118611111111,-72.031525,MASSACHUSETTS,ZBW,RP,BOS*VOR/DME*268.04/48.92
GREEK,44.08238333333334,-72.754825,VERMONT,ZBW,RP,BTV*VOR/DME*150.51
GREKI,41.48000833333334,-73.3141611111111,CONNECTICUT,ZBW,RP,CMK*VOR/DME*057.10/17.01
GRENI,42.860194444444446,-71.39144444444445,NEW HAMPSHIRE,ZBW,RP,MHT*LD*S CRS/3.68
GREPT,40.98026111111111,-73.5448,NEW YORK,ZBW,RNAV,09/26/2007
GRGIO,42.58593333333334,-70.56511111111111,MASSACHUSETTS,ZBW,RNAV,09/27/2014
GRIFI,42.31171388888889,-70.934925,MASSACHUSETTS,ZBW,RNAV,10/24/2011
GRINS,47.2889,-68.12576944444444,MAINE,ZBW,RP,PQI*VOR/DME*018.64/30.92
GRIPE,42.13579722222222,-71.90901944444445,MASSACHUSETTS,ZBW,RP,PUT*VOR/DME*359.00/11.20
GRISS,43.46846666666667,-73.32126388888888,NEW YORK,ZBW,RP,GFL*VORTAC*073.00
GRISY,42.69622222222222,-72.89170555555556,MASSACHUSETTS,ZBW,RP,GDM*VOR/DME*298.00/38.01
GRNAT,43.08219722222223,-71.52280833333333,NEW HAMPSHIRE,ZBW,RNAV,12/03/2014
GROCK,42.27688333333333,-75.35373888888888,NEW YORK,ZBW,RNAV,08/31/2015
GROGG,41.46554444444445,-70.14330833333334,MASSACHUSETTS,ZBW,RP,MVY*VOR/DME*093.74
GRONC,41.14522222222222,-71.75770555555556,NEW YORK,ZBW,RNAV,02/23/2017
GROUP,42.563916666666664,-73.80648055555555,NEW YORK,ZBW,RP,CAM*VOR/DME*232.52/32.92
GROWS,42.309225,-75.69932777777778,NEW YORK,ZBW,RP,CFB*VOR/DME*074.82/21.51
GRUMP,43.55161944444444,-71.39107222222223,NEW HAMPSHIRE,ZBW,RP,ENE*VOR/DME*299.81/34.79
GUCEG,40.898313888888886,-72.70343333333334,NEW YORK,ZBW,RNAV,04/02/2007
GUGNE,44.26237777777778,-68.12022499999999,MAINE,ZBW,RNAV,10/01/2009
GUKME,44.123602777777776,-68.73636111111111,MAINE,ZBW,RNAV,09/28/2009
GULEC,43.645633333333336,-72.31151944444444,NEW HAMPSHIRE,ZBW,RP,DVR*LD*006.97/1.82
GUNTY,43.49008333333333,-70.48874444444445,MAINE,ZBW,RNAV,03/23/2011
GUTYE,45.42531111111111,-67.73397222222222,MAINE,ZBW,RNAV,01/22/2015
GUUMP,41.43911111111111,-72.87588333333332,CONNECTICUT,ZBW,RNAV,10/04/2016
GWENY,40.927677777777774,-73.02705277777778,NEW YORK,ZBW,RP,DPK*VOR/DME*069.00/15.00
FABEN,42.853344444444446,-75.95219722222222,NEW YORK,ZBW,RNAV,09/20/2014
FABIG,43.01992222222222,-71.18070277777778,NEW HAMPSHIRE,ZBW,RNAV,11/28/2007
FABIM,43.616166666666665,-71.14096388888889,NEW HAMPSHIRE,ZBW,RNAV,01/20/2011
FABIX,42.051111111111105,-70.2686138888889,MASSACHUSETTS,ZBW,RP,LFV*VOR/DME*297.20
FACNO,43.331586111111115,-70.84201388888889,MAINE,ZBW,RP,PSM*VOR/DME*014.30
FAIDS,42.283541666666665,-72.50941944444445,MASSACHUSETTS,ZBW,RP,BAF*VORTAC*065.58/11.75
FAIRI,40.93096111111111,-72.53925555555556,NEW YORK,ZBW,MR,FOK*TACAN*049.99/7.00
FALAG,41.69053888888889,-71.49905277777778,RHODE ISLAND,ZBW,RP,PVD*VOR/DME*251.00
FALBO,43.72052777777778,-70.1177861111111,MAINE,ZBW,RNAV,09/29/2009
FALLN,43.28684166666667,-76.30563333333333,NEW YORK,ZBW,RP,FZY*LD*149.90/5.79
FALMA,41.372822222222226,-71.17118055555557,RHODE ISLAND,ZBW,RP,PVD*VOR/DME*165.00
FALMO,44.09116388888889,-70.25728611111111,MAINE,ZBW,RNAV,01/26/2005
FALOX,42.52234166666666,-73.465,NEW YORK,ZBW,RNAV,04/10/2002
FALVU,44.35433611111111,-70.68378611111112,MAINE,ZBW,RNAV,05/11/2012
FALZA,42.769075,-71.60373333333332,NEW HAMPSHIRE,ZBW,RNAV,07/25/2005
FAMCI,44.759683333333335,-70.15907222222222,MAINE,ZBW,RNAV,03/10/2015
FAMEP,43.172755555555554,-76.31615,NEW YORK,ZBW,RNAV,07/22/2002
FAMMA,41.00991111111111,-73.68188611111111,NEW YORK,ZBW,RP,DPK*VOR/DME*319.36/21.61
FANRA,45.132936111111114,-70.0719861111111,MAINE,ZBW,RNAV,10/23/2008
FAPGO,42.670161111111106,-75.55741111111111,NEW YORK,ZBW,RNAV,08/31/2015
FAPIM,44.24505555555556,-73.89228333333334,NEW YORK,ZBW,RNAV,04/15/2003
FARAN,41.29548888888889,-73.88231111111111,NEW YORK,ZBW,RP,CMK*VOR/DME*285.98
FARED,42.025416666666665,-70.91394444444445,MASSACHUSETTS,ZBW,RNAV,08/19/2016
FARGU,41.051375,-69.95810555555556,MASSACHUSETTS,ZBW,RNAV,03/26/2014
FARIL,41.96651666666667,-72.65133611111112,CONNECTICUT,ZBW,RP,BAF*VORTAC*180.09
FARNU,42.786091666666664,-72.27497777777778,NEW HAMPSHIRE,ZBW,RNAV,11/04/2009
FAROX,43.418302777777775,-73.036425,VERMONT,ZBW,RP,RUT*VOR/DME*224.99/7.50
FASEM,42.316449999999996,-71.12398888888889,MASSACHUSETTS,ZBW,RNAV,11/14/2013
FATON,40.20761388888889,-73.03931388888888,OFFSHORE ATLANTIC,ZBW,RNAV,03/23/2018
FATUP,43.025525,-76.06659444444445,NEW YORK,ZBW,RP,SYR*VORTAC*154.12/10.12
FAVNU,45.55343611111111,-69.67548611111111,MAINE,ZBW,RNAV,12/19/2008
FAWNS,44.993455555555556,-74.09032777777777,NEW YORK,ZBW,RP,MSS*VORTAC*093.79
FAXIB,43.01091111111111,-73.54897222222222,NEW YORK,ZBW,RNAV,04/20/2004
FAYET,43.12765,-75.94205555555556,NEW YORK,ZBW,RP,GGT*VORTAC*357.00
FEAST,40.96053611111111,-72.14017500000001,NEW YORK,ZBW,RNAV,01/22/2015
FEBGI,44.01341388888889,-70.75505555555556,MAINE,ZBW,RNAV,09/30/2009
FEBLO,44.948449999999994,-71.5290611111111,VERMONT,ZBW,RNAV,01/12/2011
FEBMA,43.15728611111111,-71.60675277777777,NEW HAMPSHIRE,ZBW,RNAV,11/04/2009
FEBUT,42.21169444444445,-75.83806944444444,NEW YORK,ZNY,RNAV,02/22/2011
FEDAS,44.441766666666666,-73.24713888888888,VERMONT,ZBW,RNAV,11/04/2009
FEDED,41.90680555555556,-71.27242777777778,MASSACHUSETTS,ZBW,RNAV,08/01/2011
FEDUT,44.79572777777778,-67.37953055555555,MAINE,ZBW,RNAV,12/22/2008
FEFOX,41.67882777777778,-71.36457222222222,RHODE ISLAND,ZBW,CN,12/04/2014
FEGUD,44.861691666666665,-66.9207638888889,MAINE,ZBW,RNAV,06/19/2017
FEHLO,42.669266666666665,-76.62281388888889,NEW YORK,ZNY,RNAV,10/23/2014
FEKOX,43.71046388888889,-72.32650277777778,VERMONT,ZBW,RNAV,11/04/2009
FEKWU,41.60882222222222,-71.34065277777778,RHODE ISLAND,ZBW,RP,PVD*VOR/DME*163.96/8.01
FELKA,43.276672222222224,-72.96082222222222,VERMONT,ZBW,RP,RUT*VOR/DME*196.70/15.00
FEMAS,45.55169166666666,-69.53321111111111,MAINE,ZBW,RNAV,12/19/2008
FEMIG,44.634766666666664,-70.03400277777777,MAINE,ZBW,RNAV,04/24/2007
FENDU,42.06581944444444,-72.64513055555557,MASSACHUSETTS,ZBW,RNAV,11/05/2013
FENUB,42.45890277777778,-75.53066388888888,NEW YORK,ZBW,RNAV,08/31/2015
FENVO,44.90575277777778,-72.22319722222223,VERMONT,ZBW,RNAV,11/04/2009
FENWY,42.37733333333333,-70.727825,MASSACHUSETTS,ZBW,RNAV,01/15/2013
FEPUV,44.476305555555555,-70.46628055555556,MAINE,ZBW,RNAV,10/24/2008
FERIM,45.06521111111111,-69.31031666666667,MAINE,ZBW,RNAV,06/17/2011
FERNS,43.03140277777778,-71.48353888888889,NEW HAMPSHIRE,ZBW,RP,PSM*VOR/DME*279.89
FERNZ,41.84316666666667,-69.78141944444444,MASSACHUSETTS,ZBW,RNAV,09/27/2014
FEROG,46.51840555555555,-67.98560555555555,MAINE,ZBW,RP,PQI*VOR/DME*/16.00
FESNU,44.404180555555556,-70.68925277777778,MAINE,ZBW,RNAV,05/11/2012
FESUM,42.927699999999994,-75.883,NEW YORK,ZBW,RNAV,07/11/2005
FETOG,45.637188888888886,-70.11929444444444,MAINE,ZBW,RNAV,04/06/2009
FETPU,42.67924166666666,-73.90574166666667,NEW YORK,ZBW,RNAV,06/27/2011
FEXOR,41.68805833333333,-72.80478611111111,CONNECTICUT,ZBW,RNAV,02/03/2005
FEXXX,41.21098333333334,-72.9166,CONNECTICUT,ZBW,RNAV,09/27/2014
FFATY,42.590944444444446,-72.65568333333334,MASSACHUSETTS,ZBW,RNAV,11/17/2014
FFRED,42.172577777777775,-72.55253333333333,MASSACHUSETTS,ZBW,MR,CEF*VORTAC*218.00/1.90
FIBAB,42.778013888888886,-71.98938055555556,NEW HAMPSHIRE,ZBW,RNAV,07/25/2005
FIBAR,43.40091666666667,-72.4149,VERMONT,ZBW,RNAV,01/12/2011
FIDER,43.29777222222222,-72.56019722222221,VERMONT,ZBW,RNAV,04/12/2002
FIDES,42.357616666666665,-71.16720000000001,MASSACHUSETTS,ZBW,RNAV,11/14/2013
FIGOL,42.159708333333334,-71.15628333333333,MASSACHUSETTS,ZBW,RNAV,03/09/2006
FIGOP,44.177211111111106,-70.2931611111111,MAINE,ZBW,RNAV,05/23/2007
FIGUV,42.850625,-73.87912222222222,NEW YORK,ZBW,RNAV,06/27/2011
FIKAT,43.57810555555556,-73.69952777777779,NEW YORK,ZBW,RNAV,06/22/2010
FILGA,41.40781388888889,-74.02010277777778,NEW YORK,ZBW,RNAV,06/30/2015
FILOS,43.72789166666667,-75.85126666666666,NEW YORK,ZBW,RNAV,06/26/2009
FILPS,41.94186666666666,-74.39523055555556,NEW YORK,ZBW,RP,DNY*VOR/DME*130.27/28.83
FILYP,41.77404722222222,-71.31370833333332,MASSACHUSETTS,ZBW,RNAV,07/13/2012
FIMVO,42.18020833333333,-72.5454861111111,MASSACHUSETTS,ZBW,MR,CEF*VORTAC*/1.34
FINGA,42.85203333333334,-71.97762222222222,NEW HAMPSHIRE,ZBW,RNAV,03/07/2011
FINGU,43.547577777777775,-72.97655833333333,VERMONT,ZBW,RNAV,11/04/2009
FINPI,41.71696388888889,-74.26410833333334,NEW YORK,ZBW,RNAV,08/06/2010
FINUS,43.648625,-70.36721666666666,MAINE,ZBW,RP,PWM*LD*290.30/3.15
FISAL,43.93823055555555,-69.94322777777778,MAINE,ZBW,RNAV,01/17/2012
FISBO,41.798922222222224,-71.50352777777778,RHODE ISLAND,ZBW,RNAV,05/15/2003
FISRR,41.25836944444445,-71.9542,NEW YORK,ZBW,RNAV,09/07/2005
FITRE,41.912425,-74.9175,NEW YORK,ZBW,RP,HNK*VOR/DME*127.72/20.00
FITZY,42.864108333333334,-71.52875,NEW HAMPSHIRE,ZBW,RP,LWM*VOR/DME*306.32
FIVBO,45.089058333333334,-69.18879166666667,MAINE,ZBW,RP,BGR*VORTAC*337.00/20.00
FIXUG,41.535980555555554,-70.48505,MASSACHUSETTS,ZBW,RNAV,03/06/2006
FLAPE,41.065638888888884,-71.06959722222221,MASSACHUSETTS,ZBW,RP,ACK*VOR/DME*270.00/49.00
FLEIG,42.65555277777778,-73.80072222222222,NEW YORK,ZBW,RP,DEJ*LD*191.17/6.47
FLIBB,41.22703888888889,-72.422275,CONNECTICUT,ZBW,RP,BDR*VOR/DME*094.64/32.06
FLOOR,43.39261666666667,-75.94313333333334,NEW YORK,ZBW,RP,UCA*VORTAC*315.00/40.61
FLOSI,41.543527777777776,-74.33409722222221,NEW YORK,ZBW,RP,IGN*VOR/DME*264.56/24.17
FLUTI,42.41242777777778,-70.88664722222222,MASSACHUSETTS,ZBW,RNAV,07/13/2012
FLYZZ,42.803725,-72.49033333333334,NEW HAMPSHIRE,ZBW,RNAV,11/17/2014
FOBBS,42.39391666666667,-72.6498888888889,MASSACHUSETTS,ZBW,MR,CEF*VORTAC*349.00/13.00
FOBOP,45.136966666666666,-73.235975,,ZBW,RP,YJN*VOR/DME*169.06/8.00
FOBUX,44.263641666666665,-73.16548888888889,VERMONT,ZBW,RNAV,02/21/2003
FODAG,44.80554444444444,-67.44838611111112,MAINE,ZBW,RNAV,12/22/2008
FODAK,41.271433333333334,-73.73588055555555,NEW YORK,ZBW,RNAV,08/17/2010
FOGAV,45.199305555555554,-69.30266944444445,MAINE,ZBW,RNAV,08/06/2007
FOGDO,44.40071388888889,-70.75883055555556,MAINE,ZBW,RNAV,05/11/2012
FOGMO,44.37392222222222,-72.88349166666667,VERMONT,ZBW,RNAV,03/11/2011
FOGUS,43.996630555555555,-76.14971944444446,NEW YORK,ZBW,RNAV,05/23/2011
FOLIO,45.106700000000004,-68.42093333333334,MAINE,ZBW,RP,MLT*VOR/DME*192.06
FOMEP,47.291333333333334,-68.61577222222222,,ZBW,RNAV,07/08/2010
FOMLU,44.29481944444444,-68.58978055555555,MAINE,ZBW,RNAV,04/12/2006
FOMTA,44.040724999999995,-70.72856111111112,MAINE,ZBW,RNAV,09/30/2009
FOMUR,44.32621944444445,-68.91505833333333,MAINE,ZBW,RNAV,06/20/2010
FONAP,43.60641666666667,-70.068125,MAINE,ZBW,RNAV,09/30/2009
FONEB,45.120016666666665,-70.14020833333333,MAINE,ZBW,RNAV,10/23/2008
FONUB,44.61322222222223,-69.61451388888888,MAINE,ZBW,RNAV,05/21/2007
FONVU,41.51511388888889,-70.75855833333334,MASSACHUSETTS,ZBW,RNAV,05/24/2007
FORGU,44.03253333333333,-70.73651111111111,MAINE,ZBW,RNAV,09/30/2009
FORME,43.276383333333335,-72.14965833333333,NEW HAMPSHIRE,ZBW,RNAV,04/20/2016
FORMU,40.92574166666667,-73.27021111111111,NEW YORK,ZBW,RNAV,11/04/2015
FOROR,41.46521111111112,-73.80800277777777,NEW YORK,ZBW,RNAV,04/28/2010
FOSAN,42.842325,-71.70881944444444,NEW HAMPSHIRE,ZBW,RNAV,07/07/2009
FOSCO,43.27098888888889,-70.59092222222222,MAINE,ZBW,RNAV,06/01/2012
FOSEX,42.74856388888889,-73.70075555555556,NEW YORK,ZBW,RNAV,06/27/2011
FOSRA,42.60678611111111,-74.09219444444444,NEW YORK,ZBW,RNAV,05/10/2011
FOSTY,41.843183333333336,-71.64203888888889,RHODE ISLAND,ZBW,RP,PUT*VOR/DME*140.57/11.28
FOSYU,44.20705277777778,-74.33281944444444,NEW YORK,ZBW,RP,SLK*VOR/DME*221.48/12.00
FOVAX,44.01425,-75.65601666666667,NEW YORK,ZBW,MW,02/13/2017
FOVEG,42.35486111111111,-71.50293888888889,MASSACHUSETTS,ZBW,RNAV,08/14/2012
FOVES,44.53685,-73.25689722222222,VERMONT,ZBW,RP,BTV*LD*325.81/6.62
FOXAL,44.950697222222225,-70.6752888888889,MAINE,ZBW,RNAV,03/24/2009
FOXBO,41.91676944444444,-70.24946666666666,MASSACHUSETTS,ZBW,WP,07/08/1991
FOXEK,41.248241666666665,-73.69631111111111,NEW YORK,ZBW,RNAV,08/17/2010
FOXWD,41.806016666666665,-71.80195277777777,CONNECTICUT,ZBW,RNAV,02/23/2017
FOXXX,42.315355555555556,-70.90292777777778,MASSACHUSETTS,ZBW,RNAV,01/15/2013
FRANQ,40.85300277777778,-72.58263333333333,NEW YORK,ZBW,RNAV,10/13/2016
FREBI,43.892427777777776,-70.19831666666667,MAINE,ZBW,MR,NHZ*TACAN*285.00/11.00
FREDO,41.90567222222222,-70.58223333333333,MASSACHUSETTS,ZBW,RP,LFV*VOR/DME*270.85
FREEH,43.02076944444444,-71.55950277777778,NEW HAMPSHIRE,ZBW,RNAV,12/03/2014
FRIAR,44.44136944444444,-69.88455,MAINE,ZBW,RP,BGR*VORTAC*260.00/50.00
FRILL,42.22986944444445,-69.82464444444444,OFFSHORE ATLANTIC,ZBW,RP,BOS*VOR/DME*114.00/52.43
FRLDI,42.02698611111111,-73.98551944444445,NEW YORK,ZBW,RNAV,05/13/2015
FROLY,41.614358333333335,-71.02513611111111,MASSACHUSETTS,ZBW,RP,PVD*VOR/DME*123.80
FRRST,40.654852777777776,-73.30644444444444,NEW YORK,ZBW,RNAV,02/26/2010
FRYYS,43.67863055555555,-72.31874166666667,VERMONT,ZBW,RP,LEB*VOR/DME*284.86
FUGET,41.25538888888889,-73.61066388888888,NEW YORK,ZBW,RNAV,07/13/2017
FURBS,41.82575833333334,-70.80088611111111,MASSACHUSETTS,ZBW,RP,EWB*LD*054.45/10.86
FYSHR,42.82058055555556,-72.15394166666667,NEW HAMPSHIRE,ZBW,RNAV,11/17/2014
FZOOL,41.32641944444445,-73.28321666666666,CONNECTICUT,ZBW,RP,BDR*VOR/DME*336.19
SAACK,44.12182222222222,-75.82491944444445,NEW YORK,ZBW,MR,ART*VORTAC*057.44
SAACO,43.249297222222225,-70.22435277777778,MAINE,ZBW,RNAV,06/01/2012
SACTO,43.296727777777775,-70.45812222222223,MAINE,ZBW,RNAV,03/02/2010
SADOY,47.24046388888889,-68.57395555555556,MAINE,ZBW,RNAV,08/01/2007
SADTO,42.812475,-71.16790555555556,MASSACHUSETTS,ZBW,RP,MHT*VOR/DME*125.63
SAEZE,43.325783333333334,-76.1764,NEW YORK,ZBW,WP,07/05/2001
SAFAD,43.11490833333333,-72.67296388888889,VERMONT,ZBW,RP,CAM*VOR/DME*090.00
SAGES,42.04620277777778,-74.3195361111111,NEW YORK,ZBW,RP,IGN*VOR/DME*327.85/31.92
SAILE,41.18576944444444,-67.89571111111111,OFFSHORE ATLANTIC,ZBW,RNAV,03/21/2018
SAILN,40.254422222222225,-73.45053611111112,OFFSHORE ATLANTIC,ZBW,RNAV,02/28/2017
SALAS,45.10211388888889,-74.70203611111111,,ZBW,RNAV,11/23/2009
SALDY,41.197152777777774,-69.98029166666667,MASSACHUSETTS,ZBW,RNAV,03/27/2009
SALEM,41.413447222222224,-72.18369166666668,CONNECTICUT,ZBW,RP,HFD*VOR/DME*142.65/21.34
SALLT,41.18057222222222,-72.89334166666667,CONNECTICUT,ZBW,RP,BDR*VOR/DME*095.44
SALME,41.77248611111111,-71.575875,RHODE ISLAND,ZBW,RP,PVD*VOR/DME*307.78
SALNE,42.34772777777778,-71.12326944444443,MASSACHUSETTS,ZBW,RNAV,11/14/2013
SANTT,41.18886666666666,-73.42329166666667,CONNECTICUT,ZBW,RP,RBV*VORTAC*049.24/76.75
SAPPE,43.62705833333333,-70.05199999999999,MAINE,ZBW,RP,ENE*VOR/DME*080.57
SAPTE,42.6532,-72.05393888888888,MASSACHUSETTS,ZBW,RNAV,06/18/2010
SAPUE,47.329169444444446,-68.61639166666666,,ZBW,RNAV,08/01/2007
SARDI,40.52405833333333,-72.79885277777778,NEW YORK,ZBW,RP,CCC*VOR/DME*193.00/24.32
SASHA,42.13297222222222,-73.14871944444445,MASSACHUSETTS,ZBW,RP,CTR*VOR/DME*236.17/13.01
SATAN,43.385869444444445,-70.80307499999999,MAINE,ZBW,RP,PSM*VOR/DME*020.00
SAUGY,41.48945277777778,-71.80054166666666,CONNECTICUT,ZBW,RNAV,04/06/2012
SAVAL,44.90416666666667,-74.70033333333333,NEW YORK,ZBW,RNAV,09/22/2014
SAWTO,44.96501111111112,-70.60782222222221,MAINE,ZBW,RNAV,03/24/2009
SBCDC,46.034394444444445,-67.781,MAINE,ZBW,CN,06/03/2002
SBGSK,46.01023611111111,-67.78108611111111,MAINE,ZBW,CN,06/03/2002
SCALD,41.97239166666667,-70.8277,MASSACHUSETTS,ZBW,RNAV,08/23/2016
SCARS,43.54863888888889,-70.34107499999999,MAINE,ZBW,RP,ENE*VOR/DME*075.00/14.00
SCIPO,42.808074999999995,-76.47935555555556,NEW YORK,ZNY,RP,GGT*VORTAC*283.50/28.85
SCITU,42.27874444444444,-70.76060833333334,MASSACHUSETTS,ZBW,RNAV,09/28/2014
SCOAR,42.31261666666666,-70.63750555555556,MASSACHUSETTS,ZBW,RNAV,01/15/2013
SCOGS,43.16224166666667,-70.30087222222222,MAINE,ZBW,RP,BOS*VOR/DME*048.00/57.07
SCOOP,43.032294444444446,-71.52596666666666,NEW HAMPSHIRE,ZBW,RP,MHT*VOR/DME*340.00/12.00
SCOTI,44.37206388888889,-69.70586666666667,MAINE,ZBW,RP,AUG*VOR/DME*069.32/5.00
SCOUT,43.31453333333333,-75.52135277777778,NEW YORK,ZBW,RNAV,04/25/2010
SCROB,42.69232222222222,-72.02708888888888,MASSACHUSETTS,ZBW,RP,GDM*VOR/DME*022.91/8.89
SCUPP,42.60305833333334,-70.230375,OFFSHORE ATLANTIC,ZBW,RP,LFV*VOR/DME*002.32/36.18
SEABE,41.77903333333333,-71.51173888888889,RHODE ISLAND,ZBW,RNAV,08/01/2012
SEAER,43.92455277777778,-69.49179722222222,MAINE,ZBW,RP,BGR*VORTAC*225.00/61.00
SEALL,41.39270555555556,-72.84737777777778,CONNECTICUT,ZBW,RP,BDR*VOR/DME*053.93
SEEDY,43.075875,-70.61352222222222,NEW HAMPSHIRE,ZBW,RP,PSM*VOR/DME*108.99
SEETS,42.646163888888886,-72.31825277777777,MASSACHUSETTS,ZBW,RNAV,09/28/2014
SEGOE,42.55741666666666,-71.00690833333333,MASSACHUSETTS,ZBW,RNAV,08/13/2012
SEHAG,42.46803888888889,-70.78505277777778,MASSACHUSETTS,ZBW,RNAV,04/04/2016
SELLA,41.596516666666666,-71.57242777777778,RHODE ISLAND,ZBW,RP,PVD*VOR/DME*234.00/10.00
SEMTE,43.26916111111111,-70.74223888888889,MAINE,ZBW,RNAV,01/16/2013
SENOE,42.96686388888889,-71.24683333333333,NEW HAMPSHIRE,ZBW,RNAV,01/16/2013
SEPAE,42.9731,-70.91160833333333,NEW HAMPSHIRE,ZBW,RNAV,01/16/2013
SEROC,43.16739166666667,-70.49204722222223,MAINE,ZBW,RP,ENE*VOR/DME*178.00/16.38
SERPA,43.83985555555556,-70.66579722222222,MAINE,ZBW,RP,AUG*VOR/DME*250.84/47.36
SETBE,44.71865277777778,-74.8924138888889,NEW YORK,ZBW,RNAV,11/23/2009
SETHE,41.154275,-73.02035833333333,CONNECTICUT,ZBW,RNAV,06/16/2017
SEVIE,44.67243333333333,-67.91540833333335,MAINE,ZBW,RNAV,11/15/2017
SEYOB,43.59526944444445,-72.95200277777778,VERMONT,ZBW,RP,RUT*LD*013.52/4.29
SEYON,42.87543888888889,-73.63320277777777,NEW YORK,ZBW,RNAV,06/27/2011
SEZTY,44.70793888888889,-68.45870555555555,MAINE,ZBW,RNAV,03/17/2017
SHAAN,42.57989444444445,-70.82761111111111,MASSACHUSETTS,ZBW,RNAV,01/15/2013
SHAGG,42.455650000000006,-71.17894166666667,MASSACHUSETTS,ZBW,WP,BOS*VOR/DME*321.04/10.27
SHAHE,42.686880555555554,-74.12109722222222,NEW YORK,ZBW,RP,ALB*VORTAC*268.66/14.52
SHANK,42.628055555555555,-68.48722222222223,OFFSHORE ATLANTIC,ZBW,RNAV,02/27/2018
SHAUN,42.676177777777774,-70.64085,MASSACHUSETTS,ZBW,RNAV,06/01/2012
SHAWE,44.352919444444446,-69.82155,MAINE,ZBW,RP,AUG*VOR/DME*349.42/2.25
SHERB,42.77719722222222,-75.53195833333334,NEW YORK,ZBW,RP,RKA*VOR/DME*336.28/22.71
SHHAR,40.983736111111114,-71.30570277777778,MASSACHUSETTS,ZBW,RNAV,04/09/2010
SHIGY,42.399430555555554,-73.31693888888888,MASSACHUSETTS,ZBW,RP,PWL*VOR/DME*030.45
SHINY,44.818538888888895,-70.91953333333333,MAINE,ZBW,RP,BML*VOR/DME*062.66/15.92
SHIPN,41.03445555555555,-73.52714444444445,NEW YORK,ZBW,RNAV,09/26/2007
SHLEP,40.68486111111111,-72.60309444444444,NEW YORK,ZBW,RP,SEY*VOR/DME*253.56/54.94
SHOEL,42.990833333333335,-70.87788611111111,NEW HAMPSHIRE,ZBW,RNAV,10/01/2008
SHOLS,42.918524999999995,-70.6797638888889,NEW HAMPSHIRE,ZBW,RP,PSM*VOR/DME*162.00/12.00
SHOWZ,42.805425,-71.58101388888889,NEW HAMPSHIRE,ZBW,RNAV,11/17/2014
SHRAK,44.15499444444444,-75.68223055555556,NEW YORK,ZBW,MR,GTB*LD*028.99/7.03
SHYMO,43.69697222222222,-72.14661666666667,NEW HAMPSHIRE,ZBW,RNAV,03/30/2009
SHYNA,40.67216666666666,-73.16885277777779,NEW YORK,ZBW,RNAV,02/26/2010
SIBIE,43.37034722222222,-73.72548055555556,NEW YORK,ZBW,RNAV,01/07/2003
SIBJI,42.349694444444445,-75.31491944444444,NEW YORK,ZBW,RNAV,02/20/2014
SICOS,41.42355277777777,-70.92117222222222,MASSACHUSETTS,ZBW,RNAV,07/19/2012
SILDE,44.31441944444444,-72.713025,VERMONT,ZBW,RNAV,01/16/2003
SILOC,41.361333333333334,-70.64814722222224,MASSACHUSETTS,ZBW,RNAV,11/26/2010
SILVE,42.912080555555555,-70.613525,NEW HAMPSHIRE,ZBW,RP,PSM*VOR/DME*153.00
SIMAY,42.75270833333333,-73.65610555555556,NEW YORK,ZBW,RNAV,06/27/2011
SINUE,41.54704722222222,-74.12966944444443,NEW YORK,ZBW,RNAV,08/06/2010
SITLE,42.965386111111115,-71.45353888888889,NEW HAMPSHIRE,ZBW,RP,MNA*LD*351.52/1.30
SIVME,42.96461111111111,-71.48061111111112,NEW HAMPSHIRE,ZBW,RNAV,11/06/2009
SIXJO,41.58932222222222,-74.44479166666667,NEW YORK,ZBW,RNAV,02/04/2010
SKALP,40.918994444444444,-72.31670555555556,NEW YORK,ZBW,MR,FOK*TACAN*084.14/15.15
SKEEE,43.91361111111111,-72.80361111111111,VERMONT,ZBW,RNAV,06/13/2017
SKOWL,41.263105555555555,-71.27898611111111,RHODE ISLAND,ZBW,RNAV,02/23/2017
SLAGS,44.365922222222224,-72.73525277777777,VERMONT,ZBW,RNAV,06/28/2017
SLAMZ,43.55869444444444,-69.97428888888889,MAINE,ZBW,RNAV,03/13/2012
SLIDA,41.717536111111116,-71.41961666666667,RHODE ISLAND,ZBW,RP,PVD*VOR/DME*145.94/0.61
SLOWW,42.21054166666667,-71.80248611111111,MASSACHUSETTS,ZBW,RNAV,04/19/2010
SMAIR,44.059019444444445,-74.4391638888889,NEW YORK,ZBW,RP,SLK*VOR/DME*221.48/22.00
SMARI,41.625394444444446,-71.22549722222223,RHODE ISLAND,ZBW,RP,SEY*VOR/DME*044.85
SMITY,41.93400555555555,-70.70358888888889,MASSACHUSETTS,ZBW,RNAV,06/29/2011
SMUTZ,42.46183055555556,-72.84623055555555,MASSACHUSETTS,ZBW,RNAV,03/30/2009
SMYTH,42.5046,-73.88496111111112,NEW YORK,ZBW,RNAV,11/17/2014
SNAPO,41.8759,-71.87745833333332,CONNECTICUT,ZBW,RP,PUT*VOR/DME*211.40/5.00
SNEZY,42.74536388888889,-71.48561944444444,NEW HAMPSHIRE,ZBW,WP,MHT*VOR/DME*229.80/9.00
SNIVL,41.479475,-72.74302777777778,CONNECTICUT,ZBW,RP,MAD*VOR/DME*360.00/10.19
SNOOH,42.63472222222222,-70.65891944444445,MASSACHUSETTS,ZBW,RNAV,09/08/2016
SNOWI,43.17046944444444,-70.8989888888889,NEW HAMPSHIRE,ZBW,RP,PSM*VOR/DME*/5.94
SOARS,41.51168611111111,-73.27160555555555,CONNECTICUT,ZBW,RP,BDR*VOR/DME*354.52
SOBAH,42.237347222222226,-70.14535555555557,MASSACHUSETTS,ZBW,RNAV,09/28/2014
SOFEE,41.84317222222222,-71.258925,MASSACHUSETTS,ZBW,RNAV,09/28/2014
SOFOB,41.72901388888889,-70.00806944444444,MASSACHUSETTS,ZBW,RNAV,04/08/2009
SOLTE,44.43200833333333,-72.0144,VERMONT,ZBW,RNAV,10/14/2010
SOLVA,43.104311111111116,-76.24217222222222,NEW YORK,ZBW,RP,SYR*VORTAC*217.12
SONEY,41.46123611111111,-71.85858333333333,CONNECTICUT,ZBW,RP,PVD*VOR/DME*244.89
SONOC,40.810963888888885,-72.67388611111112,NEW YORK,ZBW,MR,FOK*TACAN*243.01/2.50
SORLE,42.098575000000004,-72.03648055555556,MASSACHUSETTS,ZBW,RP,PUT*VOR/DME*329.00/12.15
SORRY,41.47863888888889,-73.01740833333334,CONNECTICUT,ZBW,RP,CMK*VOR/DME*076.76/28.12
SORTS,44.481775,-68.38785833333334,MAINE,ZBW,MR,BGR*VORTAC*154.89/30.00
SOSYO,42.487347222222226,-71.43215277777779,MASSACHUSETTS,ZBW,RP,MHT*VOR/DME*201.93
SOUND,40.86435,-73.15624722222223,NEW YORK,ZBW,RP,DPK*VOR/DME*069.00/8.00
SPAGS,42.26013611111111,-71.74836111111111,MASSACHUSETTS,ZBW,RP,PUT*VOR/DME*027.14
SPDWY,44.04004166666667,-70.29762222222222,MAINE,ZBW,RNAV,08/08/2012
SPECL,41.66688055555555,-74.10389722222222,NEW YORK,ZBW,RP,IGN*VOR/DME*282.48/12.67
SPENO,42.28015277777778,-72.15408333333333,MASSACHUSETTS,ZBW,RP,GDM*VOR/DME*209.00/16.50
SPREE,40.90745,-72.55295277777778,NEW YORK,ZBW,RP,FOK*LD*055.52/6.02
SPRGE,42.84438888888889,-75.56257777777778,NEW YORK,ZBW,RP,GGT*VORTAC*085.00/12.13
SPUDD,46.814816666666665,-68.22756111111111,MAINE,ZBW,MR,PQI*VOR/DME*315.00/6.00
SPYSD,42.44956944444444,-71.02701388888889,MASSACHUSETTS,ZBW,RNAV,02/14/2017
SQUAB,44.941986111111106,-69.548925,MAINE,ZBW,RNAV,04/23/2010
SQUAM,43.77777777777778,-71.48360277777778,NEW HAMPSHIRE,ZBW,RP,ALB*VORTAC*070.91/119.00
SQUEL,42.113775000000004,-71.76599444444444,MASSACHUSETTS,ZBW,RP,PUT*VOR/DME*034.17
SSAAM,42.632086111111114,-71.38607222222223,MASSACHUSETTS,ZBW,RNAV,04/04/2016
SSOXS,41.83683888888889,-70.74618333333333,MASSACHUSETTS,ZBW,RP,BOS*VOR/DME*176.72/33.06
STAEV,44.60695277777778,-73.37089166666667,VERMONT,ZBW,RNAV,03/25/2015
STANE,41.09475555555556,-73.22015,CONNECTICUT,ZBW,RP,BDR*VOR/DME*239.68/5.87
STATN,42.53196388888889,-76.51888055555555,NEW YORK,ZNY,RNAV,12/30/2009
STAYC,42.50783333333333,-70.79155833333333,MASSACHUSETTS,ZBW,RNAV,01/15/2013
STAYS,40.91170555555556,-72.46991111111112,NEW YORK,ZBW,RNAV,03/25/2009
STEEM,42.242025,-70.82563611111111,MASSACHUSETTS,ZBW,RNAV,01/13/2011
STELA,42.28143055555555,-73.15393333333334,MASSACHUSETTS,ZBW,RP,CTR*VOR/DME*279.34/9.13
STELR,41.874119444444446,-74.21940000000001,NEW YORK,ZBW,WP,11/02/1998
STEPS,42.87564722222222,-71.96046666666668,NEW HAMPSHIRE,ZBW,RNAV,03/07/2011
STEVO,42.936680555555554,-70.92783055555556,NEW HAMPSHIRE,ZBW,RP,MHT*VOR/DME*093.00/19.90
STODA,43.11672222222222,-75.85589722222221,NEW YORK,ZBW,RP,RKA*VOR/DME*336.28/47.58
STOGE,42.11901388888889,-71.13053888888888,MASSACHUSETTS,ZBW,RP,OWD*LE*169.77/5.08
STOLI,42.74076388888889,-73.11452222222222,MASSACHUSETTS,ZBW,RNAV,04/04/2016
STOOL,42.1428,-68.74977222222222,MASSACHUSETTS,ZBW,RP,BOS*VOR/DME*112.60/100.63
STOTT,42.335372222222226,-73.71705833333334,NEW YORK,ZBW,RP,PWL*VOR/DME*003.31/34.32
STPLS,44.027138888888885,-68.98394166666667,MAINE,ZBW,RNAV,10/08/2008
STRUM,42.930883333333334,-72.28024444444445,NEW HAMPSHIRE,ZBW,RP,MHT*VOR/DME*290.63/40.34
STUBY,41.902094444444444,-73.43723333333334,CONNECTICUT,ZBW,RP,BDR*VOR/DME*354.52
STUFF,41.42092222222222,-74.2998361111111,NEW YORK,ZNY,RNAV,02/09/2010
STUFY,41.677,-71.63366388888889,RHODE ISLAND,ZBW,RNAV,08/01/2012
STURB,42.03793611111111,-71.95480833333333,MASSACHUSETTS,ZBW,RP,PUT*VOR/DME*329.00/7.00
SUFFI,43.024905555555556,-69.91714166666667,OFFSHORE ATLANTIC,ZBW,RNAV,09/26/2014
SUFOK,41.163225,-71.82891666666666,RHODE ISLAND,ZBW,RP,SEY*VOR/DME*283.82/11.46
SUGRR,45.094025,-70.21640000000001,MAINE,ZBW,RP,BML*VOR/DME*073.00/50.00
SUMAW,44.94328888888889,-68.55608333333333,MAINE,ZBW,RNAV,07/27/2010
SUMIT,42.590741666666666,-74.61619999999999,NEW YORK,ZBW,RP,RKA*VOR/DME*086.00
SUMNA,43.91475555555555,-70.57028333333334,MAINE,ZBW,RNAV,10/20/2017
SUNOY,42.844461111111116,-74.08396666666667,NEW YORK,ZBW,RNAV,05/10/2011
SURLE,42.07666944444445,-72.5064111111111,MASSACHUSETTS,ZBW,RP,BAF*VORTAC*132.57
SURME,44.450544444444446,-75.44925277777779,NEW YORK,ZBW,MR,ART*VORTAC*053.39/40.00
SUVOY,43.916824999999996,-75.72330555555556,NEW YORK,ZBW,RNAV,05/24/2011
SUVVO,42.47636666666667,-71.34950833333333,MASSACHUSETTS,ZBW,RP,BED*LD*293.13/3.64
SWALO,42.065486111111106,-72.1936388888889,MASSACHUSETTS,ZBW,RP,PUT*VOR/DME*307.00
SWEDE,42.477811111111116,-74.66891944444446,NEW YORK,ZBW,RP,RKA*VOR/DME*099.25/25.34
SWIGG,42.53293611111111,-71.243725,MASSACHUSETTS,ZBW,RP,MHT*VOR/DME*179.50
SWLCH,43.4169,-70.52819722222222,MAINE,ZBW,RNAV,06/21/2010
SYLVA,42.53370555555556,-70.95088333333334,MASSACHUSETTS,ZBW,WP,BOS*VOR/DME*025.00/10.70
JAAZZ,42.804602777777774,-71.60242222222222,NEW HAMPSHIRE,ZBW,RP,LWM*VOR/DME*294.91
JABAG,43.710525000000004,-70.26126111111111,MAINE,ZBW,RNAV,09/30/2009
JABMU,42.467022222222226,-71.56823055555556,MASSACHUSETTS,ZBW,RNAV,04/12/2006
JAFFY,40.89002222222222,-73.12449722222222,NEW YORK,ZBW,RP,BDR*VOR/DME*192.00
JAGAD,43.577738888888895,-71.48411111111112,NEW HAMPSHIRE,ZBW,RNAV,11/05/2009
JAGRA,41.40758888888889,-71.37238333333333,RHODE ISLAND,ZBW,RP,SEY*VOR/DME*047.54
JAGSU,41.64488333333333,-70.49899444444445,MASSACHUSETTS,ZBW,RP,BNX*LD*142.43
JAITE,42.30358333333333,-70.71374444444444,MASSACHUSETTS,ZBW,RNAV,01/15/2013
JAKUT,43.36072777777778,-72.13199444444444,NEW HAMPSHIRE,ZBW,RNAV,10/02/2012
JALMI,44.106347222222226,-69.77746111111111,MAINE,ZBW,RNAV,12/22/2005
JAMDI,43.116791666666664,-75.8565861111111,NEW YORK,ZBW,RNAV,07/11/2005
JAMLU,43.006341666666664,-75.94990833333334,NEW YORK,ZBW,RNAV,07/11/2005
JAMMA,43.26996388888889,-72.58628611111111,VERMONT,ZBW,RP,CAM*VOR/DME*077.33
JAMOS,42.31039722222222,-71.1419138888889,MASSACHUSETTS,ZBW,RNAV,11/14/2013
JAMSA,44.023719444444446,-72.65545555555556,VERMONT,ZBW,RNAV,01/16/2013
JANAG,42.11551111111111,-70.1227111111111,MASSACHUSETTS,ZBW,RNAV,11/26/2002
JANID,41.83762777777778,-72.8199861111111,CONNECTICUT,ZBW,RP,HFD*VOR/DME*327.00
JANIR,41.42366944444444,-70.21284722222222,MASSACHUSETTS,ZBW,RNAV,06/24/2011
JANOB,43.84636666666667,-70.38728333333334,MAINE,ZBW,RNAV,03/13/2012
JANOL,41.46351944444445,-72.809575,CONNECTICUT,ZBW,RNAV,10/15/2012
JANUD,44.24686111111111,-72.79021944444445,VERMONT,ZBW,RP,VOE*LD*145.83/19.95
JAPUT,42.472572222222226,-73.66006111111112,NEW YORK,ZBW,RNAV,10/23/2009
JASDU,43.70355,-73.40798611111111,NEW YORK,ZBW,RNAV,01/13/2011
JASID,43.64661944444445,-73.25201111111112,VERMONT,ZBW,RNAV,11/05/2009
JASOR,44.39246388888889,-68.202625,MAINE,ZBW,RNAV,09/29/2009
JATEV,40.74113888888889,-73.02710833333333,NEW YORK,ZBW,RNAV,11/04/2015
JAVTU,43.083533333333335,-75.95540833333334,NEW YORK,ZBW,RNAV,05/03/2013
JAVUN,45.75201666666667,-69.95211666666667,MAINE,ZBW,RNAV,07/27/2010
JAWZZ,41.40224444444444,-70.84256944444444,MASSACHUSETTS,ZBW,RNAV,02/23/2017
JAYHA,41.73320555555556,-70.44042222222222,MASSACHUSETTS,ZBW,RNAV,06/04/2014
JAYNA,41.821083333333334,-71.20377777777779,MASSACHUSETTS,ZBW,RNAV,04/04/2016
JAYSE,42.458822222222224,-71.16074722222223,MASSACHUSETTS,ZBW,RP,LWM*VOR/DME*204.83
JCACY,44.359747222222225,-69.68637777777778,MAINE,ZBW,RNAV,12/22/2005
JEBIM,41.59950833333333,-70.55695,MASSACHUSETTS,ZBW,RNAV,03/06/2006
JEBIV,45.64757222222222,-68.37430277777777,MAINE,ZBW,RNAV,04/02/2012
JEBUN,43.66053333333333,-71.4610611111111,NEW HAMPSHIRE,ZBW,RNAV,11/05/2009
JEDRU,41.62336111111111,-72.72364166666667,CONNECTICUT,ZBW,RNAV,02/03/2005
JEDUM,44.306774999999995,-68.5834611111111,MAINE,ZBW,RNAV,05/23/2012
JEEET,41.85288333333334,-71.49636111111111,RHODE ISLAND,ZBW,RNAV,08/01/2012
JEENE,41.65741944444444,-71.665525,RHODE ISLAND,ZBW,RP,07/16/1996
JEGDO,42.76391666666667,-71.20165833333334,NEW HAMPSHIRE,ZBW,RNAV,05/13/2013
JEGIS,44.47389444444445,-69.72065277777779,MAINE,ZBW,RNAV,05/21/2007
JEGUB,47.09626666666667,-67.91535555555556,MAINE,ZBW,RNAV,04/29/2016
JEKDI,42.073600000000006,-70.54860833333333,MASSACHUSETTS,ZBW,RNAV,06/29/2011
JEKEG,43.0269,-72.1641,NEW HAMPSHIRE,ZBW,RNAV,11/05/2009
JEKOP,42.611175,-73.31676388888889,MASSACHUSETTS,ZBW,RNAV,08/25/2015
JELUB,47.31118333333333,-68.39181388888889,,ZBW,RNAV,07/07/2010
JEMKA,42.98074722222223,-76.24182777777777,NEW YORK,ZBW,RNAV,05/03/2013
JEMUV,44.270199999999996,-72.16176666666668,VERMONT,ZBW,RNAV,01/30/2007
JENAB,43.35761111111111,-73.60950277777778,NEW YORK,ZBW,RNAV,01/07/2003
JENAX,44.26855555555556,-73.2812611111111,VERMONT,ZBW,RNAV,01/16/2003
JENBE,42.178913888888886,-72.02420833333333,MASSACHUSETTS,ZBW,RNAV,01/21/2010
