name,latitude,longitude,state,artcc,type,updated
TABLE,41.252919444444444,-100.78116944444444,NEBRASKA,ZDV,RP,OBH*VORTAC*259.96/110.00
TACUD,39.96209166666667,-104.52427222222222,COLORADO,ZDV,RNAV,07/16/2008
TACUK,40.4909,-107.24375833333333,COLORADO,ZDV,RP,CHE*VOR/DME*108.00/3.30
TADUY,39.10353333333333,-108.73529722222223,COLORADO,ZDV,RNAV,07/05/2011
TAGKO,40.31464166666667,-104.7311,COLORADO,ZDV,RNAV,11/24/2012
TAHIB,37.05416111111111,-108.7955361111111,COLORADO,ZDV,RNAV,10/10/2014
TAIIL,39.63798611111111,-104.40050833333333,COLORADO,ZDV,RNAV,11/24/2012
TAILR,39.841594444444446,-104.83498055555555,COLORADO,ZDV,RP,FQF*VORTAC*301.59
TAKSE,39.04508611111111,-104.54071111111111,COLORADO,ZDV,WP,11/02/1998
TALJE,39.566677777777784,-107.49998055555555,COLORADO,ZDV,RNAV,07/25/2000
TANRE,37.33938055555556,-108.31406666666666,COLORADO,ZDV,RNAV,02/17/2006
TANZU,37.24306666666667,-109.512325,UTAH,ZDV,WP,11/02/1998
TARGS,44.38784444444445,-103.13517222222222,SOUTH DAKOTA,ZDV,MR,RCA*TACAN*343.50/15.00
TARIE,40.338188888888894,-104.62519166666667,COLORADO,ZDV,RNAV,03/16/2012
TATCO,43.889741666666666,-102.78847777777777,SOUTH DAKOTA,ZDV,RP,RAP*VORTAC*105.00/11.00
TATKE,37.049225,-104.73734166666667,COLORADO,ZDV,RP,CIM*VORTAC*357.95/34.05
TATTR,40.54580833333333,-102.00934166666667,NEBRASKA,ZDV,RP,HCT*VORTAC*265.67/50.00
TAULB,40.46297777777778,-107.16348611111111,COLORADO,ZDV,RNAV,11/17/2014
TAVRN,39.78148611111111,-105.27345555555556,COLORADO,ZDV,RNAV,11/24/2012
TAYLR,38.79338333333333,-106.73403333333333,COLORADO,ZDV,RP,HBU*VOR/DME*021.01/25.00
TAYOT,41.98156111111111,-103.88013055555555,NEBRASKA,ZDV,RNAV,11/29/2012
TEBIE,36.73883611111111,-108.33337777777777,NEW MEXICO,ZDV,RNAV,04/04/2005
TECOB,40.17473888888889,-102.24146944444445,COLORADO,ZDV,RNAV,02/21/2018
TEDUE,40.534908333333334,-107.37819166666667,COLORADO,ZDV,RNAV,09/04/2015
TEEBO,39.72018055555556,-105.56080555555555,COLORADO,ZDV,RNAV,11/24/2012
TEHEV,38.56444722222222,-105.40060833333334,COLORADO,ZDV,RP,PUB*VORTAC*281.78
TEHHY,42.48410555555556,-99.99504444444445,NEBRASKA,ZDV,WP,11/02/1998
TEHRU,39.242605555555556,-106.72089166666667,COLORADO,ZDV,RP,DBL*VOR/DME*133.50
TEKAE,38.04859444444444,-103.19258888888889,COLORADO,ZDV,RP,LAA*VOR/DME*237.74/25.52
TEKGU,39.47204722222222,-108.12218333333333,COLORADO,ZDV,RP,RIL*VOR/DME*249.90/19.00
TEKMY,39.976144444444444,-102.35342222222222,COLORADO,ZDV,RP,DEN*VOR/DME*076.00/107.00
TELCU,41.60562222222222,-106.89505000000001,WYOMING,ZDV,RNAV,09/11/2006
TELLR,39.43501944444444,-104.76225555555556,COLORADO,ZDV,RNAV,09/22/2012
TELSE,39.016752777777775,-108.35830277777777,COLORADO,ZDV,RNAV,10/07/2003
TELSY,40.74848333333333,-102.27971111111111,COLORADO,ZDV,WP,11/02/1998
TEPTY,40.64336111111111,-99.63187222222221,NEBRASKA,ZDV,RNAV,03/23/2007
TEROE,39.51971666666667,-107.83444166666666,COLORADO,ZDV,RNAV,11/08/2010
TERRO,38.89109444444444,-105.87306666666666,COLORADO,ZDV,RP,DBL*VOR/DME*112.26
TESKY,38.52245833333333,-106.44791388888889,COLORADO,ZDV,RNAV,08/16/2010
TESSY,39.4962,-108.82982222222222,COLORADO,ZDV,RP,JNC*VOR/DME*341.22/26.23
TETOY,39.43380833333333,-101.78302777777778,KANSAS,ZDV,RNAV,11/18/2015
TEVRE,40.475633333333334,-107.727825,COLORADO,ZDV,RNAV,04/06/2018
TEXCO,38.97125833333334,-104.51601111111111,COLORADO,ZDV,RNAV,08/17/2010
THHEE,39.78928611111111,-106.67622777777778,COLORADO,ZDV,RNAV,12/11/2017
THOAR,39.65283611111111,-104.03186388888889,COLORADO,ZDV,RNAV,02/03/2017
THRUU,39.40266944444444,-105.30893888888889,COLORADO,ZDV,RNAV,09/25/2012
TIGHT,39.87451111111111,-104.40352777777778,COLORADO,ZDV,RNAV,11/24/2012
TIKET,39.38732777777778,-106.9474,COLORADO,ZDV,RP,ASE*LE*330.63/11.33
TIKLR,39.626194444444444,-104.90603611111112,COLORADO,ZDV,RNAV,11/24/2012
TILLI,40.23397222222222,-106.82502777777778,COLORADO,ZDV,RP,CHE*VOR/DME*113.78/27.90
TIPOC,38.53259166666667,-106.80820555555555,COLORADO,ZDV,RNAV,06/08/2009
TIRUE,41.687980555555555,-99.03462499999999,NEBRASKA,ZDV,RNAV,03/16/2009
TLRID,39.54511111111111,-105.19664722222223,COLORADO,ZDV,RNAV,09/25/2012
TOADD,36.296,-111.51033611111112,ARIZONA,ZDV,RNAV,01/20/2016
TOBPU,39.532158333333335,-107.4464138888889,COLORADO,ZDV,RNAV,11/08/2010
TOCUT,37.465775,-105.96515833333333,COLORADO,ZDV,RP,ALS*VORTAC*301.38/10.00
TODDE,38.25210277777778,-103.61650833333333,COLORADO,ZDV,RP,PUB*VORTAC*085.51/38.49
TODVE,41.178238888888885,-105.13433055555556,WYOMING,ZDV,RNAV,07/24/2008
TOJAM,40.05753333333333,-107.6661388888889,COLORADO,ZDV,RP,CHE*VOR/DME*197.00/32.31
TOKKU,40.69243055555555,-99.79113888888888,NEBRASKA,ZDV,RP,LBF*VOR/DME*104.83
TOMSN,40.35674166666667,-105.43695833333334,COLORADO,ZDV,RP,GLL*VOR/DME*245.00
TONAE,39.401783333333334,-108.092625,COLORADO,ZDV,RNAV,08/13/2008
TOOKE,44.00772222222222,-105.477525,WYOMING,ZDV,RP,CZI*VOR/DME*076.00
TORLE,41.82926944444445,-99.17674166666667,NEBRASKA,ZDV,RNAV,06/11/2013
TOSOE,42.65526111111111,-100.251875,NEBRASKA,ZDV,RNAV,04/16/2008
TOTTT,40.26378888888889,-105.05407777777778,COLORADO,ZDV,RNAV,09/25/2012
TRAIN,39.30498055555555,-104.55767222222222,COLORADO,ZDV,RNAV,05/07/2013
TRPEL,37.98068888888889,-104.89602222222223,COLORADO,ZDV,RP,PUB*VORTAC*221.75/29.00
TRTTL,44.300397222222216,-104.73945555555555,WYOMING,ZDV,RNAV,02/15/2012
TRUEL,39.68785833333333,-107.29824722222222,COLORADO,ZDV,RP,DBL*VOR/DME*296.63/23.93
TRUMA,41.639402777777775,-107.04785277777778,WYOMING,ZDV,RP,CKW*VOR/DME*091.02/25.00
TRUNK,40.33958055555556,-100.78741388888889,NEBRASKA,ZDV,RP,MCK*LD*NW CRS/12.61
TRYAL,42.87178055555555,-103.31312222222222,NEBRASKA,ZDV,RNAV,11/06/2002
TSHNR,40.355869444444444,-104.74770555555556,COLORADO,ZDV,RNAV,09/25/2012
TUCFY,39.173525,-102.25294444444444,COLORADO,ZDV,RP,GLD*VORTAC*231.98
TUCKK,39.10794166666667,-106.1352888888889,COLORADO,ZDV,RNAV,09/25/2012
TUGGL,39.732372222222224,-104.69796666666667,COLORADO,ZDV,RNAV,03/25/2012
TUKWY,41.11774444444445,-101.4880888888889,NEBRASKA,ZDV,RNAV,11/20/2012
TULLL,38.3275,-102.88166666666666,COLORADO,ZDV,RNAV,09/06/2012
TUMBL,40.43092222222222,-103.58740555555555,COLORADO,ZDV,RP,SNY*VOR/DME*201.81/48.51
TUNEE,37.53695833333333,-104.278825,COLORADO,ZDV,RNAV,07/21/2016
TUNNN,39.79627222222222,-105.20430277777778,COLORADO,ZDV,RNAV,11/24/2012
TUNTE,38.82355833333334,-104.685725,COLORADO,ZDV,RP,LPI*LD*N CRS/2.85
TURBN,40.05595833333333,-104.37892777777778,COLORADO,ZDV,RNAV,11/24/2012
TURLY,36.766533333333335,-107.76783888888889,NEW MEXICO,ZDV,RP,RSK*VORTAC*072.00/16.00
TUSKK,40.33629722222222,-106.68215833333333,COLORADO,ZDV,RNAV,07/06/2011
TUSPE,39.426544444444446,-107.29617222222222,COLORADO,ZDV,RNAV,09/20/2010
TUTGE,44.16471388888889,-103.12758888888888,SOUTH DAKOTA,ZDV,MR,RCA*TACAN*316.00/1.90
TUTTY,44.74579166666667,-104.65843333333333,WYOMING,ZDV,RNAV,07/19/2016
TUULO,39.67813888888889,-105.27415277777777,COLORADO,ZDV,RNAV,11/24/2012
TUYPI,37.99366111111111,-105.59726388888889,COLORADO,ZDV,RP,ALS*VORTAC*002.00/40.00
TUYUY,38.24265833333333,-108.56761944444445,COLORADO,ZDV,RNAV,03/14/2007
TUZDO,37.83258055555556,-105.6521888888889,COLORADO,ZDV,RP,ALS*VORTAC*002.00/30.00
TWEDT,39.841994444444445,-104.146775,COLORADO,ZDV,RNAV,11/24/2012
TWNSN,39.41556111111111,-104.36074722222222,COLORADO,ZDV,RNAV,10/16/2012
TWWIN,39.72802777777778,-104.3591361111111,COLORADO,ZDV,RNAV,11/24/2012
AAGEE,40.027141666666665,-104.7782611111111,COLORADO,ZDV,RNAV,03/22/2012
ACAGI,40.43227777777778,-106.84273333333333,COLORADO,ZDV,RP,BQZ*VOR/DME*131.32/2.32
ACAVA,38.04784444444444,-103.616625,COLORADO,ZDV,RNAV,06/05/2009
ACEHO,41.853369444444446,-102.69515,NEBRASKA,ZDV,RNAV,11/27/2006
ACERI,38.04841944444444,-103.4012388888889,COLORADO,ZDV,RNAV,06/05/2009
ACHES,37.43588333333333,-105.43355555555556,COLORADO,ZDV,RNAV,01/20/2013
ACITU,44.439138888888884,-105.56479444444444,WYOMING,ZDV,RNAV,07/12/2005
ACODI,36.74163055555556,-108.21707777777777,NEW MEXICO,ZDV,WP,11/02/1998
ACOSI,37.11870833333333,-111.53460833333334,UTAH,ZDV,RP,PGA*VOR/DME*326.60/12.00
ACTOR,39.75575833333333,-104.5231111111111,COLORADO,ZDV,RP,DVV*VORTAC*142.64
ACZES,38.32635555555556,-104.88937777777778,COLORADO,ZDV,RP,PUB*VORTAC*267.20/21.81
ADANE,38.915905555555554,-104.39901666666667,COLORADO,ZDV,RP,PUB*VORTAC*354.19/37.29
ADESE,44.444125,-103.43276666666667,SOUTH DAKOTA,ZDV,RNAV,02/11/2013
ADEWU,40.21953611111111,-103.324075,COLORADO,ZDV,RNAV,01/18/2017
ADINY,39.24781388888889,-106.88061111111111,COLORADO,ZDV,RNAV,03/12/2009
ADNUC,39.65119444444444,-106.85355,COLORADO,ZDV,RP,VAZ*DD*NE CRS/3.92
ADUMY,36.75785277777778,-107.94439722222222,NEW MEXICO,ZDV,RNAV,07/07/2009
AEONS,39.90006666666667,-105.10271944444443,COLORADO,ZDV,RP,BJC*VOR/DME*103.73/1.85
AFELO,40.500616666666666,-99.90161666666667,NEBRASKA,ZDV,RNAV,07/29/2004
AFMAG,41.61799444444444,-104.73378333333334,WYOMING,ZDV,CN,12/04/2014
AFWOX,42.51743888888889,-104.60991944444444,WYOMING,ZDV,CN,06/20/2005
AFYAB,43.245175,-105.73835277777778,WYOMING,ZDV,RP,DDY*VOR/DME*056.44/25.40
AGARS,43.84467777777778,-104.27465277777777,WYOMING,ZDV,RNAV,07/03/2014
AGBAH,44.164680555555556,-103.12804444444444,SOUTH DAKOTA,ZDV,MR,RCA*TACAN*/1.91
AGHAN,41.24803888888889,-100.9026138888889,NEBRASKA,ZDV,RNAV,07/26/2013
AGIME,38.494841666666666,-108.42033055555557,COLORADO,ZDV,RNAV,09/21/2015
AHHUJ,41.03509444444444,-101.88018333333332,NEBRASKA,ZDV,RNAV,06/13/2008
AHOFU,43.00593611111111,-100.68733333333334,SOUTH DAKOTA,ZDV,RNAV,04/06/2005
AHUFU,41.117069444444446,-102.07575,NEBRASKA,ZDV,RNAV,11/20/2012
AIGLE,39.67308055555555,-106.70720833333334,COLORADO,ZDV,RP,ESJ*LD*NE CRS/10.83
AIMES,40.58714722222223,-104.54728888888889,COLORADO,ZDV,RP,GLL*VOR/DME*350.00/5.00
AIRNS,38.70432777777778,-108.15689722222223,COLORADO,ZDV,RNAV,09/21/2015
AJAKS,39.42688333333333,-104.70146666666668,COLORADO,ZDV,RNAV,03/25/2012
AJAXX,39.50779722222222,-107.00534166666667,COLORADO,ZDV,RP,DBL*VOR/DME*296.63/6.58
AJBUF,40.086713888888895,-100.75571388888889,NEBRASKA,ZDV,RNAV,10/03/2000
AJCIZ,41.005988888888886,-100.460275,NEBRASKA,ZDV,RNAV,07/26/2013
AJIRE,42.87295833333334,-103.17209444444445,NEBRASKA,ZDV,RNAV,06/29/2011
AKICE,42.912238888888886,-106.19623333333334,WYOMING,ZDV,RNAV,05/11/2009
AKIGY,38.388691666666666,-107.20735277777779,COLORADO,ZDV,CN,06/08/2009
AKNAC,38.70178888888889,-106.07074722222222,COLORADO,ZDV,RNAV,11/01/2013
AKODY,38.52876944444444,-104.68618333333333,COLORADO,ZDV,WP,11/02/1998
AKUPE,43.811363888888884,-104.24115,WYOMING,ZDV,RNAV,07/03/2014
ALARM,38.363391666666665,-101.74972777777778,KANSAS,ZDV,RNAV,07/08/2015
ALBIN,41.46776388888889,-104.29399444444444,WYOMING,ZDV,RP,SNY*VOR/DME*278.00
ALCEM,40.305880555555554,-106.70000277777778,COLORADO,ZDV,RNAV,11/17/2014
ALCOS,42.79076388888889,-106.57649166666667,WYOMING,ZDV,RP,DDY*VOR/DME*204.35/22.32
ALFIE,40.0605,-105.15316111111112,COLORADO,ZDV,RP,BJC*VOR/DME*344.79/8.87
ALIKE,39.86054722222222,-105.02433611111111,COLORADO,ZDV,RP,BJC*VOR/DME*109.69/6.16
ALISE,40.24742777777778,-105.26519166666667,COLORADO,ZDV,RNAV,07/15/2014
ALLAN,40.42296111111111,-105.51925555555556,COLORADO,ZDV,RP,GLL*VOR/DME*251.06
ALLIX,39.33958055555556,-106.88429722222223,COLORADO,ZDV,RP,DBL*VOR/DME*163.38/6.00
ALLYX,39.61211111111111,-104.68798055555555,COLORADO,ZDV,RP,BKF*TACAN*/6.44
ALPNE,39.45484444444445,-104.72325833333333,COLORADO,ZDV,RNAV,03/28/2012
ALPOE,40.957930555555556,-106.3158111111111,COLORADO,ZDV,RP,GLL*VOR/DME*276.28/84.89
ALVAA,44.499541666666666,-104.69704722222222,WYOMING,ZDV,RNAV,02/12/2014
ALVOJ,39.03749444444444,-108.43962777777779,COLORADO,ZDV,RP,ACD*DD*E CRS/5.94
ALWEN,40.55737222222222,-107.18991111111112,COLORADO,ZDV,RNAV,04/06/2018
ALZOY,40.514652777777776,-107.3123611111111,COLORADO,ZDV,RNAV,04/06/2018
AMEGE,39.82066666666667,-99.40088611111112,KANSAS,ZDV,RNAV,01/12/2016
AMNIP,41.943863888888885,-100.28983888888888,NEBRASKA,ZDV,RNAV,05/30/2010
AMOHO,40.66509722222222,-102.27902222222222,COLORADO,ZDV,WP,11/02/1998
AMUCK,40.34764444444445,-105.12089444444443,COLORADO,ZDV,RNAV,09/22/2012
AMUYO,40.31518888888888,-103.20107222222222,COLORADO,ZDV,CN,07/16/2002
AMWAY,40.633297222222225,-103.18359722222223,COLORADO,ZDV,RP,GLD*VORTAC*305.84/101.50
ANCHR,40.470222222222226,-103.84971666666667,COLORADO,ZDV,RNAV,07/15/2014
ANDDY,39.919875,-106.64063611111112,COLORADO,ZDV,RNAV,12/11/2017
ANEAR,40.488550000000004,-107.59236388888888,COLORADO,ZDV,RNAV,04/06/2018
ANEBE,39.66081111111111,-99.24338333333334,KANSAS,ZDV,RNAV,01/12/2016
ANIUM,38.453775,-109.77618333333334,UTAH,ZDV,RP,HVE*VORTAC*071.80/43.60
ANNNE,39.516327777777775,-104.61978611111111,COLORADO,ZDV,MR,BKF*TACAN*143.73/13.00
ANOME,44.164480555555556,-103.12786388888888,SOUTH DAKOTA,ZDV,MR,RCA*TACAN*312.60/1.90
ANTEJ,39.531052777777774,-107.50542222222222,COLORADO,ZDV,RP,RIL*LD*078.46/11.08
ANUCE,40.41381388888889,-103.18252222222223,COLORADO,ZDV,RNAV,08/13/2012
APAYU,41.21545555555556,-103.39535000000001,NEBRASKA,ZDV,RP,SNY*VOR/DME*278.00/20.00
APOGE,44.17624444444444,-103.14822500000001,SOUTH DAKOTA,ZDV,MR,RCA*TACAN*310.00/3.00
APOKE,38.55871388888889,-106.81192777777777,COLORADO,ZDV,WP,07/18/1995
APORY,37.48710833333333,-109.48337222222223,UTAH,ZDV,RNAV,07/06/2011
APRUF,38.816088888888885,-104.68573888888889,COLORADO,ZDV,WP,11/02/1998
APUNE,40.21041944444445,-99.34924166666666,NEBRASKA,ZDV,RNAV,06/16/2015
APUUU,39.65546944444444,-103.95241111111112,COLORADO,ZDV,RNAV,11/22/2012
AQFAV,40.32593055555556,-100.43321944444445,NEBRASKA,ZDV,RNAV,10/03/2000
AQIMU,40.34997777777778,-101.46735,NEBRASKA,ZDV,RNAV,05/10/2007
AQULA,39.69304722222222,-106.57266944444444,COLORADO,ZDV,RP,RLG*VOR/DME*184.00/19.51
ARCHH,38.79956111111111,-109.57939722222221,UTAH,ZDV,RP,JNC*VOR/DME*232.32/40.00
ARCHY,40.00777222222222,-104.89156111111112,COLORADO,ZDV,RNAV,09/22/2012
ARCOT,44.865,-104.03,SOUTH DAKOTA,ZDV,RNAV,04/16/2002
ARDYN,36.748802777777776,-107.89151944444446,NEW MEXICO,ZDV,RP,RSK*VORTAC*075.80/10.00
AREND,39.65907222222222,-106.80101666666667,COLORADO,ZDV,RP,ESJ*LD*NE CRS/6.40
ARFEJ,42.17393611111111,-107.18072777777778,WYOMING,ZDV,RP,CKW*VOR/DME*020.47/30.85
AROGE,36.76674444444444,-111.41103055555556,ARIZONA,ZDV,RP,PGA*VOR/DME*156.89/10.00
ARRES,39.66235833333333,-104.52420555555555,COLORADO,ZDV,RP,DVV*VORTAC*153.57/14.68
ARTSS,40.39684444444445,-104.62926388888889,COLORADO,ZDV,RP,DCI*LD*169.81/3.74
ASETB,39.265525,-106.91449722222222,COLORADO,ZDV,CN,09/02/2008
ASETC,39.22190277777778,-106.90255,COLORADO,ZDV,CN,09/02/2008
ASETD,39.38676666666667,-106.90318333333335,COLORADO,ZDV,CN,09/02/2008
ASHBY,40.317238888888895,-102.00150833333333,NEBRASKA,ZDV,RP,AKO*VOR/DME*066.47/55.00
ASHLL,38.536975,-104.58046944444445,COLORADO,ZDV,RNAV,03/31/2016
ASUNE,38.18009722222222,-104.78474444444444,COLORADO,ZDV,RNAV,05/15/2013
ASUVE,44.34510277777778,-103.28261388888889,SOUTH DAKOTA,ZDV,RNAV,06/20/2005
ASYLM,38.53955555555555,-103.10361944444443,COLORADO,ZDV,RNAV,07/15/2014
ATCAY,40.35093333333334,-101.74386111111112,NEBRASKA,ZDV,RP,HCT*VORTAC*249.93/38.10
ATEMY,37.38650277777778,-108.535275,COLORADO,ZDV,RNAV,02/17/2006
ATETE,42.66025,-102.3838138888889,NEBRASKA,ZDV,RNAV,07/04/2009
ATFOW,38.48674444444445,-106.5924111111111,COLORADO,ZDV,CN,06/10/2002
AUTIM,40.75489722222222,-105.51153611111111,COLORADO,ZDV,RP,GLL*VOR/DME*276.28/46.30
AVEGA,36.56274722222222,-110.34072222222221,ARIZONA,ZDV,RNAV,05/03/2002
AVNEW,39.519038888888886,-104.42222222222223,COLORADO,ZDV,RP,FQF*VORTAC*127.00/13.79
AVUXE,39.1678,-108.79069166666666,COLORADO,ZDV,RNAV,06/05/2009
AVVVS,40.03550555555555,-104.76754444444444,COLORADO,ZDV,RP,DVV*VORTAC*314.00/10.72
AWACC,39.666405555555556,-106.74452777777778,COLORADO,ZDV,WP,11/02/1998
AWONE,39.016280555555554,-104.68537500000001,COLORADO,ZDV,RP,BRK*VOR/DME*322.57
AWRAW,39.573683333333335,-108.35377222222222,COLORADO,ZDV,RP,EKR*VOR/DME*198.95/35.63
AWUCO,38.305499999999995,-107.8386111111111,COLORADO,ZDV,RNAV,03/10/2009
AWUDE,39.600425,-107.27705277777778,COLORADO,ZDV,CN,07/16/2002
AWXIL,39.45527222222223,-108.00281944444444,COLORADO,ZDV,RNAV,09/20/2010
AXALY,40.251025,-102.35358333333333,COLORADO,ZDV,WP,11/02/1998
AXFAL,39.53192222222222,-107.41308611111111,COLORADO,ZDV,CN,07/16/2002
AXGEX,37.65566944444444,-111.08682222222222,UTAH,ZDV,RP,PGA*VOR/DME*008.57/46.73
AXIAL,40.33634444444445,-107.558125,COLORADO,ZDV,RP,CHE*VOR/DME*212.57/16.00
AXIBY,42.645075,-106.54884444444444,WYOMING,ZDV,RNAV,08/15/2008
AXOYA,38.437863888888884,-106.831375,COLORADO,ZDV,CN,08/16/2010
AXOYY,42.91768333333333,-103.01936388888889,NEBRASKA,ZDV,RNAV,06/29/2011
AXOZU,38.38761111111111,-107.20027777777779,COLORADO,ZDV,CN,06/08/2009
AXPUX,40.671905555555554,-101.77776666666666,NEBRASKA,ZDV,RNAV,05/10/2007
AXSEH,42.69213333333333,-102.35129722222221,NEBRASKA,ZDV,RNAV,08/22/2001
AYANI,41.912147222222224,-103.46931666666667,NEBRASKA,ZDV,RNAV,10/29/2007
AYAVA,36.86905,-111.43570833333334,ARIZONA,ZDV,RNAV,12/05/2007
AYAYI,42.07470277777778,-103.70136388888889,NEBRASKA,ZDV,RNAV,10/29/2007
AYAYO,41.20993611111111,-101.85097499999999,NEBRASKA,ZDV,RNAV,11/20/2012
AYEDY,38.963727777777784,-108.50883055555556,COLORADO,ZDV,RP,JNC*VOR/DME*098.32/14.46
AYEVA,42.57362222222223,-102.31530833333333,NEBRASKA,ZDV,RNAV,07/04/2009
AYNES,38.32367222222223,-104.22101666666667,COLORADO,ZDV,RP,PUB*VORTAC*071.78/10.00
AYOLE,41.14983333333333,-100.72239722222223,NEBRASKA,ZDV,RNAV,07/26/2013
AYUKA,41.33063333333334,-102.25709166666667,NEBRASKA,ZDV,RNAV,09/19/2008
AYULI,41.97241666666667,-102.53885277777778,NEBRASKA,ZDV,RNAV,11/27/2006
AYXAF,38.392827777777775,-107.19649444444445,COLORADO,ZDV,CN,06/08/2009
AYXOS,40.70603888888889,-101.58829999999999,NEBRASKA,ZDV,RNAV,06/13/2008
XBEEE,39.29644722222222,-104.83853333333333,COLORADO,ZDV,RNAV,06/05/2015
XBGIN,39.155875,-104.68116111111111,COLORADO,ZDV,RNAV,09/23/2012
XBOXX,39.19065833333333,-105.05712777777778,COLORADO,ZDV,RNAV,09/23/2012
XEPWY,44.02975277777778,-103.11065833333333,SOUTH DAKOTA,ZDV,RNAV,07/26/2013
XFROM,39.22194722222223,-104.66849166666667,COLORADO,ZDV,RNAV,09/23/2012
XJOIN,39.17209166666667,-104.94203055555556,COLORADO,ZDV,RNAV,09/23/2012
XLENT,39.171055555555554,-104.74596666666666,COLORADO,ZDV,RNAV,09/23/2012
XMAAK,39.488175,-105.02646666666666,COLORADO,ZDV,RNAV,09/24/2012
XOGSY,37.4039,-105.89211111111112,COLORADO,ZDV,RP,ALS*VORTAC*298.88
XOZSU,40.457836111111114,-107.84488888888889,COLORADO,ZDV,RP,CHE*VOR/DME*247.59/25.00
XPATH,39.20588611111111,-104.83484999999999,COLORADO,ZDV,RNAV,06/05/2015
XSTRA,39.290505555555555,-104.66755833333333,COLORADO,ZDV,RNAV,09/24/2012
XTREM,39.33942777777778,-106.9244388888889,COLORADO,ZDV,RP,ASE*LE*330.63/8.27
XUKAW,39.152055555555556,-108.67977222222223,COLORADO,ZDV,CN,07/05/2011
XWILL,39.281841666666665,-104.88056666666667,COLORADO,ZDV,RNAV,09/24/2012
XYOUU,39.5284,-105.02539166666666,COLORADO,ZDV,RNAV,09/24/2012
MABKY,40.35366388888889,-106.82384166666667,COLORADO,ZDV,RNAV,01/14/2009
MACKS,39.354225,-108.94638055555556,COLORADO,ZDV,RP,JNC*VOR/DME*322.95/19.06
MACOW,38.048141666666666,-103.52832777777778,COLORADO,ZDV,CN,12/21/1999
MACUV,44.04988611111111,-101.60620277777777,SOUTH DAKOTA,ZDV,RP,PHP*VOR/DME*089.27/2.56
MAFMU,39.25644444444445,-106.87566944444444,COLORADO,ZDV,RP,DBL*VOR/DME*163.38/11.00
MAFNU,37.266358333333336,-104.32918333333333,COLORADO,ZDV,CN,12/21/1999
MAGBV,41.80428055555555,-107.18127222222223,WYOMING,ZDV,CN,05/09/2003
MAGIH,40.01671666666667,-105.04800833333333,COLORADO,ZDV,CN,01/07/2000
MAGRY,40.454033333333335,-99.32866388888888,NEBRASKA,ZDV,RP,EAR*VOR*212.35
MAIMS,42.99783333333333,-100.41022222222223,SOUTH DAKOTA,ZDV,RNAV,01/22/2015
MAMUE,42.860236111111114,-106.51839166666666,WYOMING,ZDV,RP,DDY*VOR/DME*/17.45
MANCA,37.274338888888884,-108.25286388888888,COLORADO,ZDV,RP,RSK*VORTAC*332.83/32.37
MANND,39.97509166666667,-105.01060555555556,COLORADO,ZDV,MR,BKF*TACAN*315.45/20.00
MANUL,36.787866666666666,-107.35540555555555,NEW MEXICO,ZDV,RP,RSK*VORTAC*072.00
MAPLN,37.429516666666665,-105.86438333333332,COLORADO,ZDV,RP,ALS*VORTAC*321.14/5.35
MAPPP,40.44860555555555,-105.00252777777777,COLORADO,ZDV,RP,GLL*VOR/DME*248.00/20.85
MAPRB,38.53468611111111,-106.93465555555557,COLORADO,ZDV,CN,03/10/2003
MAPRN,40.050599999999996,-106.37341388888888,COLORADO,ZDV,RP,RLG*VOR/DME*033.94/4.29
MAPSB,40.15921111111111,-105.16267500000001,COLORADO,ZDV,CN,03/10/2003
MAPSN,39.54037222222222,-107.73451388888888,COLORADO,ZDV,RP,RIL*VOR/DME*306.26/1.00
MAPSY,37.98270277777778,-108.02505555555555,COLORADO,ZDV,RP,ETL*VOR/DME*095.23/11.60
MARKE,37.05589722222222,-108.06468888888888,COLORADO,ZDV,RP,RSK*VORTAC*351.10/18.50
MARKL,41.356744444444445,-104.66561944444445,WYOMING,ZDV,RP,CYS*VORTAC*016.00/10.00
MARSS,42.46358888888889,-100.60425555555555,NEBRASKA,ZDV,RP,ANW*VOR/DME*248.14/27.99
MARYJ,43.14365,-103.51133888888889,SOUTH DAKOTA,ZDV,RP,TST*VOR/DME*333.00/36.17
MARZH,42.93615833333333,-101.97289444444445,NEBRASKA,ZDV,RNAV,07/28/2008
MASBI,39.36415,-107.0664361111111,COLORADO,ZDV,RP,11/03/1993
MASHD,39.21550833333334,-104.56369444444444,COLORADO,ZDV,RNAV,05/07/2013
MASSA,37.2495,-105.82787499999999,COLORADO,ZDV,RP,ALS*VORTAC*172.65/6.00
MCJEF,40.086575,-102.00568611111112,NEBRASKA,ZDV,RP,GLD*VORTAC*329.00
MCMUL,39.73807777777778,-104.81027499999999,COLORADO,ZDV,RNAV,03/25/2012
MEBNE,38.52108888888889,-106.99396666666667,COLORADO,ZDV,RP,HBU*VOR/DME*013.57
MEDAG,36.59823611111111,-110.18520555555556,ARIZONA,ZDV,RNAV,05/03/2002
MEILE,41.688138888888886,-103.35178333333333,NEBRASKA,ZDV,RP,BFF*VORTAC*141.64/13.67
MEKWY,40.667227777777775,-107.53448333333333,COLORADO,ZDV,RP,CHE*VOR/DME*296.13/13.71
MELVL,39.813913888888884,-107.13171944444444,COLORADO,ZDV,RP,DBL*VOR/DME*322.00/25.00
MELVN,40.10620277777778,-105.045475,COLORADO,ZDV,RNAV,10/25/2013
MERKL,39.58751388888889,-104.69963055555556,COLORADO,ZDV,RP,DXU*LD*172.51/18.66
MERTZ,38.28378611111111,-104.64699722222223,COLORADO,ZDV,RNAV,09/02/2012
MERYN,40.03339722222222,-104.6944888888889,COLORADO,ZDV,RP,DQQ*LD*352.51/8.07
MESME,39.51913611111111,-104.66739722222222,COLORADO,ZDV,RNAV,07/15/2008
METVY,38.324558333333336,-106.78329444444444,COLORADO,ZDV,RNAV,08/16/2010
MEXIE,43.954772222222225,-102.8674611111111,SOUTH DAKOTA,ZDV,MR,RCA*TACAN*/15.00
MEYRS,38.47965833333333,-107.46275833333334,COLORADO,ZDV,RP,HBU*VOR/DME*260.86/20.00
MIDAY,38.571155555555556,-104.71617777777779,COLORADO,ZDV,RP,PUB*VORTAC*312.93/21.41
MIDGE,44.44940833333333,-105.84827777777777,WYOMING,ZDV,RP,CZI*VOR/DME*030.01
MIDTN,40.4904,-107.34158333333333,COLORADO,ZDV,RNAV,11/17/2014
MILKY,41.405119444444445,-105.14443611111112,WYOMING,ZDV,RP,LAR*VOR/DME*067.00
MILLA,39.29557777777777,-107.63124444444443,COLORADO,ZDV,RP,JNC*VOR/DME*060.00/56.00
MIPAE,40.75547777777778,-106.27343611111111,COLORADO,ZDV,RNAV,04/07/2008
MIRXE,38.93116111111111,-108.41305000000001,COLORADO,ZDV,RP,JNC*VOR/DME*098.32/19.35
MISSY,36.49901111111111,-107.9071,NEW MEXICO,ZDV,RP,RSK*VORTAC*134.15/17.58
MIWSY,42.32078888888889,-104.24944722222223,WYOMING,ZDV,WP,11/02/1998
MIXTU,39.42885277777778,-102.37335833333333,COLORADO,ZDV,RNAV,12/06/2017
MLHOS,39.72681666666667,-104.39645555555556,COLORADO,ZDV,RNAV,11/23/2012
MMESA,39.7648,-103.92875000000001,COLORADO,ZDV,RNAV,11/23/2012
MNNOW,40.78629166666666,-100.65861111111111,NEBRASKA,ZDV,RNAV,09/25/2012
MOBDE,39.25474722222222,-106.93003611111112,COLORADO,ZDV,RNAV,07/13/2009
MOBNE,44.37702222222222,-103.2856361111111,SOUTH DAKOTA,ZDV,RNAV,05/09/2011
MOCTU,41.19842499999999,-104.55273333333334,WYOMING,ZDV,RP,CYS*VORTAC*081.24/10.00
MOGAL,39.125413888888886,-104.685175,COLORADO,ZDV,RP,BRK*VOR/DME*339.45/11.11
MOGLS,39.66610555555555,-104.9647638888889,COLORADO,ZDV,RNAV,09/22/2012
MOIST,41.65844444444444,-105.12153055555555,WYOMING,ZDV,RP,MBW*VOR/DME*092.00
MOKME,40.06071111111111,-104.1538,COLORADO,ZDV,RNAV,09/23/2012
MOLSN,39.89037222222222,-105.47045,COLORADO,ZDV,RNAV,11/23/2012
MOLTN,40.74649166666667,-105.6969888888889,COLORADO,ZDV,RNAV,09/22/2012
MONRK,38.06911111111111,-106.27219444444444,COLORADO,ZDV,RNAV,09/22/2012
MORYU,39.049838888888885,-106.27166944444444,COLORADO,ZDV,RNAV,02/09/2018
MOTLY,44.76400833333334,-102.42867777777778,SOUTH DAKOTA,ZDV,RNAV,03/08/2011
MOYWO,38.574872222222226,-108.17267222222223,COLORADO,ZDV,RNAV,03/20/2009
MOZCA,40.49263888888889,-107.54900277777777,COLORADO,ZDV,RNAV,04/06/2018
MRENE,40.00745277777778,-103.85899166666665,COLORADO,ZDV,RNAV,12/28/2012
MRKKO,37.28098055555555,-106.08516666666667,COLORADO,ZDV,RP,ALS*VORTAC*239.52/13.54
MRKUS,39.29575555555555,-104.46749444444444,COLORADO,ZDV,MR,BKF*TACAN*143.71/28.00
MRRAY,40.72717222222222,-101.0205,NEBRASKA,ZDV,RNAV,09/25/2012
MSIMS,39.748533333333334,-104.50172222222223,COLORADO,ZDV,RNAV,03/25/2012
MTSUI,39.60075,-105.4892888888889,COLORADO,ZDV,RNAV,11/23/2012
MUDDY,43.900502777777774,-102.96360833333334,SOUTH DAKOTA,ZDV,RP,RAP*VORTAC*141.98/5.00
MUGBE,39.910380555555555,-104.90230000000001,COLORADO,ZDV,RNAV,11/23/2012
MULIE,44.00496388888889,-102.89583055555556,SOUTH DAKOTA,ZDV,MR,RCA*TACAN*119.00/12.00
MULLI,42.174,-104.66770000000001,WYOMING,ZDV,RNAV,04/25/2012
MULTI,42.81115833333333,-106.21479722222223,WYOMING,ZDV,RP,DDY*VOR/DME*158.70/17.00
MURFE,39.13816944444444,-105.49111388888889,COLORADO,ZDV,RP,BRK*VOR/DME*278.42/41.74
MURME,36.718022222222224,-108.44935277777778,NEW MEXICO,ZDV,RP,RSK*VORTAC*249.97/17.00
MUSOE,39.60834444444445,-104.69530555555556,COLORADO,ZDV,MR,BKF*TACAN*147.97/6.50
MUYDO,40.94381111111111,-100.69765555555556,NEBRASKA,ZDV,RNAV,07/26/2013
MYALE,39.83782222222222,-105.01248333333334,COLORADO,ZDV,RNAV,11/23/2012
LAAAK,40.028575,-104.62189444444444,COLORADO,ZDV,RNAV,03/22/2012
LACID,39.56135555555555,-107.28926388888888,COLORADO,ZDV,RNAV,09/20/2010
LADDA,39.870422222222224,-104.55700833333333,COLORADO,ZDV,RNAV,09/23/2012
LAGIY,44.12315,-103.64729444444446,SOUTH DAKOTA,ZDV,RNAV,05/23/2011
LAGOZ,41.24469444444445,-103.35784722222222,NEBRASKA,ZDV,RNAV,10/17/2011
LAGPE,42.67431111111111,-106.7602,WYOMING,ZDV,CN,02/09/2012
LAMAR,38.56816666666667,-103.39229722222223,COLORADO,ZDV,RP,LAA*VOR/DME*292.00/40.00
LAMZY,37.959072222222225,-102.71432222222222,COLORADO,ZDV,RNAV,02/16/2006
LANDR,40.357572222222224,-104.00296388888889,COLORADO,ZDV,RP,DVV*VORTAC*037.66/39.85
LARKS,39.257397222222224,-105.3051611111111,COLORADO,ZDV,RP,BRK*VOR/DME*293.08
LARVE,39.04796944444444,-109.94323055555556,UTAH,ZDV,RNAV,11/06/2002
LASCH,39.44300555555555,-106.33116666666666,COLORADO,ZDV,RNAV,02/09/2018
LASEC,39.64810555555555,-99.93244166666668,KANSAS,ZDV,RNAV,08/18/2010
LASGE,36.69812222222222,-108.3440611111111,NEW MEXICO,ZDV,RNAV,04/04/2005
LASSS,39.91098611111111,-104.43144166666667,COLORADO,ZDV,RNAV,11/23/2012
LASTE,39.64644166666667,-104.71724166666667,COLORADO,ZDV,MR,BKF*TACAN*147.97/4.00
LASXE,40.56772777777778,-105.06657777777778,COLORADO,ZDV,RNAV,03/20/2009
LAWNG,39.8367,-104.89239166666667,COLORADO,ZDV,RNAV,10/08/2014
LAWSN,39.51779722222222,-106.47625277777777,COLORADO,ZDV,RP,DBL*VOR/DME*064.27/20.00
LAXLY,38.857441666666666,-104.71585,COLORADO,ZDV,RNAV,04/01/2016
LAYCE,40.06175833333333,-103.8593361111111,COLORADO,ZDV,RNAV,11/09/2015
LAYLA,38.533563888888885,-103.62120555555555,COLORADO,ZDV,RNAV,09/23/2012
LAZON,38.069855555555556,-107.25149722222223,COLORADO,ZDV,RP,HBU*VOR/DME*190.00/25.00
LBASN,39.48898611111111,-105.3036361111111,COLORADO,ZDV,RNAV,09/22/2012
LDORA,39.36017777777778,-104.78834444444445,COLORADO,ZDV,RNAV,09/22/2012
LEARR,39.383041666666664,-104.51101944444444,COLORADO,ZDV,RNAV,11/23/2012
LEBME,40.050038888888885,-107.88725833333334,COLORADO,ZDV,RNAV,07/31/2003
LECET,39.51503888888889,-104.84828055555555,COLORADO,ZDV,RP,APA*LD*169.95/4.31
LEDSE,42.01626666666667,-103.78113333333333,NEBRASKA,ZDV,RP,RMT*LD*NW CRS/12.79
LEDVE,37.46008611111112,-108.67877777777778,COLORADO,ZDV,RP,CEZ*VOR/DME*293.00/7.00
LEERI,38.69305555555555,-104.16805555555555,COLORADO,ZDV,RNAV,01/05/2005
LEETS,39.980291666666666,-104.68584166666668,COLORADO,ZDV,RP,LTT*LD*352.51/4.82
LEGIC,40.54319722222222,-99.31720277777778,NEBRASKA,ZDV,RNAV,01/22/2007
LENNN,39.72083888888889,-104.92880555555556,COLORADO,ZDV,RNAV,11/23/2012
LESIY,42.77478333333333,-100.09425555555555,NEBRASKA,ZDV,RNAV,04/16/2008
LEWOY,40.53087222222222,-103.23006111111111,COLORADO,ZDV,RNAV,04/13/2012
LIBEL,40.512372222222226,-105.1027861111111,COLORADO,ZDV,RP,GLL*VOR/DME*258.34/25.17
LIBIE,40.60124166666667,-103.67063055555556,COLORADO,ZDV,RP,BFF*VORTAC*173.34/78.00
LIBNE,38.918191666666665,-100.76845,KANSAS,ZDV,RNAV,06/08/2006
LIDIC,40.32160833333334,-100.11656111111111,NEBRASKA,ZDV,RP,MCK*VOR/DME*064.00/23.05
LIFTT,39.452980555555555,-106.97892222222222,COLORADO,ZDV,RP,DBL*VOR/DME*269.82/4.00
LILXO,39.53816944444444,-107.05456666666666,COLORADO,ZDV,RP,SXW*VOR/DME*196.28/6.22
LIMEX,39.696263888888886,-103.93180555555556,COLORADO,ZDV,RP,GLL*VOR/DME*136.22/56.24
LIMGE,41.07833611111111,-100.69425,NEBRASKA,ZDV,RNAV,07/26/2013
LINDZ,39.38876388888889,-107.15791666666668,COLORADO,ZDV,RP,SXW*VOR/DME*196.28
LINGR,39.94249722222222,-104.90126944444445,COLORADO,ZDV,RNAV,06/20/2013
LINTE,40.02692222222222,-104.74540555555555,COLORADO,ZDV,RNAV,03/22/2012
LIPKE,40.25669722222222,-104.49495555555556,COLORADO,ZDV,RNAV,09/24/2012
LIPPS,39.879416666666664,-104.98699166666667,COLORADO,ZDV,RP,FQF*VORTAC*292.95
LIRCI,41.33099722222222,-105.69650277777778,WYOMING,ZDV,RNAV,04/12/2006
LITER,41.51172777777778,-104.45393333333334,WYOMING,ZDV,RP,SNY*VOR/DME*278.00
LLADN,44.542319444444445,-104.60367777777778,WYOMING,ZDV,RNAV,02/12/2014
LNCER,44.87888888888889,-105.96916666666667,WYOMING,ZDV,RNAV,07/17/2015
LOADD,39.41014166666667,-104.58816666666667,COLORADO,ZDV,RNAV,11/23/2012
LOCAT,39.51903611111111,-107.54147222222223,COLORADO,ZDV,RP,RIL*LD*E CRS/9.30
LOCKD,39.306711111111106,-104.77904166666667,COLORADO,ZDV,RNAV,11/23/2012
LODHY,43.323122222222224,-103.41424722222223,SOUTH DAKOTA,ZDV,RNAV,04/04/2012
LODOE,40.08325277777778,-104.94300277777778,COLORADO,ZDV,RNAV,11/23/2012
LOGBY,37.65278055555555,-105.96218055555556,COLORADO,ZDV,RNAV,07/31/2017
LOGIY,39.37452777777778,-101.04882222222221,KANSAS,ZDV,RNAV,07/21/2008
LOHII,39.800552777777774,-104.90252500000001,COLORADO,ZDV,RNAV,06/20/2013
LOLME,38.165372222222224,-102.67014444444445,COLORADO,ZDV,RNAV,04/22/2003
LOMMA,39.28081666666667,-108.8112111111111,COLORADO,ZDV,RP,JNC*VOR/DME*341.25/13.29
LONGS,39.729641666666666,-104.84127222222222,COLORADO,ZDV,RNAV,09/22/2012
LOOLU,39.87872222222222,-104.84653888888889,COLORADO,ZDV,RNAV,03/22/2012
LOOOK,39.638597222222224,-104.93134166666667,COLORADO,ZDV,RNAV,09/22/2012
LOOVE,39.838258333333336,-106.66289722222223,COLORADO,ZDV,RNAV,12/11/2017
LOPEC,38.09266111111111,-106.85922777777778,COLORADO,ZDV,RP,RSK*VORTAC*021.96/100.00
LORIN,40.52118611111111,-107.08635,COLORADO,ZDV,RP,CHE*VOR/DME*075.55/10.00
LORYI,41.09131666666667,-104.73465555555556,WYOMING,ZDV,RNAV,04/17/2018
LOVIY,38.107144444444444,-102.68264722222223,COLORADO,ZDV,RNAV,02/16/2006
LOWRE,39.688830555555555,-104.85632222222222,COLORADO,ZDV,RNAV,09/23/2012
LOYYD,39.16145833333333,-107.4036638888889,COLORADO,ZDV,RNAV,08/29/2016
LOZUL,38.80542222222222,-106.10416111111111,COLORADO,ZDV,RP,HBU*VOR/DME*050.00/48.82
LPORT,40.58226388888889,-104.95206666666667,COLORADO,ZDV,RP,GLL*VOR/DME*271.57
LRAIN,36.517830555555555,-110.58665277777777,ARIZONA,ZDV,RP,TBC*VORTAC*039.14/40.75
LSKMO,39.641197222222225,-106.9264388888889,COLORADO,ZDV,RNAV,12/11/2017
LUCII,40.307449999999996,-102.45986111111111,COLORADO,ZDV,RNAV,02/21/2018
LUDYE,40.381005555555554,-106.98146666666666,COLORADO,ZDV,RP,CHE*VOR/DME*105.27/17.00
LUFSE,39.213772222222225,-104.38434444444445,COLORADO,ZDV,RP,PUB*VORTAC*354.19/55.16
LUISS,38.219575,-106.23940833333333,COLORADO,ZDV,RP,ALS*VORTAC*326.00/55.93
LUNTT,44.255833333333335,-105.09777777777778,WYOMING,ZDV,RNAV,07/26/2017
LUPTN,39.99734166666667,-103.9227138888889,COLORADO,ZDV,RNAV,11/23/2012
LURIY,42.083286111111114,-102.85063055555555,NEBRASKA,ZDV,RNAV,11/27/2006
LUWEE,39.91871944444444,-104.68655555555556,COLORADO,ZDV,RP,LTT*LD*352.51/1.13
LUXXE,41.26791388888889,-99.50570277777778,NEBRASKA,ZDV,RNAV,07/08/2008
LUYEL,37.763708333333334,-105.80095277777778,COLORADO,ZDV,RNAV,06/07/2006
LYMPS,41.41648055555555,-106.05942499999999,WYOMING,ZDV,RP,LAR*VOR/DME*273.26/16.00
LYNKN,39.04448333333333,-103.18633055555556,COLORADO,ZDV,RNAV,09/26/2012
LYSSA,37.11633333333334,-105.84429722222222,COLORADO,ZDV,RP,ALS*VORTAC*172.65/14.02
LYZZA,38.39013333333333,-107.91279166666668,COLORADO,ZDV,RP,MTJ*VOR/DME*173.22/7.00
LYZZY,39.64764722222222,-104.71331944444445,COLORADO,ZDV,MR,BKF*TACAN*/4.01
YAKIY,39.16677222222222,-102.45669722222223,COLORADO,ZDV,RP,GLD*VORTAC*237.83/38.00
YALES,40.79433888888889,-104.739,COLORADO,ZDV,RP,DEN*VOR/DME*348.53/58.98
YAMMI,40.764941666666665,-105.06800833333332,COLORADO,ZDV,RP,DEN*VOR/DME*334.00/60.09
YAMNA,41.30154722222222,-99.62660833333332,NEBRASKA,ZDV,CN,12/04/2014
YANKI,41.52751111111111,-100.73472222222222,NEBRASKA,ZDV,RP,ONL*VORTAC*229.00/107.66
YARUB,38.22193055555556,-107.64225555555556,COLORADO,ZDV,RNAV,03/20/2009
YATUY,39.49118333333333,-107.82378888888888,COLORADO,ZDV,CN,11/08/2010
YAVUC,43.94959166666666,-102.98773055555556,SOUTH DAKOTA,ZDV,RP,RAP*LD*143.83/7.26
YEARR,41.35505277777778,-99.57615555555556,NEBRASKA,ZDV,RNAV,07/08/2008
YEBVI,39.622083333333336,-101.04664722222222,KANSAS,ZDV,RNAV,07/21/2008
YECTU,38.56319722222222,-107.892875,COLORADO,ZDV,RNAV,03/20/2009
YEGUS,41.06724722222223,-107.4016888888889,WYOMING,ZDV,RNAV,08/10/2017
YEKUS,41.70718333333333,-105.92658055555556,WYOMING,ZDV,RP,MBW*VOR/DME*143.17/9.00
YELUR,40.20998055555556,-102.85889444444445,COLORADO,ZDV,RNAV,01/18/2017
YESUS,41.038866666666664,-100.21050833333334,NEBRASKA,ZDV,RP,LBF*VOR/DME*080.21/24.37
YETUP,40.64352777777778,-99.294825,NEBRASKA,ZDV,RNAV,01/22/2007
YEVJO,39.22779722222222,-108.61135277777777,COLORADO,ZDV,CN,07/05/2011
YEYUC,41.11770277777778,-101.84509444444444,NEBRASKA,ZDV,RNAV,11/20/2012
YIDUR,41.363730555555556,-107.06456944444444,WYOMING,ZDV,RNAV,04/04/2011
YIKLO,36.409461111111106,-109.87146388888888,ARIZONA,ZDV,RP,TBC*VORTAC*060.31/70.00
YIMZO,40.115186111111115,-104.25188055555556,COLORADO,ZDV,RP,GLL*VOR/DME*136.23/27.10
YIRDU,39.45455277777778,-108.01785833333334,COLORADO,ZDV,RNAV,03/13/2008
YIVSU,43.58930277777778,-103.269125,SOUTH DAKOTA,ZDV,RNAV,04/26/2012
YIWZE,42.832972222222224,-106.55398055555555,WYOMING,ZDV,RNAV,08/14/2008
YOBRO,40.13204722222222,-100.05557499999999,NEBRASKA,ZDV,RNAV,03/21/2016
YOBUB,39.86156388888889,-104.90173333333334,COLORADO,ZDV,RNAV,11/24/2012
YOBUP,40.46766111111111,-107.76115,COLORADO,ZDV,RP,CHE*VOR/DME*247.59/21.12
YOBUT,38.53405,-106.0175888888889,COLORADO,ZDV,RNAV,01/30/2008
YODUB,39.532183333333336,-107.4450138888889,COLORADO,ZDV,RP,RIL*LD*078.46/13.88
YOGFY,41.19956944444444,-103.7352361111111,NEBRASKA,ZDV,RNAV,10/24/2011
YOKES,40.576933333333336,-104.23726111111111,COLORADO,ZDV,RP,DEN*VOR/DME*014.88/49.80
YOKUY,38.39461111111111,-105.27187777777777,COLORADO,ZDV,RNAV,01/10/2013
YONDR,40.26665833333333,-104.1260361111111,COLORADO,ZDV,RP,GLL*VOR/DME*112.86
YORRO,39.34496666666667,-107.39347777777779,COLORADO,ZDV,RNAV,09/20/2010
YORVT,39.75661111111111,-104.76627222222223,COLORADO,ZDV,RNAV,11/24/2012
YOSUS,40.53252777777778,-102.24331111111111,COLORADO,ZDV,RNAV,08/23/2005
YOVCU,39.148575,-108.73959444444445,COLORADO,ZDV,RNAV,07/05/2011
YOZLE,41.02590555555555,-99.65159722222222,NEBRASKA,ZDV,RP,LBF*VOR/DME*080.21/49.76
YUBVU,37.20940277777778,-104.40019722222223,COLORADO,ZDV,RNAV,11/01/2013
YUKUR,44.090988888888894,-102.95199166666667,SOUTH DAKOTA,ZDV,RNAV,07/26/2013
YUNGS,44.41148888888889,-103.24564166666667,SOUTH DAKOTA,ZDV,RP,RAP*VORTAC*326.00/28.00
YUNGU,40.44902222222222,-107.13920833333334,COLORADO,ZDV,RP,CHE*VOR/DME*105.27/8.70
YURUK,40.44682777777778,-104.62050555555555,COLORADO,ZDV,RP,GLL*VOR/DME*209.12/4.61
YURVE,37.594883333333335,-108.74195,COLORADO,ZDV,RP,CEZ*VOR/DME*311.05/15.00
UBAYU,42.05746944444444,-102.94620277777778,NEBRASKA,ZDV,RNAV,01/03/2007
UBBUF,37.06683055555556,-105.94373888888889,COLORADO,ZDV,RP,ALS*VORTAC*187.00/18.00
UBODE,42.083975,-104.60425833333333,WYOMING,ZDV,RNAV,04/23/2012
UCEPO,37.08576666666667,-107.81644722222222,COLORADO,ZDV,RNAV,10/27/2008
UCHOZ,42.95037222222223,-102.84916944444444,NEBRASKA,ZDV,RNAV,07/25/2005
UCIGA,41.26307777777778,-107.46915555555556,WYOMING,ZDV,RNAV,08/10/2017
UCISE,39.26866111111111,-106.8825611111111,COLORADO,ZDV,RNAV,09/03/2008
UCUTI,40.48853611111111,-102.27756666666667,COLORADO,ZDV,WP,11/02/1998
UDEGE,41.471091666666666,-99.05193055555556,NEBRASKA,ZDV,RNAV,08/21/2015
UFVOD,42.05634166666666,-100.80312222222221,NEBRASKA,ZDV,RNAV,05/30/2010
UGEYU,38.44474444444444,-107.89240277777779,COLORADO,ZDV,RNAV,03/20/2009
UHIKI,38.67388888888889,-106.09138888888889,COLORADO,ZDV,RNAV,08/04/2014
UJOPO,40.80285,-99.08334444444444,NEBRASKA,ZDV,RNAV,08/09/2012
UJYOY,37.58416944444445,-105.6162111111111,COLORADO,ZDV,RP,ALS*VORTAC*021.00/17.00
UKDAW,39.51654444444444,-101.04757777777778,KANSAS,ZDV,RNAV,08/26/2008
UNCEE,40.45274444444445,-104.75110833333333,COLORADO,ZDV,RNAV,07/03/2014
UNLAP,37.22089444444445,-108.04620277777778,COLORADO,ZDV,RP,RSK*VORTAC*351.10/28.43
UPZIV,38.48945277777778,-105.26815833333333,COLORADO,ZDV,RNAV,01/10/2013
USDEQ,39.79393611111111,-104.52423611111111,COLORADO,ZDV,RP,FZR*LD*351.99/0.34
USETY,43.00392222222222,-101.56458611111111,SOUTH DAKOTA,ZDV,RNAV,05/03/2016
USOPE,40.657469444444445,-99.40276944444444,NEBRASKA,ZDV,RNAV,01/22/2007
UTUCA,41.233200000000004,-102.85629444444444,NEBRASKA,ZDV,RP,SNY*VOR/DME*022.00/10.00
UVTUH,39.82226388888889,-106.93473055555556,COLORADO,ZDV,RP,SXW*VOR/DME*000.72/11.85
UXAYU,36.19243888888889,-109.56233611111111,ARIZONA,ZDV,RNAV,12/07/2011
UYICA,39.89010277777778,-99.90868888888889,KANSAS,ZDV,RNAV,08/18/2010
UYICI,39.41971944444444,-107.59640277777777,COLORADO,ZDV,CN,11/08/2010
UYOGI,40.71455,-101.68141111111112,NEBRASKA,ZDV,RP,LBF*VOR/DME*234.08/47.00
UYOTU,39.22388611111111,-108.60683333333333,COLORADO,ZDV,CN,07/05/2011
UYPOF,39.227025000000005,-108.60829166666666,COLORADO,ZDV,CN,07/05/2011
UYRAG,40.522172222222224,-106.57271944444445,COLORADO,ZDV,RP,CHE*VOR/DME*075.55/33.50
UYRIG,39.53468055555555,-107.26233888888889,COLORADO,ZDV,RNAV,04/16/2009
UYUXI,39.15263611111111,-108.66908611111111,COLORADO,ZDV,CN,07/05/2011
UZIGO,39.24921111111111,-102.28853055555555,COLORADO,ZDV,WP,11/02/1998
KAASE,40.36729166666667,-99.35627777777778,NEBRASKA,ZDV,RNAV,01/22/2007
KAASH,40.404038888888884,-104.52003611111111,COLORADO,ZDV,RNAV,07/02/2014
KABFU,38.663688888888885,-100.99415555555555,KANSAS,ZDV,RNAV,08/04/2006
KABPE,37.52007777777778,-105.80182222222221,COLORADO,ZDV,RNAV,12/23/2008
KACTI,42.341944444444444,-104.28801944444444,WYOMING,ZDV,RP,BFF*VORTAC*294.00/44.91
KAGHU,38.87746111111111,-104.71582500000001,COLORADO,ZDV,RNAV,04/01/2016
KAILE,40.26343055555556,-104.76843611111111,COLORADO,ZDV,RNAV,09/22/2012
KAINN,39.495694444444446,-107.93984166666667,COLORADO,ZDV,RNAV,11/08/2010
KALHR,39.53346944444444,-104.70025,COLORADO,ZDV,RP,DXU*LD*172.51/21.90
KALME,39.68450277777777,-104.81167777777777,COLORADO,ZDV,RNAV,09/22/2012
KAMAT,40.349897222222225,-106.74781666666667,COLORADO,ZDV,RP,11/03/1993
KANDO,39.81287222222222,-103.74621388888889,COLORADO,ZDV,RP,TXC*VORTAC*273.78
KANON,38.39590277777778,-105.99182222222223,COLORADO,ZDV,RP,PUB*VORTAC*267.21/74.00
KARAS,44.273022222222224,-104.31378888888888,WYOMING,ZDV,RP,RAP*VORTAC*275.03/59.00
KAREC,39.169041666666665,-108.60648611111111,COLORADO,ZDV,RNAV,07/05/2011
KARNS,41.36231388888889,-99.5711861111111,NEBRASKA,ZDV,RP,CUZ*VOR/DME*135.86/9.03
KARVE,39.38768888888889,-104.6962638888889,COLORADO,ZDV,RNAV,03/19/2012
KASEC,40.219875,-103.47661388888889,COLORADO,ZDV,RNAV,11/09/2015
KATLN,40.944063888888884,-101.39291944444444,NEBRASKA,ZDV,RP,LBF*VOR/DME*247.14/30.00
KATTT,39.280541666666664,-104.50765277777778,COLORADO,ZDV,MR,BKF*TACAN*147.97/28.00
KAYGG,39.910222222222224,-104.14576944444445,COLORADO,ZDV,RNAV,11/23/2012
KAYOO,40.095394444444445,-104.75419166666667,COLORADO,ZDV,RNAV,11/23/2012
KD36Q,36.0,-110.0,ARIZONA,ZDV,NRS,04/06/2004
KD39Q,36.5,-110.0,ARIZONA,ZDV,NRS,04/06/2004
KD39S,36.5,-108.0,NEW MEXICO,ZDV,NRS,04/06/2004
KD42Q,37.0,-110.0,UTAH,ZDV,NRS,04/06/2004
KD42S,37.0,-108.0,COLORADO,ZDV,NRS,04/06/2004
KD42U,37.0,-106.0,COLORADO,ZDV,NRS,04/06/2004
KD45Q,37.5,-110.0,UTAH,ZDV,NRS,04/06/2004
KD45S,37.5,-108.0,COLORADO,ZDV,NRS,04/06/2004
KD45U,37.5,-106.0,COLORADO,ZDV,NRS,04/06/2004
KD45W,37.5,-104.0,COLORADO,ZDV,NRS,04/06/2004
KD48Q,38.0,-110.0,UTAH,ZDV,NRS,04/06/2004
KD48S,38.0,-108.0,COLORADO,ZDV,NRS,04/06/2004
KD48U,38.0,-106.0,COLORADO,ZDV,NRS,04/06/2004
KD48W,38.0,-104.0,COLORADO,ZDV,NRS,04/06/2004
KD48Y,38.0,-102.0,KANSAS,ZDV,NRS,04/06/2004
KD51S,38.5,-108.0,COLORADO,ZDV,NRS,04/06/2004
KD51U,38.5,-106.0,COLORADO,ZDV,NRS,04/06/2004
KD51W,38.5,-104.0,COLORADO,ZDV,NRS,04/06/2004
KD51Y,38.5,-102.0,KANSAS,ZDV,NRS,04/06/2004
KD54A,39.0,-100.0,KANSAS,ZDV,NRS,04/06/2004
KD54S,39.0,-108.0,COLORADO,ZDV,NRS,04/06/2004
KD54U,39.0,-106.0,COLORADO,ZDV,NRS,04/06/2004
KD54W,39.0,-104.0,COLORADO,ZDV,NRS,04/06/2004
KD54Y,39.0,-102.0,KANSAS,ZDV,NRS,04/06/2004
KD57A,39.5,-100.0,KANSAS,ZDV,NRS,04/06/2004
KD57Q,39.5,-110.0,UTAH,ZDV,NRS,04/06/2004
KD57S,39.5,-108.0,COLORADO,ZDV,NRS,04/06/2004
KD57U,39.5,-106.0,COLORADO,ZDV,NRS,04/06/2004
KD57W,39.5,-104.0,COLORADO,ZDV,NRS,04/06/2004
KD57Y,39.5,-102.0,KANSAS,ZDV,NRS,04/06/2004
KD60A,40.0,-100.0,KANSAS,ZDV,NRS,04/06/2004
KD60S,40.0,-108.0,COLORADO,ZDV,NRS,04/06/2004
KD60U,40.0,-106.0,COLORADO,ZDV,NRS,04/06/2004
KD60W,40.0,-104.0,COLORADO,ZDV,NRS,04/06/2004
KD60Y,40.0,-102.0,KANSAS,ZDV,NRS,04/06/2004
KD63A,40.5,-100.0,NEBRASKA,ZDV,NRS,04/06/2004
KD63S,40.5,-108.0,COLORADO,ZDV,NRS,04/06/2004
KD63U,40.5,-106.0,COLORADO,ZDV,NRS,04/06/2004
KD63W,40.5,-104.0,COLORADO,ZDV,NRS,04/06/2004
KD63Y,40.5,-102.0,NEBRASKA,ZDV,NRS,04/06/2004
KD66A,41.0,-100.0,NEBRASKA,ZDV,NRS,04/06/2004
KD66S,41.0,-108.0,COLORADO,ZDV,NRS,04/06/2004
KD66U,41.0,-106.0,WYOMING,ZDV,NRS,04/06/2004
KD66W,41.0,-104.0,COLORADO,ZDV,NRS,04/06/2004
KD66Y,41.0,-102.0,NEBRASKA,ZDV,NRS,04/06/2004
KD69A,41.5,-100.0,NEBRASKA,ZDV,NRS,04/06/2004
KD69S,41.5,-108.0,WYOMING,ZDV,NRS,04/06/2004
KD69U,41.5,-106.0,WYOMING,ZDV,NRS,04/06/2004
KD69W,41.5,-104.0,NEBRASKA,ZDV,NRS,04/06/2004
KD69Y,41.5,-102.0,NEBRASKA,ZDV,NRS,04/06/2004
KD72A,42.0,-100.0,NEBRASKA,ZDV,NRS,04/06/2004
KD72U,42.0,-106.0,WYOMING,ZDV,NRS,04/06/2004
KD72W,42.0,-104.0,NEBRASKA,ZDV,NRS,04/06/2004
KD72Y,42.0,-102.0,NEBRASKA,ZDV,NRS,04/06/2004
KD75A,42.5,-100.0,NEBRASKA,ZDV,NRS,04/06/2004
KD75U,42.5,-106.0,WYOMING,ZDV,NRS,04/06/2004
KD75W,42.5,-104.0,NEBRASKA,ZDV,NRS,04/06/2004
KD75Y,42.5,-102.0,NEBRASKA,ZDV,NRS,04/06/2004
KD78A,43.0,-100.0,SOUTH DAKOTA,ZDV,NRS,04/06/2004
KD78U,43.0,-106.0,WYOMING,ZDV,NRS,04/06/2004
KD78W,43.0,-104.0,NEBRASKA,ZDV,NRS,04/06/2004
KD78Y,43.0,-102.0,SOUTH DAKOTA,ZDV,NRS,04/06/2004
KD81U,43.5,-106.0,WYOMING,ZDV,NRS,04/06/2004
KD81W,43.5,-104.0,SOUTH DAKOTA,ZDV,NRS,04/06/2004
KD81Y,43.5,-102.0,SOUTH DAKOTA,ZDV,NRS,04/06/2004
KD84U,44.0,-106.0,WYOMING,ZDV,NRS,04/06/2004
KD84W,44.0,-104.0,SOUTH DAKOTA,ZDV,NRS,04/06/2004
KD84Y,44.0,-102.0,SOUTH DAKOTA,ZDV,NRS,04/06/2004
KD87U,44.5,-106.0,WYOMING,ZDV,NRS,04/06/2004
KD87W,44.5,-104.0,SOUTH DAKOTA,ZDV,NRS,04/06/2004
KD87Y,44.5,-102.0,SOUTH DAKOTA,ZDV,NRS,04/06/2004
KD90U,45.0,-106.0,MONTANA,ZDV,NRS,04/06/2004
KD90W,45.0,-104.0,SOUTH DAKOTA,ZDV,NRS,04/06/2004
KEBLR,38.862658333333336,-106.66994722222223,COLORADO,ZDV,RNAV,09/22/2012
KEBYE,37.06353055555555,-108.78846944444444,COLORADO,ZDV,RNAV,07/06/2011
KEDPE,42.31261388888888,-104.76578888888889,WYOMING,ZDV,RNAV,04/25/2012
KEEZR,38.46446111111111,-107.23615,COLORADO,ZDV,RP,HBU*VOR/DME*260.62/9.28
KEKXU,39.235458333333334,-100.94278333333334,KANSAS,ZDV,RNAV,07/21/2008
KELYG,39.83921111111111,-104.49533055555555,COLORADO,ZDV,RNAV,03/22/2012
KEMJO,42.97948888888889,-102.43546944444445,NEBRASKA,ZDV,RNAV,04/16/2008
KEOTA,43.73737222222222,-102.84194444444444,SOUTH DAKOTA,ZDV,RNAV,06/29/2012
KESSE,41.09064444444445,-102.54220277777777,NEBRASKA,ZDV,RP,SNY*VOR/DME*077.89/20.00
KETDE,40.9001,-100.0228361111111,NEBRASKA,ZDV,RNAV,03/23/2007
KETEC,40.014763888888886,-100.47218055555555,NEBRASKA,ZDV,RNAV,07/12/2005
KETNE,38.40247222222222,-107.30630555555555,COLORADO,ZDV,RNAV,06/08/2009
KETTH,39.83440277777778,-106.89330833333334,COLORADO,ZDV,RNAV,12/11/2017
KEVYE,40.63697777777778,-99.18333333333334,NEBRASKA,ZDV,RNAV,01/22/2007
KHEDA,41.06138055555555,-107.72170555555556,WYOMING,ZDV,RNAV,08/10/2017
KIBEY,39.296819444444445,-106.95810833333334,COLORADO,ZDV,RNAV,07/13/2009
KICER,39.38,-106.94391388888889,COLORADO,ZDV,RP,ASE*LE*327.63/10.90
KIDNG,39.81046388888888,-104.39432777777779,COLORADO,ZDV,RNAV,11/23/2012
KIISS,38.19342777777778,-101.44340277777778,KANSAS,ZDV,RNAV,07/17/2014
KIKME,40.032802777777775,-104.68523333333334,COLORADO,ZDV,RP,LTT*LD*352.51/7.97
KILEA,42.70688055555556,-100.7007888888889,NEBRASKA,ZDV,RNAV,01/22/2015
KILRE,40.84035555555556,-99.82605833333334,NEBRASKA,ZDV,RNAV,07/29/2004
KIMBL,39.80734722222222,-106.60025833333333,COLORADO,ZDV,RP,RLG*VOR/DME*197.94/13.79
KIMMR,39.22923333333333,-109.95836111111112,UTAH,ZDV,RNAV,03/23/2018
KINGO,37.92405833333333,-103.60900555555556,COLORADO,ZDV,RP,LAA*VOR/DME*237.74/46.63
KIPEY,40.38501111111111,-100.21011666666666,NEBRASKA,ZDV,RNAV,03/25/2016
KIPPR,40.34953333333333,-104.56333055555555,COLORADO,ZDV,RNAV,09/24/2012
KIPPY,39.07023055555556,-103.497275,COLORADO,ZDV,RP,DVV*VORTAC*124.99/72.00
KIQER,39.91960833333333,-103.07260833333333,COLORADO,ZDV,RNAV,01/18/2017
KIRLE,39.76098611111111,-107.09805,COLORADO,ZDV,RP,DBL*VOR/DME*322.00/21.47
KIVSE,42.92943611111111,-106.42784722222223,WYOMING,ZDV,RNAV,08/14/2008
KKIMM,40.30408333333333,-104.50026111111112,COLORADO,ZDV,RNAV,11/23/2012
KLASH,41.57320555555556,-106.74958611111111,WYOMING,ZDV,RP,CKW*VOR/DME*091.02/39.00
KLENX,41.42531111111111,-105.85471388888888,WYOMING,ZDV,RP,LAR*VOR/DME*297.00/8.00
KLING,40.339058333333334,-104.68217222222222,COLORADO,ZDV,RNAV,03/26/2012
KMBEL,39.80914722222222,-104.33178888888888,COLORADO,ZDV,RNAV,11/23/2012
KNNOX,40.491886111111114,-107.29035,COLORADO,ZDV,RNAV,11/17/2014
KNOSA,38.498916666666666,-106.26712222222223,COLORADO,ZDV,RNAV,09/22/2012
KNOXE,40.29250555555555,-102.2591361111111,COLORADO,ZDV,WP,11/02/1998
KNOXS,42.71981944444445,-106.69883055555556,WYOMING,ZDV,RP,DDY*VOR/DME*/29.00
KOALT,41.153555555555556,-104.77711111111111,WYOMING,ZDV,RP,CYS*VORTAC*170.16
KOBSE,41.94982777777778,-103.34296944444444,NEBRASKA,ZDV,RNAV,10/29/2007
KOCYE,44.36402777777778,-104.7290111111111,WYOMING,ZDV,RP,RAP*VORTAC*275.03/77.70
KODEE,41.685725,-99.10320277777777,NEBRASKA,ZDV,RNAV,06/11/2013
KODYS,36.743119444444446,-108.15345277777779,NEW MEXICO,ZDV,RNAV,05/16/2010
KOGTE,41.17943888888889,-105.49295833333333,WYOMING,ZDV,RNAV,04/12/2006
KOHOE,40.263075,-103.53535833333333,COLORADO,ZDV,RNAV,09/23/2012
KOKOO,40.25239166666667,-104.40375833333334,COLORADO,ZDV,RNAV,09/24/2012
KOORN,38.201150000000005,-102.63605277777778,COLORADO,ZDV,RNAV,09/24/2012
KOWTO,37.91161944444444,-102.96831944444445,COLORADO,ZDV,RP,LAA*VOR/DME*205.96/21.67
KRLNA,40.600769444444445,-104.9907,COLORADO,ZDV,RNAV,11/23/2012
KROHL,39.618605555555554,-104.59370833333332,COLORADO,ZDV,RNAV,02/03/2017
KROMM,40.784724999999995,-104.63978333333334,COLORADO,ZDV,RP,GLL*VOR/DME*333.79/17.30
KROWZ,37.31619166666666,-105.96005833333334,COLORADO,ZDV,RP,ALS*VORTAC*241.10
KUBRE,40.87741388888889,-103.18368055555555,COLORADO,ZDV,RNAV,08/13/2012
KUDGE,44.23613888888889,-103.19984722222223,SOUTH DAKOTA,ZDV,MR,RCA*TACAN*316.00/7.20
KUGLN,39.691536111111105,-104.75228888888888,COLORADO,ZDV,RNAV,03/25/2012
KUKMY,40.28465555555555,-103.47607222222223,COLORADO,ZDV,RNAV,01/18/2017
KURIQ,39.219658333333335,-102.274625,COLORADO,ZDV,RP,GLD*VORTAC*237.79
KURSE,42.07490555555556,-105.16004444444445,WYOMING,ZDV,RNAV,11/06/2002
KUSAC,38.68909166666666,-104.71605000000001,COLORADO,ZDV,RNAV,04/01/2016
KUSKY,37.846275000000006,-102.63166388888888,COLORADO,ZDV,RNAV,02/16/2006
KUTRE,42.389516666666665,-99.88336666666667,NEBRASKA,ZDV,RNAV,04/16/2008
KUURT,40.097183333333334,-104.68448611111111,COLORADO,ZDV,RP,LTT*LD*352.51/11.83
KUVSE,36.89303888888889,-107.77018333333334,NEW MEXICO,ZDV,RNAV,11/19/2002
KUVZU,42.13857222222222,-104.36628333333333,WYOMING,ZDV,WP,11/02/1998
KUYEL,40.95935555555556,-101.61214166666666,NEBRASKA,ZDV,RNAV,11/20/2012
KVERN,39.874858333333336,-104.34469444444444,COLORADO,ZDV,RNAV,12/01/2015
KWIKK,40.41940833333333,-104.59265555555555,COLORADO,ZDV,RNAV,07/03/2014
KYACK,39.323794444444445,-106.91695277777778,COLORADO,ZDV,RP,ASE*LE*330.63/7.30
RABET,40.261205555555556,-106.38903055555556,COLORADO,ZDV,RP,CHE*VOR/DME*096.00/44.00
RACCO,39.69326944444444,-99.72466388888888,KANSAS,ZDV,RNAV,08/18/2010
RACER,40.10810277777778,-108.88289722222221,COLORADO,ZDV,RP,JNC*VOR/DME*341.22
RADIO,37.689544444444444,-104.37624722222222,COLORADO,ZDV,RP,PUB*VORTAC*168.00/36.33
RAFTR,39.30346944444444,-106.90722500000001,COLORADO,ZDV,RP,ASE*LE*330.63/6.00
RALFF,42.873425,-101.89823055555556,NEBRASKA,ZDV,RNAV,07/28/2008
RALFI,39.97080555555556,-105.20031111111112,COLORADO,ZDV,RNAV,11/23/2012
RALPE,39.611650000000004,-106.97576666666667,COLORADO,ZDV,RNAV,06/08/2006
RAMMS,40.49355,-105.23881111111112,COLORADO,ZDV,RP,LAR*VOR/DME*142.42/55.17
RANKE,41.881747222222224,-103.9045,NEBRASKA,ZDV,RNAV,10/29/2007
RANPE,39.097208333333334,-99.89325555555556,KANSAS,ZDV,RNAV,11/03/2015
RAPDS,39.98523333333333,-105.32482777777777,COLORADO,ZDV,RNAV,11/23/2012
RASCO,37.17118055555555,-111.50155,UTAH,ZDV,RNAV,12/03/2007
RASPS,39.863911111111115,-102.89864722222222,COLORADO,ZDV,RNAV,03/19/2018
RAWAH,38.63758611111111,-106.09362499999999,COLORADO,ZDV,RNAV,09/22/2012
RAYDR,39.64754166666667,-104.58633611111111,COLORADO,ZDV,RNAV,11/23/2012
RAYME,40.561902777777775,-103.78325555555556,COLORADO,ZDV,RP,SNY*VOR/DME*215.92/48.55
RAYMN,39.31939444444445,-108.57181666666666,COLORADO,ZDV,RP,JNC*VOR/DME*018.40/18.67
RAZED,39.47332777777778,-101.72271944444445,KANSAS,ZDV,RNAV,09/27/2016
REAGN,44.466825,-103.48271111111112,SOUTH DAKOTA,ZDV,RNAV,02/11/2013
RECRD,39.41128611111111,-104.26866944444444,COLORADO,ZDV,RNAV,09/25/2012
REDHI,38.194177777777774,-104.2041,COLORADO,ZDV,RNAV,06/08/2006
REEFF,38.959522222222226,-104.48495,COLORADO,ZDV,RNAV,08/17/2010
REMAE,37.5161,-108.53111111111112,COLORADO,ZDV,RNAV,02/17/2006
RENAE,40.420575,-108.91028055555556,COLORADO,ZDV,RP,JNC*VOR/DME*341.00
RENRE,41.24075555555556,-104.99023611111112,WYOMING,ZDV,RP,CYS*VORTAC*267.37/10.00
RESER,36.913669444444444,-107.49054722222222,NEW MEXICO,ZDV,RP,RSK*VORTAC*057.14/30.93
REVME,40.57508888888889,-107.49883888888888,COLORADO,ZDV,RP,HDN*LD*283.72/15.03
REVNE,39.55393055555555,-107.34314166666667,COLORADO,ZDV,RNAV,09/20/2010
RGINA,36.463,-107.29603888888889,NEW MEXICO,ZDV,RP,RSK*VORTAC*099.55/42.39
RHILY,44.238925,-103.15273888888889,SOUTH DAKOTA,ZDV,RP,RAP*VORTAC*326.00/16.90
RHONE,39.17780277777778,-108.6224861111111,COLORADO,ZDV,RP,JNC*VOR/DME*033.20
RHYSS,36.205308333333335,-110.871175,ARIZONA,ZDV,RP,TBC*VORTAC*060.31/20.00
RIBOY,44.48466944444444,-103.52203333333333,SOUTH DAKOTA,ZDV,RNAV,02/11/2013
RICAS,39.66104166666666,-106.787875,COLORADO,ZDV,RP,VAZ*DD*NE CRS/7.02
RICCO,43.80809444444444,-107.041725,WYOMING,ZDV,RNAV,03/17/2011
RIDJE,40.518175,-105.63813333333334,COLORADO,ZDV,RP,LAR*VOR/DME*161.59/49.29
RIFMN,39.44790277777778,-109.76305833333333,UTAH,ZDV,RP,JNC*VOR/DME*282.54/50.87
RIFPU,39.52612222222222,-107.75101666666667,COLORADO,ZDV,RNAV,11/08/2010
RIKKK,40.78454444444444,-104.85019722222222,COLORADO,ZDV,RNAV,11/23/2012
RIKOC,39.24616666666667,-106.87983055555554,COLORADO,ZDV,RP,ASE*LE*330.63/2.34
RINDE,38.07445555555556,-102.5738361111111,COLORADO,ZDV,RNAV,04/22/2003
RINKR,40.19929722222222,-104.82630277777777,COLORADO,ZDV,RNAV,11/23/2012
RISHO,39.61260277777778,-98.97304166666667,KANSAS,ZDV,RP,TKO*VORTAC*240.84/35.00
RIVGE,36.74931388888889,-108.54197222222221,NEW MEXICO,ZDV,RNAV,11/19/2002
RIYNO,39.27760277777778,-107.72438611111112,COLORADO,ZDV,RP,JNC*VOR/DME*059.97/51.53
RIYOP,41.093561111111114,-102.74055277777778,NEBRASKA,ZDV,RP,SNY*VOR/DME*077.89/11.00
RIZAL,37.020519444444446,-108.17832777777778,COLORADO,ZDV,RP,RSK*VORTAC*332.83/16.75
RKYMT,39.40284722222222,-104.82915,COLORADO,ZDV,RNAV,11/23/2012
RNGLE,38.386605555555555,-106.96601666666668,COLORADO,ZDV,RNAV,06/08/2009
RNOLD,39.65553333333333,-104.69885000000001,COLORADO,ZDV,RP,DXU*LD*172.51/14.59
ROBIT,44.55049444444444,-104.15016944444444,WYOMING,ZDV,RNAV,08/03/2011
ROBVY,38.78294722222222,-106.10673888888888,COLORADO,ZDV,RNAV,11/01/2013
ROCCK,38.9447,-104.68550277777778,COLORADO,ZDV,RP,BRK*VOR/DME*262.29
ROCCS,39.42315555555555,-104.51840277777778,COLORADO,ZDV,RNAV,09/25/2012
ROCNO,44.178999999999995,-103.89327222222222,SOUTH DAKOTA,ZDV,RP,RAP*VORTAC*275.03/40.00
RODDS,37.204908333333336,-106.04599722222223,COLORADO,ZDV,RP,ALS*VORTAC*219.00/14.02
RODDY,38.35845833333333,-105.37904444444443,COLORADO,ZDV,RP,PUB*VORTAC*267.20/45.00
RODIE,42.99688333333334,-103.428475,NEBRASKA,ZDV,RNAV,11/06/2002
ROKXX,39.98130833333334,-104.97497777777778,COLORADO,ZDV,RNAV,10/08/2014
ROLAE,39.78775833333333,-104.82964444444444,COLORADO,ZDV,MR,BKF*TACAN*315.45/6.00
ROLFS,43.178044444444446,-100.83938611111111,SOUTH DAKOTA,ZDV,RNAV,11/01/2017
ROLQE,37.208933333333334,-108.71760555555555,COLORADO,ZDV,RNAV,01/16/2003
ROMBE,39.86808055555556,-104.90707777777779,COLORADO,ZDV,MR,BKF*TACAN*315.45/12.00
ROMLY,38.48993055555556,-106.72510833333334,COLORADO,ZDV,RP,HBU*VOR/DME*067.22/15.00
RONBE,38.863936111111116,-105.94658333333334,COLORADO,ZDV,RP,HBU*VOR/DME*050.00/57.00
RONNN,39.925244444444445,-104.90611944444446,COLORADO,ZDV,RNAV,03/22/2012
ROOLL,36.46053611111111,-111.48193888888889,ARIZONA,ZDV,RNAV,01/22/2016
ROOOL,40.07658055555556,-104.51711666666667,COLORADO,ZDV,RNAV,09/25/2012
ROTOR,42.04761111111111,-103.3946138888889,NEBRASKA,ZDV,RP,BFF*VORTAC*010.00/10.00
ROUGH,36.44649999999999,-109.68502777777778,ARIZONA,ZDV,RP,RSK*VORTAC*243.19/78.74
ROVEE,42.90958611111111,-106.40322222222223,WYOMING,ZDV,RNAV,08/14/2008
ROYYL,39.917630555555554,-104.40288055555556,COLORADO,ZDV,RNAV,11/23/2012
ROZEL,40.29994722222222,-100.72865833333333,NEBRASKA,ZDV,WP,HCT*VORTAC*124.90/12.90
RRIVR,39.719325000000005,-106.67102777777778,COLORADO,ZDV,RP,DBL*VOR/DME*019.65/19.73
RROSE,39.564125,-107.06894444444444,COLORADO,ZDV,RNAV,12/11/2017
RSDXF,40.26043888888889,-104.92379166666667,COLORADO,ZDV,CN,11/29/2011
RUGTE,41.963261111111116,-99.24572222222223,NEBRASKA,ZDV,RNAV,06/11/2013
RULER,43.883294444444445,-103.37607777777777,SOUTH DAKOTA,ZDV,RP,RAP*VORTAC*237.69/16.72
RUPYO,38.90218611111111,-100.87322777777777,KANSAS,ZDV,RNAV,06/08/2006
RUSOC,39.589761111111116,-107.79563888888889,COLORADO,ZDV,RP,RIL*VOR/DME*306.26/5.10
RUUSH,44.29611111111111,-102.83121666666666,SOUTH DAKOTA,ZDV,MR,RCA*TACAN*043.00/15.00
RUVAE,39.20443055555556,-106.92554444444445,COLORADO,ZDV,RNAV,09/03/2008
RYLIE,38.33731111111111,-101.82747777777777,KANSAS,ZDV,RP,GCK*VORTAC*285.00/57.90
GABEE,40.51040833333333,-99.26181111111111,NEBRASKA,ZDV,RP,EAR*VOR*212.35
GADVY,38.546013888888886,-106.85840833333333,COLORADO,ZDV,RNAV,08/16/2010
GAGPY,44.60463611111111,-103.76650277777777,SOUTH DAKOTA,ZDV,RNAV,06/05/2012
GAGSY,38.66471388888889,-100.88776944444444,KANSAS,ZDV,RNAV,08/04/2006
GAMAC,41.16498055555555,-103.56196666666666,NEBRASKA,ZDV,RNAV,10/14/2011
GANDI,44.526827777777775,-103.54158611111112,SOUTH DAKOTA,ZDV,MR,RCA*TACAN*313.00/30.00
GAPPY,40.29859444444444,-104.63596666666668,COLORADO,ZDV,RNAV,03/26/2012
GARBE,41.280005555555555,-105.61401111111111,WYOMING,ZDV,RP,LAR*VOR/DME*111.61/5.95
GASSS,39.87163888888889,-103.90979166666668,COLORADO,ZDV,RNAV,11/23/2012
GASTI,39.839866666666666,-104.57595555555555,COLORADO,ZDV,RP,FQF*VORTAC*002.05
GATTR,38.949475,-101.44750555555557,KANSAS,ZDV,RNAV,11/23/2012
GAUGE,37.293375,-104.29551944444444,COLORADO,ZDV,RNAV,07/21/2016
GECEV,39.573686111111115,-99.82631111111111,KANSAS,ZDV,RNAV,05/07/2013
GEDVE,42.78085,-102.99308611111111,NEBRASKA,ZDV,RNAV,06/28/2011
GEJYU,38.788291666666666,-107.68545,COLORADO,ZDV,RP,DBL*VOR/DME*211.67/53.73
GEKTE,36.75171666666667,-105.10608611111111,NEW MEXICO,ZDV,RNAV,11/01/2001
GEMKY,37.223330555555556,-106.311025,COLORADO,ZDV,RP,ALS*VORTAC*239.52/24.89
GENEC,39.29114444444444,-101.59516666666666,KANSAS,ZDV,RNAV,01/04/2011
GEPYE,40.83078611111112,-100.38783611111111,NEBRASKA,ZDV,RNAV,12/22/2005
GEREY,39.56982777777778,-101.51163611111112,KANSAS,ZDV,RNAV,01/04/2011
GERON,40.06387222222222,-102.99831944444445,COLORADO,ZDV,RP,AKO*VOR/DME*110.30/10.00
GERRO,37.37455833333333,-109.48347222222222,UTAH,ZDV,RNAV,09/19/2002
GESBE,41.83865,-103.71408611111111,NEBRASKA,ZDV,RNAV,10/29/2007
GIGDE,40.96286111111112,-102.80240277777777,COLORADO,ZDV,RNAV,11/27/2006
GILYE,44.29743611111111,-105.528775,WYOMING,ZDV,RP,LLT*LD*160.67/3.80
GINTH,39.937802777777776,-104.38441944444445,COLORADO,ZDV,RNAV,11/23/2012
GIPEC,42.82823055555556,-106.77473611111111,WYOMING,ZDV,RP,DDY*VOR/DME*222.48/27.00
GIRTH,40.248561111111115,-104.63658611111111,COLORADO,ZDV,RNAV,03/26/2012
GISEY,40.37860555555556,-103.83551666666666,COLORADO,ZDV,RNAV,11/09/2015
GISLE,37.52726111111111,-106.04433333333333,COLORADO,ZDV,RP,ALS*VORTAC*301.38/15.28
GISTT,39.765972222222224,-104.58363888888888,COLORADO,ZDV,RNAV,11/23/2012
GIVTE,39.84183055555556,-104.87866944444444,COLORADO,ZDV,RNAV,08/29/2012
GIYIT,42.706950000000006,-100.40755555555556,NEBRASKA,ZDV,RNAV,04/06/2005
GIZAB,42.857083333333335,-102.67177777777778,NEBRASKA,ZDV,RNAV,07/04/2009
GIZQE,38.648472222222225,-108.05710555555555,COLORADO,ZDV,RNAV,03/20/2009
GLDEN,39.38952777777778,-107.06989166666666,COLORADO,ZDV,RNAV,09/02/2008
GLEES,42.91857777777778,-105.835875,WYOMING,ZDV,RP,DDY*VOR/DME*105.87/22.00
GLENO,39.34773333333334,-107.36891388888888,COLORADO,ZDV,RP,DBL*VOR/DME*244.17/22.73
GLIMR,40.84994722222223,-103.63504722222223,COLORADO,ZDV,RP,BFF*VORTAC*173.35/63.00
GLITR,39.25968888888889,-102.13582222222223,COLORADO,ZDV,RNAV,09/06/2012
GLLAS,44.55083333333333,-105.17444444444445,WYOMING,ZDV,RNAV,07/26/2017
GLUGS,43.07965,-100.81484722222221,SOUTH DAKOTA,ZDV,RNAV,10/31/2017
GNARR,40.014541666666666,-102.70190277777778,COLORADO,ZDV,RNAV,03/19/2018
GNTRI,39.322027777777784,-106.98978611111112,COLORADO,ZDV,RNAV,09/03/2008
GOAVS,39.824130555555556,-104.52623055555556,COLORADO,ZDV,RP,DVV*VORTAC*124.99/6.20
GOCRU,42.77284722222222,-102.4732,NEBRASKA,ZDV,RNAV,07/05/2009
GODER,40.229886111111114,-104.90977500000001,COLORADO,ZDV,RP,GLL*VOR/DME*212.00/23.18
GODKE,41.46815,-105.88193333333332,WYOMING,ZDV,RNAV,04/12/2006
GOERS,37.38428611111111,-104.18180277777778,COLORADO,ZDV,RNAV,07/21/2016
GOFEN,40.52688888888889,-107.35411388888889,COLORADO,ZDV,RP,HDN*LD*W CRS/7.81
GOHAR,44.34117222222223,-103.30649722222222,SOUTH DAKOTA,ZDV,MR,RCA*TACAN*316.00/15.00
GOHLD,40.553444444444445,-104.63710833333334,COLORADO,ZDV,RNAV,07/02/2014
GOLFN,40.197025,-104.637225,COLORADO,ZDV,RP,BXP*LD*352.54/19.74
GONEF,41.15139722222222,-107.33258333333333,WYOMING,ZDV,RNAV,08/10/2017
GORJE,38.64818888888889,-105.3261,COLORADO,ZDV,RP,FQF*VORTAC*197.00/70.60
GOROC,39.75694444444444,-104.71472222222222,COLORADO,ZDV,RNAV,11/23/2012
GOSIP,37.62073888888889,-104.59733333333332,COLORADO,ZDV,RP,PUB*VORTAC*183.22/41.14
GOULL,40.522149999999996,-106.56184166666667,COLORADO,ZDV,RP,CHE*VOR/DME*075.55/34.00
GOVID,36.372033333333334,-110.62659722222222,ARIZONA,ZDV,RNAV,05/03/2002
GOXEL,36.69249722222222,-110.35610833333332,ARIZONA,ZDV,RNAV,05/03/2002
GOYEP,38.285669444444444,-104.57054722222222,COLORADO,ZDV,RP,PUB*VORTAC*257.63/6.69
GRASP,39.87636111111111,-104.50731666666667,COLORADO,ZDV,RP,FQF*VORTAC*014.18
GREYS,40.0425,-104.84033055555555,COLORADO,ZDV,RNAV,09/22/2012
GREYY,41.592263888888894,-99.05551666666666,NEBRASKA,ZDV,WP,06/11/2013
GRIFS,40.09945555555556,-104.63842777777778,COLORADO,ZDV,RP,BXP*LD*352.54/13.89
GRIPP,38.811658333333334,-106.45479722222223,COLORADO,ZDV,RP,DBL*VOR/DME*139.23
GRMON,39.61153888888889,-106.96716111111111,COLORADO,ZDV,RNAV,12/11/2017
GROVR,41.00903888888889,-104.04883611111111,WYOMING,ZDV,MR,CYS*VORTAC*097.00/35.00
GRRUB,40.24046666666667,-104.28060833333333,COLORADO,ZDV,RNAV,09/24/2012
GTMBA,40.51679722222222,-107.40809166666668,COLORADO,ZDV,RNAV,11/17/2014
GUCVE,39.37846944444445,-99.30379722222222,KANSAS,ZDV,RNAV,10/29/2013
GUDSE,39.869975000000004,-102.24025277777778,COLORADO,ZDV,RNAV,02/21/2018
GUDXE,40.89243611111111,-99.17840277777778,NEBRASKA,ZDV,RNAV,08/09/2012
GUHYY,41.04385,-100.695125,NEBRASKA,ZDV,RNAV,07/26/2013
GUILT,39.03989722222222,-106.67736666666667,COLORADO,ZDV,RP,DBL*VOR/DME*145.00/26.00
GURNE,38.153666666666666,-102.98916666666666,COLORADO,ZDV,RNAV,11/06/2002
GUSET,39.72193888888889,-104.52421944444444,COLORADO,ZDV,RP,FQF*VORTAC*055.92
GUVBE,36.477872222222224,-108.54591666666667,NEW MEXICO,ZDV,RP,RSK*VORTAC*219.24/27.00
GUVYU,40.10599444444445,-106.61284722222221,COLORADO,ZDV,RP,RLG*VOR/DME*294.35/10.00
GWEDO,41.34723888888889,-108.2238888888889,WYOMING,ZDV,RNAV,07/17/2014
GWENS,40.161325,-104.6376638888889,COLORADO,ZDV,RP,BXP*LD*352.54/17.60
FAAAR,39.59336388888889,-106.960175,COLORADO,ZDV,RNAV,03/05/2014
FAARM,40.308,-104.61649999999999,COLORADO,ZDV,RNAV,11/23/2012
FABAP,38.07331666666667,-102.80433333333333,COLORADO,ZDV,RNAV,07/18/2012
FABET,42.35817222222222,-99.48097777777778,NEBRASKA,ZDV,RNAV,02/10/2010
FABGA,41.19481111111111,-107.30858333333333,WYOMING,ZDV,RNAV,08/10/2017
FABIS,42.77410833333333,-100.63392777777779,NEBRASKA,ZDV,RNAV,01/22/2015
FACSO,37.582172222222226,-106.01053888888889,COLORADO,ZDV,RNAV,07/31/2017
FALUJ,39.75681111111111,-103.86474444444444,COLORADO,ZDV,RNAV,11/23/2012
FALUR,38.56805555555556,-104.68616111111112,COLORADO,ZDV,RP,PUB*VORTAC*315.67/20.39
FAMKO,40.38095,-106.53741388888889,COLORADO,ZDV,RNAV,05/16/2017
FANRO,44.81803333333334,-104.73764722222222,WYOMING,ZDV,RNAV,07/19/2016
FAPOP,37.24919722222222,-108.68036111111111,COLORADO,ZDV,RNAV,01/16/2003
FAPOV,36.89993888888889,-111.44241944444445,ARIZONA,ZDV,RP,12/03/2007
FARMY,42.265369444444445,-103.01481666666666,NEBRASKA,ZDV,RP,BFF*VORTAC*030.00
FATPO,39.49998333333333,-107.0579361111111,COLORADO,ZDV,RNAV,06/08/2006
FATPU,38.718405555555556,-109.81477222222222,UTAH,ZDV,RNAV,02/11/2004
FAULD,39.517672222222224,-102.04094166666667,KANSAS,ZDV,RNAV,11/18/2015
FEBLA,39.05095277777777,-104.71564444444445,COLORADO,ZDV,RNAV,03/30/2006
FEBUP,42.98784722222222,-106.74066666666667,WYOMING,ZDV,RNAV,08/14/2008
FEDAG,43.95476111111111,-102.86743333333332,SOUTH DAKOTA,ZDV,MR,RCA*TACAN*/15.00
FEDET,41.81992777777778,-103.87101388888888,NEBRASKA,ZDV,RP,BFF*VORTAC*242.81/18.00
FEDPI,42.715050000000005,-100.17314166666667,NEBRASKA,ZDV,RNAV,04/16/2008
FEDUV,41.492444444444445,-102.64413611111112,NEBRASKA,ZDV,RNAV,09/19/2008
FEETS,39.877,-104.58701388888889,COLORADO,ZDV,RP,JOY*LD*082.55/3.65
FEGER,42.05636388888889,-104.80485,WYOMING,ZDV,RNAV,07/14/2014
FEGIB,39.54727777777778,-104.76189722222222,COLORADO,ZDV,RNAV,07/15/2008
FEGIT,39.20930833333334,-101.48792777777778,KANSAS,ZDV,RNAV,01/04/2011
FEGUL,38.52332777777778,-106.78389722222222,COLORADO,ZDV,RNAV,08/16/2010
FEKAP,41.248891666666665,-103.18147777777779,NEBRASKA,ZDV,RNAV,11/27/2006
FEKEP,41.26708333333333,-105.61041944444443,WYOMING,ZDV,RNAV,04/12/2006
FEKIX,44.129847222222224,-105.48639444444444,WYOMING,ZDV,RNAV,07/12/2005
FEKMU,40.646547222222225,-102.33420277777778,COLORADO,ZDV,RNAV,08/23/2005
FEKUK,41.48119722222222,-99.67854722222222,NEBRASKA,ZDV,RNAV,07/08/2008
FEKVA,39.27245277777778,-108.62967499999999,COLORADO,ZDV,RNAV,07/04/2011
FELRI,37.02461111111111,-108.17948611111112,COLORADO,ZDV,RP,RSK*VORTAC*332.83/17.00
FELTA,38.70773611111112,-109.83383055555555,UTAH,ZDV,RNAV,02/11/2004
FEMAD,36.943888888888885,-107.05287777777778,NEW MEXICO,ZDV,RP,DRO*VOR/DME*096.34/35.74
FEMGI,41.424055555555555,-105.91045000000001,WYOMING,ZDV,RP,LAR*VOR/DME*287.20/10.00
FENGA,40.43025,-103.36971666666666,COLORADO,ZDV,RNAV,01/18/2017
FEPAS,40.41737777777777,-103.8629861111111,COLORADO,ZDV,RNAV,11/09/2015
FEPDI,44.52172222222222,-103.60385833333332,SOUTH DAKOTA,ZDV,RNAV,05/09/2011
FERBI,42.988366666666664,-106.71031666666667,WYOMING,ZDV,RNAV,06/19/2001
FERBU,41.252855555555556,-104.48948333333334,WYOMING,ZDV,RNAV,04/17/2018
FERMI,44.12571666666667,-103.11400555555555,SOUTH DAKOTA,ZDV,RP,RAP*VORTAC*320.93/10.00
FERPO,41.88545,-103.60911388888888,NEBRASKA,ZDV,RP,RMT*LD*305.59/1.80
FESNT,42.06583333333333,-99.28833333333333,NEBRASKA,ZDV,RNAV,03/15/2011
FESPA,38.35767222222222,-107.0902,COLORADO,ZDV,RNAV,06/08/2009
FETSU,41.985394444444445,-100.62655,NEBRASKA,ZDV,RNAV,05/30/2010
FETUB,38.60471944444445,-106.01965,COLORADO,ZDV,RNAV,07/07/2003
FEVLO,40.65623611111111,-102.34194166666666,COLORADO,ZDV,RNAV,08/23/2005
FFFAT,39.90036111111111,-104.49921388888889,COLORADO,ZDV,RNAV,09/23/2012
FIDLE,39.616372222222225,-106.52981666666666,COLORADO,ZDV,RP,DBL*VOR/DME*045.82/19.99
FIGDU,41.18953333333333,-100.79511666666666,NEBRASKA,ZDV,RNAV,07/26/2013
FIGTR,39.49543888888889,-104.50675277777778,COLORADO,ZDV,RNAV,11/23/2012
FIHWY,38.360419444444446,-107.09079722222222,COLORADO,ZDV,CN,03/10/2003
FIISH,40.22586666666667,-104.14647222222223,COLORADO,ZDV,RNAV,09/24/2012
FIKEB,41.4903,-105.47996111111111,WYOMING,ZDV,RNAV,07/01/2011
FIKEX,38.48576111111111,-106.01626388888889,COLORADO,ZDV,RNAV,11/01/2013
FIKLA,41.939027777777774,-106.95306388888889,WYOMING,ZDV,RNAV,02/09/2015
FIKMO,42.81594444444444,-105.43729722222223,WYOMING,ZDV,RNAV,06/07/2010
FIMER,40.58050277777778,-100.33049166666666,NEBRASKA,ZDV,RP,HCT*VORTAC*063.20/28.18
FIMEV,39.18404722222222,-99.83664999999999,KANSAS,ZDV,RNAV,05/07/2013
FIMGA,37.21731388888889,-108.03041666666667,COLORADO,ZDV,RP,DRO*VOR/DME*272.00/14.00
FIMSO,39.350297222222224,-106.92966666666668,COLORADO,ZDV,RP,ASE*LE*330.63/9.00
FIMUR,40.05146944444444,-104.93501944444445,COLORADO,ZDV,RNAV,11/13/2013
FINIB,42.81296111111111,-102.5051388888889,NEBRASKA,ZDV,RNAV,07/04/2009
FIPET,42.74397777777778,-105.25261666666667,WYOMING,ZDV,RNAV,06/07/2010
FIPSS,39.958061111111114,-104.94617500000001,COLORADO,ZDV,RP,FQF*VORTAC*306.00/22.00
FIPUR,42.747927777777775,-102.26468888888888,NEBRASKA,ZDV,RNAV,07/28/2008
FIRPI,39.34500277777778,-104.84044444444444,COLORADO,ZDV,RP,APA*LD*169.95/14.51
FISAR,41.56505833333333,-105.23637222222223,WYOMING,ZDV,RNAV,11/20/2012
FISDA,40.07473055555556,-104.22078888888889,COLORADO,ZDV,RNAV,06/27/2002
FISOX,39.230000000000004,-100.10822222222221,KANSAS,ZDV,RNAV,11/02/2015
FISTR,39.501463888888885,-106.76710833333333,COLORADO,ZDV,RP,DBL*VOR/DME*045.82/7.00
FITLA,40.779125,-100.30169444444444,NEBRASKA,ZDV,RNAV,12/21/2005
FIYCA,42.94156944444444,-102.4763,NEBRASKA,ZDV,RNAV,07/04/2009
FLAGG,39.53955555555555,-102.42239166666667,COLORADO,ZDV,RP,GLD*VORTAC*273.24/35.12
FLAIL,40.14590555555556,-104.23360555555556,COLORADO,ZDV,RNAV,09/24/2012
FLEMS,41.00981111111111,-105.25605555555556,WYOMING,ZDV,RP,LAR*VOR/DME*118.89/28.82
FLLYY,39.649825,-106.85887777777778,COLORADO,ZDV,RNAV,12/11/2017
FLOOD,38.340002777777784,-105.09399444444443,COLORADO,ZDV,RP,PUB*VORTAC*267.20/31.50
FLOTR,44.66888888888889,-105.88055555555555,WYOMING,ZDV,RNAV,07/17/2015
FLUBS,38.01529166666667,-106.13442777777779,COLORADO,ZDV,RNAV,08/23/2017
FLUFF,39.376511111111114,-104.72445277777778,COLORADO,ZDV,RNAV,03/25/2012
FLUME,36.863347222222224,-108.42145000000001,NEW MEXICO,ZDV,RP,RSK*VORTAC*280.00/17.00
FMSDT,39.86419444444444,-104.46610833333334,COLORADO,ZDV,RNAV,03/22/2012
FOAMS,39.811524999999996,-104.82810555555555,COLORADO,ZDV,RNAV,11/23/2012
FOBOX,40.700383333333335,-100.57312499999999,NEBRASKA,ZDV,RNAV,03/03/2015
FOBVO,41.670677777777776,-103.48419444444444,NEBRASKA,ZDV,RNAV,06/22/2005
FODIP,41.361041666666665,-105.60836666666665,WYOMING,ZDV,RNAV,07/01/2011
FOGEL,36.60658611111111,-107.98965277777778,NEW MEXICO,ZDV,RP,RSK*VORTAC*134.15/10.00
FOGET,39.73533055555556,-104.77598333333333,COLORADO,ZDV,MR,BKF*TACAN*318.90/2.00
FOGUP,39.66193888888889,-106.59519999999999,COLORADO,ZDV,RNAV,06/21/2001
FOGUX,41.07270555555556,-99.99479166666667,NEBRASKA,ZDV,RNAV,12/22/2005
FOHGO,39.04531111111111,-104.68538055555555,COLORADO,ZDV,WP,11/02/1998
FOLTI,42.05744166666666,-104.60677777777778,WYOMING,ZDV,RNAV,07/14/2014
FOLTO,40.84070277777778,-106.46376666666667,COLORADO,ZDV,RNAV,04/07/2008
FOMDO,41.08974166666667,-100.71678333333334,NEBRASKA,ZDV,RP,LBF*VOR/DME*018.21/2.82
FOMUK,40.82369444444445,-101.69225277777778,NEBRASKA,ZDV,RNAV,06/13/2008
FONTO,40.75221666666667,-103.46277777777777,COLORADO,ZDV,RP,GLL*VOR/DME*060.00/51.98
FOOOT,39.97453055555556,-105.68099722222223,COLORADO,ZDV,RNAV,11/23/2012
FORDU,39.52453055555556,-107.82500277777777,COLORADO,ZDV,RNAV,11/08/2010
FOSIG,43.8175,-101.42166666666667,SOUTH DAKOTA,ZDV,RNAV,09/22/2014
FOTTY,39.861041666666665,-106.55699166666666,COLORADO,ZDV,RP,RLG*VOR/DME*197.94/10.00
FOVLO,41.21331666666667,-103.80454722222223,NEBRASKA,ZDV,RNAV,10/17/2011
FOXEM,40.15186666666666,-99.34754722222222,NEBRASKA,ZDV,RNAV,07/17/2015
FRANO,38.850430555555555,-104.54922499999999,COLORADO,ZDV,RNAV,08/17/2010
FRESE,40.280947222222224,-99.48580555555556,NEBRASKA,ZDV,RNAV,01/22/2007
FREZE,38.84385555555556,-105.83372777777777,COLORADO,ZDV,RNAV,09/22/2012
FRNCH,40.44474444444444,-105.99233333333333,COLORADO,ZDV,RNAV,07/15/2014
FRNKE,38.75138888888889,-104.91871944444445,COLORADO,ZDV,RNAV,11/23/2012
FROGS,40.52003333333333,-105.89478055555556,COLORADO,ZDV,RP,LAR*VOR/DME*175.22
FROND,37.477608333333336,-105.98010833333333,COLORADO,ZDV,RNAV,07/31/2017
FRONZ,39.74977222222223,-104.64271666666667,COLORADO,ZDV,RP,DPP*LD*172.54/7.08
FSHER,38.309688888888886,-104.64753888888889,COLORADO,ZDV,RP,PUB*VORTAC*267.20/10.34
FULLA,39.96649722222222,-104.42811111111112,COLORADO,ZDV,RNAV,09/24/2012
FULLY,36.66613888888889,-108.54335833333333,NEW MEXICO,ZDV,RP,RSK*VORTAC*243.00/22.00
FUNDS,39.592058333333334,-106.07142222222222,COLORADO,ZDV,RP,DBL*VOR/DME*064.27/39.31
FURRS,39.52064722222222,-107.13071666666666,COLORADO,ZDV,RP,RLG*VOR/DME*214.00/43.00
FUZZZ,39.87502222222222,-104.35863611111111,COLORADO,ZDV,RP,FQF*VORTAC*036.51
FYZER,39.86268888888889,-104.52425,COLORADO,ZDV,RP,DVV*VORTAC*104.51
SACOP,41.957775000000005,-103.86075833333332,NEBRASKA,ZDV,RNAV,10/29/2007
SAGUW,38.219566666666665,-106.23938333333334,COLORADO,ZDV,WP,07/18/1995
SAILS,40.58495555555556,-99.1731638888889,NEBRASKA,ZDV,RP,EAR*VOR*212.35
SAKAY,41.16759444444444,-103.07323055555555,NEBRASKA,ZDV,RNAV,06/13/2008
SAKIC,40.16171388888889,-104.69299722222223,COLORADO,ZDV,RP,DQQ*LD*352.51/15.76
SALDE,42.520472222222224,-99.90309444444445,NEBRASKA,ZDV,RNAV,04/16/2008
SALON,43.32674444444445,-105.44876388888889,WYOMING,ZDV,RP,DDY*VOR/DME*056.44/39.00
SARAH,39.842336111111116,-104.9873861111111,COLORADO,ZDV,RP,FQF*VORTAC*287.41
SASPE,37.526558333333334,-106.04310277777778,COLORADO,ZDV,RNAV,07/31/2017
SAWOM,39.454480555555556,-108.0186638888889,COLORADO,ZDV,RNAV,08/12/2008
SAYGE,40.20059722222223,-103.85138611111111,COLORADO,ZDV,RP,FQF*VORTAC*038.00/46.88
SAYYO,39.24390277777778,-106.87874722222222,COLORADO,ZDV,RNAV,09/03/2008
SBURG,40.275169444444444,-106.89374166666667,COLORADO,ZDV,RP,CHE*VOR/DME*113.79/23.89
SCOLD,43.70563888888889,-102.56153888888889,SOUTH DAKOTA,ZDV,MR,RCA*TACAN*129.80/35.00
SCRUB,38.09104722222222,-107.94731111111112,COLORADO,ZDV,RP,ETL*VOR/DME*066.24
SEDAL,44.12506388888889,-103.07871388888888,SOUTH DAKOTA,ZDV,MR,RCA*TACAN*119.00/1.30
SEDGY,39.997508333333336,-106.05862222222223,COLORADO,ZDV,RNAV,05/16/2017
SEDUZ,37.32593888888889,-109.37383888888888,UTAH,ZDV,WP,11/02/1998
SEEYU,40.24271111111111,-104.69205277777777,COLORADO,ZDV,RNAV,03/16/2012
SEKAL,36.27815,-110.45606944444445,ARIZONA,ZDV,RNAV,05/03/2002
SELLS,38.828075000000005,-103.17374444444445,COLORADO,ZDV,RP,GCK*VORTAC*285.00/127.73
SELYO,40.941269444444444,-99.08288611111111,NEBRASKA,ZDV,RNAV,06/29/2005
SENSE,41.24666111111111,-105.03362777777778,WYOMING,ZDV,RP,GLL*VOR/DME*321.00
SEQRY,39.527091666666664,-107.70481944444445,COLORADO,ZDV,RNAV,11/08/2010
SEVGE,38.07365555555556,-102.74419166666667,COLORADO,ZDV,RNAV,07/18/2012
SEYOT,41.86993611111111,-99.19764444444445,NEBRASKA,ZDV,RNAV,06/11/2013
SHAFT,39.836394444444444,-104.79804166666666,COLORADO,ZDV,RP,DVV*VORTAC*238.52
SHATZ,40.09960277777778,-104.97502777777778,COLORADO,ZDV,RP,BJC*VOR/DME*023.00/13.50
SHAYK,39.54555,-101.40952777777778,KANSAS,ZDV,RNAV,11/24/2012
SHEIE,40.182488888888884,-104.79514444444445,COLORADO,ZDV,RNAV,11/24/2012
SHEND,39.907463888888884,-99.34050277777777,KANSAS,ZDV,RNAV,06/24/2015
SHERN,37.72295833333334,-105.99600833333334,COLORADO,ZDV,RNAV,08/23/2017
SHHRI,40.35540833333334,-107.11566944444444,COLORADO,ZDV,RNAV,11/17/2014
SHICK,40.315838888888884,-104.85731944444444,COLORADO,ZDV,RNAV,11/24/2012
SHLTE,39.89734722222222,-104.90636388888889,COLORADO,ZDV,RNAV,03/22/2012
SHMRT,40.44086944444444,-104.69451666666667,COLORADO,ZDV,RNAV,07/03/2014
SHOBO,39.97221388888889,-104.15320277777778,COLORADO,ZDV,RNAV,11/24/2012
SHOOP,40.88183611111111,-104.26708611111111,COLORADO,ZDV,RP,GLL*VOR/DME*016.84/26.15
SHRED,40.207258333333336,-104.69246666666668,COLORADO,ZDV,RP,DQQ*LD*352.51/18.49
SHROM,40.238958333333336,-104.70918055555556,COLORADO,ZDV,RNAV,03/16/2012
SHRYL,39.53456388888889,-107.31219722222222,COLORADO,ZDV,RNAV,05/29/2015
SHUGR,39.29445833333333,-101.59951666666666,KANSAS,ZDV,RP,GLD*LD*125.37/7.12
SIGHT,39.57929722222222,-104.702825,COLORADO,ZDV,RNAV,11/24/2012
SIGNE,39.50089722222222,-104.92200555555556,COLORADO,ZDV,RP,BJC*VOR/DME*146.80/26.67
SIGSE,41.16824722222222,-104.98705555555556,WYOMING,ZDV,RNAV,07/24/2008
SIJVI,40.39703055555555,-101.3833638888889,NEBRASKA,ZDV,RP,HCT*VORTAC*249.93/21.34
SINSY,38.78387222222222,-108.70743333333334,COLORADO,ZDV,RP,JNC*VOR/DME*151.41/17.00
SISEE,40.22159444444445,-104.49574166666667,COLORADO,ZDV,RNAV,09/26/2012
SITWO,39.48329444444445,-106.96568333333333,COLORADO,ZDV,RNAV,08/04/2012
SIXGN,38.53935555555555,-106.91525277777778,COLORADO,ZDV,WP,07/18/1995
SIYDO,39.61817222222222,-107.29230277777778,COLORADO,ZDV,RNAV,09/20/2010
SIYOP,39.52593888888889,-107.75969444444445,COLORADO,ZDV,RNAV,11/08/2010
SKARF,40.39633888888889,-105.68455833333334,COLORADO,ZDV,RNAV,09/22/2012
SKEED,39.29112222222222,-105.65734722222223,COLORADO,ZDV,RP,DVV*VORTAC*225.27/60.04
SKIER,39.24048333333334,-106.92423611111111,COLORADO,ZDV,RP,DBL*VOR/DME*174.59/12.00
SKIMJ,40.29274722222222,-104.69146944444445,COLORADO,ZDV,RNAV,03/16/2012
SKIPI,39.7919,-104.43422222222223,COLORADO,ZDV,RP,FTG*LD*083.17/6.49
SKIPT,38.54696666666666,-106.79156666666667,COLORADO,ZDV,RP,HBU*VOR/DME*050.00/13.00
SKKII,39.337494444444445,-104.87825,COLORADO,ZDV,RNAV,09/22/2012
SKOTI,38.42044722222222,-106.42809444444445,COLORADO,ZDV,RP,HBU*VOR/DME*079.58/28.90
SLMON,40.24237222222222,-103.64074444444445,COLORADO,ZDV,RNAV,09/23/2012
SLOLM,39.296813888888884,-107.62774999999999,COLORADO,ZDV,RP,RIL*VOR/DME*152.86/14.52
SLOPE,39.794805555555556,-104.79763888888888,COLORADO,ZDV,RP,DVV*VORTAC*225.27/10.00
SLURP,38.69560277777777,-104.685925,COLORADO,ZDV,WP,11/02/1998
SMPSN,39.67734166666666,-104.11054999999999,COLORADO,ZDV,RNAV,11/24/2012
SMTHR,39.70059444444445,-104.28035,COLORADO,ZDV,RNAV,11/24/2012
SNAKY,41.19600833333333,-108.37398333333333,WYOMING,ZDV,RP,OCS*VOR/DME*116.01/37.38
SNIPR,39.87616111111111,-103.84511666666666,COLORADO,ZDV,RNAV,11/24/2012
SNNDD,40.43536666666667,-107.13703333333333,COLORADO,ZDV,RNAV,11/17/2014
SOCKY,39.53682777777777,-107.17720555555556,COLORADO,ZDV,RP,RIL*LD*078.46/26.32
SODNE,39.79171944444444,-104.42347777777778,COLORADO,ZDV,RNAV,09/07/2012
SOGKO,38.997730555555556,-104.55912777777777,COLORADO,ZDV,RNAV,04/01/2016
SOKCO,40.899519444444444,-100.04106666666667,NEBRASKA,ZDV,RNAV,04/15/2008
SOKHA,41.083869444444446,-102.15150277777778,NEBRASKA,ZDV,RP,SNY*VOR/DME*077.89/37.73
SOLAR,39.14664444444444,-105.05911666666667,COLORADO,ZDV,RP,DEN*VOR/DME*197.00/44.00
SOLLO,40.550827777777776,-104.8560111111111,COLORADO,ZDV,RNAV,11/24/2012
SONGE,36.74417777777778,-108.10589999999999,NEW MEXICO,ZDV,RP,FMN*LD*E CRS/6.50
SOPHI,44.552588888888884,-103.88295,SOUTH DAKOTA,ZDV,WP,05/23/2011
SOSCO,44.35679722222223,-105.54570277777778,WYOMING,ZDV,RP,GCC*VOR/DME*341.00/0.55
SOSEE,38.488530555555556,-105.90411944444445,COLORADO,ZDV,RNAV,01/30/2008
SOVDE,36.990772222222226,-107.54010277777778,COLORADO,ZDV,RP,DRO*VOR/DME*120.00/14.00
SOYAR,40.89705,-105.9709388888889,COLORADO,ZDV,RNAV,09/22/2012
SPADA,38.84302777777778,-108.43988611111112,COLORADO,ZDV,RP,JNC*VOR/DME*113.07/21.00
SPAZZ,39.04418611111111,-104.73693888888889,COLORADO,ZDV,RNAV,12/05/2012
SPIDE,42.8262,-106.56281388888888,WYOMING,ZDV,RP,DDY*VOR/DME*/20.26
SPONS,42.16685833333333,-103.41276111111112,NEBRASKA,ZDV,RP,BFF*VORTAC*357.70/16.65
SPRIT,40.462922222222225,-99.530475,NEBRASKA,ZDV,RP,TKO*VORTAC*294.36
SPYCE,39.971269444444445,-104.3818111111111,COLORADO,ZDV,RNAV,11/24/2012
SQUAT,39.31062222222222,-108.2226388888889,COLORADO,ZDV,RP,JNC*VOR/DME*045.31/30.55
STAAM,39.98209444444445,-104.52111388888889,COLORADO,ZDV,RNAV,03/22/2012
STAKR,39.132580555555556,-104.45899444444444,COLORADO,ZDV,RNAV,11/24/2012
STAMY,39.04224166666666,-105.06217222222222,COLORADO,ZDV,RP,BRK*VOR/DME*273.42/20.89
STANO,38.32231111111111,-104.83035833333334,COLORADO,ZDV,RP,PUB*VORTAC*267.20/19.01
STAPH,42.93071666666666,-100.47752777777778,NEBRASKA,ZDV,RNAV,01/22/2015
STAPP,39.600661111111116,-104.848475,COLORADO,ZDV,RNAV,01/22/2016
STARP,40.14116111111111,-102.24133611111111,COLORADO,ZDV,RNAV,02/21/2018
STAXX,37.98008055555556,-104.17484166666667,COLORADO,ZDV,RP,PUB*VORTAC*139.30/22.36
STIPE,39.87493888888889,-100.53973055555555,KANSAS,ZDV,RNAV,09/09/2015
STRIM,40.48943888888889,-107.840825,COLORADO,ZDV,RP,CHE*VOR/DME*251.89/24.60
STURG,44.63859444444444,-103.71748333333333,SOUTH DAKOTA,ZDV,MR,RCA*TACAN*310.74/40.00
STVLR,39.02222222222222,-102.575,COLORADO,ZDV,RNAV,02/03/2017
SUFBA,40.66455833333333,-99.10605277777778,NEBRASKA,ZDV,RNAV,07/07/2009
SULIW,40.26586944444445,-100.35766666666666,NEBRASKA,ZDV,RNAV,10/04/2000
SUNKE,39.841094444444444,-104.75045555555556,COLORADO,ZDV,RP,DZG*LD*262.48/3.25
SUSHE,40.92593055555555,-103.50740277777778,COLORADO,ZDV,RNAV,09/25/2012
SUUPR,39.38936944444444,-104.57724166666667,COLORADO,ZDV,RNAV,11/24/2012
SWAYN,40.28035,-104.88614166666667,COLORADO,ZDV,RNAV,09/25/2012
SWILL,37.19908333333333,-107.95015000000001,COLORADO,ZDV,RP,RSK*VORTAC*001.00
SWWAT,40.48140277777778,-107.21830277777778,COLORADO,ZDV,RNAV,12/05/2014
SWYCH,40.705336111111116,-104.82916388888889,COLORADO,ZDV,RNAV,11/24/2012
SYLIS,40.34531666666667,-102.52905833333334,COLORADO,ZDV,RNAV,03/19/2018
SYLVR,40.292588888888886,-103.71064166666667,COLORADO,ZDV,RP,SNY*VOR/DME*201.80/58.54
JAAAM,39.748375,-104.52404444444444,COLORADO,ZDV,RNAV,09/24/2012
JAAEF,39.691091666666665,-104.72086666666667,COLORADO,ZDV,RNAV,03/19/2012
JABAN,39.57081666666667,-107.03476944444444,COLORADO,ZDV,RNAV,06/08/2006
JABED,40.028644444444446,-104.63169166666665,COLORADO,ZDV,RNAV,03/22/2012
JABIX,40.468355555555554,-107.09721111111111,COLORADO,ZDV,RP,CHE*VOR/DME*094.00/10.00
JABNU,40.20946666666667,-102.44791388888889,COLORADO,ZDV,WP,11/02/1998
JABRO,40.026980555555554,-104.75410833333333,COLORADO,ZDV,RNAV,03/22/2012
JADEK,40.255519444444445,-103.74869444444444,COLORADO,ZDV,RNAV,11/09/2015
JADGU,37.60551666666667,-105.73520833333333,COLORADO,ZDV,RNAV,12/23/2008
JADOB,41.60995277777778,-102.53104166666667,NEBRASKA,ZDV,RP,BFF*VORTAC*098.44/45.98
JAGGR,38.97495,-103.04020555555556,COLORADO,ZDV,RNAV,09/26/2012
JAGUS,41.84809166666667,-103.69265,NEBRASKA,ZDV,RNAV,10/30/2013
JAKUR,39.629108333333335,-104.66293333333334,COLORADO,ZDV,RNAV,06/27/2002
JALKA,38.766327777777775,-105.71016944444445,COLORADO,ZDV,RNAV,09/23/2012
JAMSS,38.53478333333333,-106.82149722222222,COLORADO,ZDV,RNAV,08/16/2010
JANUR,41.42883055555556,-101.94210555555556,NEBRASKA,ZDV,RP,LBF*VOR/DME*282.24/58.70
JANUT,40.803916666666666,-102.46025277777778,COLORADO,ZDV,RNAV,08/23/2005
JANVA,41.28301666666667,-105.63190833333333,WYOMING,ZDV,RNAV,04/12/2006
JAPDI,39.83491666666667,-104.90094722222223,COLORADO,ZDV,RNAV,03/22/2012
JAPEE,40.288983333333334,-104.68225000000001,COLORADO,ZDV,RNAV,03/16/2012
JAPET,39.98303333333334,-104.63985833333334,COLORADO,ZDV,RNAV,03/21/2012
JAPEX,40.08390833333333,-104.657475,COLORADO,ZDV,RP,ACX*LD*352.53/13.18
JAPGU,44.07261666666667,-102.99193333333334,SOUTH DAKOTA,ZDV,MR,RCA*TACAN*122.00/6.20
JAPTA,40.93953055555555,-99.84717222222221,NEBRASKA,ZDV,RP,HCT*VORTAC*048.00/57.10
JARGU,39.41470555555556,-106.96056944444445,COLORADO,ZDV,RP,DBL*VOR/DME*232.28
JARVE,40.3757,-106.7596,COLORADO,ZDV,RP,CHE*VOR/DME*096.00/27.00
JASTI,44.02333333333333,-101.44055555555556,SOUTH DAKOTA,ZDV,RNAV,09/22/2014
JATEB,42.65235277777778,-106.55383055555555,WYOMING,ZDV,RP,DDY*VOR/DME*193.00/29.00
JATKA,36.84274444444445,-111.43,ARIZONA,ZDV,RNAV,12/03/2007
JATOL,38.7487,-104.62058055555555,COLORADO,ZDV,RNAV,03/31/2016
JAVOB,39.17144166666667,-99.72980555555556,KANSAS,ZDV,RNAV,12/01/2005
JAXOM,41.70840277777778,-103.82439166666666,NEBRASKA,ZDV,RNAV,10/30/2013
JAYNE,39.69568333333333,-104.6089611111111,COLORADO,ZDV,RNAV,03/25/2012
JDIZL,40.24728611111111,-104.68273611111111,COLORADO,ZDV,RNAV,03/16/2012
JEAPE,41.067438888888894,-102.92933888888889,NEBRASKA,ZDV,RP,SNY*VOR/DME*112.73/3.00
JEBAV,36.736180555555556,-108.2413,NEW MEXICO,ZDV,RP,RSK*VORTAC*249.97/6.91
JEEPR,40.207258333333336,-104.68320277777778,COLORADO,ZDV,RP,LTT*LD*352.51/18.43
JEFEL,39.363997222222224,-104.24336944444444,COLORADO,ZDV,RP,FQF*VORTAC*127.00/26.26
JEKTI,42.060808333333334,-102.54784444444444,NEBRASKA,ZDV,RNAV,01/03/2007
JEMGO,39.91748055555556,-104.69583333333334,COLORADO,ZDV,RNAV,03/16/2012
JEMKI,38.61109722222222,-104.61079166666666,COLORADO,ZDV,RNAV,08/17/2010
JEMOX,39.398044444444444,-101.73582222222223,KANSAS,ZDV,RNAV,01/04/2011
JENNE,44.1179,-105.68020277777778,WYOMING,ZDV,RP,CZI*VOR/DME*064.50
JENRO,38.54201944444444,-106.8334111111111,COLORADO,ZDV,RNAV,06/08/2009
JENUK,41.39871111111111,-103.17039722222222,NEBRASKA,ZDV,RP,SNY*VOR/DME*321.97/20.00
JEPMA,39.02538888888889,-104.59479999999999,COLORADO,ZDV,RNAV,08/17/2010
JEPNO,42.643930555555556,-100.0741361111111,NEBRASKA,ZDV,RNAV,04/16/2008
JEPPC,39.39275555555555,-104.59245833333333,COLORADO,ZDV,RNAV,11/23/2012
JESAR,41.286344444444445,-105.32873888888888,WYOMING,ZDV,RP,LAR*VOR/DME*085.75/18.00
JESIE,40.02353333333333,-106.87542222222221,COLORADO,ZDV,RP,SXW*VOR/DME*000.72/24.22
JESIP,43.12685277777778,-101.67708055555556,SOUTH DAKOTA,ZDV,RNAV,04/21/2016
JESIT,40.66283055555555,-100.51165833333333,NEBRASKA,ZDV,RNAV,03/03/2015
JESKU,40.405316666666664,-107.46333333333334,COLORADO,ZDV,RP,CHE*VOR/DME*212.57/10.00
JESLO,38.886155555555554,-104.68560833333333,COLORADO,ZDV,RNAV,03/31/2016
JESOB,40.019191666666664,-99.34371944444445,NEBRASKA,ZDV,RNAV,06/16/2015
JETAG,39.55835277777778,-104.55500555555555,COLORADO,ZDV,RNAV,11/23/2012
JETRY,39.050999999999995,-108.39170277777778,COLORADO,ZDV,RNAV,06/05/2009
JETSN,39.980786111111115,-104.69510000000001,COLORADO,ZDV,RP,DQQ*LD*352.51/4.92
JEWLS,38.53288611111111,-103.83185833333333,COLORADO,ZDV,RP,BRK*VOR/DME*115.00/45.00
JEXOG,38.22592777777778,-108.59049444444445,COLORADO,ZDV,RNAV,03/14/2007
JEXON,39.52981388888889,-107.56964166666667,COLORADO,ZDV,RNAV,11/08/2010
JEXUB,40.01596111111111,-106.1698138888889,COLORADO,ZDV,RNAV,05/16/2017
JEZZY,42.178774999999995,-104.87110833333332,WYOMING,ZDV,RP,IIP*VOR/DME*140.00/33.74
JIBIN,41.39036111111111,-105.77661666666667,WYOMING,ZDV,RNAV,04/12/2006
JIBIS,38.904152777777774,-104.71580833333334,COLORADO,ZDV,RNAV,08/17/2010
JIDOG,39.45216666666667,-104.84538333333333,COLORADO,ZDV,RP,APA*LD*169.95/8.09
JIGOM,39.533141666666666,-107.39257500000001,COLORADO,ZDV,RP,RIL*LD*078.44/16.32
JIKOS,40.58898055555556,-101.69745555555556,NEBRASKA,ZDV,RNAV,05/10/2007
JIKTA,38.29088055555555,-104.34787777777777,COLORADO,ZDV,RP,PUB*VORTAC*084.98/3.86
JIKUT,41.10762777777778,-102.99391666666666,NEBRASKA,ZDV,RP,SNY*VOR/DME*310.01/0.82
JILOD,41.444852777777776,-106.828075,WYOMING,ZDV,RNAV,09/08/2006
JIMAK,40.95030277777778,-99.93505833333333,NEBRASKA,ZDV,RNAV,03/23/2007
JIMIG,41.19686944444444,-104.87288055555555,WYOMING,ZDV,RNAV,04/17/2018
JIMMR,38.583980555555556,-105.89780555555556,COLORADO,ZDV,RNAV,09/23/2012
JINNY,39.18924444444444,-108.64339166666667,COLORADO,ZDV,RP,JNC*VOR/DME*026.82
JISIG,39.13610555555555,-109.05983055555555,COLORADO,ZDV,RP,JNC*VOR/DME*275.26/13.30
JITAM,40.04833333333333,-100.96652222222222,NEBRASKA,ZDV,RNAV,06/14/2010
JITKI,44.55128333333333,-104.62822222222222,WYOMING,ZDV,RNAV,02/12/2014
JITOG,42.96620555555556,-102.23163611111111,NEBRASKA,ZDV,RNAV,04/15/2008
JITOM,40.338861111111115,-100.18183055555556,NEBRASKA,ZDV,RNAV,03/21/2016
JIVAM,42.19318611111111,-103.00232777777778,NEBRASKA,ZDV,RNAV,11/27/2006
JLONG,41.440688888888886,-106.98088333333334,WYOMING,ZDV,RNAV,09/28/2012
JNETT,39.35231111111111,-106.47958055555556,COLORADO,ZDV,RP,DBL*VOR/DME*092.99/20.00
JNKBX,39.983161111111116,-104.65868888888889,COLORADO,ZDV,RNAV,03/21/2012
JOBOB,40.16165,-104.68373611111112,COLORADO,ZDV,RP,LTT*LD*352.51/15.69
JODUG,40.12543055555555,-107.96971666666667,COLORADO,ZDV,RNAV,07/31/2003
JODUM,38.62631944444445,-104.59069444444444,COLORADO,ZDV,RNAV,08/17/2010
JOGEL,37.46647777777778,-104.35688055555555,COLORADO,ZDV,RP,PUB*VORTAC*168.00/49.73
JOLUP,38.359975,-104.494675,COLORADO,ZDV,RP,PUB*VORTAC*314.00/5.00
JOMAG,40.049955555555556,-104.65789444444445,COLORADO,ZDV,RP,ACX*LD*352.53/11.14
JONEM,40.58687777777778,-100.38772222222222,NEBRASKA,ZDV,RNAV,03/03/2015
JONOL,39.072411111111116,-104.65656111111112,COLORADO,ZDV,RNAV,04/01/2016
JOODE,37.182624999999994,-107.65841666666667,COLORADO,ZDV,RNAV,10/06/2016
JOPLN,37.41045277777778,-104.1843638888889,COLORADO,ZDV,RNAV,11/23/2012
JOPUG,41.24875,-105.76028333333333,WYOMING,ZDV,RNAV,07/01/2011
JORAL,40.66318888888889,-103.28395833333333,COLORADO,ZDV,RNAV,08/13/2012
JOREV,38.51433333333333,-107.02301944444444,COLORADO,ZDV,RP,HBU*VOR/DME*357.97
JORNO,44.475236111111116,-102.97275,SOUTH DAKOTA,ZDV,RP,RAP*VORTAC*350.25/30.00
JOSAN,39.28377222222222,-106.8978,COLORADO,ZDV,RNAV,01/30/2002
JOSAT,37.13903888888889,-104.48763611111112,COLORADO,ZDV,RNAV,11/01/2013
JOSEE,39.99567777777778,-104.6585388888889,COLORADO,ZDV,RP,ACX*LD*352.53/7.89
JOSPA,39.503119444444444,-107.88835833333334,COLORADO,ZDV,RNAV,11/08/2010
JOULE,39.94305833333333,-104.65917222222222,COLORADO,ZDV,RP,ACX*LD*352.53/4.73
JOWEE,38.659444444444446,-104.53999999999999,COLORADO,ZDV,RNAV,03/14/2011
JOXED,36.75524722222222,-110.12066388888888,ARIZONA,ZDV,RNAV,01/04/2012
JPAGE,39.47880833333333,-104.30246388888888,COLORADO,ZDV,RNAV,09/24/2012
JPBAG,39.876155555555556,-104.48323611111111,COLORADO,ZDV,RNAV,03/22/2012
JPRKS,39.838836111111114,-104.45206111111112,COLORADO,ZDV,RNAV,03/22/2012
JSSCA,43.83865,-102.69694444444445,SOUTH DAKOTA,ZDV,RNAV,07/17/2012
JUBEP,37.05296944444444,-107.847625,COLORADO,ZDV,RP,DRO*VOR/DME*204.08/7.63
JUBOS,40.06484722222222,-102.96597777777778,COLORADO,ZDV,RNAV,01/18/2017
JUDII,40.60831388888889,-107.49047222222222,COLORADO,ZDV,RP,CHE*VOR/DME*288.00/10.00
JUDNI,40.7077,-103.30214444444444,COLORADO,ZDV,RNAV,08/13/2012
JUDOL,37.96103888888889,-101.75658888888888,KANSAS,ZDV,RNAV,07/22/2010
JUGIP,44.18270833333333,-105.51137222222222,WYOMING,ZDV,RP,GCC*VOR/DME*163.03/10.00
JUKEX,37.74330833333333,-104.20206111111112,COLORADO,ZDV,RP,LAA*VOR/DME*237.74/76.83
JULAB,41.044602777777776,-107.46511666666667,WYOMING,ZDV,RNAV,08/10/2017
JULPA,38.09651388888889,-101.72721111111112,KANSAS,ZDV,RNAV,07/22/2010
JUMKO,43.088950000000004,-106.74377777777778,WYOMING,ZDV,RP,DDY*VOR/DME*257.84/20.52
JUMRO,42.93751111111111,-106.41726111111112,WYOMING,ZDV,RNAV,04/14/2009
JUNAD,41.24315555555555,-103.12927222222221,NEBRASKA,ZDV,RP,SNY*VOR/DME*310.01/11.00
JUNER,37.367666666666665,-103.72266666666667,COLORADO,ZDV,RNAV,11/06/2002
JUNGU,39.73233611111111,-101.02610833333333,KANSAS,ZDV,RNAV,06/14/2010
JUNSI,44.74366111111111,-103.87929722222222,SOUTH DAKOTA,ZDV,RNAV,05/23/2011
JUNUM,41.96400277777778,-103.19147222222223,NEBRASKA,ZDV,RP,BFF*VORTAC*059.06/13.67
JUPOB,39.23066388888889,-99.89373611111112,KANSAS,ZDV,RNAV,11/03/2015
JURIN,41.70276388888889,-99.2087638888889,NEBRASKA,ZDV,RNAV,03/16/2009
JUTOB,39.5294,-107.59069444444444,COLORADO,ZDV,RNAV,11/08/2010
JUVEB,42.49529722222222,-103.18382777777778,NEBRASKA,ZDV,RNAV,12/14/2015
JUZAN,42.96447777777778,-102.40995555555556,NEBRASKA,ZDV,RNAV,04/16/2008
JYMBO,43.306844444444444,-106.68216111111111,WYOMING,ZDV,RNAV,11/07/2013
IBEDE,39.617872222222225,-100.54245833333333,KANSAS,ZDV,RNAV,09/09/2015
IBIXY,40.37443888888889,-105.00096944444445,COLORADO,ZDV,RNAV,08/19/2014
IBOTY,41.72276111111111,-99.12214166666666,NEBRASKA,ZDV,RNAV,06/11/2013
IBSKI,37.9972,-109.99720833333333,UTAH,ZDV,RNAV,01/26/2017
IBURE,37.18694444444444,-107.07253333333333,COLORADO,ZDV,RNAV,04/13/2016
ICECI,39.382222222222225,-104.757775,COLORADO,ZDV,RNAV,11/23/2012
ICEDU,41.135333333333335,-105.43399166666667,WYOMING,ZDV,RNAV,04/12/2006
ICIES,38.71201388888889,-107.77678333333333,COLORADO,ZDV,RP,MTJ*VOR/DME*013.02/13.60
ICODE,41.91840555555555,-103.32918333333333,NEBRASKA,ZDV,RP,BFF*VORTAC*064.96/7.00
ICORY,37.808502777777775,-106.03787222222222,COLORADO,ZDV,RP,ALS*VORTAC*326.00/29.50
IDENE,39.473600000000005,-107.09930555555555,COLORADO,ZDV,RP,SXW*VOR/DME*196.28/10.61
IDGIY,36.762655555555554,-108.174925,NEW MEXICO,ZDV,RNAV,07/07/2009
IDIPE,44.33095277777778,-105.53728333333333,WYOMING,ZDV,RNAV,07/12/2005
IDOKE,40.026583333333335,-104.69545833333333,COLORADO,ZDV,RNAV,03/21/2012
IDOLL,38.81253888888889,-103.48586388888889,COLORADO,ZDV,RNAV,09/24/2012
IDPEF,39.275841666666665,-102.301075,COLORADO,ZDV,RNAV,12/06/2017
IDXUL,42.7417,-103.18730555555555,NEBRASKA,ZDV,RNAV,02/27/2012
IFFUL,41.62994444444445,-99.66957500000001,NEBRASKA,ZDV,RNAV,07/08/2008
IFLIP,41.03392222222222,-102.89611944444445,NEBRASKA,ZDV,RNAV,06/13/2008
IGEFO,39.32497777777778,-99.832925,KANSAS,ZDV,RNAV,05/07/2013
IGOKY,42.85811666666667,-103.14317500000001,NEBRASKA,ZDV,RNAV,07/13/2011
IHEXU,40.268027777777775,-100.51159722222222,NEBRASKA,ZDV,RNAV,10/03/2000
IHIYO,37.86020555555556,-102.73540555555556,COLORADO,ZDV,RNAV,02/16/2006
IHUKY,39.93884444444444,-101.05856388888888,KANSAS,ZDV,RNAV,06/14/2010
IIINN,39.64935277777778,-104.69751944444445,COLORADO,ZDV,RNAV,11/23/2012
IJKUQ,39.755966666666666,-104.524225,COLORADO,ZDV,RP,VWT*LD*171.99/1.94
IKBUW,39.236075,-101.05003333333333,KANSAS,ZDV,RNAV,07/21/2008
IKDAW,41.83620833333334,-107.13855000000001,WYOMING,ZDV,CN,12/04/2014
IKHAF,38.006566666666664,-108.12161388888889,COLORADO,ZDV,RP,ETL*VOR/DME*095.23/6.80
ILEUS,41.07924722222223,-107.40581666666667,WYOMING,ZDV,RNAV,08/10/2017
ILHOV,42.65975833333333,-100.50068888888889,NEBRASKA,ZDV,RNAV,04/06/2005
ILOME,39.26233055555556,-106.87946944444444,COLORADO,ZDV,RNAV,07/13/2009
ILQUP,39.62146666666667,-100.93880277777778,KANSAS,ZDV,RNAV,07/21/2008
IMAGN,39.022841666666665,-104.08724166666666,COLORADO,ZDV,RNAV,09/23/2012
IMEQI,41.586394444444444,-99.76430555555555,NEBRASKA,ZDV,RNAV,07/08/2008
IMOMY,40.26503888888889,-104.92591666666667,COLORADO,ZDV,RNAV,03/20/2009
IMPAY,38.56389166666666,-100.88626666666667,KANSAS,ZDV,RNAV,08/04/2006
IMSAF,39.652522222222224,-107.08169722222222,COLORADO,ZDV,RNAV,03/05/2014
IMUNE,44.50340833333333,-105.38176388888888,WYOMING,ZDV,RP,SHR*VOR/DME*095.20/74.72
INADE,40.618322222222226,-100.43896666666667,NEBRASKA,ZDV,RNAV,03/03/2015
INARM,40.05246944444444,-100.5378361111111,NEBRASKA,ZDV,RNAV,09/09/2015
INEDE,40.529488888888885,-107.3619611111111,COLORADO,ZDV,RP,HDN*LD*283.72/8.20
INGIU,41.131930555555556,-103.39779722222222,NEBRASKA,ZDV,RNAV,10/17/2011
INGRR,39.36016666666667,-106.34368055555555,COLORADO,ZDV,RNAV,02/09/2018
INTRC,39.315999999999995,-107.05416666666666,COLORADO,ZDV,RNAV,04/22/2014
INUMY,41.32752222222223,-99.553825,NEBRASKA,ZDV,WP,11/02/1998
IPALE,39.906552777777776,-105.33042499999999,COLORADO,ZDV,RNAV,11/23/2012
IPEYE,42.737033333333336,-106.67886111111112,WYOMING,ZDV,RNAV,08/14/2008
IPOTE,41.85514722222222,-103.68743611111111,NEBRASKA,ZDV,RP,BFF*VORTAC*242.81/9.50
IQUQA,39.221000000000004,-101.503225,KANSAS,ZDV,CN,01/04/2011
IRIIS,40.04560277777777,-104.58818888888888,COLORADO,ZDV,RNAV,11/23/2012
IRINE,39.94996944444444,-104.6402638888889,COLORADO,ZDV,RP,BXP*LD*352.54/4.92
IRISS,37.055724999999995,-107.84503888888888,COLORADO,ZDV,RP,DRO*VOR/DME*/7.43
IROVE,42.901247222222224,-102.302725,NEBRASKA,ZDV,RNAV,04/16/2008
IROYO,39.34184722222223,-107.9895138888889,COLORADO,ZDV,CN,09/20/2010
IRZAT,38.610305555555556,-104.71613055555555,COLORADO,ZDV,WP,11/02/1998
ISOYA,42.72069166666667,-106.700075,WYOMING,ZDV,RP,DDY*VOR/DME*/29.00
ISSOY,38.19681944444444,-101.70538888888889,KANSAS,ZDV,RNAV,07/22/2010
ITANE,40.17643611111111,-108.02564444444444,COLORADO,ZDV,RNAV,07/31/2003
ITEDE,41.00043888888889,-99.84714722222222,NEBRASKA,ZDV,RNAV,03/23/2007
ITEYA,41.20740277777778,-100.05030833333333,NEBRASKA,ZDV,RP,LBF*VOR/DME*062.00/33.00
ITIKY,40.42615555555555,-104.62465277777777,COLORADO,ZDV,WP,11/02/1998
IVELE,36.72737222222222,-108.34275,NEW MEXICO,ZDV,RP,RSK*VORTAC*249.97/11.83
IVKEF,39.49613611111111,-106.84948888888889,COLORADO,ZDV,RP,DBL*VOR/DME*019.65/4.00
IVOYE,38.31324166666666,-108.65223333333334,COLORADO,ZDV,RNAV,03/14/2007
IWECY,40.01980555555556,-106.44468888888889,COLORADO,ZDV,RNAV,04/16/2014
IWUGO,39.03713611111111,-108.72644722222222,COLORADO,ZDV,RNAV,07/05/2011
IXULE,39.321400000000004,-107.771275,COLORADO,ZDV,CN,11/23/2012
IXZUF,39.617825,-107.41572777777779,COLORADO,ZDV,CN,09/20/2010
IYATA,37.797488888888886,-102.62215833333333,COLORADO,ZDV,RNAV,10/02/2007
IYAYU,40.79080277777778,-101.66314444444446,NEBRASKA,ZDV,RNAV,06/13/2008
IYBUC,44.078069444444445,-101.65306111111111,SOUTH DAKOTA,ZDV,RNAV,12/23/2013
IYODO,44.12516388888889,-103.07869166666666,SOUTH DAKOTA,ZDV,MR,RCA*TACAN*122.00/1.30
IYOGY,37.10868055555556,-111.48788055555556,UTAH,ZDV,RNAV,12/03/2007
IZUKO,38.182630555555555,-101.60122777777777,KANSAS,ZDV,RNAV,07/22/2010
IZUWI,40.96467777777778,-101.75230277777777,NEBRASKA,ZDV,RP,SAE*VOR/DME*166.35/9.32
IZUXI,39.442724999999996,-107.41044444444445,COLORADO,ZDV,CN,09/20/2010
IZXOG,41.10431666666667,-101.41718055555556,NEBRASKA,ZDV,RP,SAE*VOR/DME*086.00/16.30
EARLS,37.28735277777778,-104.34138888888889,COLORADO,ZDV,RP,PUB*VORTAC*168.00/60.49
EAZZY,39.657869444444444,-106.8090611111111,COLORADO,ZDV,RNAV,06/08/2006
EBBIE,40.45625555555556,-104.94118611111111,COLORADO,ZDV,RP,GLL*VOR/DME*248.00/18.00
EBEBY,41.983872222222224,-102.71411111111111,NEBRASKA,ZDV,RP,BYE*LD*123.32/6.70
EBEJU,38.460275,-106.86843333333333,COLORADO,ZDV,CN,06/08/2009
EBICI,42.90748611111111,-106.54992777777778,WYOMING,ZDV,RNAV,08/14/2008
EBIHE,38.37441388888889,-107.8707361111111,COLORADO,ZDV,RNAV,03/20/2009
EBIYO,43.453875000000004,-106.3398,WYOMING,ZDV,RP,DDY*VOR/DME*340.82/21.95
EBSTN,40.27113055555555,-106.91844722222223,COLORADO,ZDV,RNAV,11/17/2014
EBUWI,42.775758333333336,-100.47164444444445,NEBRASKA,ZDV,RNAV,04/06/2005
EBZUV,41.98289722222223,-100.85602777777777,NEBRASKA,ZDV,RNAV,05/30/2010
ECCEL,38.779019444444444,-104.68579444444445,COLORADO,ZDV,WP,11/02/1998
ECECU,41.16259722222222,-105.39802222222222,WYOMING,ZDV,RP,LAR*VOR/DME*111.61/18.00
ECEWE,38.45077777777778,-106.87395555555555,COLORADO,ZDV,CN,06/08/2009
ECHOA,40.52180555555555,-106.89998333333334,COLORADO,ZDV,RP,CHE*VOR/DME*075.55/18.53
ECNOF,38.19470555555555,-108.33845555555556,COLORADO,ZDV,RP,ETL*VOR/DME*325.80/10.00
ECOFI,42.38216944444444,-100.1058861111111,NEBRASKA,ZDV,RNAV,04/16/2008
ECOPO,42.71048888888889,-102.85706666666665,NEBRASKA,ZDV,RNAV,06/28/2011
ECUDI,40.52585555555555,-103.93994722222223,COLORADO,ZDV,RNAV,11/09/2015
ECUQO,38.45504444444445,-106.87062499999999,COLORADO,ZDV,CN,06/08/2009
ECYUS,41.242980555555555,-100.47399722222222,NEBRASKA,ZDV,RP,LBF*VOR/DME*035.65/17.00
EDEVE,38.56366666666666,-108.26742777777778,COLORADO,ZDV,RNAV,09/21/2015
EDICI,41.118566666666666,-101.76257777777778,NEBRASKA,ZDV,RP,SAE*VOR/DME*086.00/0.61
EDIDY,42.995583333333336,-106.19807777777778,WYOMING,ZDV,RNAV,04/14/2009
EDIFY,41.798874999999995,-106.87148055555555,WYOMING,ZDV,RP,CKW*VOR/DME*070.12/32.00
EDLES,38.677727777777775,-109.94070833333333,UTAH,ZDV,RP,HVE*VORTAC*051.12/39.00
EDUKY,39.20066388888889,-108.10760555555555,COLORADO,ZDV,RP,JNC*VOR/DME*059.97/33.08
EDUQA,43.01776944444445,-102.92333055555557,SOUTH DAKOTA,ZDV,RNAV,06/28/2011
EEONS,40.02156111111111,-103.76973333333333,COLORADO,ZDV,RP,DEN*VOR/DME*064.77/43.00
EEZEE,40.114602777777776,-104.03764444444444,COLORADO,ZDV,RNAV,09/23/2012
EFFEE,39.69134444444444,-104.73861388888889,COLORADO,ZDV,RNAV,03/19/2012
EFFEX,42.33310277777778,-101.33650277777777,NEBRASKA,ZDV,RP,ANW*VOR/DME*248.14
EFWOV,41.76435,-107.27593055555556,WYOMING,ZDV,RNAV,02/09/2015
EGBER,41.18116666666666,-104.26156666666667,WYOMING,ZDV,RP,GLL*VOR/DME*005.00
EGEYE,41.79742777777778,-100.39652500000001,NEBRASKA,ZDV,RNAV,05/30/2010
EGFAX,40.41775555555555,-107.13244722222221,COLORADO,ZDV,RP,CHE*VOR/DME*113.79/10.00
EHFAD,42.615588888888894,-102.217825,NEBRASKA,ZDV,RNAV,07/04/2009
EHVER,39.48723611111111,-102.16760833333333,COLORADO,ZDV,RP,GLD*VORTAC*273.24/22.88
EKAME,36.637227777777774,-111.3855388888889,ARIZONA,ZDV,RNAV,12/03/2007
EKIRE,39.05444444444444,-108.41548055555556,COLORADO,ZDV,RNAV,10/07/2003
EKIVE,42.68163333333333,-102.36676944444444,NEBRASKA,ZDV,RNAV,07/28/2008
EKSUW,37.623130555555555,-105.72323055555556,COLORADO,ZDV,RP,ALS*VORTAC*002.00/17.00
EKULY,37.51535555555556,-105.91324444444444,COLORADO,ZDV,RP,ALS*VORTAC*321.91/11.00
ELBIE,39.551091666666665,-104.13759722222223,COLORADO,ZDV,MR,BKF*TACAN*096.00/30.00
ELCEE,40.298175,-104.67710000000001,COLORADO,ZDV,RNAV,11/23/2012
ELIJH,40.38565555555555,-107.1300111111111,COLORADO,ZDV,RNAV,11/17/2014
ELJAY,41.22510277777778,-101.22146111111111,NEBRASKA,ZDV,RP,GLL*VOR/DME*060.00/157.69
ELKEE,40.60214444444445,-105.35178055555555,COLORADO,ZDV,RP,DVV*VORTAC*314.00/54.00
ELLZA,39.11461944444444,-104.61597222222221,COLORADO,ZDV,RNAV,05/07/2013
ELORE,39.86520277777778,-105.05019722222222,COLORADO,ZDV,RP,GLL*VOR/DME*198.00
ELOSE,38.623275,-101.75076944444444,KANSAS,ZDV,RNAV,07/08/2015
ELRAP,44.6105,-103.63480000000001,SOUTH DAKOTA,ZDV,RNAV,05/23/2011
ELREY,39.742666666666665,-104.518375,COLORADO,ZDV,RNAV,03/22/2012
ELWAY,38.415727777777775,-106.343075,COLORADO,ZDV,RP,DBL*VOR/DME*145.00/66.57
ELYIJ,39.83003611111111,-101.32464722222223,KANSAS,ZDV,RNAV,06/14/2010
EMMYS,39.883808333333334,-103.73483611111111,COLORADO,ZDV,RP,DEN*VOR/DME*076.00/43.00
EMOFE,42.634341666666664,-100.00845833333334,NEBRASKA,ZDV,CN,06/21/2000
EMOTY,41.295091666666664,-105.00208055555555,WYOMING,ZDV,RNAV,07/24/2008
ENIDE,39.177566666666664,-108.62205833333333,COLORADO,ZDV,RNAV,06/05/2009
ENIWU,41.02407777777778,-102.40465555555556,NEBRASKA,ZDV,CN,06/21/2000
ENOXE,40.77453888888889,-99.04418055555556,NEBRASKA,ZDV,CN,06/21/2000
ENQIB,40.988372222222225,-101.97135833333334,NEBRASKA,ZDV,RNAV,06/13/2008
EOLUS,39.47001111111111,-105.09731388888889,COLORADO,ZDV,RNAV,09/22/2012
EPICC,39.38836666666666,-104.63936944444445,COLORADO,ZDV,RNAV,03/19/2012
