name,latitude,longitude,state,artcc,type,updated
TAATR,37.92819166666666,-85.53904444444444,KENTUCKY,ZID,RNAV,05/09/2016
TABBO,39.010688888888886,-84.6688388888889,KENTUCKY,ZID,RP,CVG*LD*186.18/3.42
TABOE,40.14275277777778,-84.41888333333334,OHIO,ZID,RNAV,04/05/2004
TACOD,39.849538888888894,-83.82537777777777,OHIO,ZID,MR,XSF*TACAN*/0.98
TACOY,39.26145555555556,-82.11540555555555,OHIO,ZID,RNAV,10/05/2017
TACTO,39.66106111111111,-87.59290833333333,ILLINOIS,ZID,RP,TTH*VORTAC*301.00/19.00
TAFTT,37.543074999999995,-82.83998055555556,KENTUCKY,ZID,RNAV,06/24/2015
TALAC,39.67050833333333,-84.18172777777778,OHIO,ZID,RP,MGY*LE*NE CRS/5.84
TANSY,39.99378055555556,-84.25305555555556,OHIO,ZID,RNAV,04/11/2014
TANYA,37.72616666666667,-85.87148888888888,KENTUCKY,ZID,RNAV,04/12/2006
TAPIE,38.91244722222222,-84.50079444444444,KENTUCKY,ZID,RP,CVG*VORTAC*127.15/11.33
TARCI,38.27668888888889,-81.30946666666667,WEST VIRGINIA,ZID,RP,BKW*VOR/DME*349.55/31.03
TARNE,39.45673611111111,-85.50067777777778,INDIANA,ZID,RNAV,07/08/2013
TARRE,38.02688333333333,-85.46604444444445,KENTUCKY,ZID,MR,IIU*VORTAC*130.00/7.00
TARRY,40.05438888888889,-83.91423888888889,OHIO,ZID,RP,DQN*VOR/DME*085.01
TARTO,39.53474166666666,-82.63001388888888,OHIO,ZID,RP,APE*VORTAC*189.00/37.00
TASKE,38.91351944444445,-82.089125,OHIO,ZID,RP,HNN*VORTAC*345.85/10.00
TASUY,39.87493055555556,-85.05253611111111,INDIANA,ZID,RNAV,02/06/2018
TASVE,39.44743055555555,-87.48809444444444,INDIANA,ZID,RNAV,07/26/2012
TATAL,37.29401111111111,-87.20484444444445,KENTUCKY,ZID,RP,CCT*VORTAC*152.99/6.00
TAULS,37.529580555555555,-82.34056666666666,KENTUCKY,ZID,RNAV,09/14/2011
TAYOS,37.63954444444445,-83.58816666666667,KENTUCKY,ZID,RP,FLM*VOR/DME*154.31/69.52
TAZHU,40.03465277777778,-82.21078611111112,OHIO,ZID,RNAV,07/01/2016
TELOC,37.13778888888889,-81.50691388888889,VIRGINIA,ZID,RP,BLF*VOR/DME*239.09/18.07
TERGE,37.928463888888885,-87.762275,INDIANA,ZID,RNAV,01/12/2015
TERRN,37.86228611111111,-81.49880555555556,WEST VIRGINIA,ZID,RP,BKW*VOR/DME*291.51
TESOY,39.11553888888889,-86.6669388888889,INDIANA,ZID,RP,OOM*VORTAC*238.06/3.04
TESUY,39.80143611111111,-84.83589722222221,INDIANA,ZID,RNAV,08/06/2012
TETIE,39.16141111111111,-85.48618888888889,INDIANA,ZID,RNAV,06/28/2009
TEYOB,39.876469444444446,-85.2788361111111,INDIANA,ZID,RNAV,02/06/2018
TEYOP,39.90332222222222,-86.01659166666667,INDIANA,ZID,RNAV,12/03/2008
TEYOS,36.80323611111111,-85.08189722222222,KENTUCKY,ZID,RNAV,07/10/2013
TEYUD,38.08736666666667,-85.71595,KENTUCKY,ZID,RNAV,06/05/2012
TFARM,39.576369444444445,-84.98664166666667,INDIANA,ZID,RNAV,05/06/2009
THUND,38.43459444444444,-85.816125,INDIANA,ZID,RP,PKI*LD*349.91/16.85
TIBYU,40.529694444444445,-84.56894444444444,OHIO,ZID,RNAV,06/16/2008
TICOC,39.832463888888896,-86.14087777777779,INDIANA,ZID,RNAV,08/07/2008
TIGRR,39.49005833333334,-84.05299444444444,OHIO,ZID,RP,CVG*VORTAC*050.64/41.55
TIKKL,38.89350833333333,-82.84994166666667,OHIO,ZID,RNAV,08/12/2008
TILMN,39.495575,-87.82876944444445,ILLINOIS,ZID,RP,PXV*VORTAC*355.12/93.99
TIYCO,39.18530833333333,-85.64543055555556,INDIANA,ZID,RNAV,02/17/2006
TIYOY,40.02382222222222,-82.83252777777777,OHIO,ZID,RP,APE*VORTAC*241.93/13.59
TOCUV,36.72789166666667,-83.61892777777777,KENTUCKY,ZID,RNAV,06/01/2016
TOFTS,36.93024444444444,-83.03651944444444,KENTUCKY,ZID,RNAV,01/13/2017
TOKAY,40.10295833333333,-84.70009722222223,OHIO,ZID,RP,DQN*VOR/DME*291.47/14.90
TOLUY,38.99709166666667,-86.01145833333334,INDIANA,ZID,RNAV,09/03/2014
TOMCA,38.57846944444445,-80.61141388888889,WEST VIRGINIA,ZID,RNAV,07/01/2013
TOMPS,36.73263333333333,-83.69213611111111,KENTUCKY,ZID,RNAV,06/05/2010
TONIO,37.254222222222225,-83.02986944444444,KENTUCKY,ZID,RP,BKW*VOR/DME*257.47/96.31
TORAC,38.32641944444445,-85.37600277777777,KENTUCKY,ZID,RP,BQM*VOR/DME*071.00/14.81
TORRR,40.74160277777778,-84.41635833333333,OHIO,ZID,RP,DQN*VOR/DME*359.83/43.49
TOSHA,39.303511111111106,-83.90363055555557,OHIO,ZID,RP,IYV*LD*217.30/8.18
TOSTY,37.43867777777778,-86.95792777777778,KENTUCKY,ZID,RP,CCT*VORTAC*077.92/15.00
TOYOR,36.886425,-82.748375,VIRGINIA,ZID,RNAV,05/11/2007
TRAAK,39.87082222222222,-86.34165833333333,INDIANA,ZID,RNAV,03/25/2015
TRAKK,40.30898611111111,-83.17159722222223,OHIO,ZID,RP,APE*VORTAC*295.64/28.43
TRECY,39.84243055555556,-86.2504111111111,INDIANA,ZID,RNAV,01/12/2015
TREED,39.981125,-83.82463055555556,OHIO,ZID,RNAV,11/14/2014
TRENT,37.800533333333334,-83.5989861111111,KENTUCKY,ZID,RP,AZQ*VOR/DME*330.95/29.29
TRFWA,38.01722222222222,-84.79055555555556,KENTUCKY,ZID,RP,HYK*VOR/DME*281.53
TRION,39.36388055555555,-81.18422777777778,WEST VIRGINIA,ZID,RP,JPU*VOR/DME*120.55/10.00
TRIVO,39.620913888888886,-84.70344444444444,OHIO,ZID,RP,RID*VORTAC*145.00/10.20
TROYF,38.95345555555556,-84.64714722222223,KENTUCKY,ZID,RP,EEI*LD*186.21/6.30
TRUNC,40.03433611111111,-84.17684444444446,OHIO,ZID,RP,DQN*VOR/DME*084.88
TTKAY,39.48568888888889,-86.4959,INDIANA,ZID,RNAV,01/12/2015
TUBBE,37.98116666666667,-84.66720555555555,KENTUCKY,ZID,RNAV,08/08/2006
TUCUG,40.13992777777778,-82.29644722222223,OHIO,ZID,RNAV,06/29/2011
TUGPE,38.29215555555555,-81.76270277777778,WEST VIRGINIA,ZID,RNAV,10/27/2015
TUKEY,38.19293333333333,-80.795275,WEST VIRGINIA,ZID,RP,HVQ*VOR/DME*104.23/47.00
TUKIW,39.077377777777784,-83.14497222222222,OHIO,ZID,RNAV,12/19/2014
TUKKR,37.89686388888889,-85.28885,KENTUCKY,ZID,RNAV,06/05/2012
TUKUW,36.427475,-84.62246388888889,TENNESSEE,ZID,RNAV,08/07/2013
TUNNU,39.77670277777778,-83.7728361111111,OHIO,ZID,RNAV,11/03/2006
TUPAY,38.14136388888889,-85.60539166666666,KENTUCKY,ZID,RNAV,05/09/2016
TUSGY,38.002575,-85.9768888888889,INDIANA,ZID,RP,FTK*LD*359.63/6.30
TUZYE,39.111827777777776,-86.89746944444445,INDIANA,ZID,RP,OOM*VORTAC*263.87/13.42
TWAES,40.10669166666667,-81.74943611111111,OHIO,ZID,RNAV,11/14/2016
TYOTA,38.70934166666667,-85.37030277777777,KENTUCKY,ZID,RNAV,04/29/2014
AADIE,39.88709166666666,-86.49233333333333,INDIANA,ZID,RNAV,01/12/2015
AAJAY,38.93234444444444,-84.53963055555555,KENTUCKY,ZID,RNAV,11/27/2006
AARIN,39.92027777777778,-86.22111111111111,INDIANA,ZID,RNAV,06/09/2015
ACETO,38.142802777777774,-85.00724166666667,KENTUCKY,ZID,RNAV,04/22/2013
ACHLE,38.54210277777778,-82.62855277777777,OHIO,ZID,RNAV,05/31/2011
ACIYU,39.82641111111111,-85.81733333333332,INDIANA,ZID,RNAV,12/08/2008
ACKNE,36.411125,-85.00508055555555,TENNESSEE,ZID,RP,LVT*VOR/DME*145.00/13.00
ACTRA,39.95747222222222,-84.12870833333332,OHIO,ZID,RP,DQN*VOR/DME*106.78
ACXIY,39.85811388888889,-88.04554999999999,ILLINOIS,ZID,CN,03/22/2009
ADABN,37.82120833333334,-87.539725,KENTUCKY,ZID,RNAV,04/26/2012
ADROW,39.190377777777776,-81.63600555555556,WEST VIRGINIA,ZID,RNAV,05/01/2009
ADUPY,37.02731111111111,-84.17349444444444,KENTUCKY,ZID,RP,LOZ*VOR/DME*266.47/3.07
ADVAY,39.922980555555554,-86.5239,INDIANA,ZID,RP,TTH*VORTAC*049.99
ADZAB,38.581405555555556,-83.62324166666666,KENTUCKY,ZID,RNAV,03/31/2009
AFAGA,39.35060555555556,-81.55549166666667,OHIO,ZID,RNAV,04/09/2012
AGEBE,39.414722222222224,-84.78,OHIO,ZID,RNAV,11/24/2006
AGIGY,36.55059722222222,-84.51785555555556,TENNESSEE,ZID,RNAV,09/22/2014
AGKIP,38.16733055555555,-87.20045,INDIANA,ZID,RNAV,10/16/2009
AGOSE,38.78351388888888,-86.35595277777777,INDIANA,ZID,RNAV,06/16/2011
AGUBE,40.18780555555555,-84.81283055555555,INDIANA,ZID,RNAV,01/19/2011
AGUYU,39.5452,-86.81601666666667,INDIANA,ZID,RNAV,11/07/2016
AIRBO,39.49256388888889,-83.73726111111111,OHIO,ZID,RP,MXQ*VOR/DME*/4.80
AJAYS,40.579994444444445,-85.29945555555555,INDIANA,ZID,RP,MZZ*VOR/DME*076.23
AJILO,37.17450833333333,-83.77637222222222,KENTUCKY,ZID,RNAV,08/12/2015
AJJIT,37.210594444444446,-82.89033055555556,KENTUCKY,ZID,RNAV,05/24/2000
AKATE,39.786138888888885,-84.10443333333333,OHIO,ZID,MR,FFO*TACAN*233.00/3.00
AKBAR,39.39095555555556,-88.0488111111111,ILLINOIS,ZID,RP,VHP*VORTAC*251.49/82.01
AKECA,39.73234166666667,-85.99585833333333,INDIANA,ZID,RNAV,12/08/2008
AKOVY,39.62513333333333,-83.74209722222223,OHIO,ZID,RNAV,07/09/2009
AKPUC,39.94374444444444,-83.21301944444444,OHIO,ZID,RNAV,08/13/2008
AKUTE,40.57295277777778,-82.00031666666666,OHIO,ZID,RNAV,03/30/2018
AKUYA,40.32469444444445,-85.55605277777778,INDIANA,ZID,RNAV,08/16/2004
AKVEH,37.885172222222224,-86.93578333333333,KENTUCKY,ZID,RNAV,07/08/2011
ALANB,38.29433888888889,-85.92097777777778,INDIANA,ZID,RNAV,03/06/2018
ALBEY,39.85765555555556,-85.1306861111111,INDIANA,ZID,WP,RID*VORTAC*297.60/14.80
ALBUN,37.85243888888889,-82.15895833333335,WEST VIRGINIA,ZID,RNAV,02/09/2018
ALCOV,39.947741666666666,-86.04305833333333,INDIANA,ZID,RNAV,01/12/2015
ALEME,40.010175,-83.03229999999999,OHIO,ZID,RP,CBP*LD*281.20/5.59
ALENN,37.95974722222223,-87.66479166666667,INDIANA,ZID,RNAV,05/09/2016
ALFRD,38.950725000000006,-86.57917499999999,INDIANA,ZID,RNAV,03/23/2009
ALIAS,39.74371111111111,-84.49794722222222,OHIO,ZID,RNAV,07/09/2009
ALLIE,38.663241666666664,-84.67023055555556,KENTUCKY,ZID,RP,CVG*LD*186.18/24.25
ALLOE,39.912124999999996,-87.17844166666667,INDIANA,ZID,RP,TTH*VORTAC*005.32/25.58
ALOMY,38.08306944444445,-86.10185277777778,INDIANA,ZID,RNAV,06/05/2012
ALOYE,37.45976666666667,-81.73340277777778,WEST VIRGINIA,ZID,RNAV,01/18/2018
AMALE,39.95453055555556,-82.15205,OHIO,ZID,RP,ZZV*VOR/DME*280.00/12.00
AMARG,39.21908055555556,-85.42864722222222,INDIANA,ZID,RP,CVG*VORTAC*294.00/35.99
AMMOT,39.19869166666666,-84.87193888888888,INDIANA,ZID,RNAV,02/13/2010
AMNIO,39.72951388888889,-83.28115555555556,OHIO,ZID,RNAV,01/26/2015
AMOUR,39.688602777777774,-84.25225,OHIO,ZID,MR,FFO*TACAN*/12.00
ANAYU,39.76458888888889,-85.85282222222222,INDIANA,ZID,RNAV,08/02/2013
ANDEY,39.97676666666667,-82.600175,OHIO,ZID,RP,ZZV*VOR/DME*280.00/32.72
ANDII,39.635555555555555,-83.65041666666667,OHIO,ZID,RP,XSF*TACAN*148.00/15.00
ANDUQ,38.33021666666667,-86.70806666666667,INDIANA,ZID,RNAV,10/14/2009
ANDYE,38.01451111111111,-85.59189166666667,KENTUCKY,ZID,RNAV,11/03/2011
ANETT,37.44376944444444,-84.31026944444444,KENTUCKY,ZID,RNAV,09/13/2012
ANEZO,38.331694444444445,-85.73684166666666,INDIANA,ZID,RNAV,06/05/2012
ANMRI,39.98083888888889,-86.07341666666666,INDIANA,ZID,RP,VHP*VORTAC*052.48
ANNEE,39.882666666666665,-83.96407500000001,OHIO,ZID,MR,FFO*TACAN*/5.69
ANNEX,40.52618611111111,-82.19986666666667,OHIO,ZID,RNAV,07/16/2015
ANOBE,39.74916944444445,-82.53936944444445,OHIO,ZID,RNAV,09/25/2012
ANTAE,39.74709722222222,-86.66456111111111,INDIANA,ZID,RNAV,01/13/2016
ANTEO,38.93472222222222,-84.57676944444444,KENTUCKY,ZID,RNAV,04/16/2008
ANTRI,39.32938888888889,-84.66754722222223,OHIO,ZID,RP,SIC*LD*004.18/17.75
ANTTI,39.869641666666666,-86.81868888888889,INDIANA,ZID,RP,TTH*VORTAC*039.00
APALO,38.005719444444445,-86.85979722222221,INDIANA,ZID,RP,PXV*VORTAC*080.54/43.08
APCOT,38.376666666666665,-86.32833333333333,INDIANA,ZID,RNAV,11/24/2006
APENY,39.38526944444445,-87.21418055555556,INDIANA,ZID,RNAV,06/20/2005
APESY,40.03312777777778,-82.98315,OHIO,ZID,RNAV,04/15/2002
APKEW,38.25091666666667,-87.19956388888889,INDIANA,ZID,RNAV,10/14/2009
APODD,39.3941,-85.5887361111111,INDIANA,ZID,RP,SHB*VOR/DME*141.50/18.00
APPAL,40.040977777777776,-85.49836111111111,INDIANA,ZID,RNAV,01/21/2015
APPIE,39.85109722222222,-85.9820888888889,INDIANA,ZID,RP,SHB*VOR/DME*329.92/15.00
APUDY,37.682744444444445,-87.2587,KENTUCKY,ZID,RNAV,11/06/2012
APUFO,38.98079166666667,-87.37556388888888,INDIANA,ZID,CN,12/04/2014
ARAKE,39.86796666666667,-83.96791944444445,OHIO,ZID,MR,FFO*TACAN*058.00/5.00
ARBAS,39.96832777777778,-84.89877222222223,INDIANA,ZID,RP,DQN*VOR/DME*264.06
ARCAB,40.59631111111111,-85.29492499999999,INDIANA,ZID,RNAV,01/12/2015
ARLUV,37.86260277777778,-87.70185000000001,KENTUCKY,ZID,RP,PXV*VORTAC*140.86/4.88
ARNAH,36.29046666666667,-85.4043388888889,TENNESSEE,ZID,RNAV,01/16/2001
ARNLD,38.215136111111114,-84.82013055555555,KENTUCKY,ZID,RP,HYK*VOR/DME*312.22
ARTHN,39.34658888888889,-84.46248333333334,OHIO,ZID,RP,HKF*NDB*188.37
ARTJR,39.97485555555556,-85.93680277777779,INDIANA,ZID,RNAV,09/19/2016
ARXAV,36.755602777777774,-85.01752499999999,KENTUCKY,ZID,RNAV,08/08/2016
ASAYO,36.48894722222222,-85.24884166666666,TENNESSEE,ZID,RNAV,04/09/2013
ASERY,38.47665833333333,-81.29281666666667,WEST VIRGINIA,ZID,RNAV,07/31/2017
ASORE,37.80524166666667,-87.7974111111111,KENTUCKY,ZID,RNAV,08/14/2008
ASSUM,39.63243611111111,-85.97531666666667,INDIANA,ZID,RP,SHB*VOR/DME*268.99/7.00
ATDOV,36.95229722222223,-84.87448888888888,KENTUCKY,ZID,RNAV,06/21/2006
ATEEN,39.712336111111114,-86.5598,INDIANA,ZID,RNAV,03/23/2015
ATEXY,40.788975,-83.96811666666667,OHIO,ZID,RNAV,12/26/2013
ATIPE,39.99522777777778,-82.76794444444444,OHIO,ZID,RP,ONB*LD*101.22/6.63
ATISE,39.50786388888889,-87.66490833333334,ILLINOIS,ZID,RNAV,06/15/2016
ATOTE,39.07618333333334,-87.20641666666667,INDIANA,ZID,RNAV,09/26/2016
ATUME,36.95379166666667,-83.05676666666666,KENTUCKY,ZID,RNAV,01/17/2014
AUGUS,38.31540833333333,-87.25221111111111,INDIANA,ZID,RP,PXV*VORTAC*043.00
AVACE,40.41171111111111,-85.62066388888888,INDIANA,ZID,RNAV,08/16/2004
AVAIL,39.67324166666666,-86.71064444444444,INDIANA,ZID,RP,VHP*VORTAC*241.00/18.00
AVBAY,38.55640833333333,-86.38116388888888,INDIANA,ZID,RNAV,01/19/2011
AVIDE,39.522708333333334,-84.73827222222222,OHIO,ZID,RNAV,08/02/2012
AVIEW,38.848283333333335,-85.07278611111111,INDIANA,ZID,RP,CVG*VORTAC*243.95/20.01
AVOXE,40.45943333333334,-84.80772499999999,INDIANA,ZID,RNAV,02/02/2010
AVUGE,36.69156944444444,-83.62996666666666,KENTUCKY,ZID,RNAV,06/04/2003
AWLEE,37.96443611111111,-85.67548888888889,KENTUCKY,ZID,RP,IIU*VORTAC*208.18
AXNAP,37.604575000000004,-81.54538611111111,WEST VIRGINIA,ZID,RNAV,01/16/2018
AXSUR,37.14454166666667,-83.98410555555556,KENTUCKY,ZID,RNAV,05/30/2008
AYAGO,40.039655555555555,-85.98270833333333,INDIANA,ZID,RNAV,08/02/2013
AYMEE,39.07710555555556,-86.61452222222222,INDIANA,ZID,RNAV,12/15/2015
AYOCA,39.736244444444445,-86.55833888888888,INDIANA,ZID,RP,VHP*VORTAC*241.00/10.00
AZLEC,37.179899999999996,-84.37290555555555,KENTUCKY,ZID,RNAV,06/21/2006
XIXIH,37.68528055555555,-87.16457777777778,KENTUCKY,ZID,RNAV,11/27/2012
XODJI,39.49162777777778,-84.24906944444444,OHIO,ZID,RNAV,01/27/2016
XOPEW,38.098394444444445,-83.95346944444445,KENTUCKY,ZID,RNAV,08/13/2013
XUYBU,37.558305555555556,-82.62621666666666,KENTUCKY,ZID,RNAV,06/13/2017
MAARK,37.74006666666667,-85.5364861111111,KENTUCKY,ZID,RNAV,02/20/2018
MAASH,37.66954444444444,-85.69543055555556,KENTUCKY,ZID,RNAV,02/20/2018
MABEF,40.304424999999995,-81.85309444444444,OHIO,ZID,RP,ZZV*VOR/DME*010.76/21.87
MABNY,40.16220555555555,-84.31223888888888,OHIO,ZID,CN,06/07/2001
MABPA,38.91260833333333,-81.83683333333333,WEST VIRGINIA,ZID,CN,12/04/2014
MACES,40.003680555555555,-86.72295,INDIANA,ZAU,RP,VHP*VORTAC*303.73/19.94
MACET,37.97090277777778,-81.8479111111111,WEST VIRGINIA,ZID,RP,HVQ*VOR/DME*192.26/23.00
MACFA,38.880786111111114,-83.88487500000001,OHIO,ZID,RP,FLM*VOR/DME*059.11/24.32
MACKY,38.342908333333334,-87.46315833333334,INDIANA,ZID,RP,PXV*VORTAC*026.59/28.60
MACLB,37.58743055555556,-83.31816944444444,KENTUCKY,ZID,CN,09/12/2002
MACSA,38.37113055555555,-81.60201944444444,WEST VIRGINIA,ZID,RP,HVQ*VOR/DME*083.73/8.03
MADFE,38.54358611111111,-83.75005833333333,KENTUCKY,ZID,RP,FLM*VOR/DME*107.36/27.12
MAFHI,36.35212222222222,-84.95031944444445,TENNESSEE,ZID,RP,LVT*VOR/DME*145.00/17.42
MAFIN,39.86183611111111,-83.99787222222223,OHIO,ZID,MR,FFO*TACAN*050.00/3.70
MAGCO,39.75563888888889,-82.65708333333333,OHIO,ZID,CN,06/07/2001
MAGOW,36.432694444444444,-85.29448611111111,TENNESSEE,ZID,RP,LVT*VOR/DME*216.25/11.00
MAHAF,37.03654722222222,-82.22119166666667,VIRGINIA,ZID,RNAV,06/24/2015
MAHEN,37.41517777777778,-87.06330555555556,KENTUCKY,ZID,RP,CCT*VORTAC*079.36/9.78
MAHEY,39.63195,-86.81005,INDIANA,ZID,CN,04/23/2001
MAHYO,37.675891666666665,-85.87829444444444,KENTUCKY,ZID,RP,EWO*VOR/DME*284.38/10.00
MAHZI,38.44082222222222,-82.201975,WEST VIRGINIA,ZID,CN,12/04/2014
MAIZE,38.47452777777778,-86.01594166666666,INDIANA,ZID,RP,IIU*VORTAC*316.17/30.39
MAJDU,39.548027777777776,-87.3712361111111,INDIANA,ZID,CN,06/06/2001
MAJED,39.696730555555554,-87.66464166666667,ILLINOIS,ZID,RP,TTH*VORTAC*301.00/22.95
MAJEL,38.035125,-84.60219444444444,KENTUCKY,ZID,RP,HYK*VOR/DME*303.87/7.40
MAJIB,38.7032,-84.39035833333334,KENTUCKY,ZID,RP,FLM*VOR/DME*314.65/4.94
MAKDN,39.28364722222222,-85.4259888888889,INDIANA,ZID,RNAV,06/18/2012
MAKKN,37.809552777777775,-85.50166388888888,KENTUCKY,ZID,CN,09/12/2002
MAKRZ,37.63602777777778,-85.587975,KENTUCKY,ZID,RNAV,02/20/2018
MALDN,40.26461666666667,-84.05537222222222,OHIO,ZID,RNAV,05/09/2016
MALRY,38.765708333333336,-87.83472499999999,ILLINOIS,ZID,RNAV,02/09/2018
MAMTE,39.714975,-86.45217777777778,INDIANA,ZID,RNAV,10/05/2016
MANUE,40.11510277777778,-84.55724722222222,OHIO,ZID,RNAV,04/05/2004
MAPOL,40.45585833333334,-84.74457222222222,OHIO,ZID,RNAV,08/09/2011
MAQUI,39.667088888888884,-86.81298055555555,INDIANA,ZID,RNAV,11/07/2016
MAREO,39.88279722222222,-85.24825,INDIANA,ZID,RP,VHP*VORTAC*084.13/51.88
MARII,39.40060277777778,-81.41073055555556,OHIO,ZID,RNAV,04/18/2012
MARNY,37.743383333333334,-85.56637222222221,KENTUCKY,ZID,RP,EWO*VOR/DME*036.92/8.48
MARSG,39.70285833333334,-85.12931388888889,INDIANA,ZID,RP,RID*VORTAC*260.00/13.80
MARSP,40.166,-84.92330000000001,INDIANA,ZID,RP,DQN*VOR/DME*291.47/25.84
MARTZ,39.420291666666664,-83.66873055555556,OHIO,ZID,RP,APE*VORTAC*235.11
MASFY,39.37097222222222,-87.93151944444445,ILLINOIS,ZID,RNAV,06/28/2010
MASGT,39.263130555555556,-84.77418333333333,OHIO,ZID,CN,04/21/2003
MASSE,38.050891666666665,-83.80666388888889,KENTUCKY,ZID,RP,HYK*VOR/DME*080.69/31.97
MATAN,39.59930277777778,-86.95330833333334,INDIANA,ZID,RP,TTH*VORTAC*062.17/15.24
MATBD,40.32696111111112,-82.52239166666666,OHIO,ZID,RP,APE*VORTAC*022.00/10.97
MAUDD,37.78462777777778,-85.13316111111111,KENTUCKY,ZID,RP,EWO*VOR/DME*069.32/27.42
MAUNI,38.0336,-88.05588055555555,ILLINOIS,ZID,RP,PXV*VORTAC*291.47/15.29
MAYED,38.96378611111111,-85.85087499999999,INDIANA,ZID,RNAV,09/03/2014
MBELL,37.64516944444444,-85.6652638888889,KENTUCKY,ZID,RNAV,05/09/2016
MCFEE,37.85500277777778,-84.87915,KENTUCKY,ZID,RP,HYK*VOR/DME*251.06/20.43
MCKVR,38.10925833333334,-86.67596388888889,INDIANA,ZID,RNAV,07/08/2011
MCNUT,39.80836111111111,-84.24969444444444,OHIO,ZID,MR,FFO*TACAN*270.00/9.00
MEALY,38.14855,-86.86365833333333,INDIANA,ZID,RNAV,06/30/2011
MEARZ,39.99274166666667,-86.30975833333333,INDIANA,ZID,RP,VHP*VORTAC*013.00/11.00
MECAN,40.08618055555556,-83.50822222222222,OHIO,ZID,RP,DQN*VOR/DME*084.88/41.16
MEDIE,37.41121388888889,-87.3110611111111,KENTUCKY,ZID,RNAV,03/28/2017
MEDRE,39.783319444444444,-86.174125,INDIANA,ZID,RNAV,12/01/2014
MEEKR,39.41336111111111,-85.13562222222222,INDIANA,ZID,RP,RID*VORTAC*217.00/24.68
MEEKY,38.42948888888888,-81.51649722222223,WEST VIRGINIA,ZID,RP,HNN*VORTAC*131.91
MEGGE,39.04570277777778,-82.85751111111111,OHIO,ZID,RNAV,08/12/2008
MEHNE,39.580913888888894,-86.45610833333333,INDIANA,ZID,RP,OQV*LD*228.55/11.84
MEKTE,39.78490277777777,-84.4211138888889,OHIO,ZID,RNAV,07/09/2009
MELUQ,40.02701111111111,-83.21909444444445,OHIO,ZID,RNAV,08/12/2008
MEMOE,39.95786944444445,-83.8683861111111,OHIO,ZID,MR,FFO*TACAN*050.00/12.00
MERLO,39.546905555555554,-86.523325,INDIANA,ZID,RP,IND*LD*SW CRS/15.29
MESSY,39.13883888888889,-86.62253055555554,INDIANA,ZID,RP,OOM*VORTAC*238.06/0.54
MESUE,39.88024444444444,-83.72924722222223,OHIO,ZID,MW,01/02/2013
MEWED,39.59498888888889,-86.81477777777778,INDIANA,ZID,RNAV,11/07/2016
MEWRO,39.864761111111115,-85.98232777777778,INDIANA,ZID,RNAV,12/04/2008
MICKY,39.96501666666667,-81.66720833333333,OHIO,ZID,RP,CTW*VOR/DME*216.07
MIDCO,39.44585,-81.38713333333334,OHIO,ZID,RNAV,04/18/2012
MIDDR,38.26838055555555,-85.74906111111112,KENTUCKY,ZID,RNAV,05/09/2016
MIILR,39.68394444444444,-86.0946861111111,INDIANA,ZID,RNAV,03/25/2015
MILAN,39.35610555555556,-85.31684166666666,INDIANA,ZID,RP,SHB*VOR/DME*123.95/28.81
MILFR,37.03638333333333,-82.43893333333334,VIRGINIA,ZID,RNAV,02/09/2018
MILLK,38.451236111111115,-82.47860833333334,OHIO,ZID,RP,YRK*VORTAC*121.02
MIMMS,39.754191666666664,-84.39093333333334,OHIO,ZID,RP,DQN*VOR/DME*179.99
MIPIE,38.933502777777775,-84.81355833333333,KENTUCKY,ZID,RNAV,04/16/2008
MISSN,38.76311388888889,-83.00089722222222,OHIO,ZID,RP,HNN*VORTAC*273.98/45.75
MIVKE,37.76838333333333,-80.99447222222223,WEST VIRGINIA,ZID,RNAV,06/21/2011
MIXKO,37.96327777777778,-85.53880833333334,KENTUCKY,ZID,RP,IIU*VORTAC*166.69/8.60
MIYDO,39.41674722222222,-86.4136,INDIANA,ZID,RNAV,08/06/2012
MIYOS,39.09827777777778,-86.71673333333334,INDIANA,ZID,RNAV,08/03/2001
MIZBE,40.19713611111111,-85.43105833333334,INDIANA,ZID,RNAV,02/23/2015
MIZZA,39.497058333333335,-84.45674166666667,OHIO,ZID,RP,RID*VORTAC*134.00
MJUDD,39.18685833333333,-87.702175,ILLINOIS,ZID,RNAV,07/17/2013
MKATE,38.10587777777778,-85.70355833333333,KENTUCKY,ZID,RNAV,08/05/2008
MOAKS,39.29518888888889,-84.19591944444444,OHIO,ZID,RP,DQN*VOR/DME*168.78
MOIER,39.11085,-84.09144166666667,OHIO,ZID,RNAV,02/13/2010
MOLLN,39.762302777777776,-85.86461666666666,INDIANA,ZID,RP,SHB*VOR/DME*345.52/8.00
MONTR,39.43428888888889,-84.76759444444444,OHIO,ZID,RNAV,06/27/2007
MONTS,38.21333333333334,-81.415525,WEST VIRGINIA,ZID,RP,BKW*VOR/DME*338.00
MORAN,39.09439722222223,-81.50170277777778,WEST VIRGINIA,ZID,RP,JPU*VOR/DME*198.92/21.61
MOSEW,40.21564444444445,-84.65037222222223,OHIO,ZID,RNAV,01/20/2011
MOSEY,38.709325,-85.37568333333333,KENTUCKY,ZID,RP,FLM*VOR/DME*278.44/50.17
MOSIC,39.401852777777776,-81.13738888888889,WEST VIRGINIA,ZID,RP,AIR*VOR/DME*209.00
MOSLY,39.59558888888889,-86.10720555555555,INDIANA,ZID,RNAV,01/12/2015
MOSQI,40.30903055555555,-83.37861944444444,OHIO,ZID,RNAV,11/10/2016
MOTTS,39.95200555555556,-85.06426666666667,INDIANA,ZID,RP,DQN*VOR/DME*264.06/31.02
MOUTH,39.361241666666665,-86.264575,INDIANA,ZID,RP,SHB*VOR/DME*230.64/26.13
MOWED,39.416441666666664,-84.49830555555556,OHIO,ZID,RP,RID*VORTAC*145.00
MRRRK,39.812305555555554,-86.49926944444445,INDIANA,ZID,RNAV,01/12/2015
MUBDE,39.922041666666665,-86.23773333333334,INDIANA,ZID,RP,VHP*VORTAC*041.94/8.79
MUKFU,38.62492777777778,-86.29842777777777,INDIANA,ZID,RNAV,06/16/2011
MUMIE,39.07189166666667,-85.03125833333333,INDIANA,ZID,RNAV,04/15/2008
MUMME,38.12553055555556,-84.50523888888888,KENTUCKY,ZID,RNAV,08/08/2006
MUMOE,37.35926388888889,-85.31048055555556,KENTUCKY,ZID,RP,EWO*VOR/DME*132.00/23.90
MUNOE,39.895183333333335,-81.63951944444445,OHIO,ZID,RP,ZZV*VOR/DME*109.11/12.00
MURGE,39.49496944444444,-83.73489166666667,OHIO,ZID,RNAV,07/09/2009
MUSKE,39.77050555555555,-86.11306111111111,INDIANA,ZID,RNAV,10/05/2016
MUSKT,39.190524999999994,-83.63318055555555,OHIO,ZID,RP,XSF*TACAN*170.00/40.00
MUSSL,38.077708333333334,-87.533275,INDIANA,ZID,RNAV,04/29/2011
MUZIC,39.28146666666667,-84.567725,OHIO,ZID,RP,RID*VORTAC*159.00
MYDOL,38.76195277777778,-82.8983138888889,OHIO,ZID,RP,YRK*VORTAC*033.00/8.00
MYKEE,38.438069444444444,-82.775775,KENTUCKY,ZID,RNAV,11/08/2010
MYNAS,37.75493888888889,-82.11777777777777,WEST VIRGINIA,ZID,RNAV,06/01/2017
MYTON,37.47361111111111,-85.79583333333333,KENTUCKY,ZID,RNAV,05/09/2016
LAANG,38.14469444444445,-85.63337777777778,KENTUCKY,ZID,RNAV,LKS*LC*117.17
LAFOR,38.08139722222223,-81.07598888888889,WEST VIRGINIA,ZID,RP,BKW*VOR/DME*/18.19
LAFOX,37.08997777777778,-84.18631111111111,KENTUCKY,ZID,RNAV,05/09/2016
LAGNE,36.91390833333333,-85.09305277777777,KENTUCKY,ZID,RNAV,07/10/2013
LAKDE,39.566536111111105,-83.00815555555556,OHIO,ZID,RNAV,07/05/2011
LAKWA,38.04494444444444,-84.56051944444444,KENTUCKY,ZID,RNAV,08/10/2010
LAMAH,39.381775,-84.66733333333333,OHIO,ZID,RP,SIC*LD*004.18/20.89
LAMBS,37.98160555555556,-87.15017777777778,INDIANA,ZID,RP,OWB*VOR/DME*007.00
LAPER,38.86963333333333,-84.64753888888889,KENTUCKY,ZID,RP,EEI*LD*186.21/11.33
LARIC,39.56238333333333,-82.34845555555555,OHIO,ZID,RP,ZZV*VOR/DME*229.06/30.98
LARRY,36.497461111111114,-84.767275,TENNESSEE,ZID,RP,LVT*VOR/DME*107.00/20.00
LATGY,39.65705555555555,-83.98596944444445,OHIO,ZID,RNAV,10/19/2009
LATIC,37.10489722222222,-81.68471944444445,VIRGINIA,ZID,RP,JFZ*LE*071.63/6.37
LATMY,38.06261666666666,-84.460125,KENTUCKY,ZID,RP,HYK*VOR/DME*005.81/5.80
LATTE,39.83871111111112,-86.12741388888888,INDIANA,ZID,RP,VHP*VORTAC*081.54
LAYED,38.76365833333333,-81.79761666666667,WEST VIRGINIA,ZID,RP,HVQ*VOR/DME*360.00/24.85
LAYIV,38.221244444444444,-84.80442222222221,KENTUCKY,ZID,RP,HYK*VOR/DME*314.28
LAZYT,38.035469444444445,-85.38470277777779,KENTUCKY,ZID,RP,EWO*VOR/DME*028.68
LEBNE,39.88277222222222,-84.26916388888888,OHIO,ZID,RP,DQN*VOR/DME*144.63
LEEBR,39.67375,-85.98851111111111,INDIANA,ZID,RP,SHB*VOR/DME*287.04/8.00
LEEDS,39.98856111111111,-84.69071111111111,OHIO,ZID,RP,DQN*VOR/DME*264.06/13.65
LEENE,38.078522222222226,-85.73303888888888,KENTUCKY,ZID,RNAV,06/05/2012
LEEVE,38.86406111111111,-86.52428888888889,INDIANA,ZID,RNAV,02/23/2015
LEFEJ,37.688716666666664,-85.47856666666667,KENTUCKY,ZID,CN,10/06/2000
LEFTE,39.65074722222222,-83.56177777777778,OHIO,ZID,RP,RHX*LD*043.32/18.00
LEFVO,37.50286111111111,-85.6325111111111,KENTUCKY,ZID,RP,EWO*VOR/DME*164.00/8.00
LEKNE,40.23123888888889,-83.71198055555556,OHIO,ZID,RNAV,07/15/2010
LEKRE,39.94806944444444,-86.1555388888889,INDIANA,ZID,RNAV,02/23/2015
LENBE,37.797775,-87.07346666666666,KENTUCKY,ZID,RNAV,11/06/2012
LENRD,40.56951666666667,-82.01663888888889,OHIO,ZID,RP,CTW*VOR/DME*316.67/32.08
LEONE,37.98679722222222,-81.09179166666667,WEST VIRGINIA,ZID,RP,BKW*VOR/DME*/12.47
LETCO,37.45358055555556,-83.33494722222221,KENTUCKY,ZID,RNAV,AZQ*VOR/DME*321.39/5.08
LEVII,38.37211111111111,-81.09766388888889,WEST VIRGINIA,ZID,RNAV,07/01/2013
LEWSS,38.02483888888889,-85.78906111111111,KENTUCKY,ZID,RNAV,05/09/2016
LEXII,40.253683333333335,-83.00224444444444,OHIO,ZID,RP,APE*VORTAC*294.05/20.00
LEXKO,37.30018611111111,-85.39576111111111,KENTUCKY,ZID,RNAV,10/07/2014
LICAJ,39.00706944444445,-84.27771666666666,OHIO,ZID,RNAV,03/28/2012
LIENS,37.95566111111111,-81.71428611111111,WEST VIRGINIA,ZID,RNAV,06/01/2017
LIFDI,38.794983333333334,-83.86350833333333,OHIO,ZID,RNAV,02/03/2004
LIKCI,37.00691388888889,-84.11442222222222,KENTUCKY,ZID,RNAV,08/14/2012
LIMPS,39.830061111111114,-83.20083333333334,OHIO,ZID,RP,APE*VORTAC*241.93/34.18
LISLE,39.05866944444444,-87.35628888888888,INDIANA,ZID,RP,TTH*VORTAC*189.00/26.27
LISTE,39.67829166666667,-85.794575,INDIANA,ZID,RNAV,03/15/2007
LIVES,38.543144444444444,-81.78454722222222,WEST VIRGINIA,ZID,RP,HVQ*VOR/DME*359.60/11.60
LIVRE,38.34263888888889,-82.48065277777778,WEST VIRGINIA,ZID,RP,TUU*LS*118.38
LIYNE,38.84246666666667,-86.18065277777778,INDIANA,ZID,RNAV,09/03/2014
LLARY,39.87473888888889,-86.08118333333333,INDIANA,ZID,RP,VHP*VORTAC*073.70
LLAWS,38.335325000000005,-85.6946638888889,INDIANA,ZID,RNAV,01/18/2013
LNDIZ,37.11225833333334,-81.75275833333333,VIRGINIA,ZID,RNAV,06/24/2015
LODLL,38.80723888888889,-84.38005833333332,KENTUCKY,ZID,RP,CVG*VORTAC*133.47
LODPE,39.50142777777778,-87.93365277777778,ILLINOIS,ZID,RNAV,06/28/2010
LOFKI,37.120936111111114,-84.53748611111111,KENTUCKY,ZID,WP,11/02/1998
LOFWU,38.731902777777776,-86.27575555555555,INDIANA,ZID,RNAV,06/16/2011
LOGIC,37.88411388888889,-84.033825,KENTUCKY,ZID,RP,HYK*VOR/DME*103.20/21.40
LOGOZ,39.1408,-84.66831111111111,OHIO,ZID,RP,SIC*LD*004.08/6.45
LONIY,39.04441388888889,-85.93761111111111,INDIANA,ZID,RNAV,02/17/2006
LOOMP,39.95161944444445,-83.86090277777777,OHIO,ZID,MR,FFO*TACAN*/12.00
LOONE,37.737341666666666,-86.75500555555556,KENTUCKY,ZID,RNAV,03/10/2015
LOPYU,39.20491388888889,-85.37738888888889,INDIANA,ZID,RP,CVG*VORTAC*294.00/33.45
LOREE,37.475230555555555,-87.20983611111112,KENTUCKY,ZID,RNAV,03/30/2009
LORIC,37.660552777777774,-82.70535277777778,KENTUCKY,ZID,RNAV,10/07/2014
LORON,39.71098888888889,-84.24771666666666,OHIO,ZID,MR,FFO*TACAN*238.00/11.00
LOTAC,39.79450833333333,-85.12967499999999,INDIANA,ZID,RNAV,08/01/2006
LOVEY,39.213547222222225,-85.40862222222223,INDIANA,ZID,RP,CVG*VORTAC*294.00/35.00
LOVNS,39.90258333333333,-85.97112222222222,INDIANA,ZID,RNAV,01/12/2015
LOWAK,37.81716388888889,-81.99323055555556,WEST VIRGINIA,ZID,RNAV,12/13/2012
LRLEI,37.996122222222226,-88.12359166666666,ILLINOIS,ZID,RNAV,08/19/2011
LUDJU,39.448902777777775,-87.85005555555556,ILLINOIS,ZID,RNAV,06/28/2010
LUKMY,38.853144444444446,-87.6021111111111,ILLINOIS,ZID,RNAV,05/22/2012
LUKYE,36.49538888888889,-84.53402222222222,TENNESSEE,ZID,RNAV,08/07/2013
LULOC,39.53818333333333,-84.244675,OHIO,ZID,RNAV,01/27/2016
LULOU,37.380272222222224,-86.6071361111111,KENTUCKY,ZID,RNAV,09/20/2012
LUNEY,39.97094444444445,-87.69373333333334,ILLINOIS,ZID,RP,CMI*VORTAC*094.89/27.12
LUPCE,39.243316666666665,-87.31041666666667,INDIANA,ZID,RP,TTH*VORTAC*189.00/15.00
LUPIC,39.199041666666666,-85.81420555555555,INDIANA,ZID,RNAV,02/17/2006
LUPUC,38.73547777777778,-82.84211111111111,OHIO,ZID,RNAV,08/12/2008
LUSHU,40.590697222222225,-84.32848333333332,OHIO,ZID,RNAV,12/31/2009
LUUKE,38.17892222222222,-85.9006138888889,INDIANA,ZID,RNAV,06/05/2012
LYDIC,37.238908333333335,-82.43555833333333,VIRGINIA,ZID,RNAV,02/09/2018
LYMEE,39.349675000000005,-83.877625,OHIO,ZID,RNAV,07/09/2009
LYREE,38.52814444444444,-86.525525,INDIANA,ZID,RNAV,01/20/2011
YABUC,39.782291666666666,-82.96656388888889,OHIO,ZID,RNAV,07/05/2011
YABUD,39.83174166666667,-86.24904722222222,INDIANA,ZID,RP,VHP*VORTAC*078.41
YACUK,39.155075,-84.38874166666668,OHIO,ZID,RNAV,07/25/2012
YAGRR,38.32000555555556,-85.77671111111111,INDIANA,ZID,RNAV,04/15/2013
YANKO,39.88054722222222,-83.95311666666667,OHIO,ZID,MR,FFO*TACAN*056.00/6.00
YANUG,39.048899999999996,-82.75062222222222,OHIO,ZID,RNAV,08/12/2008
YANUR,38.58245,-84.46550833333333,KENTUCKY,ZID,RNAV,10/28/2013
YAPUT,38.17198055555556,-84.4727,KENTUCKY,ZID,RNAV,06/21/2010
YASXI,36.44616388888888,-85.29138888888889,TENNESSEE,ZID,RNAV,01/18/2001
YATUB,37.26003333333333,-81.24780277777778,WEST VIRGINIA,ZID,RNAV,12/31/2009
YAYUY,39.27319444444444,-85.90936388888889,INDIANA,ZID,RNAV,02/22/2006
YEAAR,39.757625,-86.31963888888889,INDIANA,ZID,RP,VHP*VORTAC*146.10
YEBTO,39.67673611111111,-84.17468333333333,OHIO,ZID,RNAV,07/30/2012
YEBUC,39.92405833333333,-86.03501666666666,INDIANA,ZID,RP,SHB*VOR/DME*329.92/20.01
YECUV,38.89745833333333,-82.07370833333333,WEST VIRGINIA,ZID,RNAV,01/24/2013
YEDUK,40.46563888888889,-83.801025,OHIO,ZID,RNAV,12/03/2010
YEGUT,40.30223055555555,-83.56749722222222,OHIO,ZID,RNAV,07/13/2010
YEJSA,37.10570833333333,-85.38677777777778,KENTUCKY,ZID,RNAV,01/10/2001
YERKU,39.64523055555556,-83.14544444444445,OHIO,ZID,RP,DDV*LD*232.30
YERPE,36.62088055555556,-85.10553055555555,KENTUCKY,ZID,RNAV,01/10/2001
YERUN,39.98613888888889,-83.57867222222222,OHIO,ZID,MR,XSF*TACAN*/15.00
YIBUP,38.02909722222222,-84.72244722222223,KENTUCKY,ZID,RNAV,08/10/2010
YILEJ,39.94085,-85.175775,INDIANA,ZID,RP,DQN*VOR/DME*264.06/36.21
YINNO,39.387347222222225,-87.39629444444445,INDIANA,ZID,RP,TTH*VORTAC*/9.19
YISUG,39.78933055555555,-81.7345,OHIO,ZID,RNAV,09/03/2013
YISUK,38.016819444444444,-81.08677499999999,WEST VIRGINIA,ZID,RNAV,06/22/2011
YIVUN,39.58044166666667,-84.42886111111112,OHIO,ZID,RNAV,04/17/2012
YIYUL,39.226711111111115,-83.48205,OHIO,ZID,RNAV,12/27/2012
YNONA,38.566788888888894,-82.8474,KENTUCKY,ZID,RNAV,05/27/2011
YOCKY,37.65410833333333,-84.15623611111111,KENTUCKY,ZID,RP,FLM*VOR/DME*176.97/60.10
YODTU,40.21665555555556,-83.43635833333333,OHIO,ZID,RNAV,03/13/2012
YOGUB,37.85896944444445,-80.82146388888889,WEST VIRGINIA,ZID,RNAV,06/22/2011
YOGUP,38.170408333333334,-81.59713888888888,WEST VIRGINIA,ZID,RNAV,05/09/2013
YONDU,39.731500000000004,-83.88866111111112,OHIO,ZID,RNAV,11/03/2006
YONUB,38.76949166666667,-87.34685555555555,INDIANA,ZID,RNAV,05/23/2012
YONUG,39.8357,-87.08847222222222,INDIANA,ZID,RNAV,10/05/2016
YOPDU,40.07268333333334,-83.19380833333334,OHIO,ZID,RNAV,01/14/2011
YOSKU,39.60090833333334,-85.13196666666666,INDIANA,ZID,RNAV,05/30/2012
YOSUN,39.62866666666667,-83.65287222222223,OHIO,ZID,RNAV,05/08/2007
YOTYU,37.876894444444446,-84.72532222222222,KENTUCKY,ZID,RNAV,10/12/2006
YOVUC,39.633380555555554,-84.23566666666667,OHIO,ZID,RNAV,08/13/2013
YOYGU,37.66054166666667,-85.98014166666667,KENTUCKY,ZID,RNAV,04/12/2006
YUKUB,38.76671388888889,-87.72811388888888,ILLINOIS,ZID,RNAV,05/23/2012
YULUN,37.61096944444444,-85.13716666666667,KENTUCKY,ZID,RNAV,02/24/2016
YUNDV,38.25476111111111,-85.88109722222221,INDIANA,ZID,RNAV,06/06/2012
YUPUR,39.21331666666667,-85.93922222222223,INDIANA,ZID,RNAV,02/17/2006
YUXZY,40.73243055555556,-84.09439166666667,OHIO,ZID,RNAV,12/26/2013
UBDOW,39.12446111111111,-83.03130833333333,OHIO,ZID,RNAV,12/19/2014
UBHES,37.501775,-82.71955555555556,KENTUCKY,ZID,RNAV,10/07/2014
UBIRE,37.645325,-82.24798611111112,KENTUCKY,ZID,RNAV,09/14/2011
UBUKY,36.375575,-85.34593055555555,TENNESSEE,ZID,RNAV,01/18/2001
UBYON,37.0899,-85.2845,KENTUCKY,ZID,RNAV,03/04/2015
UCALO,37.457438888888895,-86.85488333333333,KENTUCKY,ZID,RP,CCT*VORTAC*077.92/20.05
UCAYU,40.706636111111116,-84.30502222222222,OHIO,ZID,RP,FWA*VORTAC*111.82/43.40
UCECU,39.893766666666664,-82.66601111111112,OHIO,ZID,RNAV,12/02/2008
UCFEX,38.889852777777776,-87.12981388888888,INDIANA,ZID,RNAV,09/12/2014
UCOBI,36.69311388888889,-85.12954444444443,KENTUCKY,ZID,RNAV,08/01/2016
UCUCU,37.99039444444445,-86.65496111111112,INDIANA,ZID,RNAV,06/30/2011
UCYUZ,38.36969166666667,-81.60238333333332,WEST VIRGINIA,ZID,RP,HCV*LD*231.70/0.10
UGKUJ,37.70178888888889,-87.16540555555557,KENTUCKY,ZID,RNAV,09/13/2012
UGNIQ,37.766308333333335,-83.96821944444444,KENTUCKY,ZID,RNAV,08/13/2013
UHAGY,39.860475,-83.20695833333333,OHIO,ZID,RNAV,02/09/2018
UHOBI,39.48023888888889,-84.81336666666667,OHIO,ZID,RNAV,04/17/2012
UHZAW,40.39018055555555,-85.13935277777779,INDIANA,ZID,RNAV,01/21/2015
UJOYU,38.97600833333333,-81.81757499999999,OHIO,ZID,RP,HVQ*VOR/DME*359.60/37.61
UKATS,40.13457777777778,-82.62005555555555,OHIO,ZID,RNAV,05/09/2016
UKESY,39.20926666666667,-82.82551666666666,OHIO,ZID,RNAV,12/19/2014
UKICU,38.562219444444445,-82.80659444444444,KENTUCKY,ZID,RNAV,05/27/2011
UMEXE,40.72881666666667,-84.05080277777778,OHIO,ZID,RNAV,12/26/2013
UMODE,37.14141388888889,-83.81825277777777,KENTUCKY,ZID,RNAV,08/02/2006
UMPTA,38.82041388888889,-84.66960277777778,KENTUCKY,ZID,RP,CVG*LD*186.18/14.83
UNCKL,37.48135555555556,-84.71633055555556,KENTUCKY,ZID,RP,LOZ*VOR/DME*315.95/39.56
UNCOD,38.88968333333333,-86.51519166666667,INDIANA,ZID,RNAV,05/09/2016
UNDOZ,37.90802222222222,-85.45303055555556,KENTUCKY,ZID,RNAV,02/20/2018
UNICI,38.26926111111111,-83.56311944444444,KENTUCKY,ZID,RNAV,07/15/2014
UNNOG,36.67761111111111,-85.01482222222222,KENTUCKY,ZID,RNAV,06/21/2013
UNOIT,39.99912777777778,-82.8359,OHIO,ZID,RP,ONB*LD*101.22/3.49
UNSAW,39.15887222222222,-81.53622222222222,WEST VIRGINIA,ZID,RNAV,04/09/2012
UPDEW,38.09560277777778,-84.63610277777778,KENTUCKY,ZID,RNAV,06/21/2010
UPODE,36.612319444444445,-83.73525555555555,KENTUCKY,ZID,RNAV,03/20/2007
UPRAW,38.201594444444446,-84.41954166666667,KENTUCKY,ZID,RNAV,08/08/2006
UPSCO,38.029358333333334,-85.677525,KENTUCKY,ZID,RP,IIU*VORTAC*225.91
UPZIS,37.27369722222222,-83.94543055555556,KENTUCKY,ZID,RNAV,08/08/2006
URAYE,38.367647222222224,-84.23570833333333,KENTUCKY,ZID,RNAV,06/21/2010
URCUR,39.18219722222222,-86.51726666666667,INDIANA,ZID,RNAV,07/09/2001
URFUZ,37.443175,-83.370375,KENTUCKY,ZID,RP,AZQ*VOR/DME*305.26/6.00
UROCU,38.50791944444445,-81.40305000000001,WEST VIRGINIA,ZID,CN,03/02/2010
URZUK,38.50235833333333,-83.862675,KENTUCKY,ZID,RNAV,03/31/2009
USECE,39.77175277777778,-86.52613055555555,INDIANA,ZID,RNAV,01/13/2016
USEPE,40.02954444444445,-82.34080555555555,OHIO,ZID,RNAV,07/01/2016
USOCU,37.99917222222222,-87.56709444444444,INDIANA,ZID,RNAV,08/13/2014
USOPY,39.524794444444446,-84.75469444444444,OHIO,ZID,RNAV,04/17/2012
USUDE,40.450208333333336,-82.79143055555555,OHIO,ZID,RNAV,06/29/2011
UTESE,36.864111111111114,-83.8891888888889,KENTUCKY,ZID,RNAV,07/26/2016
UTEYU,39.94009166666666,-85.15534444444445,INDIANA,ZID,RNAV,01/20/2011
UTTER,40.31537222222222,-82.34218333333332,OHIO,ZID,RNAV,12/07/2017
UUKAY,37.938624999999995,-84.85536388888889,KENTUCKY,ZID,RNAV,08/08/2006
UWHUH,37.94093888888889,-85.96856944444444,KENTUCKY,ZID,RP,FTK*VOR/DME*006.36/2.03
UXACI,39.30096388888889,-87.31665277777778,INDIANA,ZID,RNAV,09/26/2014
UXREL,39.18993888888888,-82.27955833333333,OHIO,ZID,RNAV,10/05/2017
UXZOR,37.87934444444444,-88.12426111111111,ILLINOIS,ZID,RP,PXV*VORTAC*257.42/17.43
UYOGO,40.01509166666666,-84.019725,OHIO,ZID,RP,ROD*VORTAC*181.23
UYOKO,39.60115555555556,-84.22016666666667,OHIO,ZID,RNAV,11/03/2006
UZAZA,40.54407222222222,-83.71602222222222,OHIO,ZID,RNAV,12/03/2010
UZMUR,37.109119444444445,-84.31771388888889,KENTUCKY,ZID,RNAV,06/21/2006
UZNAP,36.88606111111111,-83.91156111111111,KENTUCKY,ZID,RNAV,07/26/2016
UZXAM,38.377383333333334,-84.33474444444444,KENTUCKY,ZID,RNAV,10/07/2014
KAEDN,38.24991111111111,-85.6416638888889,KENTUCKY,ZID,RNAV,05/09/2016
KAGGO,36.58558333333333,-85.16971944444445,TENNESSEE,ZID,RNAV,08/07/2013
KAILS,38.88823333333333,-85.94456666666667,INDIANA,ZID,RNAV,09/03/2014
KAKLY,37.56944166666667,-81.66343333333334,WEST VIRGINIA,ZID,RNAV,01/08/2018
KANCO,38.302299999999995,-81.68995555555556,WEST VIRGINIA,ZID,RP,HVQ*VOR/DME*129.93
KANOA,37.22666388888889,-85.504725,KENTUCKY,ZID,RNAV,10/07/2014
KAPLE,37.574780555555556,-82.77027222222222,KENTUCKY,ZID,RNAV,10/07/2014
KAPRE,38.960425,-85.70237222222222,INDIANA,ZID,RNAV,08/18/2016
KAPTE,39.78355555555555,-83.94382777777778,OHIO,ZID,RNAV,10/19/2009
KARYL,39.866258333333334,-81.6385138888889,OHIO,ZID,RP,APE*VORTAC*117.00/47.00
KAVCO,37.559016666666665,-83.40018333333335,KENTUCKY,ZID,RP,AZQ*VOR/DME*330.95/12.00
KAVME,39.04654722222222,-84.79226944444444,KENTUCKY,ZID,RP,URN*LD*W CRS/6.63
KAYDE,39.04528055555556,-84.38877222222223,OHIO,ZID,RP,FLM*VOR/DME*355.25
KAYRU,38.30169722222222,-80.80420555555555,WEST VIRGINIA,ZID,RNAV,11/07/2011
KEADY,39.860025,-86.45480833333333,INDIANA,ZID,RP,VHP*VORTAC*302.97/4.86
KEBNE,38.79968611111111,-87.60148888888888,ILLINOIS,ZID,RNAV,05/22/2012
KECEG,38.00836666666667,-87.55799166666667,INDIANA,ZID,RP,OWB*VOR/DME*314.56
KEDLE,37.506436111111114,-85.81421388888889,KENTUCKY,ZID,RP,EWO*VOR/DME*220.33/10.00
KEEEF,38.81707777777778,-84.64778611111112,KENTUCKY,ZID,RP,EEI*LD*S CRS/14.47
KEELY,39.16135277777778,-84.38586388888889,OHIO,ZID,RP,LUK*LD*025.01/4.59
KEFLI,39.50969166666667,-82.94129166666667,OHIO,ZID,RNAV,04/18/2012
KEGLY,37.47478888888889,-81.28595833333333,WEST VIRGINIA,ZID,RP,BLF*VOR/DME*339.54/11.00
KEKEE,39.53816666666666,-84.28924722222222,OHIO,ZID,RP,CVG*VORTAC*035.52/36.77
KELEI,38.2267,-85.74481111111112,KENTUCKY,ZID,RP,PKI*LD*N CRS/3.94
KELLY,39.41367777777778,-86.67137222222223,INDIANA,ZID,RP,SHB*VOR/DME*250.82/41.46
KEMKE,37.938805555555554,-84.42850555555556,KENTUCKY,ZID,RNAV,01/16/2018
KENLN,38.4575,-84.50777777777778,KENTUCKY,ZID,RP,CVG*VORTAC*168.60/34.71
KENYA,37.32347777777778,-81.54662222222223,WEST VIRGINIA,ZID,RP,BLF*VOR/DME*276.57/16.90
KETTA,38.699152777777776,-81.46857777777778,WEST VIRGINIA,ZID,RP,HVQ*VOR/DME*037.02/25.39
KEVGE,38.389938888888885,-82.62655833333332,KENTUCKY,ZID,RNAV,09/25/2012
KI42Q,37.0,-84.0,KENTUCKY,ZID,NRS,03/05/2005
KI45O,37.5,-86.0,KENTUCKY,ZID,NRS,03/05/2005
KI45Q,37.5,-84.0,KENTUCKY,ZID,NRS,03/05/2005
KI45S,37.5,-82.0,VIRGINIA,ZID,NRS,03/05/2005
KI48M,38.0,-88.0,INDIANA,ZID,NRS,03/05/2005
KI48O,38.0,-86.0,KENTUCKY,ZID,NRS,03/05/2005
KI48Q,38.0,-84.0,KENTUCKY,ZID,NRS,03/05/2005
KI48S,38.0,-82.0,WEST VIRGINIA,ZID,NRS,03/05/2005
KI51M,38.5,-88.0,ILLINOIS,ZID,NRS,03/05/2005
KI51O,38.5,-86.0,INDIANA,ZID,NRS,03/05/2005
KI51Q,38.5,-84.0,KENTUCKY,ZID,NRS,03/05/2005
KI51S,38.5,-82.0,WEST VIRGINIA,ZID,NRS,03/05/2005
KI54M,39.0,-88.0,ILLINOIS,ZID,NRS,03/05/2005
KI54O,39.0,-86.0,INDIANA,ZID,NRS,03/05/2005
KI54Q,39.0,-84.0,OHIO,ZID,NRS,03/05/2005
KI54S,39.0,-82.0,WEST VIRGINIA,ZID,NRS,03/05/2005
KI57M,39.5,-88.0,ILLINOIS,ZID,NRS,03/05/2005
KI57O,39.5,-86.0,INDIANA,ZID,NRS,03/05/2005
KI57Q,39.5,-84.0,OHIO,ZID,NRS,03/05/2005
KI57S,39.5,-82.0,OHIO,ZID,NRS,03/05/2005
KI60M,40.0,-88.0,ILLINOIS,ZID,NRS,03/05/2005
KI60O,40.0,-86.0,INDIANA,ZID,NRS,03/05/2005
KI60Q,40.0,-84.0,OHIO,ZID,NRS,03/05/2005
KI60S,40.0,-82.0,OHIO,ZID,NRS,03/05/2005
KI63Q,40.5,-84.0,OHIO,ZID,NRS,03/05/2005
KI63S,40.5,-82.0,OHIO,ZID,NRS,03/05/2005
KICEK,36.72108888888889,-84.22908333333334,KENTUCKY,ZID,RNAV,08/14/2012
KICSE,38.2034,-84.85068333333332,KENTUCKY,ZID,RNAV,04/23/2013
KIRKS,39.46109444444445,-84.77303611111111,OHIO,ZID,RNAV,04/20/2009
KIRON,40.19202222222222,-84.22130833333334,OHIO,ZID,RP,ROD*VORTAC*240.01/10.00
KIRRA,40.416333333333334,-83.35843888888888,OHIO,ZID,RNAV,11/01/2016
KIRRK,38.293252777777774,-82.32876944444445,WEST VIRGINIA,ZID,RP,TUU*LS*118.38
KITCE,37.65753055555555,-85.354175,KENTUCKY,ZID,RNAV,02/24/2016
KITTI,39.68546666666666,-84.41932777777778,OHIO,ZID,MW,11/20/2012
KIYSI,39.56146388888889,-87.05505,INDIANA,ZID,RP,TTH*VORTAC*062.17/10.00
KLARC,39.36168055555556,-83.99753333333334,OHIO,ZID,RP,DQN*VOR/DME*155.64
KLEPR,39.22461666666667,-84.66797222222223,OHIO,ZID,RP,SIC*LD*004.18/11.47
KLOAK,37.663980555555554,-84.94384166666667,KENTUCKY,ZID,MR,IIU*VORTAC*130.00/40.00
KMETZ,39.25466111111111,-87.19778055555555,INDIANA,ZID,RNAV,06/21/2005
KNEDY,38.660938888888886,-84.01349722222223,KENTUCKY,ZID,RNAV,11/24/2006
KNIGT,39.66854166666666,-86.20261111111111,INDIANA,ZID,RNAV,01/12/2015
KNITE,39.30161111111111,-83.92467500000001,OHIO,ZID,RP,03/25/2010
KOCUJ,39.44761111111111,-87.457525,INDIANA,ZID,RP,TTH*VORTAC*253.72/10.00
KOGDE,39.877269444444444,-85.43298333333334,INDIANA,ZID,RNAV,02/06/2018
KOGLE,39.24587777777778,-83.31917222222222,OHIO,ZID,RNAV,04/13/2009
KOLNY,40.08614444444445,-82.84687777777778,OHIO,ZID,RNAV,01/14/2011
KOLTS,39.84088333333334,-88.09208888888888,ILLINOIS,ZID,RNAV,01/12/2015
KONGO,37.505405555555555,-82.13682222222224,KENTUCKY,ZID,RP,BKW*VOR/DME*257.47/51.02
KONVY,39.07730555555556,-85.55824722222222,INDIANA,ZID,RNAV,06/28/2009
KOSME,38.16191944444444,-82.39715000000001,WEST VIRGINIA,ZID,RNAV,09/25/2012
KOXVU,38.951175000000006,-86.6180111111111,INDIANA,ZID,RNAV,06/16/2011
KOYDE,39.82928888888889,-85.61950555555555,INDIANA,ZID,RNAV,10/15/2008
KOYEK,39.07886944444445,-82.56675277777778,OHIO,ZID,RNAV,08/03/2004
KOYGE,38.590786111111115,-85.59799722222222,INDIANA,ZID,RNAV,03/06/2018
KREEM,39.57750277777778,-86.24047222222222,INDIANA,ZID,RNAV,03/25/2015
KRTHY,39.14725833333333,-84.68344722222223,OHIO,ZID,RP,CJN*LD*006.17/6.14
KTRYN,36.92123611111111,-82.879325,KENTUCKY,ZID,RNAV,07/26/2016
KUDNE,39.230269444444446,-85.87754166666666,INDIANA,ZID,RNAV,02/17/2006
KUDUZ,37.030677777777775,-82.26205277777778,VIRGINIA,ZID,RNAV,10/16/2006
KUDZU,38.356033333333336,-82.38176944444444,WEST VIRGINIA,ZID,RNAV,02/10/2014
KUGEW,39.78581111111111,-82.96195555555556,OHIO,ZID,RP,DDV*LD*052.30/3.52
KURTZ,38.97219166666667,-86.09264999999999,INDIANA,ZID,RP,PXV*VORTAC*048.00/100.54
KUSSH,39.89744722222222,-83.93487222222222,OHIO,ZID,MW,12/31/2012
KUSSS,39.83454722222223,-81.62271944444444,OHIO,ZID,RP,CTW*VOR/DME*202.95
KUTAW,40.203388888888895,-83.57499166666666,OHIO,ZID,RNAV,03/13/2012
KUTGE,38.10190277777778,-85.9843,INDIANA,ZID,RP,FTK*VOR/DME*358.27
KUTPE,39.1029,-88.07237222222221,ILLINOIS,ZID,RNAV,06/28/2010
KUVNY,37.833536111111115,-81.90267777777778,WEST VIRGINIA,ZID,RNAV,09/14/2011
KUYEY,39.28741111111111,-84.32327777777778,OHIO,ZID,RNAV,12/09/2008
KYKAT,38.71246388888889,-84.64827222222223,KENTUCKY,ZID,RP,EEI*LD*186.21/20.75
KYYLL,39.588816666666666,-86.336625,INDIANA,ZID,RNAV,10/05/2016
RACEN,39.88344722222222,-86.09436944444444,INDIANA,ZID,RP,VHP*VORTAC*070.84
RACRR,38.377697222222224,-85.79656666666666,INDIANA,ZID,RP,PKI*LD*349.91/13.31
RACYR,39.111825,-86.8974,INDIANA,ZID,RP,VHP*VORTAC*209.47/48.80
RAFFN,38.863886111111114,-81.89516111111112,WEST VIRGINIA,ZID,RP,HNN*VORTAC*046.00/9.00
RAGUE,37.41523055555555,-85.38518611111112,KENTUCKY,ZID,RP,EWO*VOR/DME*132.00/19.00
RAJAH,39.305927777777775,-82.99688333333333,OHIO,ZID,RNAV,02/12/2016
RAKNE,38.952486111111114,-81.99513055555556,WEST VIRGINIA,ZID,RNAV,02/02/2010
RALRE,39.73313888888889,-84.12625833333333,OHIO,ZID,RNAV,11/26/2014
RAMEY,39.74571666666667,-86.10397222222221,INDIANA,ZID,RNAV,01/12/2015
RAMSE,39.45286388888889,-87.20426666666667,INDIANA,ZID,RNAV,05/09/2016
RAPBO,39.80851388888889,-86.01113333333333,INDIANA,ZID,RNAV,10/09/2008
RAPGE,38.81525277777777,-81.07108611111111,WEST VIRGINIA,ZID,RNAV,07/30/2012
RAVES,39.663377777777775,-81.60379166666667,OHIO,ZID,RP,AIR*VOR/DME*247.00
RAXEW,37.721561111111114,-84.34311388888888,KENTUCKY,ZID,RNAV,09/13/2012
RAYOC,37.97981388888889,-84.46475833333334,KENTUCKY,ZID,RNAV,01/31/2018
RDBRD,37.90736944444444,-85.65676666666667,KENTUCKY,ZID,RP,IIU*VORTAC*196.77
RDSTN,38.38961388888889,-85.306375,KENTUCKY,ZID,RP,HYK*VOR/DME*303.00
REBAA,38.0631,-84.37200555555555,KENTUCKY,ZID,RNAV,08/10/2010
REBEL,37.73280555555556,-84.38081388888888,KENTUCKY,ZID,RP,HYK*VOR/DME*162.70/14.67
REDKE,40.342711111111115,-85.15899722222223,INDIANA,ZID,RP,FWA*VORTAC*184.00/38.18
REDLG,39.091944444444444,-87.07722222222222,INDIANA,ZID,RNAV,05/09/2016
REILY,37.72186666666667,-84.5306138888889,KENTUCKY,ZID,RP,HYK*VOR/DME*190.69/14.91
REMPE,38.82996944444445,-84.2685,KENTUCKY,ZID,RP,CVG*VORTAC*122.57
RENRO,37.48070277777778,-86.65534722222223,KENTUCKY,ZID,RP,CCT*VORTAC*079.36/29.66
REROC,38.93145,-82.58351944444443,OHIO,ZID,RNAV,08/03/2004
RGERS,39.226444444444446,-83.15042777777778,OHIO,ZID,RP,AIR*VOR/DME*254.09/118.10
RHOMM,38.764633333333336,-83.5225138888889,OHIO,ZID,RP,YRK*VORTAC*290.95/26.56
RHYNO,39.20595277777778,-84.01791388888888,OHIO,ZID,RP,MXQ*VOR/DME*016.78
RIBER,39.795741666666665,-86.20681111111111,INDIANA,ZID,RP,VHP*VORTAC*097.65
RIBIW,37.810519444444445,-86.58897499999999,KENTUCKY,ZID,RNAV,07/04/2011
RIBVE,37.35633888888889,-81.1387388888889,WEST VIRGINIA,ZID,RP,BLF*VOR/DME*044.61/4.00
RIDDY,37.889072222222225,-88.05303333333333,ILLINOIS,ZID,RP,PXV*VORTAC*257.42/14.00
RIJEW,38.35087222222222,-83.99054444444444,KENTUCKY,ZID,RNAV,08/13/2013
RIKGO,39.675463888888885,-83.11118888888889,OHIO,ZID,RP,XUB*VOR*330.29
RIKLE,39.830555555555556,-84.12166666666666,OHIO,ZID,RP,APE*VORTAC*261.29
RIKOE,40.033741666666664,-83.79503888888888,OHIO,ZID,RNAV,08/03/2010
RILLY,39.392158333333334,-87.39701666666667,INDIANA,ZID,RP,TTH*VORTAC*227.90/9.00
RINGR,40.335925,-82.59416666666667,OHIO,ZID,RNAV,06/29/2011
RINTE,40.28780833333333,-84.04291944444444,OHIO,ZID,RNAV,01/12/2015
RISHI,39.780902777777776,-84.31574722222221,OHIO,ZID,RNAV,04/11/2014
RISTE,37.15081111111111,-82.9734388888889,KENTUCKY,ZID,RP,AZQ*VOR/DME*140.01/20.00
RISZO,37.55062777777778,-86.1048861111111,KENTUCKY,ZID,RP,EWO*VOR/DME*255.75/21.03
RITEY,39.65556111111111,-83.57624722222222,OHIO,ZID,RP,SGH*VOR/DME*135.02
RITOQ,40.08197777777778,-82.95713055555557,OHIO,ZID,RNAV,01/14/2011
ROBOW,40.018030555555555,-85.37619722222222,INDIANA,ZID,RP,AI*NDB*119.44
ROBSN,40.05204722222222,-85.4942138888889,INDIANA,ZID,RNAV,08/30/2011
ROCCO,37.633322222222226,-85.50803888888889,KENTUCKY,ZID,RP,EWO*VOR/DME*088.33/8.00
ROCKT,39.60736666666667,-82.87021388888888,OHIO,ZID,RNAV,02/13/2010
RODIC,38.2529,-82.35588055555554,WEST VIRGINIA,ZID,RP,YRK*VORTAC*133.44
ROGIE,39.60616111111111,-86.22733333333333,INDIANA,ZID,RNAV,01/12/2015
ROHDE,39.07240277777778,-82.66082777777778,OHIO,ZID,RP,YRK*VORTAC*035.00/29.67
RONCO,39.201172222222226,-82.09671388888889,OHIO,ZID,RP,FLM*VOR/DME*075.61
ROPRR,38.972794444444446,-84.68411111111112,KENTUCKY,ZID,RP,VAC*LD*186.17/6.04
RORAE,39.514433333333336,-87.36473333333333,INDIANA,ZID,RNAV,08/06/2012
RORTY,36.92479722222222,-83.95105833333334,KENTUCKY,ZID,RNAV,07/26/2016
ROSAR,36.85250833333333,-83.49495277777778,KENTUCKY,ZID,RP,AZQ*VOR/DME*203.09/34.15
ROSCO,40.193327777777775,-82.00646666666667,OHIO,ZID,RP,CTW*VOR/DME*272.12/24.46
ROSSY,40.268825,-84.60170555555555,OHIO,ZID,RP,DQN*VOR/DME*329.15/17.83
ROSUE,39.90258333333333,-84.91157222222223,INDIANA,ZID,RNAV,08/06/2012
ROVGE,39.83076666666667,-84.32121111111111,OHIO,ZID,RNAV,04/11/2014
ROYYZ,38.94136944444444,-84.9361638888889,INDIANA,ZID,RNAV,02/06/2017
ROZUV,39.14801388888889,-86.37224444444443,INDIANA,ZID,RNAV,07/09/2001
RRROE,38.276583333333335,-85.80830833333333,KENTUCKY,ZID,RNAV,01/18/2013
RRUSH,37.70643333333334,-88.0837111111111,KENTUCKY,ZID,RNAV,06/19/2012
RSADE,39.791425,-86.36417777777777,INDIANA,ZID,RP,VHP*VORTAC*172.72
RUHEE,38.247930555555556,-85.62079999999999,KENTUCKY,ZID,RNAV,11/03/2011
RUJAP,37.68626111111111,-82.41271666666667,KENTUCKY,ZID,RNAV,09/14/2011
RULEY,38.43467222222222,-82.11247499999999,WEST VIRGINIA,ZID,RP,HVQ*VOR/DME*290.60/16.94
RULSE,39.89458333333333,-85.12849444444444,INDIANA,ZID,RNAV,08/01/2006
RUOFF,38.75114444444444,-87.56567222222222,ILLINOIS,ZID,RNAV,02/05/2010
RURKY,38.76858611111111,-87.49209444444445,INDIANA,ZID,RNAV,05/22/2012
RUSIA,40.273408333333336,-84.4743388888889,OHIO,ZID,RP,DQN*VOR/DME*348.00
RUTEE,39.78366111111111,-82.03076944444445,OHIO,ZID,RNAV,11/14/2016
RUTES,37.63442777777778,-85.3641111111111,KENTUCKY,ZID,RP,EWO*VOR/DME*088.33/14.86
RUYOT,39.066725000000005,-86.10383333333333,INDIANA,ZID,RNAV,03/16/2007
RYANS,37.38795833333333,-85.01698333333333,KENTUCKY,ZID,RP,BWG*VORTAC*066.00/74.00
GADGE,38.07930833333334,-86.77214444444445,INDIANA,ZID,RNAV,06/30/2011
GADSN,38.18398611111111,-85.83051388888889,KENTUCKY,ZID,RNAV,06/05/2012
GAGCE,37.629736111111114,-84.8773361111111,KENTUCKY,ZID,RNAV,12/18/2007
GAGSE,39.75915555555556,-82.722025,OHIO,ZID,RNAV,02/12/2008
GAILL,39.591094444444444,-83.41939444444445,OHIO,ZID,RP,APE*VORTAC*235.10/51.00
GAKNE,39.95164722222223,-86.47326666666667,INDIANA,ZID,RNAV,07/10/2013
GALPE,39.82171944444445,-86.67278333333334,INDIANA,ZID,RNAV,11/07/2016
GAMKE,38.770275,-85.24315833333334,INDIANA,ZID,RNAV,03/21/2014
GAMLE,38.95531944444445,-87.01053055555556,INDIANA,ZID,RNAV,01/12/2015
GARTE,39.840625,-87.55751388888889,ILLINOIS,ZID,RNAV,01/12/2015
GARZO,38.33156666666667,-82.19296944444444,WEST VIRGINIA,ZID,RP,HVQ*VOR/DME*270.02/20.00
GATGE,36.537613888888885,-84.47890833333334,TENNESSEE,ZID,RNAV,08/07/2013
GATVE,39.04077777777778,-83.47387777777777,OHIO,ZID,RNAV,04/25/2003
GAULE,38.11942222222222,-81.17382500000001,WEST VIRGINIA,ZID,RP,BKW*VOR/DME*359.31/20.46
GAULS,39.60306388888889,-87.96767222222222,ILLINOIS,ZID,RP,MTO*VOR/DME*060.00
GAVNN,38.61471388888889,-83.92533611111112,KENTUCKY,ZID,RP,CVG*VORTAC*127.15/43.70
GAVYE,39.43784722222222,-86.12090277777777,INDIANA,ZID,RNAV,04/13/2007
GAYED,38.79139722222222,-81.61155,WEST VIRGINIA,ZID,RP,HVQ*VOR/DME*018.67
GAZED,39.70009166666667,-81.87368055555555,OHIO,ZID,RP,ZZV*VOR/DME*182.53/14.46
GAZPA,39.85435833333334,-86.44305555555556,INDIANA,ZID,RNAV,01/12/2015
GBEES,38.69853333333333,-85.17028611111111,KENTUCKY,ZID,RP,FLM*VOR/DME*278.43/40.50
GDUPP,38.15119166666666,-85.5936,KENTUCKY,ZID,RNAV,11/03/2011
GEBGE,40.027375,-83.69001944444445,OHIO,ZID,RNAV,10/14/2009
GEFFS,39.01385,-80.81384722222222,WEST VIRGINIA,ZID,RP,ROD*VORTAC*121.00/168.00
GEMEH,39.08663333333334,-81.70515277777778,WEST VIRGINIA,ZID,RNAV,06/16/2011
GENCE,37.91157222222222,-82.51431666666667,KENTUCKY,ZID,RNAV,10/07/2014
GENIE,39.84331111111111,-84.02280277777777,OHIO,ZID,MR,FFO*TACAN*/2.10
GENUS,38.330802777777784,-84.55185277777778,KENTUCKY,ZID,RP,HYK*VOR/DME*350.27/22.16
GEPER,37.53466944444444,-87.40184166666667,KENTUCKY,ZID,RP,CCT*VORTAC*325.16/11.26
GERDI,39.995580555555556,-84.21469166666667,OHIO,ZID,RP,DQN*VOR/DME*099.40
GETTA,38.093019444444444,-85.589,KENTUCKY,ZID,RNAV,05/09/2016
GEVKE,40.03641111111111,-83.73748055555555,OHIO,ZID,RNAV,11/14/2014
GHATS,36.801874999999995,-84.56734444444444,KENTUCKY,ZID,RP,VXV*VORTAC*331.96/62.86
GHOUT,37.285275,-85.55969444444445,KENTUCKY,ZID,RP,EWO*VOR/DME*164.00/21.50
GIIBS,39.15353611111111,-85.73703888888889,INDIANA,ZID,RNAV,01/12/2015
GIJWE,38.98455555555556,-83.08180833333333,OHIO,ZID,RNAV,12/19/2014
GILPE,40.100719444444444,-84.21822222222222,OHIO,ZID,RP,DQN*VOR/DME*059.40
GINGS,40.18136666666666,-83.84813055555556,OHIO,ZID,RP,SGH*VOR/DME*003.60
GINUP,38.59948611111111,-82.86183888888888,KENTUCKY,ZID,RP,YRK*VORTAC*121.00/6.10
GIPLE,38.877988888888886,-84.04715833333333,OHIO,ZID,RP,CVG*VORTAC*108.87/31.81
GIRNS,39.91410833333333,-81.91755833333333,OHIO,ZID,RNAV,11/14/2016
GIRSE,40.374725,-83.81061388888888,OHIO,ZID,RP,ROD*VORTAC*068.89/11.87
GIVES,40.41995,-82.58927777777777,OHIO,ZID,RNAV,03/30/2018
GIYEL,36.95626666666667,-85.09733055555554,KENTUCKY,ZID,RNAV,07/10/2013
GLAZE,38.5579,-81.44170555555556,WEST VIRGINIA,ZID,RP,HVQ*VOR/DME*054.00/19.88
GLAZR,36.422438888888884,-84.78035833333334,TENNESSEE,ZID,RNAV,12/09/2015
GLDIE,38.09108888888889,-85.43520555555556,KENTUCKY,ZID,RNAV,06/05/2012
GLICK,37.717400000000005,-81.27620277777778,WEST VIRGINIA,ZID,RP,BLF*VOR/DME*354.00
GLIMM,39.68198611111111,-84.25509444444444,OHIO,ZID,MW,11/20/2012
GLOOM,39.990494444444444,-82.89623611111112,OHIO,ZID,RP,ZZV*VOR/DME*280.00/46.39
GLYBU,40.067372222222225,-83.32378055555556,OHIO,ZID,RNAV,01/14/2011
GNASH,39.95179166666667,-84.33458888888889,OHIO,ZID,RNAV,04/11/2014
GOBGE,39.76468611111111,-86.11189166666666,INDIANA,ZID,RNAV,10/05/2016
GOBVE,39.851350000000004,-83.16078888888889,OHIO,ZID,RP,APE*VORTAC*241.94/31.93
GODTY,37.97567777777778,-86.0331361111111,KENTUCKY,ZID,RP,FTK*VOR/DME*326.00/5.01
GOFAR,39.75906388888889,-82.11246388888888,OHIO,ZID,RP,ZZV*VOR/DME*229.06/14.90
GOLSE,39.68359722222222,-86.32563055555555,INDIANA,ZID,RP,VHP*VORTAC*165.14
GOLYI,39.319725000000005,-84.04175,OHIO,ZID,RNAV,07/09/2009
GOMEZ,38.42263611111111,-82.11506944444444,WEST VIRGINIA,ZID,RP,HVQ*VOR/DME*288.14/16.86
GONDE,39.7635,-83.76271388888888,OHIO,ZID,RP,SGH*VOR/DME*143.00/5.80
GONKE,38.10313888888889,-85.50509722222222,KENTUCKY,ZID,RP,IIU*VORTAC*/3.43
GOSCE,39.151716666666665,-84.14061944444445,OHIO,ZID,RNAV,03/28/2012
GOTVE,37.808861111111106,-87.64043055555557,KENTUCKY,ZID,RNAV,08/14/2008
GOVME,37.718722222222226,-87.92315277777779,KENTUCKY,ZID,RNAV,08/14/2008
GOZUM,39.19418333333333,-87.32265,INDIANA,ZID,RP,TTH*VORTAC*189.00/18.00
GRAAT,39.79110277777777,-83.95514166666666,OHIO,ZID,RP,DQN*VOR/DME*124.38
GRAVI,38.145922222222225,-84.38467777777778,KENTUCKY,ZID,RNAV,08/10/2010
GREGZ,38.41650277777778,-82.2637111111111,WEST VIRGINIA,ZID,RNAV,09/25/2012
GRESY,39.879075,-86.26181944444444,INDIANA,ZID,RNAV,03/24/2015
GRIFF,39.75896111111111,-84.13054444444444,OHIO,ZID,MR,FFO*TACAN*228.00/5.00
GRIPZ,38.219972222222225,-85.7425,KENTUCKY,ZID,RNAV,01/10/2013
GRNIN,37.39969444444444,-86.47420833333334,KENTUCKY,ZID,RP,BWG*VORTAC*355.02
GROAT,36.74908055555556,-85.40490277777778,KENTUCKY,ZID,RP,LVT*VOR/DME*312.68
GRUMN,39.19719166666666,-84.00736666666667,OHIO,ZID,RP,IYV*LD*217.30/16.18
GUCGE,36.69255833333333,-84.24048055555555,KENTUCKY,ZID,RNAV,08/14/2012
GUDLY,38.95427222222222,-85.73161666666667,INDIANA,ZID,RNAV,06/28/2009
GUMMA,37.36250833333334,-87.257075,KENTUCKY,ZID,RNAV,09/20/2012
GUMRE,38.89828055555556,-84.76591666666667,KENTUCKY,ZID,RNAV,04/16/2008
GUNNE,40.36376388888889,-83.23286666666667,OHIO,ZID,RP,FBC*VORTAC*147.87/42.76
GUPDE,38.730361111111115,-87.60068888888888,ILLINOIS,ZID,RNAV,05/22/2012
GUPNE,39.809686111111105,-84.20844444444445,OHIO,ZID,RNAV,07/11/2009
GUTHY,40.22305277777778,-82.87793055555555,OHIO,ZID,RP,APE*VORTAC*294.05/14.00
GYMUS,37.55551944444444,-82.69054166666668,KENTUCKY,ZID,RNAV,06/13/2017
FABDO,40.07622222222223,-82.73218055555556,OHIO,ZID,RP,APE*VORTAC*241.93/8.00
FABKA,40.00875277777778,-84.22762777777778,OHIO,ZID,RNAV,04/11/2014
FABVU,39.480808333333336,-84.47094166666668,OHIO,ZID,RNAV,08/02/2012
FADDR,38.058324999999996,-85.70955555555555,KENTUCKY,ZID,RNAV,06/05/2012
FAIRF,39.74256666666667,-82.42140277777779,OHIO,ZID,RP,APE*VORTAC*168.49/25.67
FALAX,38.52200833333333,-83.80333055555555,KENTUCKY,ZID,RNAV,03/31/2009
FAMIL,39.46077777777778,-85.97474444444444,INDIANA,ZID,RNAV,01/12/2015
FAMRU,38.034816666666664,-85.51449166666667,KENTUCKY,ZID,RNAV,02/20/2018
FAMTU,39.82385277777778,-86.80903611111111,INDIANA,ZID,RNAV,09/23/2003
FANSA,38.95420555555556,-84.71255833333333,KENTUCKY,ZID,RNAV,04/16/2008
FANTN,39.07459166666667,-85.57258611111111,INDIANA,ZID,RNAV,06/28/2009
FANUN,39.68749444444444,-84.25100833333333,OHIO,ZID,RP,FFO*TACAN*233.00/12.00
FAPER,37.349272222222226,-86.79033055555556,KENTUCKY,ZID,RNAV,09/17/2012
FAREV,37.20789722222222,-85.12254444444444,KENTUCKY,ZID,RNAV,07/08/2013
FARLN,39.37706388888889,-81.84849166666666,OHIO,ZID,RP,ZZV*VOR/DME*182.53/33.86
FARUM,39.33222222222223,-83.59916666666666,OHIO,ZID,RNAV,04/15/2008
FASAT,39.359025,-81.68219444444445,OHIO,ZID,RNAV,04/09/2012
FASVU,39.95965,-83.62674722222222,OHIO,ZID,RNAV,10/19/2009
FAXIG,40.311252777777774,-85.22930833333334,INDIANA,ZID,RP,MIE*VOR/DME*062.57/8.77
FEBLU,38.8977,-84.684725,KENTUCKY,ZID,RNAV,04/16/2008
FEDEX,38.070213888888894,-81.70846944444445,WEST VIRGINIA,ZID,RP,HVQ*VOR/DME*173.14/17.00
FEDIK,39.17856666666666,-82.55537222222222,OHIO,ZID,RNAV,08/03/2004
FEDIS,40.39118611111111,-83.75370277777778,OHIO,ZID,RNAV,03/08/2012
FEDRA,38.04566944444444,-85.10055,KENTUCKY,ZID,RP,IIU*VORTAC*097.57/22.86
FEGEG,39.019397222222224,-87.77500555555555,ILLINOIS,ZID,RNAV,07/17/2013
FEHOP,39.67216388888889,-81.92250833333334,OHIO,ZID,RNAV,04/27/2009
FEIAT,39.21884444444444,-83.87083333333332,OHIO,ZID,RNAV,07/09/2009
FEKLO,39.16325555555555,-82.34057777777777,OHIO,ZID,RNAV,10/05/2017
FEKVU,40.50922777777778,-84.32200277777777,OHIO,ZID,RNAV,11/14/2014
FELAK,38.68210555555555,-83.946625,OHIO,ZID,RNAV,02/03/2004
FELIT,36.89480555555556,-84.18077777777778,KENTUCKY,ZID,RP,LOZ*VOR/DME*205.32/8.96
FELPO,38.24089166666667,-83.86081666666666,KENTUCKY,ZID,RNAV,08/12/2013
FEMGO,40.02916388888889,-85.87060833333332,INDIANA,ZID,RNAV,01/12/2015
FEMLU,37.914291666666664,-85.971725,KENTUCKY,ZID,RP,FTK*VOR/DME*006.36/0.43
FEMSA,38.19754722222222,-84.45713888888889,KENTUCKY,ZID,RNAV,06/21/2010
FENLA,38.981566666666666,-83.39857777777779,OHIO,ZID,RNAV,04/25/2003
FENLU,39.92091666666666,-83.71563888888889,OHIO,ZID,RNAV,08/12/2008
FERAD,38.66162222222222,-83.65878888888889,OHIO,ZID,RNAV,04/25/2003
FERLO,39.70400277777778,-84.2678,OHIO,ZID,MR,FFO*TACAN*239.00/12.00
FERNY,38.15324444444445,-85.6121611111111,KENTUCKY,ZID,RP,IIU*VORTAC*330.14/3.40
FETAV,39.423741666666665,-85.13812777777778,INDIANA,ZID,RNAV,04/25/2012
FETEG,39.28214722222222,-84.14988055555557,OHIO,ZID,RNAV,04/21/2005
FETOV,39.52076388888889,-87.38956944444445,INDIANA,ZID,RNAV,06/20/2005
FEXAM,37.76915277777778,-87.11965555555555,KENTUCKY,ZID,RNAV,04/18/2010
FEXIL,39.92180555555555,-88.06106388888888,ILLINOIS,ZID,RP,CMI*VORTAC*121.21/12.00
FFOXX,37.870525,-88.18717500000001,ILLINOIS,ZID,RNAV,12/03/2012
FIBKE,37.03943611111111,-84.69064722222222,KENTUCKY,ZID,RNAV,06/21/2013
FIDEK,38.96361111111111,-84.78,KENTUCKY,ZID,RNAV,11/29/2006
FIDGI,37.474536111111114,-84.56016666666666,KENTUCKY,ZID,RNAV,12/18/2007
FIDIK,38.951772222222225,-86.5795611111111,INDIANA,ZID,RNAV,06/18/2012
FIDVO,39.87864166666667,-86.06614166666667,INDIANA,ZID,RNAV,06/18/2012
FIGIT,40.53958333333333,-81.88691944444444,OHIO,ZID,RNAV,07/16/2015
FIGLA,37.059799999999996,-85.1078111111111,KENTUCKY,ZID,RNAV,07/10/2013
FIGPU,39.366569444444444,-84.15435277777779,OHIO,ZID,RNAV,03/28/2012
FIGRA,38.44143888888888,-81.70310277777779,WEST VIRGINIA,ZID,RNAV,05/08/2013
FIIRE,39.402611111111106,-86.651425,INDIANA,ZID,RNAV,09/20/2016
FIKTO,39.450027777777784,-85.4995888888889,INDIANA,ZID,RNAV,06/18/2012
FIKVI,39.15405833333333,-87.44772777777779,INDIANA,ZID,RNAV,08/13/2010
FILES,38.72698611111111,-80.66456666666667,WEST VIRGINIA,ZID,RP,EKN*VORTAC*254.00/28.80
FILMS,39.67997222222222,-86.73538333333333,INDIANA,ZID,RP,VHP*VORTAC*243.73/18.85
FIMAP,39.66118611111111,-87.01448055555555,INDIANA,ZID,RP,TTH*VORTAC*/15.00
FIMOJ,39.170113888888885,-83.20849444444444,OHIO,ZID,RNAV,12/19/2014
FIMPA,38.31522777777778,-80.76688333333333,WEST VIRGINIA,ZID,RNAV,05/07/2013
FINCH,38.149775,-85.20237222222222,KENTUCKY,ZID,RP,IIU*VORTAC*080.00/17.97
FINED,39.70560277777778,-87.42280277777778,INDIANA,ZID,RNAV,10/01/2008
FINUM,39.60948055555556,-83.70904722222222,OHIO,ZID,RNAV,XSF*TACAN*160.00/15.00
FIPVA,40.70693333333334,-84.08065833333333,OHIO,ZID,RNAV,12/21/2009
FIVAX,39.775058333333334,-86.30593888888889,INDIANA,ZID,RNAV,05/02/2018
FIVRI,37.85910277777778,-84.369025,KENTUCKY,ZID,RNAV,05/15/2006
FLENR,36.94563055555555,-82.72854166666667,VIRGINIA,ZID,RP,AZQ*VOR/DME*140.01/37.02
FLOEE,38.956700000000005,-84.66905555555556,KENTUCKY,ZID,RNAV,02/13/2010
FLUYT,39.30897777777778,-83.48049444444445,OHIO,ZID,RNAV,11/26/2014
FLYRR,39.90331666666667,-83.93335,OHIO,ZID,MW,12/31/2012
FNGRS,40.61772222222222,-85.27166666666666,INDIANA,ZID,RNAV,09/24/2001
FOBAG,39.83443888888889,-86.47435555555556,INDIANA,ZID,RNAV,07/10/2013
FOBAL,39.78196666666667,-84.11401388888888,OHIO,ZID,MR,FFO*TACAN*/3.50
FOBKA,39.37257777777778,-87.04588055555556,INDIANA,ZID,RNAV,06/20/2005
FODAN,39.61781111111111,-83.59939444444444,OHIO,ZID,RP,SGH*VOR/DME*143.00/17.35
FODBO,38.553486111111106,-87.81111944444444,ILLINOIS,ZID,RNAV,05/22/2012
FODCU,38.96274722222223,-86.47345833333334,INDIANA,ZID,RNAV,03/22/2009
FOFWI,39.93787222222222,-83.34707499999999,OHIO,ZID,RNAV,08/12/2008
FOGAG,38.36573611111111,-81.64442500000001,WEST VIRGINIA,ZID,RP,HVQ*VOR/DME*083.73/6.00
FOGBU,39.90775,-85.65620000000001,INDIANA,ZID,RNAV,10/15/2008
FOGEB,39.73798333333333,-83.02451111111111,OHIO,ZID,RNAV,07/05/2011
FOGLU,39.071847222222225,-81.9202638888889,OHIO,ZID,RNAV,02/01/2010
FOGPE,37.811880555555554,-85.99208888888889,KENTUCKY,ZID,MW,10/28/2010
FOLAB,37.619930555555555,-87.3594111111111,KENTUCKY,ZID,RNAV,11/06/2012
FOLIV,39.98771111111111,-86.09173333333332,INDIANA,ZID,RNAV,12/04/2008
FOLMU,37.072825,-82.29577499999999,VIRGINIA,ZID,RP,GZG*VOR/DME*326.98/18.14
FOMAN,39.52286111111111,-85.15121666666667,INDIANA,ZID,RNAV,07/29/2010
FOMGI,39.46676111111111,-86.52191666666667,INDIANA,ZID,RNAV,08/07/2012
FOMOP,37.3766,-80.94811666666666,WEST VIRGINIA,ZID,RNAV,12/31/2009
FOMUV,37.877830555555555,-86.50725,KENTUCKY,ZID,RNAV,07/04/2011
FONAT,40.23963055555556,-85.54587222222221,INDIANA,ZID,RNAV,08/07/2012
FOOTE,40.36431944444445,-85.53516666666667,INDIANA,ZID,RP,FWA*VORTAC*209.38
FOPAS,39.08788888888889,-84.41461111111111,OHIO,ZID,RNAV,05/06/2011
FORBS,38.484252777777776,-86.74799722222222,INDIANA,ZID,RNAV,01/19/2011
FORIV,38.779975,-80.63604166666667,WEST VIRGINIA,ZID,RNAV,12/02/2014
FORKS,37.069811111111115,-85.72658611111112,KENTUCKY,ZID,RP,BWG*VORTAC*074.00
FOSDU,39.70957222222223,-84.2051,OHIO,ZID,RNAV,07/11/2009
FOUNT,36.95676111111111,-84.05053333333333,KENTUCKY,ZID,RP,VXV*VORTAC*356.22/63.48
FOVER,39.83745833333334,-84.02479166666667,OHIO,ZID,MR,FFO*TACAN*056.00/1.80
FOVKU,40.033030555555555,-84.3987,OHIO,ZID,RNAV,04/11/2014
FOVRA,39.82969166666667,-86.16196944444445,INDIANA,ZID,RNAV,04/13/2007
FOYTT,39.04163611111111,-86.28080833333333,INDIANA,ZID,RP,VHP*VORTAC*174.00/46.52
FRAAM,39.77395,-84.55695,OHIO,ZID,RP,DQN*VOR/DME*208.00/16.31
FRATE,38.07148611111111,-85.2897,KENTUCKY,ZID,RNAV,01/10/2013
FRAZE,39.13131944444444,-84.64631111111112,OHIO,ZID,RP,CIZ*LD*004.21/6.35
FRENY,39.732475,-86.43227222222222,INDIANA,ZID,RNAV,10/05/2016
FRICC,39.75440833333333,-82.14214166666667,OHIO,ZID,RP,AIR*VOR/DME*263.00/63.18
FRIZN,38.71306666666667,-86.30132777777777,INDIANA,ZID,RP,IIU*VORTAC*316.17/50.01
FRNZI,37.82812777777778,-84.69761944444444,KENTUCKY,ZID,RNAV,08/08/2006
FRTZY,39.10208333333333,-84.91989166666667,INDIANA,ZID,RNAV,04/15/2008
FTBLL,39.58643333333334,-86.47326111111111,INDIANA,ZID,RP,IND*LD*229.54/12.10
FULER,40.07251666666667,-83.19798055555556,OHIO,ZID,RP,OS*NDB*
FUSTO,39.847544444444445,-86.1404388888889,INDIANA,ZID,RP,VHP*VORTAC*078.31
FYLLS,39.906752777777776,-84.6305111111111,OHIO,ZID,RP,VHP*VORTAC*084.51/80.44
SAAPP,37.883377777777774,-84.77641666666666,KENTUCKY,ZID,RP,HYK*VOR/DME*251.08/15.26
SABGE,39.960119444444445,-81.63374444444445,OHIO,ZID,RP,ZZV*VOR/DME*090.39/12.00
SACKO,38.257266666666666,-86.72384166666667,INDIANA,ZID,RP,OWB*VOR/DME*038.12
SACKY,39.35469166666667,-81.16165833333334,WEST VIRGINIA,ZID,RP,AIR*VOR/DME*209.00
SACOY,38.884588888888885,-82.5888361111111,OHIO,ZID,RNAV,08/03/2004
SACYO,39.503625,-85.07206388888889,INDIANA,ZID,RNAV,02/05/2013
SADDL,38.20421944444445,-84.41647222222223,KENTUCKY,ZID,RP,HYK*VOR/DME*010.53/14.50
SADLE,39.42726944444444,-85.89481111111112,INDIANA,ZID,RNAV,01/12/2015
SADSE,39.876975,-85.3717361111111,INDIANA,ZID,RNAV,02/06/2018
SAFLT,38.03638888888889,-85.67983611111111,KENTUCKY,ZID,RNAV,04/26/2007
SALTY,38.318897222222226,-81.95829722222223,WEST VIRGINIA,ZID,RP,HVQ*VOR/DME*261.00/10.00
SARGO,38.668905555555554,-85.46325,INDIANA,ZID,RNAV,04/29/2014
SARUH,39.65267222222222,-86.445775,INDIANA,ZID,RNAV,10/15/2016
SAWER,39.73104166666667,-84.31028611111111,OHIO,ZID,RNAV,04/11/2014
SAXEE,39.92386666666666,-86.11202222222222,INDIANA,ZID,RNAV,01/27/2016
SCALA,37.82231388888889,-85.95045555555556,KENTUCKY,ZID,RP,FTK*VOR/DME*169.33/5.20
SCARF,39.08744166666667,-85.72525277777778,INDIANA,ZID,RNAV,02/09/2015
SCARY,38.33898055555556,-85.90735833333333,INDIANA,ZID,RNAV,06/05/2012
SCHMT,38.68443055555555,-86.90660555555556,INDIANA,ZID,RNAV,05/09/2016
SCOTO,39.16914722222222,-86.85471944444444,INDIANA,ZID,RP,TTH*VORTAC*134.12/26.54
SCRIB,38.096358333333335,-81.48055277777777,WEST VIRGINIA,ZID,RP,BKW*VOR/DME*324.29/25.42
SEBRE,40.0985,-84.32678055555556,OHIO,ZID,RNAV,07/09/2009
SEBUE,39.93695555555555,-83.8355611111111,OHIO,ZID,RNAV,08/13/2010
SECRY,38.31916666666667,-85.79277777777777,INDIANA,ZID,RNAV,04/26/2007
SEMSE,39.04665833333333,-84.89976111111112,INDIANA,ZID,RP,URN*LD*W CRS/11.65
SENTR,40.29785555555555,-85.11022222222222,INDIANA,ZID,RNAV,01/31/2017
SEPBU,37.60792777777778,-82.37660277777778,KENTUCKY,ZID,RNAV,09/14/2011
SERME,39.47296666666667,-84.25485,OHIO,ZID,RNAV,11/26/2014
SEVKE,39.78271111111111,-86.56696666666666,INDIANA,ZID,RNAV,01/13/2016
SEVVO,39.39837222222222,-85.72001944444445,INDIANA,ZID,RNAV,02/17/2006
SEYOS,39.73163888888889,-84.03256666666667,OHIO,ZID,RNAV,08/16/2006
SHADD,36.89812222222222,-84.16073611111112,KENTUCKY,ZID,RP,LOZ*VOR/DME*199.77/8.45
SHEAN,40.40365277777778,-85.02228055555555,INDIANA,ZID,RP,FWA*VORTAC*173.58/35.32
SHILA,38.940075,-84.49455,KENTUCKY,ZID,RP,LUK*LD*205.01/9.61
SHIPR,37.96664166666667,-84.47458055555556,KENTUCKY,ZID,RNAV,01/10/2013
SHIRT,39.632977777777775,-83.57115,OHIO,ZID,RP,APE*VORTAC*241.93/55.00
SHLDA,38.839822222222224,-83.96069166666668,OHIO,ZID,RP,FLM*VOR/DME*059.11/20.00
SHOAL,38.23171388888889,-81.78141388888889,WEST VIRGINIA,ZID,RP,HVQ*VOR/DME*187.40/7.09
SHOOS,40.53822777777778,-84.05090277777778,OHIO,ZID,RNAV,06/13/2008
SHOSH,40.00062777777778,-83.03421666666667,OHIO,ZID,RP,APE*VORTAC*252.43/22.43
SHOVE,39.660269444444445,-84.48001388888889,OHIO,ZID,RP,DQN*VOR/DME*191.23/21.69
SIKFE,36.944913888888884,-84.17945,KENTUCKY,ZID,RNAV,07/26/2016
SILKN,40.00648611111111,-82.96604166666667,OHIO,ZID,RP,CBP*LD*281.20/2.53
SILKS,38.46673611111111,-84.75161111111112,KENTUCKY,ZID,RP,CVG*VORTAC*187.95/33.00
SILOH,39.82459444444445,-84.16463888888889,OHIO,ZID,MR,XSF*TACAN*271.00/15.00
SINRE,39.3721,-84.07563333333333,OHIO,ZID,RNAV,04/26/2007
SIPOY,39.17113333333333,-82.4486388888889,OHIO,ZID,RNAV,08/03/2004
SIRBE,38.146094444444444,-84.34064444444444,KENTUCKY,ZID,RNAV,08/08/2006
SITOW,36.895649999999996,-84.79818055555555,KENTUCKY,ZID,RP,LOZ*VOR/DME*259.22
SIXMI,38.30947777777777,-85.65678055555556,KENTUCKY,ZID,RNAV,06/05/2012
SIYOR,39.18103611111111,-84.37591944444443,OHIO,ZID,RNAV,07/25/2012
SIZBY,37.81061944444444,-87.56082222222221,KENTUCKY,ZID,RNAV,08/14/2008
SIZES,40.10216666666667,-83.15187222222222,OHIO,ZID,RNAV,09/29/2016
SKINN,37.82493055555556,-86.07701944444445,KENTUCKY,ZID,RP,BWG*VORTAC*015.96/56.49
SKIPE,39.75566388888889,-84.15302222222223,OHIO,ZID,MR,FFO*TACAN*/5.90
SKITE,39.542769444444446,-87.44700833333334,INDIANA,ZID,RNAV,04/19/2016
SKYRA,39.59998055555556,-84.70276666666668,OHIO,ZID,RNAV,05/27/2009
SKYWA,36.527030555555555,-84.36177777777777,TENNESSEE,ZID,RNAV,06/24/2015
SLAPT,40.32409722222223,-82.47959444444444,OHIO,ZID,RNAV,06/29/2011
SLATY,38.27590277777778,-85.76162777777778,KENTUCKY,ZID,RNAV,06/05/2012
SLEWW,38.346944444444446,-85.85777777777777,INDIANA,ZID,RNAV,04/27/2007
SLGRR,38.28483055555555,-85.76470833333333,INDIANA,ZID,RP,PKI*LD*349.91/7.55
SLINK,37.46778611111111,-81.95028055555557,WEST VIRGINIA,ZID,RP,BLF*VOR/DME*288.20/37.42
SLUBY,39.04376944444444,-84.19337222222222,OHIO,ZID,RNAV,04/15/2008
SMAIL,38.05063333333333,-84.50179722222222,KENTUCKY,ZID,RNAV,08/10/2010
SMAZE,40.42305555555555,-80.57947222222222,WEST VIRGINIA,ZID,RNAV,05/06/2016
SMUKE,39.26025,-86.78193888888889,INDIANA,ZID,RNAV,09/27/2016
SNACK,39.64472222222222,-85.04842777777777,INDIANA,ZID,RNAV,05/06/2009
SNEVA,39.35724166666667,-86.31595277777778,INDIANA,ZID,RP,TTH*VORTAC*098.02
SNEZE,39.79794722222222,-84.11408055555555,OHIO,ZID,RP,DQN*VOR/DME*136.00
SNKPT,40.237211111111115,-85.394225,INDIANA,ZID,RNAV,01/12/2015
SNPPR,38.764852777777776,-84.64802777777778,KENTUCKY,ZID,RP,EEI*LD*186.21/17.61
SOCLE,36.941113888888886,-82.62886944444443,VIRGINIA,ZID,RNAV,05/11/2007
SOFTY,37.391,-80.89162222222222,WEST VIRGINIA,ZID,RP,BLF*VOR/DME*073.62/15.34
SOGEE,36.53073333333333,-84.19316388888889,TENNESSEE,ZID,RNAV,01/23/2014
SOKOC,38.249716666666664,-84.65978055555556,KENTUCKY,ZID,RNAV,08/04/2008
SORRI,37.199730555555554,-83.89386666666667,KENTUCKY,ZID,RNAV,02/09/2018
SORTT,38.17334722222222,-85.44642777777779,KENTUCKY,ZID,RNAV,05/09/2016
SOTZU,37.121069444444444,-82.84278333333333,KENTUCKY,ZID,RNAV,10/21/2014
SOVGE,38.10794166666667,-85.8789861111111,KENTUCKY,ZID,MW,10/28/2010
SOVSE,38.31339166666666,-83.54316944444444,KENTUCKY,ZID,RNAV,07/15/2014
SOVVO,39.412575,-84.31778055555556,OHIO,ZID,RNAV,08/16/2006
SOWDO,40.075786111111114,-84.60984722222221,OHIO,ZID,RNAV,01/20/2011
SOXME,39.388225,-87.39593888888889,INDIANA,ZID,RNAV,10/15/2008
SOYLO,39.018788888888885,-82.38630555555557,OHIO,ZID,RNAV,10/05/2017
SPAYD,38.193488888888886,-82.3246361111111,WEST VIRGINIA,ZID,RP,APE*VORTAC*179.93/117.99
SPEDI,38.376016666666665,-81.89388333333333,WEST VIRGINIA,ZID,RP,HVQ*VOR/DME*288.14/6.06
SPOCC,39.78175833333333,-82.15031666666667,OHIO,ZID,RNAV,03/06/2018
SPROW,38.211308333333335,-83.94073055555556,KENTUCKY,ZID,RP,HYK*VOR/DME*059.51/29.15
SPUDR,39.37229444444444,-84.64517222222223,OHIO,ZID,RP,CIZ*LD*004.21/20.79
SPYRS,38.377583333333334,-85.81180833333333,INDIANA,ZID,RP,SNU*LD*350.40/13.85
SQWRL,38.02670555555555,-85.53266666666667,KENTUCKY,ZID,RNAV,05/09/2016
SRGNT,40.08716944444445,-84.71033333333334,OHIO,ZID,RNAV,01/12/2015
SRICE,38.278191666666665,-86.59192499999999,INDIANA,ZID,RNAV,05/03/2016
STACY,37.342761111111116,-81.975475,VIRGINIA,ZID,RP,BLF*VOR/DME*276.57/37.45
STAMM,38.061252777777774,-81.03204166666667,WEST VIRGINIA,ZID,RNAV,11/07/2011
STDUM,39.62381944444444,-86.42583888888889,INDIANA,ZID,RP,IND*LD*229.54/8.96
STEPH,38.185002777777775,-81.80392777777777,WEST VIRGINIA,ZID,RP,HVQ*VOR/DME*192.26/10.00
STEWR,39.72757777777778,-86.1271861111111,INDIANA,ZID,RNAV,10/05/2016
STILT,38.43096388888889,-81.51438055555556,WEST VIRGINIA,ZID,RP,HVQ*VOR/DME*070.91/13.00
STOTZ,38.020825,-84.50103055555556,KENTUCKY,ZID,RNAV,01/16/2018
STOWA,40.09165,-85.56638611111111,INDIANA,ZID,RNAV,09/29/2009
STREP,38.772999999999996,-86.01369722222222,INDIANA,ZID,RP,IIU*VORTAC*332.00/45.09
STUGZ,38.098194444444445,-85.82848888888888,KENTUCKY,ZID,RNAV,06/05/2012
STUNS,39.518277777777776,-86.10698055555555,INDIANA,ZID,RNAV,05/31/2017
STURR,39.55557777777778,-81.86234166666667,OHIO,ZID,RP,ZZV*VOR/DME*182.52/23.14
STYKR,38.29823888888889,-85.65885555555556,KENTUCKY,ZID,RNAV,05/09/2016
SUBWY,39.697799999999994,-82.17615555555557,OHIO,ZID,RP,AIR*VOR/DME*260.48
SUCOG,37.65568888888889,-81.14667222222224,WEST VIRGINIA,ZID,RNAV,06/16/2008
SUCVO,37.801399999999994,-87.03232777777778,KENTUCKY,ZID,RNAV,07/08/2011
SUEFA,39.49530277777778,-87.40001666666667,INDIANA,ZID,RNAV,09/29/2014
SUGKO,39.946486111111106,-88.00613888888888,ILLINOIS,ZID,RNAV,10/10/2008
SUITS,39.34567222222223,-83.86242777777777,OHIO,ZID,RP,IYV*LD*E CRS/5.01
SUMET,39.3002,-81.51026388888889,WEST VIRGINIA,ZID,RP,AIR*VOR/DME*223.99/53.65
SUMIE,39.98673888888889,-82.75429166666666,OHIO,ZID,RP,CMH*LD*099.22/7.34
SUNLE,39.873694444444446,-84.88991666666668,INDIANA,ZID,RNAV,02/23/2015
SUPLE,39.89756388888889,-84.38399722222223,OHIO,ZID,RNAV,04/11/2014
SURDY,38.46100277777778,-87.88433611111111,ILLINOIS,ZID,RNAV,02/05/2010
SUREW,39.927225,-83.58148333333332,OHIO,ZID,RNAV,08/12/2008
SUSYO,37.78308611111111,-81.14119166666667,WEST VIRGINIA,ZID,RP,BKW*VOR/DME*287.20/0.86
SUSZE,39.08305555555556,-86.74972222222222,INDIANA,ZID,RNAV,05/09/2016
SUTZY,38.08154166666667,-84.44539166666667,KENTUCKY,ZID,RNAV,02/09/2018
SUVME,37.57835277777778,-87.938125,KENTUCKY,ZID,RNAV,01/10/2013
SUYKO,37.705136111111116,-82.67153611111111,KENTUCKY,ZID,RNAV,10/07/2014
SWAPP,36.61382777777778,-85.18223333333334,TENNESSEE,ZID,RP,IIU*VORTAC*166.92
SWIFT,38.391711111111114,-81.30108888888888,WEST VIRGINIA,ZID,RP,HVQ*VOR/DME*086.36/22.26
SYNDI,37.662705555555554,-85.81754444444444,KENTUCKY,ZID,RP,EWO*VOR/DME*284.38/7.00
JAANE,39.60107222222222,-86.28890555555556,INDIANA,ZID,RNAV,10/05/2016
JABDU,38.880230555555556,-84.57519166666667,KENTUCKY,ZID,RNAV,04/16/2008
JACEE,39.160577777777775,-81.64279444444445,WEST VIRGINIA,ZID,RP,ZZV*VOR/DME*172.00
JADAT,39.238794444444444,-84.38451666666667,OHIO,ZID,RP,CVG*VORTAC*052.00/20.00
JADBI,38.87115277777778,-83.48468611111112,OHIO,ZID,RNAV,09/24/2015
JADMU,39.935086111111104,-83.40945,OHIO,ZID,RNAV,08/12/2008
JADOP,39.046675,-84.96694444444445,INDIANA,ZID,RP,URN*LD*W CRS/14.79
JADRO,39.10682777777778,-85.02526944444445,INDIANA,ZID,RP,CVG*VORTAC*294.00/16.00
JADUB,40.029713888888885,-85.34346111111111,INDIANA,ZID,RP,ROD*VORTAC*260.92/61.79
JAGER,39.98576111111111,-87.82694722222222,ILLINOIS,ZID,RP,DNV*VORTAC*211.99
JAGXA,38.91299444444444,-84.36649166666666,KENTUCKY,ZID,RNAV,03/07/2012
JAKEK,39.891888888888886,-83.5636,OHIO,ZID,RNAV,10/19/2009
JAKIE,38.43198888888889,-84.15304444444445,KENTUCKY,ZID,RP,HYK*VOR/DME*028.33
JAMOX,39.710750000000004,-81.86225555555555,OHIO,ZID,RP,BKW*VOR/DME*349.55/120.80
JAMSO,39.22647777777778,-83.59708055555555,OHIO,ZID,RNAV,11/26/2014
JANEE,40.208133333333336,-84.20916666666668,OHIO,ZID,RP,ROD*VORTAC*243.00/9.00
JANEX,37.079950000000004,-81.75361111111111,VIRGINIA,ZID,RP,JFZ*LE*071.63/2.74
JANIX,39.441116666666666,-86.68306944444446,INDIANA,ZID,RNAV,11/07/2016
JANPO,39.78118333333333,-86.47485,INDIANA,ZID,RNAV,07/10/2013
JAPOL,38.160775,-84.96089166666667,KENTUCKY,ZID,RNAV,04/22/2013
JARAM,36.9821,-83.93483333333333,KENTUCKY,ZID,RP,LOZ*VOR/DME*112.91/8.96
JAREL,39.50013611111111,-85.6932388888889,INDIANA,ZID,RP,SHB*VOR/DME*141.50/10.00
JARRD,39.976080555555555,-83.688275,OHIO,ZID,RP,DQN*VOR/DME*095.01/32.77
JARSO,39.59173888888889,-83.91168055555556,OHIO,ZID,RP,APE*VORTAC*247.68/69.73
JARUD,39.61052222222222,-87.66890555555555,ILLINOIS,ZID,RNAV,06/15/2016
JASKO,38.88222777777778,-86.56008888888888,INDIANA,ZID,RNAV,06/18/2012
JASUL,37.102872222222224,-85.11217777777777,KENTUCKY,ZID,RNAV,07/10/2013
JATAD,39.81299166666666,-84.20773055555556,OHIO,ZID,RNAV,04/11/2014
JATOD,39.9157,-86.14505833333334,INDIANA,ZID,RNAV,06/18/2012
JAVDO,40.004194444444444,-84.00892777777777,OHIO,ZID,RNAV,07/11/2009
JAVKU,39.75821944444444,-84.15135555555557,OHIO,ZID,RNAV,11/26/2014
JAVOM,39.893074999999996,-88.08977499999999,ILLINOIS,ZID,RP,DNV*VORTAC*223.76
JAVUP,38.40038611111111,-82.6588888888889,KENTUCKY,ZID,RNAV,09/25/2012
JAYEL,39.395469444444444,-83.832725,OHIO,ZID,RNAV,07/09/2009
JAYKB,38.64711388888889,-82.42946944444445,OHIO,ZID,RP,HNN*VORTAC*254.42/20.00
JAYVO,39.44082777777778,-87.22833333333334,INDIANA,ZID,RNAV,05/09/2016
JAZZY,39.94009444444444,-87.42082222222223,INDIANA,ZID,RP,DNV*VORTAC*161.46/22.11
JBEAM,37.79103611111111,-85.64281944444446,KENTUCKY,ZID,RP,IIU*VORTAC*188.43/18.98
JBERT,39.461525,-84.90710833333334,INDIANA,ZID,RNAV,04/22/2009
JBETH,38.99860833333334,-84.43816944444445,KENTUCKY,ZID,RNAV,05/06/2011
JBNCH,39.58134722222223,-85.02258611111111,INDIANA,ZID,RNAV,08/07/2008
JEBDU,38.96650555555556,-87.60343055555555,ILLINOIS,ZID,RNAV,05/22/2012
JEBNI,39.379475,-85.51183333333333,INDIANA,ZID,RNAV,06/18/2012
JEDER,37.32515,-84.75393611111112,KENTUCKY,ZID,RNAV,07/01/2013
JEDIX,39.10648055555556,-84.183575,OHIO,ZID,RNAV,03/28/2012
JEDKI,38.92064166666666,-81.82995,WEST VIRGINIA,ZID,RNAV,02/02/2010
JEDRI,40.33136944444445,-83.92885277777778,OHIO,ZID,RP,ROD*VORTAC*068.49/5.86
JEEDR,40.264491666666665,-84.70518055555556,OHIO,ZID,RNAV,01/12/2015
JEGOK,37.96621944444445,-84.84813888888888,KENTUCKY,ZID,RNAV,10/12/2006
JEGUN,39.67261111111111,-82.27394444444444,OHIO,ZID,RNAV,04/13/2009
JEKLO,39.761858333333336,-86.21533611111111,INDIANA,ZID,RNAV,05/02/2018
JELAK,39.76979722222222,-84.3547611111111,OHIO,ZID,MW,11/20/2012
JELLO,36.41016111111111,-84.83578888888889,TENNESSEE,ZID,RP,LVT*VOR/DME*125.04/19.11
JEMOG,37.23255277777778,-83.09348333333332,KENTUCKY,ZID,RNAV,06/29/2011
JENAG,36.39875,-84.6598,TENNESSEE,ZID,RNAV,08/07/2013
JENAT,39.904672222222224,-83.72607500000001,OHIO,ZID,MR,SGH*VOR/DME*/6.84
JENEY,39.35268333333333,-84.09056388888888,OHIO,ZID,RP,DQN*VOR/DME*161.28
JENLI,40.59079444444445,-85.44029166666667,INDIANA,ZID,RNAV,08/16/2004
JENUG,39.253841666666666,-83.44142500000001,OHIO,ZID,RNAV,12/27/2012
JEPBU,38.94548611111111,-86.57819722222222,INDIANA,ZID,RP,OOM*VORTAC*174.19/12.00
JEPIV,37.49871944444445,-86.17357777777778,KENTUCKY,ZID,CN,05/23/2007
JEPLA,39.18172222222222,-83.44454444444445,OHIO,ZID,RNAV,11/26/2014
JEPVU,40.10624722222222,-84.22953055555556,OHIO,ZID,RNAV,11/14/2014
JERAL,39.245511111111114,-84.05132222222223,OHIO,ZID,RNAV,03/28/2012
JERMY,39.80499722222222,-84.75073333333333,OHIO,ZID,RP,RID*VORTAC*056.62/5.06
JEROV,39.41673888888889,-86.45661111111112,INDIANA,ZID,RNAV,08/07/2012
JESDA,40.194222222222216,-85.47439166666666,INDIANA,ZID,RNAV,08/07/2012
JESTS,40.012122222222224,-84.12604444444443,OHIO,ZID,RNAV,04/11/2014
JETVO,38.29906666666666,-81.69806944444444,WEST VIRGINIA,ZID,RNAV,10/29/2015
JEVMU,39.53874166666667,-82.71459722222222,OHIO,ZID,RNAV,04/18/2012
JEXIL,36.81843055555556,-83.48044444444444,KENTUCKY,ZID,RNAV,06/01/2016
JEXUD,37.74084166666667,-85.82667222222221,KENTUCKY,ZID,RNAV,04/12/2006
JIBAG,36.62741388888889,-83.66708611111112,KENTUCKY,ZID,RNAV,05/09/2003
JIBGI,36.59323333333334,-84.38876111111112,KENTUCKY,ZID,RNAV,03/22/2007
JIBKA,39.50248055555556,-87.27409444444444,INDIANA,ZID,RNAV,08/06/2012
JIBOK,38.580894444444446,-82.97386388888889,KENTUCKY,ZID,RNAV,11/21/2008
JIDIB,39.302225,-87.44546666666668,INDIANA,ZID,RNAV,09/25/2014
JIDUS,39.971447222222224,-84.88815833333334,INDIANA,ZID,RNAV,08/06/2012
JIGUK,39.830400000000004,-84.83109444444445,INDIANA,ZID,RNAV,11/26/2014
JIKPI,38.42650277777778,-87.0371,INDIANA,ZID,RNAV,01/20/2011
JIKRU,38.841575,-84.30817777777777,KENTUCKY,ZID,RNAV,10/28/2013
JIKVA,39.76553055555556,-83.6512,OHIO,ZID,RNAV,11/14/2014
JILER,36.852719444444446,-84.84760555555555,KENTUCKY,ZID,RNAV,02/09/2018
JILNO,37.85911111111111,-85.97985277777778,KENTUCKY,ZID,MW,10/28/2010
JIMER,37.83479444444445,-87.17207777777779,KENTUCKY,ZID,RNAV,11/27/2012
JIMUR,39.02156111111111,-84.683925,KENTUCKY,ZID,RP,VAC*LD*186.17/3.12
JINEN,39.50541944444444,-84.26893333333334,OHIO,ZID,RNAV,08/16/2006
JINIC,39.81861111111112,-86.05476666666667,INDIANA,ZID,RNAV,09/24/2004
JINSU,38.908902777777776,-84.49161944444444,KENTUCKY,ZID,RNAV,09/22/2015
JIPAD,38.00075833333333,-85.83079444444444,KENTUCKY,ZID,RNAV,06/06/2012
JIPGA,38.54796944444444,-87.64091111111112,INDIANA,ZID,RNAV,10/28/2008
JIPOL,39.91838611111111,-86.1973388888889,INDIANA,ZID,RNAV,01/21/2016
JIRDI,39.612747222222225,-84.21228333333333,OHIO,ZID,RP,MGY*LE*NE CRS/2.10
JIRIP,38.793216666666666,-86.06196944444444,INDIANA,ZID,RNAV,03/16/2007
JISAB,37.01866111111111,-84.21858333333334,KENTUCKY,ZID,RNAV,07/26/2016
JISEV,38.218183333333336,-87.3494861111111,INDIANA,ZID,RP,OWB*VOR/DME*347.04
JISNI,37.95656666666667,-86.61049722222222,INDIANA,ZID,RNAV,06/30/2011
JISUG,38.095330555555556,-81.11211388888889,WEST VIRGINIA,ZID,RP,BKW*VOR/DME*007.63/18.89
JISUX,39.47675277777778,-83.58120277777778,OHIO,ZID,RNAV,11/26/2014
JISVI,39.44575277777778,-84.20041388888889,OHIO,ZID,RNAV,11/26/2014
JITEV,38.95662777777778,-84.66905555555556,KENTUCKY,ZID,RP,CVG*LD*186.18/6.66
JITGA,41.166777777777774,-84.94594444444445,INDIANA,ZID,RNAV,05/05/2016
JIVAD,37.93890833333333,-84.52766111111112,KENTUCKY,ZID,RNAV,12/01/2017
JIVLA,39.859519444444445,-84.00098888888888,OHIO,ZID,MR,FFO*TACAN*050.00/3.50
JIXAR,38.487944444444445,-81.43197777777779,WEST VIRGINIA,ZID,RP,HNN*VORTAC*122.54
JIXED,39.39071388888889,-87.65363611111111,ILLINOIS,ZID,RNAV,04/19/2016
JIXUT,39.009925,-87.40024444444445,INDIANA,ZID,RNAV,07/29/2008
JKUKA,38.58827777777778,-85.6372,INDIANA,ZID,RNAV,04/29/2014
JMCSY,37.757416666666664,-85.71266944444444,KENTUCKY,ZID,RNAV,04/26/2007
JMILR,38.13382222222222,-80.96348611111111,WEST VIRGINIA,ZID,RNAV,11/07/2011
JOBKO,39.725661111111116,-86.81151666666666,INDIANA,ZID,RNAV,11/07/2016
JOCKE,39.330650000000006,-85.83893055555555,INDIANA,ZID,RNAV,01/12/2015
JODEL,39.587405555555556,-86.47203055555556,INDIANA,ZID,RP,IND*LD*228.54/12.02
JODUB,38.76250833333334,-82.89095,OHIO,ZID,RP,BKW*VOR/DME*311.73/102.17
JOGBA,40.37733055555556,-85.56786666666666,INDIANA,ZID,RNAV,07/21/2006
JOGER,39.720777777777776,-83.40681666666667,OHIO,ZID,RP,APE*VORTAC*241.93/45.74
JOKEB,37.91324722222222,-85.97789444444444,KENTUCKY,ZID,RP,FTK*VOR/DME*326.00/0.44
JOLIG,39.12672222222222,-86.02947222222222,INDIANA,ZID,RNAV,03/16/2007
JOLIS,40.341033333333336,-83.92723333333333,OHIO,ZID,RNAV,03/08/2012
JOLIV,40.457055555555556,-84.02588055555556,OHIO,ZID,RNAV,06/13/2008
JOLOM,39.859141666666666,-83.99205277777777,OHIO,ZID,MW,08/12/2010
JOLVU,39.95303055555556,-86.05226111111111,INDIANA,ZID,RP,SHB*VOR/DME*330.32
JOMOT,39.325750000000006,-85.81395555555555,INDIANA,ZID,RNAV,02/17/2006
JOMPO,39.933233333333334,-85.932325,INDIANA,ZID,RNAV,08/05/2013
JONEN,37.98580833333333,-82.54616388888888,KENTUCKY,ZID,RNAV,07/01/2013
JONEP,39.32980833333334,-87.97445,ILLINOIS,ZID,RNAV,06/28/2010
JONEX,39.58347222222223,-82.85394166666666,OHIO,ZID,RNAV,04/18/2012
JOPLA,40.42507777777777,-84.32619444444444,OHIO,ZID,RNAV,11/14/2014
JOPTO,40.031327777777776,-83.824175,OHIO,ZID,RNAV,11/14/2014
JORPU,37.77585,-84.37582499999999,KENTUCKY,ZID,RNAV,05/15/2006
JORUV,39.71577222222223,-83.23628611111111,OHIO,ZID,RP,APE*VORTAC*235.10/39.69
JOSOM,37.28496388888889,-81.21984166666667,WEST VIRGINIA,ZID,RNAV,12/31/2009
JOSPU,39.3615,-84.96916388888889,INDIANA,ZID,RNAV,04/25/2012
JOSTO,39.592172222222224,-87.48243333333333,INDIANA,ZID,RNAV,06/20/2005
JOTPA,38.79212777777778,-84.26372777777777,KENTUCKY,ZID,RNAV,03/22/2012
JOVEL,39.042408333333334,-82.96438888888889,OHIO,ZID,RNAV,08/12/2008
JOXAK,39.42265,-85.25863888888888,INDIANA,ZID,RNAV,08/03/2010
JOXIB,39.69340833333333,-84.08651388888889,OHIO,ZID,RNAV,11/14/2014
JOXOK,39.81795,-83.20472777777778,OHIO,ZID,RNAV,11/18/2008
JOYEW,36.70614722222223,-85.02719166666667,KENTUCKY,ZID,RNAV,08/01/2016
JRICO,38.25932777777778,-86.70838055555556,INDIANA,ZID,RNAV,04/29/2014
JUBBI,39.85351388888889,-82.64014444444445,OHIO,ZID,RP,APE*VORTAC*193.65/18.00
JUBDU,39.948325,-86.95284166666667,INDIANA,ZID,RNAV,10/05/2016
JUBKA,36.89581944444444,-84.15909444444445,KENTUCKY,ZID,RNAV,08/14/2012
JUBLU,38.23498888888889,-81.69575555555556,WEST VIRGINIA,ZID,RNAV,10/27/2015
JUBMI,39.25253333333333,-85.25818055555555,INDIANA,ZID,RNAV,08/13/2010
JUBOV,40.535925,-84.36397222222222,OHIO,ZID,RNAV,11/14/2014
JUBTO,37.100116666666665,-82.31978333333333,VIRGINIA,ZID,RNAV,10/05/2006
JUBUN,36.392891666666664,-84.94630000000001,TENNESSEE,ZID,RNAV,05/03/2017
JUDDI,38.75935555555556,-86.44017222222223,INDIANA,ZID,RP,PXV*VORTAC*048.00/79.85
JUDSS,38.52581111111111,-82.48613888888889,OHIO,ZID,RNAV,05/31/2011
JUGOR,39.57965277777778,-87.42980555555556,INDIANA,ZID,RP,TTH*VORTAC*301.00/10.00
JUGOT,38.83912222222222,-82.74557777777778,OHIO,ZID,RP,YRK*VORTAC*048.00/16.00
JULEA,39.274227777777774,-80.96471111111111,WEST VIRGINIA,ZID,RP,HVQ*VOR/DME*037.02
JULKO,39.64788055555555,-85.13140555555555,INDIANA,ZID,RNAV,05/30/2012
JULVA,37.90958611111111,-84.47981111111112,KENTUCKY,ZID,RNAV,01/16/2018
JULVU,39.06228055555555,-84.52542222222222,KENTUCKY,ZID,RNAV,07/26/2012
JUMIP,38.330975,-85.73029722222222,INDIANA,ZID,RNAV,06/06/2012
JUMOM,39.42681666666667,-87.56168333333333,ILLINOIS,ZID,RP,TTH*VORTAC*253.72/15.00
JUMOP,37.432766666666666,-84.45610833333333,KENTUCKY,ZID,RNAV,09/13/2012
JUNAR,37.260330555555555,-81.26704722222222,VIRGINIA,ZID,RNAV,12/31/2009
JUNGL,21.32513888888889,-158.11323888888887,HAWAII,ZID,RNAV,02/23/2017
JUNON,39.24466666666667,-85.91849166666667,INDIANA,ZID,RNAV,02/17/2006
JUNOO,37.16722222222222,-85.05361111111111,KENTUCKY,ZID,RNAV,05/09/2016
JUPAL,39.43415833333333,-84.66711944444445,OHIO,ZID,RP,SIC*LD*004.18/24.03
JUPLU,39.87061388888889,-86.08096388888889,INDIANA,ZID,RNAV,01/21/2016
JUPUK,40.19390277777777,-82.83549444444444,OHIO,ZID,RNAV,06/29/2011
JURLA,39.494508333333336,-85.81335,INDIANA,ZID,RNAV,03/15/2007
JUSAL,39.643475,-84.59786388888888,OHIO,ZID,RNAV,05/10/2012
JUSET,37.980175,-84.03003888888888,KENTUCKY,ZID,RNAV,08/12/2013
JUSGI,39.998691666666666,-86.891975,INDIANA,ZID,RNAV,10/05/2016
JUVMU,39.979530555555556,-86.302825,INDIANA,ZID,RNAV,01/21/2016
JVAND,39.04602222222222,-84.8235111111111,KENTUCKY,ZID,RNAV,04/16/2008
IAMUR,38.06582222222222,-85.90360833333334,KENTUCKY,ZID,RNAV,06/05/2012
IBATE,36.98676666666667,-83.22787777777778,KENTUCKY,ZID,RNAV,01/22/2014
ICALO,39.44400555555555,-84.4174,OHIO,ZID,RNAV,08/16/2006
ICASI,40.03061944444444,-84.22298888888889,OHIO,ZID,RNAV,07/11/2009
ICGUG,37.036744444444444,-82.43809444444445,VIRGINIA,ZID,CN,12/04/2014
ICIBO,37.79966111111111,-84.85791944444443,KENTUCKY,ZID,RNAV,10/12/2006
ICIKO,36.56776388888889,-84.29023055555555,TENNESSEE,ZID,RNAV,03/20/2007
ICINU,37.889716666666665,-87.67521111111111,KENTUCKY,ZID,RNAV,08/13/2014
ICOLO,37.039202777777774,-84.63232222222221,KENTUCKY,ZID,RNAV,10/29/2007
ICREB,40.42522777777778,-84.30113333333333,OHIO,ZID,RNAV,12/31/2009
ICUCO,39.41671944444444,-86.27711111111111,INDIANA,ZID,RP,VHP*VORTAC*169.00/24.23
ICURI,39.44575,-83.01666944444445,OHIO,ZID,WP,11/02/1998
IDABE,38.39196666666667,-83.50758611111111,KENTUCKY,ZID,RNAV,07/15/2014
IDASY,37.24411388888889,-84.39399722222223,KENTUCKY,ZID,WP,01/16/1997
IDGOW,38.246636111111115,-86.70953055555556,INDIANA,ZID,RNAV,10/14/2009
IFALN,38.142719444444445,-85.428425,KENTUCKY,ZID,RNAV,11/03/2011
IFECA,40.43698333333333,-85.29111388888889,INDIANA,ZID,RNAV,01/21/2015
IFIGO,39.41428611111111,-87.62415,ILLINOIS,ZID,RP,TTH*VORTAC*253.72/18.00
IFTAG,38.036474999999996,-85.6505138888889,KENTUCKY,ZID,RNAV,06/06/2012
IGMIY,39.25631111111111,-82.71075555555556,OHIO,ZID,RNAV,12/19/2014
IIUUU,39.544941666666666,-86.50168333333333,INDIANA,ZID,RP,OQV*LD*229.55/14.86
IJENY,38.0026,-85.97689166666667,INDIANA,ZID,MW,10/28/2010
IJMIN,40.35360277777778,-83.77482499999999,OHIO,ZID,RNAV,07/15/2010
IJOZU,37.794847222222224,-81.216275,WEST VIRGINIA,ZID,RP,BLF*VOR/DME*000.95
IJPOV,39.221575,-86.4227638888889,INDIANA,ZID,RNAV,07/09/2001
IKELE,37.76268888888889,-88.03013333333334,KENTUCKY,ZID,RNAV,02/20/2014
IKEYU,39.57640833333333,-83.81189166666667,OHIO,ZID,RNAV,10/15/2008
IKMUJ,40.06708611111112,-83.33071666666666,OHIO,ZID,CN,02/06/2012
IKOVE,40.65651388888889,-83.98704444444445,OHIO,ZID,RNAV,12/26/2013
ILAYA,38.050675,-86.10860277777778,INDIANA,ZID,RP,FTK*VOR/DME*324.15/10.75
ILILE,38.55401388888889,-82.60194999999999,OHIO,ZID,RP,YRK*VORTAC*111.85/18.51
ILJAY,39.895288888888885,-85.23676388888889,INDIANA,ZID,RNAV,08/01/2006
ILOYU,39.338213888888895,-85.95765277777778,INDIANA,ZID,RNAV,02/17/2006
IMOGY,37.34181944444445,-86.94296666666666,KENTUCKY,ZID,RNAV,08/10/2010
IMOPE,38.87451111111111,-82.20783888888889,OHIO,ZID,RNAV,02/01/2010
IMOSE,40.213750000000005,-84.05925555555555,OHIO,ZID,RNAV,04/05/2004
IMPEL,38.35955,-87.08303055555555,INDIANA,ZID,RP,IIU*VORTAC*281.63/72.81
IMRIC,38.01281111111111,-84.56006944444444,KENTUCKY,ZID,RP,HYK*VOR/DME*303.87/5.00
IMTEW,39.52001666666666,-87.212225,INDIANA,ZID,RNAV,10/24/2011
INCUR,40.07459444444445,-84.60030277777777,OHIO,ZID,RP,DQN*VOR/DME*291.47/10.00
INDAA,37.93741111111111,-85.39958611111112,KENTUCKY,ZID,RNAV,05/09/2016
INDEP,36.474113888888894,-85.2596638888889,TENNESSEE,ZID,RP,LVT*VOR/DME*216.25/8.00
INOYO,39.77941111111111,-85.90665555555556,INDIANA,ZID,RNAV,12/08/2008
IPEDY,39.59348055555556,-87.10934999999999,INDIANA,ZID,RNAV,10/14/2011
IPEYU,37.82325555555556,-88.29081388888889,ILLINOIS,ZID,RNAV,02/29/2008
IRACU,40.37289722222222,-81.78976944444445,OHIO,ZID,RNAV,03/16/2016
IRECA,39.29926111111111,-84.78465,OHIO,ZID,RP,CVG*VORTAC*351.43/17.40
IREJU,40.50514166666667,-83.92082500000001,OHIO,ZID,RNAV,03/30/2018
IRHIV,37.19851111111111,-83.80535277777777,KENTUCKY,ZID,RNAV,02/09/2018
IRIRY,39.062019444444445,-87.66155833333333,ILLINOIS,ZID,RNAV,07/17/2013
IROGY,39.396316666666664,-87.76658333333333,ILLINOIS,ZID,RNAV,06/28/2010
IROZU,37.17009722222222,-82.92711944444444,KENTUCKY,ZID,RNAV,10/21/2014
IRVEF,37.988955555555556,-84.52655833333333,KENTUCKY,ZID,RNAV,12/01/2017
IRVIN,37.76546666666667,-84.04459166666666,KENTUCKY,ZID,RP,LOZ*VOR/DME*007.06/44.00
ISFUR,38.13695833333333,-83.92843611111111,KENTUCKY,ZID,RNAV,08/12/2013
ISWIZ,36.90958333333333,-84.269125,KENTUCKY,ZID,RNAV,07/26/2016
ITALL,39.89100277777778,-84.22240277777777,OHIO,ZID,WP,DQN*VOR/DME*133.99/11.01
ITALY,38.53371666666666,-81.23595277777778,WEST VIRGINIA,ZID,RP,BKW*VOR/DME*359.31/45.47
ITENY,40.35551111111111,-82.81734166666666,OHIO,ZID,RNAV,11/01/2016
ITIMY,38.364716666666666,-83.94986666666667,KENTUCKY,ZID,RNAV,03/31/2009
ITOZE,36.80208888888889,-84.19618055555556,KENTUCKY,ZID,RNAV,BYL*LE*019.97/0.59
ITTOW,40.29288333333333,-83.23279444444445,OHIO,ZID,RNAV,11/01/2016
ITYEF,39.34800555555556,-86.65397222222222,INDIANA,ZID,RNAV,03/22/2009
ITZOV,38.534058333333334,-83.43685,KENTUCKY,ZID,RNAV,03/31/2009
IWYUP,36.33383333333334,-85.4352638888889,TENNESSEE,ZID,RNAV,01/16/2001
IXAME,39.707413888888894,-83.95020000000001,OHIO,ZID,RNAV,11/03/2006
IYBOX,38.74478611111111,-84.13589444444445,KENTUCKY,ZID,RP,FLM*VOR/DME*059.11/10.00
IYIYI,37.8787,-81.86959166666666,WEST VIRGINIA,ZID,RNAV,06/02/2017
IYUGE,38.88356944444445,-84.5471,KENTUCKY,ZID,RNAV,09/22/2015
IZZIE,40.50796388888889,-84.31479166666666,OHIO,ZID,RNAV,12/31/2009
IZZOF,39.645580555555554,-84.61775277777777,OHIO,ZID,RP,CVG*VORTAC*010.00/37.95
EARNS,39.9688,-84.10738888888888,OHIO,ZID,RNAV,04/11/2014
EASEL,39.03491666666667,-85.71577222222223,INDIANA,ZID,RNAV,02/06/2015
EATTN,38.58278888888889,-85.73797777777777,INDIANA,ZID,RNAV,04/25/2012
EBEDE,39.770713888888885,-86.437875,INDIANA,ZID,RNAV,01/12/2015
EBTAC,37.45458888888889,-84.1643888888889,KENTUCKY,ZID,RNAV,09/13/2012
ECAYA,37.54058333333333,-83.43051111111112,KENTUCKY,ZID,RP,AZQ*VOR/DME*322.25/12.00
ECGIG,36.85622222222222,-83.37417222222221,KENTUCKY,ZID,RNAV,06/01/2016
ECITO,38.02603333333333,-85.71684722222223,KENTUCKY,ZID,RNAV,06/06/2012
ECOCO,37.53905833333333,-87.15727222222223,KENTUCKY,ZID,RNAV,11/27/2012
EDATY,37.66277777777778,-81.34874722222222,WEST VIRGINIA,ZID,RNAV,01/08/2018
EDEYE,38.63673333333333,-82.73080833333333,OHIO,ZID,RNAV,08/12/2008
EDIIE,39.43154444444444,-86.62232222222221,INDIANA,ZID,RNAV,09/20/2016
EDINE,38.720683333333334,-83.73395277777777,OHIO,ZID,RNAV,04/25/2003
EDISY,39.360083333333336,-86.54767222222222,INDIANA,ZID,RNAV,03/23/2009
EDOCU,38.90024722222222,-86.538225,INDIANA,ZID,RNAV,06/16/2011
EDODE,39.60621666666667,-86.30397222222221,INDIANA,ZID,RNAV,01/12/2015
EDSOE,39.11799166666667,-81.32492777777777,WEST VIRGINIA,ZID,RP,CKB*VOR/DME*265.00
EEERS,38.51030277777778,-81.71256111111111,WEST VIRGINIA,ZID,RP,HVQ*VOR/DME*018.67/10.00
EEVAN,39.59343611111111,-83.21451388888889,OHIO,ZID,RP,CVG*VORTAC*067.00/77.50
EFWAV,38.33450277777778,-87.19867500000001,INDIANA,ZID,RNAV,10/14/2009
EGUYY,40.080088888888895,-83.00625,OHIO,ZID,RNAV,10/31/2001
EGWAB,38.16305277777778,-86.71099166666667,INDIANA,ZID,RNAV,10/14/2009
EKEKE,39.84730555555556,-86.70246666666667,INDIANA,ZID,RNAV,01/12/2015
EKLLR,40.54210833333333,-84.82201111111111,INDIANA,ZID,RNAV,12/31/2009
EKONE,38.341100000000004,-84.73416666666667,KENTUCKY,ZID,RNAV,08/09/2006
EKOYA,39.693802777777776,-87.93168611111112,ILLINOIS,ZID,RNAV,06/15/2016
EKUZE,39.78471388888889,-85.89208888888889,INDIANA,ZID,RNAV,03/15/2007
ELAWU,37.12959166666667,-82.96387222222222,KENTUCKY,ZID,RNAV,02/09/2018
ELEFY,39.15600833333333,-85.44682777777778,INDIANA,ZID,RNAV,06/28/2009
ELIHO,39.684552777777775,-84.35956388888889,OHIO,ZID,RP,ROD*VORTAC*207.08/39.00
ELIOE,38.498491666666666,-87.95683611111112,ILLINOIS,ZID,RP,PXV*VORTAC*342.00
ELLEY,36.891866666666665,-84.01113055555555,KENTUCKY,ZID,RNAV,07/26/2016
ELYSE,39.872991666666664,-85.7811,INDIANA,ZID,RP,SHB*VOR/DME*006.88
EMBRR,38.6523,-87.23649722222223,INDIANA,ZID,RNAV,01/12/2015
EMEGE,39.713055555555556,-86.67777777777778,INDIANA,ZID,RNAV,11/19/2012
EMPTY,39.963297222222224,-83.18694444444445,OHIO,ZID,RP,AIR*VOR/DME*276.07/109.32
ENGRA,37.483983333333335,-84.25059722222223,KENTUCKY,ZID,RNAV,02/05/2014
ENIVY,38.506052777777775,-81.41439444444445,WEST VIRGINIA,ZID,RNAV,05/23/2013
ENOCU,39.65140833333333,-87.40645555555557,INDIANA,ZID,RNAV,06/20/2005
ENOKE,37.72994166666667,-87.4295638888889,KENTUCKY,ZID,RNAV,08/14/2008
ENOSE,38.56192222222222,-83.68242777777779,KENTUCKY,ZID,RNAV,03/31/2009
EPIJO,39.306602777777776,-85.258325,INDIANA,ZID,RNAV,07/29/2010
EPORE,38.02350833333333,-84.44579166666666,KENTUCKY,ZID,RNAV,06/21/2010
EPZOK,38.44007777777777,-84.42671111111112,KENTUCKY,ZID,RNAV,06/21/2010
ERECO,39.98638888888889,-87.11666666666666,INDIANA,ZID,RNAV,11/19/2012
EREME,39.788602777777776,-84.44538055555556,OHIO,ZID,RNAV,07/11/2009
ERFAM,38.86522222222222,-81.86636388888888,WEST VIRGINIA,ZID,RNAV,06/15/2011
ERIKK,37.505269444444444,-83.29503333333334,KENTUCKY,ZID,RP,AZQ*VOR/DME*351.39/7.00
ERLEY,39.269327777777775,-83.86037499999999,OHIO,ZID,RP,MXQ*VOR/DME*200.00/10.00
ERTON,37.523916666666665,-84.66075000000001,KENTUCKY,ZID,RP,PQQ*LE*SE CRS/6.50
ESODE,37.40920833333333,-83.45499166666667,KENTUCKY,ZID,RNAV,05/12/2003
ESOME,37.93361944444444,-84.83745277777777,KENTUCKY,ZID,RNAV,08/10/2010
ESONE,36.96395277777778,-84.27531111111111,KENTUCKY,ZID,RP,LOZ*VOR/DME*245.48/8.96
ESSEV,37.96735555555556,-85.29878333333333,KENTUCKY,ZID,RNAV,02/20/2018
ESTEM,37.512858333333334,-80.96388055555556,WEST VIRGINIA,ZID,RP,BLF*VOR/DME*044.61/16.56
ESTRN,40.54151944444444,-81.83996111111111,OHIO,ZID,RNAV,07/16/2015
ETAME,39.98444444444444,-86.9,INDIANA,ZID,RNAV,11/19/2012
ETANE,39.85441111111111,-86.34691666666666,INDIANA,ZID,RNAV,10/05/2016
ETMEW,40.34226944444445,-82.65611666666668,OHIO,ZID,RNAV,06/29/2011
ETOXY,38.3122,-84.38724444444445,KENTUCKY,ZID,RNAV,06/21/2010
ETTAF,40.235397222222225,-84.02595555555556,OHIO,ZID,RNAV,10/13/2015
ETWEE,39.225211111111115,-84.19230277777778,OHIO,ZID,RNAV,09/24/2015
ETXUX,40.195899999999995,-84.19998333333334,OHIO,ZID,CN,06/06/2001
EVAME,39.223038888888894,-84.72781666666667,OHIO,ZID,RNAV,04/15/2008
EVAVE,39.59966666666667,-86.21232777777779,INDIANA,ZID,RNAV,10/05/2016
EVEZA,40.514858333333336,-84.18058888888889,OHIO,ZID,RNAV,06/13/2008
EVOCO,40.47243888888889,-84.67774722222222,OHIO,ZID,RNAV,01/04/2010
EVOZU,40.495358333333336,-84.44496388888889,OHIO,ZID,RNAV,01/04/2010
EVRUZ,38.63356388888889,-82.83708333333333,OHIO,ZID,RNAV,08/12/2008
EWLIR,36.65668888888889,-85.01752499999999,KENTUCKY,ZID,RNAV,08/01/2016
EYABU,40.579347222222225,-83.67770555555556,OHIO,ZID,RNAV,12/03/2010
EYMED,38.90600277777778,-82.37257222222222,OHIO,ZID,RNAV,02/01/2010
EYOLO,39.67753888888889,-86.46682777777778,INDIANA,ZID,RNAV,10/05/2016
EYTEJ,38.94502222222222,-86.73198055555555,INDIANA,ZID,RP,OOM*VORTAC*207.05/13.15
EYUGI,39.489666666666665,-85.95765277777778,INDIANA,ZID,RNAV,02/17/2006
EYUTA,39.44323055555555,-86.81857777777778,INDIANA,ZID,RNAV,09/23/2003
EZFAY,40.73351111111111,-84.10746666666667,OHIO,ZID,RNAV,12/26/2013
EZOCY,39.620047222222226,-82.97480833333333,OHIO,ZID,RNAV,02/12/2016
PAADS,37.71710277777778,-81.99938888888889,WEST VIRGINIA,ZID,RNAV,09/14/2011
PACID,37.810205555555555,-84.50153333333333,KENTUCKY,ZID,RNAV,09/13/2012
PACRR,39.78528055555555,-86.19583611111112,INDIANA,ZID,RP,VHP*VORTAC*101.48
PAGVE,39.064727777777776,-80.45783888888889,WEST VIRGINIA,ZID,RP,EKN*VORTAC*305.35
PALLA,40.28989166666666,-82.5363111111111,OHIO,ZID,RP,APE*VORTAC*022.00/8.66
PALSE,37.39174166666667,-85.25958333333334,KENTUCKY,ZID,RNAV,06/13/2011
PANTE,37.70630277777778,-87.20964166666667,KENTUCKY,ZID,RP,OWB*VOR/DME*222.00
PARCL,38.07124166666667,-85.69177222222223,KENTUCKY,ZID,RP,IIU*VORTAC*249.41
PATIE,40.30184444444444,-82.2672861111111,OHIO,ZID,RNAV,06/29/2011
PATMY,37.25065277777778,-84.4282,KENTUCKY,ZID,RNAV,06/21/2006
PAVAE,39.94591388888889,-84.94408055555556,INDIANA,ZID,RNAV,02/23/2015
PDIDY,39.50745,-86.03979722222222,INDIANA,ZID,RNAV,01/12/2015
PEAIR,37.56711666666667,-82.41811944444444,KENTUCKY,ZID,RP,PBX*LD*093.94/7.04
PECID,39.021208333333334,-82.57331944444444,OHIO,ZID,RNAV,08/03/2004
PEDIE,39.893775,-85.02022777777778,INDIANA,ZID,RNAV,08/01/2006
PEKYI,39.17613055555555,-85.96684166666667,INDIANA,ZID,RNAV,02/22/2006
PENBE,37.65430833333333,-88.15872777777778,ILLINOIS,ZID,RP,PXV*VORTAC*226.06/25.00
PENDS,40.09939722222222,-85.71513055555556,INDIANA,ZID,RP,MZZ*VOR/DME*187.00
PENIC,40.07787777777778,-81.77466111111112,OHIO,ZID,RP,TNF*LD*039.84/10.19
PENOE,39.91136111111111,-83.73246944444445,OHIO,ZID,RNAV,08/03/2010
PENTO,38.328697222222225,-87.28798055555555,INDIANA,ZID,RP,ENL*VORTAC*088.97/88.45
PERLE,38.92873055555555,-86.4962,INDIANA,ZID,RP,OOM*VORTAC*159.00/14.00
PETES,38.3869,-84.92464444444445,KENTUCKY,ZID,RP,FLM*VOR/DME*245.63/32.92
PETLE,39.478405555555554,-82.9847861111111,OHIO,ZID,RNAV,02/12/2016
PETRO,39.47228888888889,-83.97086666666667,OHIO,ZID,RP,SGH*VOR/DME*199.00
PETYN,39.7881,-86.36003888888888,INDIANA,ZID,RNAV,01/12/2015
PEWEZ,39.864961111111114,-84.63865555555556,OHIO,ZID,RNAV,05/27/2009
PEYIV,40.175894444444445,-85.31458055555555,INDIANA,ZID,RNAV,07/19/2006
PEYIY,39.78373055555555,-82.96536388888889,OHIO,ZID,RP,DDV*LD/3.72
PGSUS,37.97306388888889,-85.65840277777778,KENTUCKY,ZID,RP,IIU*VORTAC*205.18
PHILO,39.31991111111112,-84.64541944444446,OHIO,ZID,RP,CIZ*LD*004.21/17.65
PHISH,37.980275,-84.3593611111111,KENTUCKY,ZID,RNAV,08/10/2010
PHLOX,38.56379166666667,-83.85579444444444,KENTUCKY,ZID,RP,FLM*VOR/DME*107.36/22.00
PICKL,39.88140833333333,-82.8365361111111,OHIO,ZID,RP,LCK*LS*052.30
PICNO,38.967825000000005,-87.38974444444445,INDIANA,ZID,RNAV,05/22/2012
PICUM,40.2483,-82.83836111111111,OHIO,ZID,RNAV,11/10/2016
PIGTE,39.68631388888888,-84.78037222222223,OHIO,ZID,RNAV,05/27/2009
PINEE,37.64447777777778,-81.61576944444444,WEST VIRGINIA,ZID,RP,BKW*VOR/DME*257.00
PIPTE,39.93414722222222,-86.25026944444444,INDIANA,ZID,RP,VHP*VORTAC*036.06
PIRIC,40.019727777777774,-82.58943055555555,OHIO,ZID,RP,APE*VORTAC*186.38
PIRNS,39.83009444444445,-84.0040638888889,OHIO,ZID,RNAV,04/11/2014
PISIC,40.07716111111112,-85.861875,INDIANA,ZID,RNAV,08/05/2013
