name,latitude,longitude,state,artcc,type,updated
TAANA,20.943002777777778,-70.97385833333334,,ZMA,RP,PTA*VOR/DME*351.13/74.33
TACUY,26.33107222222222,-80.15915000000001,FLORIDA,ZMA,RNAV,06/13/2014
TADPO,24.00043888888889,-81.21699722222222,FLORIDA,ZMA,RP,FIS*NDB*140.27
TAGJO,25.832769444444445,-81.53891666666667,FLORIDA,ZMA,RNAV,11/10/2009
TANAH,26.31929722222222,-80.17188888888889,FLORIDA,ZMA,RNAV,08/28/2015
TANIA,24.030094444444444,-79.52757777777778,OFFSHORE ATLANTIC,ZMA,RP,VKZ*VOR/DME*165.49/108.51
TANUY,24.52614722222222,-82.09870833333333,FLORIDA,ZMA,MR,NQX*TACAN*268.00/23.00
TARPO,27.785044444444445,-79.57458055555556,FLORIDA,ZMA,RP,VKZ*VOR/DME*018.23/125.56
TARTY,26.79713888888889,-80.76237222222223,FLORIDA,ZMA,RNAV,09/01/2005
TATUW,27.72158888888889,-80.36754444444443,FLORIDA,ZMA,RNAV,08/09/2012
TAVDE,24.425569444444445,-81.78986388888889,FLORIDA,ZMA,MW,02/10/2016
TAZER,24.794008333333334,-80.75117777777778,FLORIDA,ZMA,RNAV,08/15/2017
TBIRD,27.156180555555554,-80.46937222222222,FLORIDA,ZMA,RP,PHK*VOR/DME*028.00
TBIWX,27.155277777777776,-80.48583333333333,FLORIDA,ZMA,RNAV,01/28/2016
TEDAE,28.215008333333333,-80.14075277777779,OFFSHORE ATLANTIC,ZMA,MR,COF*TACAN*100.00/25.00
TEFDU,26.215102777777776,-81.70809722222222,FLORIDA,ZMA,RNAV,11/05/2009
TEGUC,27.488355555555557,-80.3139,FLORIDA,ZMA,RNAV,07/11/2012
TEMDE,24.5578,-81.57683888888889,FLORIDA,ZMA,RNAV,02/10/2016
TEMPE,28.102911111111112,-81.51549444444444,FLORIDA,ZMA,RP,ORL*VORTAC*200.00/28.00
TENBE,28.25216111111111,-80.60233333333333,FLORIDA,ZMA,MR,COF*TACAN*036.96/1.00
TEYUK,26.291697222222226,-80.32618055555555,FLORIDA,ZMA,RP,VKZ*VOR/DME*348.00/33.60
THNDR,26.627322222222222,-80.8665861111111,FLORIDA,ZMA,RP,LBV*VORTAC*111.97
THNWX,26.416666666666668,-80.72916666666667,FLORIDA,ZMA,RNAV,01/28/2016
THUMP,24.430222222222223,-82.04946944444444,FLORIDA,ZMA,RP,EYW*VORTAC*234.71/16.50
TICCO,28.516805555555553,-80.798,FLORIDA,ZMA,RP,ORL*VORTAC*093.00
TICOG,26.292780555555556,-80.55958888888888,FLORIDA,ZMA,RNAV,08/01/2006
TIGAR,24.946008333333335,-81.49161111111111,FLORIDA,ZMA,RP,EYW*VORTAC*037.00/27.36
TIKIY,27.497961111111113,-80.48109444444445,FLORIDA,ZMA,RP,TRV*VORTAC*184.56
TILDE,26.2106,-81.84060277777778,FLORIDA,ZMA,RNAV,07/07/2014
TINKE,25.790650000000003,-80.204175,FLORIDA,ZMA,RP,VKZ*VOR/DME*314.72
TINKR,28.323055555555555,-81.42416666666666,FLORIDA,ZMA,RNAV,10/24/2007
TINKY,24.980119444444444,-78.39368333333334,OFFSHORE ATLANTIC,ZMA,RP,ZBV*VORTAC*135.30/65.37
TIOFF,26.082213888888887,-81.72964722222223,FLORIDA,ZMA,RNAV,11/11/2009
TIRTE,26.58525,-81.26590833333333,FLORIDA,ZMA,RP,RSW*VORTAC*085.00/27.63
TOMAZ,21.308941666666666,-71.84724444444444,,ZMA,RP,PTA*VOR/DME*331.41/117.26
TOMEE,27.1,-79.41666666666667,OFFSHORE ATLANTIC,ZMA,RNAV,05/11/2009
TONYJ,27.728194444444444,-82.70786111111111,FLORIDA,ZMA,RNAV,01/25/2013
TOOMR,26.849994444444444,-79.63680277777779,OFFSHORE ATLANTIC,ZMA,RP,ZBV*VORTAC*349.00/70.99
TOPPR,27.126308333333334,-80.0252611111111,FLORIDA,ZMA,RP,PBI*VORTAC*010.00/26.90
TOTNY,28.243094444444445,-81.52325555555555,FLORIDA,ZMA,RNAV,08/05/2012
TOUCH,27.878775,-83.15017777777778,FLORIDA,ZMA,RP,CTY*VORTAC*185.00/103.09
TOWES,25.996908333333334,-80.04068611111111,FLORIDA,ZMA,RNAV,10/05/2011
TPSTR,27.83529722222222,-80.6469,FLORIDA,ZMA,RP,MLB*VOR/DME*189.18/16.17
TRAMP,28.170325000000002,-81.31936388888889,FLORIDA,ZMA,RP,OJP*LD*185.46/16.75
TRIPL,27.04964166666667,-79.47787777777778,FLORIDA,ZMA,RP,OMN*VORTAC*146.88/160.31
TRITN,26.416977777777777,-79.809825,FLORIDA,ZMA,RP,VKZ*VOR/DME*029.00/43.93
TROPC,26.423933333333334,-81.9272388888889,FLORIDA,ZMA,RP,RSW*LD*238.10/12.60
TROTR,21.802777777777777,-72.79694444444445,OFFSHORE ATLANTIC,ZMA,RP,GTK*VORTAC*291.42/95.43
TRPPL,26.021774999999998,-80.09039999999999,FLORIDA,ZMA,RNAV,07/19/2011
TRUBE,26.192130555555554,-80.236125,FLORIDA,ZMA,RP,FLL*VOR/DME*337.99
TUHWU,25.783925,-80.36681388888888,FLORIDA,ZMA,RNAV,06/16/2016
TUNNE,26.846244444444444,-80.07365555555555,FLORIDA,ZMA,RNAV,01/22/2007
TUNPY,28.51386111111111,-80.89734444444446,FLORIDA,ZMA,RNAV,04/24/2014
TURBO,26.175316666666667,-79.78750555555555,OFFSHORE ATLANTIC,ZMA,RP,DHP*VORTAC*057.39/37.76
TURKE,25.50340277777778,-80.3629861111111,FLORIDA,ZMA,MR,HST*TACAN*054.00/1.20
TURPS,26.679622222222225,-79.74672222222222,FLORIDA,ZMA,RP,PBI*VORTAC*093.00/18.26
TURWX,26.522222222222222,-79.51138888888889,OFFSHORE ATLANTIC,ZMA,RNAV,06/30/2016
TUXXI,27.317975,-80.13643888888889,FLORIDA,ZMA,RP,PBI*VORTAC*359.00/38.26
TUYVO,26.37230277777778,-79.92965000000001,FLORIDA,ZMA,RNAV,06/01/2006
TWNKY,24.494241666666667,-81.62598055555554,FLORIDA,ZMA,MR,NQX*TACAN*155.00/6.00
TWNNS,24.816275,-80.55843055555555,FLORIDA,ZMA,RP,EYW*VORTAC*077.26
TYNEE,26.797405555555557,-82.28406944444444,FLORIDA,ZMA,RP,LBV*VORTAC*267.00
AABER,26.072777777777777,-81.33,FLORIDA,ZMA,RNAV,02/11/2010
ACIPU,27.441130555555556,-82.60752222222222,FLORIDA,ZMA,RNAV,07/16/2008
ACMEE,22.174377777777778,-75.05638055555555,OFFSHORE ATLANTIC,ZMA,RP,05/21/1997
ACMOD,28.369966666666667,-80.77695,FLORIDA,ZMA,RNAV,02/17/2006
ACRUZ,24.0,-84.57818888888889,OFFSHORE GULF,ZMA,RNAV,08/31/2010
ADGAY,25.869155555555555,-80.21499444444444,FLORIDA,ZMA,RNAV,10/05/2011
ADKOQ,26.272177777777777,-79.53100555555555,OFFSHORE ATLANTIC,ZMA,RNAV,08/01/2006
ADNIL,27.77461111111111,-82.58419166666665,FLORIDA,ZMA,MR,MCF*TACAN*220.00/6.40
ADOOR,29.400074999999998,-78.55569444444444,FLORIDA,ZMA,RP,ORL*VORTAC*070.00/155.00
ADOTE,26.07661388888889,-80.10924722222222,FLORIDA,ZMA,RNAV,12/13/2001
AGLER,25.805658333333334,-80.18066111111112,FLORIDA,ZMA,RP,VKZ*VOR/DME*340.18
AGOYA,26.1489,-80.75574444444445,FLORIDA,ZMA,RNAV,05/30/2006
AGUSE,27.99237777777778,-82.12682222222222,FLORIDA,ZMA,MR,MCF*TACAN*073.00/22.00
AHABB,26.812472222222222,-80.00577222222222,FLORIDA,ZMA,RNAV,11/10/2009
AHERN,27.177655555555557,-80.03104722222223,FLORIDA,ZMA,RNAV,10/26/2009
AHJUP,27.87901388888889,-81.85848333333333,FLORIDA,ZMA,RNAV,03/26/2009
AHORE,26.868980555555556,-81.20162777777779,FLORIDA,ZMA,RNAV,12/29/2008
AIRBS,27.995675000000002,-82.10587222222222,FLORIDA,ZMA,RP,LAL*VORTAC*275.65/4.92
AIRVA,27.085627777777777,-81.88273055555555,FLORIDA,ZMA,RNAV,03/31/2008
AKACA,28.005736111111112,-81.71027777777778,FLORIDA,ZMA,RNAV,03/26/2009
ALBBE,20.416666666666668,-72.24880555555556,,ZMA,RP,GTK*VORTAC*233.85/87.58
ALERI,23.009744444444443,-68.60858888888889,OFFSHORE ATLANTIC,ZMA,RNAV,04/04/2008
ALLSO,27.649058333333333,-81.38646111111112,FLORIDA,ZMA,RP,LAL*VORTAC*120.00/39.00
ALROE,27.78641388888889,-83.00805555555556,FLORIDA,ZMA,RNAV,11/19/2010
ALUTE,25.40588611111111,-74.53127222222223,OFFSHORE ATLANTIC,ZMA,RNAV,04/14/2008
AMBAZ,27.996100000000002,-81.96429722222223,FLORIDA,ZMA,RP,LAL*VORTAC*076.29/2.70
AMBIS,23.731624999999998,-76.88019444444444,,ZMA,RP,ZBV*VORTAC*135.30/176.95
AMEBE,28.26518888888889,-81.32502222222222,FLORIDA,ZMA,RNAV,12/31/2014
AMFAP,26.686908333333335,-80.14179722222222,FLORIDA,ZMA,RP,PBI*VORTAC*280.87/3.00
AMFIJ,26.71483333333333,-80.13887222222223,FLORIDA,ZMA,RP,PBI*VORTAC*309.49/3.50
AMICI,28.387313888888887,-81.29537499999999,FLORIDA,ZMA,RP,DDO*LD*185.47/3.06
AMNDA,27.09998611111111,-79.43637777777778,OFFSHORE ATLANTIC,ZMA,RNAV,04/08/2010
AMNUK,26.68733888888889,-80.012525,FLORIDA,ZMA,CN,01/26/2001
AMREW,26.65451111111111,-80.07263611111111,FLORIDA,ZMA,RP,PBI*VORTAC*157.00/1.70
AMSAW,27.435391666666668,-82.10139444444444,FLORIDA,ZMA,RNAV,09/02/2008
AMZAR,26.660608333333332,-79.54789444444444,OFFSHORE ATLANTIC,ZMA,RNAV,09/05/2014
ANAKE,26.846319444444443,-80.71448055555555,FLORIDA,ZMA,CN,01/26/2001
ANAZE,27.850708333333333,-82.53285277777778,FLORIDA,ZMA,RP,LAL*VORTAC*252.74
ANDRO,28.04918055555556,-81.88568611111111,FLORIDA,ZMA,RP,OCF*VORTAC*165.00
ANEMO,26.450833333333332,-80.41166666666668,FLORIDA,ZMA,RNAV,04/23/2010
ANFAN,27.433180555555555,-82.61780555555555,FLORIDA,ZMA,CN,01/26/2001
ANFOW,27.440727777777777,-82.4968638888889,FLORIDA,ZMA,CN,01/26/2001
ANGEE,27.467936111111108,-80.14835000000001,FLORIDA,ZMA,RP,PHK*VOR/DME*035.22
ANGLL,27.0,-77.56944444444444,,ZMA,RP,ZQA*VOR/DME*002.80/118.30
ANGRO,25.783333333333335,-80.51666666666667,FLORIDA,ZMA,RNAV,05/11/2009
ANGSS,22.37891666666667,-71.86428888888888,OFFSHORE ATLANTIC,ZMA,RP,GTK*VORTAC*332.16/69.32
ANLEW,27.00886388888889,-82.37233888888888,FLORIDA,ZMA,RNAV,05/19/2011
ANNAD,24.50014722222222,-74.55986666666666,,ZMA,RNAV,11/26/2002
ANNEY,26.465658333333334,-80.04945555555555,FLORIDA,ZMA,RP,ZFP*VOR/DME*269.08
ANTII,28.136622222222222,-81.69272222222223,FLORIDA,ZMA,RNAV,03/26/2009
ANTOX,20.94192222222222,-69.76562222222222,OFFSHORE ATLANTIC,ZMA,RP,GTK*VORTAC*118.98/82.33
APASY,26.713258333333332,-81.70703611111111,FLORIDA,ZMA,RNAV,07/26/2011
APOLO,28.8326,-80.42090277777778,FLORIDA,ZMA,RP,ORL*VORTAC*070.00/51.26
APZUL,27.07820277777778,-82.10224166666666,FLORIDA,ZMA,RNAV,03/31/2008
AREPE,27.218349999999997,-80.1286611111111,FLORIDA,ZMA,RNAV,10/26/2009
ARISS,23.18166666666667,-76.81166666666667,OFFSHORE ATLANTIC,ZMA,RNAV,08/22/2011
ARIYA,25.803977777777778,-80.27542777777778,FLORIDA,ZMA,RP,CNV*LE*E CRS/1.58
ARKES,26.577147222222223,-80.41766666666668,FLORIDA,ZMA,RP,VKZ*VOR/DME*348.00/51.37
ARKWX,26.416666666666668,-80.3625,FLORIDA,ZMA,RNAV,01/28/2016
AROSS,27.148366666666668,-80.12936388888889,FLORIDA,ZMA,RNAV,03/21/2013
ARSHW,27.98861666666667,-82.23644166666666,FLORIDA,ZMA,RP,LAL*LD*273.85/12.32
ASIVO,19.96,-69.69250000000001,,ZMA,RNAV,04/10/2008
ASTRO,28.77743333333333,-80.80089166666666,FLORIDA,ZMA,RNAV,08/12/2012
ATLAS,28.24920277777778,-80.42349166666668,FLORIDA,ZMA,RNAV,07/01/2014
ATNAW,24.55392777777778,-81.96783888888889,FLORIDA,ZMA,RNAV,04/12/2006
ATONE,26.386705555555555,-80.35657777777777,FLORIDA,ZMA,RP,VKZ*VOR/DME*348.00/39.51
ATTIK,28.834444444444443,-80.60055555555554,OFFSHORE ATLANTIC,ZMA,RNAV,04/04/2008
AVCOF,26.17406111111111,-81.71578611111111,FLORIDA,ZMA,RNAV,11/10/2009
AVION,24.86456111111111,-79.82891666666666,FLORIDA,ZMA,RP,VKZ*VOR/DME*165.49/55.95
AVIVE,28.154930555555556,-80.62746666666666,FLORIDA,ZMA,MR,MLB*VOR/DME*015.00/3.00
AVNEY,23.895480555555555,-73.9498638888889,OFFSHORE ATLANTIC,ZMA,RNAV,04/14/2008
AVOXI,26.500305555555556,-76.68773611111112,OFFSHORE ATLANTIC,ZMA,RNAV,04/04/2008
AWINY,28.281677777777777,-80.79272777777777,FLORIDA,ZMA,RP,ORL*VORTAC*118.44/32.67
AWOTA,27.415097222222222,-80.59457499999999,FLORIDA,ZMA,RNAV,08/15/2008
AWZAC,28.10105,-80.74935555555555,FLORIDA,ZMA,RNAV,08/01/2012
AXMEB,28.126733333333334,-81.32260277777777,FLORIDA,ZMA,RNAV,08/01/2012
AYBID,28.32491111111111,-79.26253055555556,OFFSHORE ATLANTIC,ZMA,RNAV,10/26/2009
AYWEN,26.040955555555556,-81.68361111111112,FLORIDA,ZMA,RNAV,11/17/2009
AZCID,26.83596111111111,-80.31641111111111,FLORIDA,ZMA,RP,PBI*VORTAC*310.13
AZOMY,26.51914722222222,-82.12940277777777,FLORIDA,ZMA,RNAV,02/07/2018
XABZY,26.57753888888889,-80.0773,FLORIDA,ZMA,CN,12/29/2009
XACDY,26.75818888888889,-80.11447777777778,FLORIDA,ZMA,CN,12/29/2009
XAGRY,26.793658333333337,-80.13536111111112,FLORIDA,ZMA,RNAV,12/29/2009
XAGUH,25.50268888888889,-80.56430833333333,FLORIDA,ZMA,RNAV,06/10/2011
XAMVY,27.563866666666666,-81.88051944444443,FLORIDA,ZMA,RNAV,06/20/2012
XAQJI,26.702794444444443,-80.17651666666667,FLORIDA,ZMA,CN,12/29/2009
XASEF,27.465947222222223,-81.88040555555555,FLORIDA,ZMA,RNAV,06/20/2012
XAXKY,26.59602222222222,-80.06628055555555,FLORIDA,ZMA,CN,12/29/2009
XEJZI,26.840625,-80.25286111111112,FLORIDA,ZMA,RP,GHO*LD*275.35/2.20
XICZO,26.498230555555555,-80.04020833333333,FLORIDA,ZMA,RNAV,06/17/2014
MABJE,28.28515277777778,-81.44090555555556,FLORIDA,ZMA,RP,ORL*VORTAC*200.00/16.40
MABVD,26.384991666666668,-80.10693333333333,FLORIDA,ZMA,RP,PBI*VORTAC*186.57/17.69
MACKI,20.44353611111111,-69.72838888888889,OFFSHORE ATLANTIC,ZMA,RP,GTK*VORTAC*134.79/98.93
MADCY,27.894730555555554,-81.62417777777777,FLORIDA,ZMA,RP,LAL*VORTAC*103.71/21.42
MAGCV,28.414538888888888,-81.32233055555555,FLORIDA,ZMA,CN,09/12/2002
MAGLS,28.521466666666665,-80.79766111111111,FLORIDA,ZMA,CN,09/12/2002
MAHAR,27.696533333333335,-82.89823333333334,FLORIDA,ZMA,RNAV,11/21/2010
MAINR,27.209699999999998,-80.31515833333333,FLORIDA,ZMA,RNAV,03/21/2013
MAJIK,29.807377777777777,-78.99189722222222,OFFSHORE ATLANTIC,ZMA,RNAV,08/29/2005
MAJUR,25.330055555555557,-77.86100277777777,OFFSHORE ATLANTIC,ZMA,RP,ZQA*VOR/DME*315.00/29.00
MALET,28.69163888888889,-80.86786111111111,FLORIDA,ZMA,RP,OMN*VORTAC*160.55/38.80
MALVN,20.416666666666668,-71.39268611111112,OFFSHORE ATLANTIC,ZMA,RP,PTA*VOR/DME*319.25/60.92
MAMML,25.536658333333335,-76.64766944444445,,ZMA,RP,ZQA*VOR/DME*060.69/53.12
MANII,22.162074999999998,-70.01063611111111,OFFSHORE ATLANTIC,ZMA,RNAV,04/08/2008
MANNN,25.49540277777778,-80.1298361111111,FLORIDA,ZMA,RNAV,02/12/2012
MANTY,25.94888611111111,-79.82564166666667,OFFSHORE ATLANTIC,ZMA,RNAV,07/17/2007
MAPUL,26.499036111111113,-81.81215555555555,FLORIDA,ZMA,RNAV,01/22/2007
MAPYL,27.833333333333332,-75.98338055555556,OFFSHORE ATLANTIC,ZMA,RNAV,04/23/2008
MARCI,25.891066666666667,-81.78399166666667,FLORIDA,ZMA,RP,DHP*VORTAC*278.33/77.86
MARKG,27.935930555555554,-80.35647499999999,FLORIDA,ZMA,RNAV,06/18/2012
MARTS,26.08933611111111,-79.99778333333333,FLORIDA,ZMA,RP,DHP*VORTAC*051.58/25.70
MARYD,25.9,-80.26666666666667,FLORIDA,ZMA,RNAV,05/11/2009
MAXIM,24.0,-82.51881388888889,FLORIDA,ZMA,RP,FIS*NDB*234.91
MAYAG,21.70491388888889,-71.63198333333332,,ZMA,RP,GTK*VORTAC*307.68/32.00
MAYKO,26.20243333333333,-78.94648055555555,OFFSHORE ATLANTIC,ZMA,RP,ZFP*VOR/DME*215.46/25.00
MAZZY,27.1173,-81.53386111111111,FLORIDA,ZMA,RNAV,07/15/2008
MCLAW,24.56361111111111,-81.01666666666667,FLORIDA,ZMA,RNAV,09/09/2016
MEAGN,26.238111111111113,-80.7899,FLORIDA,ZMA,RNAV,08/04/2006
MEDAC,24.49683611111111,-81.7421138888889,FLORIDA,ZMA,MW,02/10/2016
MEKBE,26.123227777777778,-81.74113055555556,FLORIDA,ZMA,RNAV,07/07/2014
MELON,25.519541666666665,-77.47686111111112,,ZMA,RP,ZBV*VORTAC*100.00
MEMXI,26.468094444444443,-81.70721666666667,FLORIDA,ZMA,RNAV,07/15/2011
MENDL,24.45256111111111,-78.67836944444444,,ZMA,RP,ZBV*VORTAC*159.72/82.85
MERCS,28.095377777777777,-80.78099722222223,FLORIDA,ZMA,RP,MLB*VOR/DME*267.65/7.75
MEROE,25.163466666666665,-80.79829444444444,FLORIDA,ZMA,MR,HST*TACAN*/30.00
METTS,25.848419444444442,-80.39848611111111,FLORIDA,ZMA,RNAV,08/04/2006
MICAS,22.131497222222222,-72.44524444444446,,ZMA,RP,ZIN*NDB*053.31
MICKX,28.391558333333332,-81.1875,FLORIDA,ZMA,RNAV,10/24/2007
MILEJ,27.741530555555556,-82.18382777777778,FLORIDA,ZMA,RNAV,02/16/2010
MILES,26.249819444444444,-81.70407777777778,FLORIDA,ZMA,RP,LBV*VORTAC*205.00
MILME,28.120833333333334,-80.63499722222222,FLORIDA,ZMA,MR,COF*TACAN*197.00/7.10
MILNE,27.658252777777776,-82.67899444444446,FLORIDA,ZMA,MR,MCF*TACAN*220.00/15.00
MILSY,26.46740833333333,-79.73082777777778,OFFSHORE ATLANTIC,ZMA,RNAV,09/01/2005
MIMBE,27.59861111111111,-80.60305555555556,FLORIDA,ZMA,RNAV,04/08/2014
MIMMI,28.029597222222222,-79.31649722222222,OFFSHORE ATLANTIC,ZMA,RNAV,09/01/2005
MINEE,28.11833888888889,-81.74449444444444,FLORIDA,ZMA,RP,RSW*VORTAC*003.00/95.06
MINOW,26.04646388888889,-85.98295555555556,OFFSHORE GULF,ZMA,RP,08/01/2006
MIREE,28.01570277777778,-82.15459166666668,FLORIDA,ZMA,RNAV,10/02/2007
MISSL,28.686263888888888,-80.70932777777779,FLORIDA,ZMA,RNAV,06/18/2010
MIXAE,26.67871388888889,-79.49109166666666,,ZMA,RP,PBI*VORTAC*093.01/32.00
MKLEE,27.162502777777778,-80.29061666666666,FLORIDA,ZMA,RNAV,10/26/2009
MKYDG,26.61360555555556,-80.784425,FLORIDA,ZMA,RNAV,04/11/2018
MLBSO,27.79036388888889,-80.5278,FLORIDA,ZMA,RP,TRV*VORTAC*350.17/7.00
MLLER,23.934694444444446,-68.24891666666667,OFFSHORE ATLANTIC,ZMA,RNAV,04/11/2008
MMALL,26.394125,-81.81462777777777,FLORIDA,ZMA,RNAV,04/10/2014
MMDUQ,27.262763888888887,-81.90713333333333,FLORIDA,ZMA,CN,03/22/2002
MNATE,24.979316666666666,-80.52402777777777,FLORIDA,ZMA,RP,DHP*VORTAC*195.00/50.00
MNAWX,25.083333333333332,-80.5,FLORIDA,ZMA,RNAV,01/28/2016
MNDEZ,23.58105,-68.74628055555556,OFFSHORE ATLANTIC,ZMA,RNAV,04/08/2008
MNNDY,25.590930555555556,-80.81459722222222,FLORIDA,ZMA,RNAV,12/15/2015
MOANS,27.913880555555554,-81.74858055555556,FLORIDA,ZMA,RP,RSW*VORTAC*003.00/82.82
MOBUE,27.91937777777778,-82.44895833333334,FLORIDA,ZMA,MR,MCF*TACAN*/4.89
MODOE,26.949802777777776,-80.68442222222222,FLORIDA,ZMA,RP,PHK*VOR/DME*002.15/10.00
MOEMO,27.009725,-81.48223055555556,FLORIDA,ZMA,RNAV,07/15/2008
MOLTS,25.907777777777778,-80.38865833333334,FLORIDA,ZMA,RP,DHP*VORTAC*345.62
MONAD,27.021072222222223,-80.06255,FLORIDA,ZMA,RNAV,03/21/2013
MONAY,27.913691666666665,-81.70453888888889,FLORIDA,ZMA,RP,LAL*VORTAC*103.71/17.00
MOOKY,26.10638888888889,-82.36388888888888,OFFSHORE ATLANTIC,ZMA,RNAV,07/31/2008
MOONS,28.37645277777778,-80.35340555555555,FLORIDA,ZMA,RNAV,06/18/2010
MORGA,26.960216666666668,-80.19885277777779,FLORIDA,ZMA,RP,PHK*VOR/DME*068.00
MORGN,26.58535,-81.66122777777778,FLORIDA,ZMA,RP,RSW*VORTAC*063.67/7.00
MOSIE,26.445852777777777,-79.82849722222223,OFFSHORE ATLANTIC,ZMA,RNAV,05/30/2006
MOSTE,28.21285,-80.61827222222222,FLORIDA,ZMA,MR,MLB*VOR/DME*015.00/6.50
MRINO,27.797647222222224,-80.57989722222221,FLORIDA,ZMA,RNAV,01/14/2009
MRLIN,26.500933333333332,-79.76601111111111,FLORIDA,ZMA,RP,ZFP*VOR/DME*270.00/57.57
MRRSH,26.511327777777776,-77.08316388888889,,ZMA,RP,ZFP*VOR/DME*094.37/86.93
MRTEE,21.23957777777778,-70.58171944444445,OFFSHORE ATLANTIC,ZMA,RP,PTA*VOR/DME*008.60/88.50
MUDDS,27.68434722222222,-80.50780277777778,FLORIDA,ZMA,RNAV,08/06/2012
MUNRO,26.54001388888889,-79.01381666666667,,ZMA,RP,ZBV*VORTAC*020.80
MURDO,27.31873611111111,-82.32941944444444,FLORIDA,ZMA,RP,PIE*VORTAC*156.70/40.00
MUSSH,25.208008333333332,-74.27346944444444,OFFSHORE ATLANTIC,ZMA,RNAV,06/11/2008
MUVOD,24.65666111111111,-75.66685000000001,,ZMA,RP,ZQA*VOR/DME*108.42/99.60
MUVPY,27.238494444444445,-80.8202111111111,FLORIDA,ZMA,RNAV,02/22/2010
MUWTY,27.750325,-82.53625555555556,FLORIDA,ZMA,RP,LAL*VORTAC*242.19/31.16
MYNRD,26.083333333333332,-80.05,FLORIDA,ZMA,RNAV,10/22/2009
MYSTR,21.311533333333333,-68.56586388888888,OFFSHORE ATLANTIC,ZMA,RNAV,04/08/2008
LADDY,27.577144444444443,-80.42398055555556,FLORIDA,ZMA,RP,TRV*VORTAC*156.95/7.00
LAFAL,27.910013888888887,-82.83478888888888,FLORIDA,ZMA,RP,PIE*VORTAC*276.00/8.00
LAGOO,27.778208333333332,-82.54864166666667,FLORIDA,ZMA,RP,PIE*VORTAC*142.02
LAMRE,26.235147222222224,-81.49020277777778,FLORIDA,ZMA,RNAV,07/16/2009
LANCH,26.513702777777777,-80.10469444444443,FLORIDA,ZMA,RP,PHK*VOR/DME*116.90
LASEE,26.23924166666667,-75.45782222222222,OFFSHORE ATLANTIC,ZMA,RNAV,04/08/2008
LAUTH,26.126658333333335,-78.34299999999999,,ZMA,RP,ZBV*VORTAC*067.64/57.31
LAVXY,27.940202777777777,-81.88593333333334,FLORIDA,ZMA,RNAV,03/30/2009
LAWNN,25.797261111111112,-80.38390833333334,FLORIDA,ZMA,RP,MFA*LD*272.38/6.34
LAYDN,25.639330555555556,-80.52439722222222,FLORIDA,ZMA,RP,DHP*VORTAC*228.72
LEBAN,27.113536111111113,-80.02425833333334,FLORIDA,ZMA,RNAV,03/21/2013
LEBUR,27.630561111111113,-79.95546944444445,OFFSHORE ATLANTIC,ZMA,RP,MLB*VOR/DME*135.00/45.98
LECIT,25.71038888888889,-80.32144166666666,FLORIDA,ZMA,RNAV,08/04/2006
LEEVI,25.539800000000003,-79.212725,,ZMA,RP,ZBV*VORTAC*159.72/10.78
LENDS,29.365941666666668,-78.67009722222222,OFFSHORE ATLANTIC,ZMA,RNAV,05/02/2008
LENPE,26.42446388888889,-81.92642222222223,FLORIDA,ZMA,RNAV,07/15/2008
LENUS,21.101194444444445,-70.2051388888889,OFFSHORE ATLANTIC,ZMA,RNAV,10/05/2011
LEPAS,24.740397222222224,-77.00793888888889,,ZMA,RP,ZQA*VOR/DME*131.39/29.38
LERUG,22.12185277777778,-69.3166611111111,OFFSHORE ATLANTIC,ZMA,RP,PTA*VOR/DME*034.28/157.82
LEUNA,28.58988611111111,-80.67800833333334,FLORIDA,ZMA,RP,06/18/2010
LEYIC,26.928711111111113,-82.283725,FLORIDA,ZMA,RNAV,05/19/2011
LICEY,25.79948611111111,-80.38329722222221,FLORIDA,ZMA,RP,ROY*LE*W CRS/6.01
LICIC,27.53363888888889,-81.51409166666667,FLORIDA,ZMA,RNAV,05/10/2013
LIDDE,27.876002777777778,-81.65300833333333,FLORIDA,ZMA,RNAV,06/13/2011
LIDRE,26.536975,-79.93306666666668,FLORIDA,ZMA,RP,VKZ*VOR/DME*018.23/48.46
LILAZ,28.40594722222222,-80.7948611111111,FLORIDA,ZMA,RNAV,09/02/2009
LINTY,27.956416666666666,-81.88645833333334,FLORIDA,ZMA,RP,LAL*VORTAC*103.71/7.00
LIQNI,28.115644444444445,-80.44441111111111,FLORIDA,ZMA,RNAV,08/06/2012
LIYZU,27.134622222222223,-80.70429444444444,FLORIDA,ZMA,RNAV,02/22/2010
LLAKE,27.354897222222224,-81.32913333333333,FLORIDA,ZMA,RP,PHK*VOR/DME*315.21/48.36
LLEGO,28.00716111111111,-82.21812222222222,FLORIDA,ZMA,RP,LAL*VORTAC*275.66/10.92
LLMER,26.389166666666664,-81.92111111111112,FLORIDA,ZMA,RNAV,07/15/2008
LLNCH,27.43546388888889,-80.69568333333333,FLORIDA,ZMA,RP,VKZ*VOR/DME*348.00/104.84
LMORE,26.61088888888889,-80.42425,FLORIDA,ZMA,RNAV,07/16/2013
LMOWX,26.613611111111112,-80.78444444444445,FLORIDA,ZMA,RNAV,01/28/2016
LOBKE,28.425155555555556,-80.53130277777778,FLORIDA,ZMA,MR,COF*TACAN*027.77/12.00
LOGEY,24.7969,-80.86598888888888,FLORIDA,ZMA,RNAV,10/29/2007
LOGVN,24.533333333333335,-74.77805555555555,OFFSHORE ATLANTIC,ZMA,RNAV,04/09/2008
LOJUF,28.211916666666667,-81.38239166666666,FLORIDA,ZMA,RNAV,08/05/2012
LONNI,26.383730555555555,-79.976525,FLORIDA,ZMA,RP,VKZ*VOR/DME*018.23/39.00
LOOOU,28.493055555555557,-80.30527777777777,FLORIDA,ZMA,RNAV,07/15/2008
LORII,26.066441666666666,-80.25945,FLORIDA,ZMA,RP,DHP*VORTAC*020.89
LOSBY,26.771705555555556,-81.89815555555556,FLORIDA,ZMA,RNAV,02/20/2008
LOUIZ,28.47283333333333,-77.0,OFFSHORE ATLANTIC,ZMA,RNAV,05/28/2008
LOUSA,28.397913888888887,-80.86730277777777,FLORIDA,ZMA,RNAV,02/17/2006
LOWDN,24.688369444444444,-81.83056944444444,FLORIDA,ZMA,MW,01/12/2010
LOYIL,27.77102222222222,-82.85323888888888,FLORIDA,ZMA,RNAV,01/25/2013
LOYIS,25.995505555555557,-81.10018333333333,FLORIDA,ZMA,RNAV,11/01/2013
LUCSS,24.969030555555555,-78.60673055555554,,ZMA,RP,ZFP*VOR/DME*180.00/95.02
LUCTI,25.0,-69.09372222222221,OFFSHORE ATLANTIC,ZMA,RNAV,04/08/2008
LUGEY,27.39321111111111,-81.26941388888889,FLORIDA,ZMA,RNAV,10/05/2011
LUREF,28.31946111111111,-80.574725,FLORIDA,ZMA,MR,COF*TACAN*/5.27
LUVLY,25.662391666666664,-80.13879722222222,FLORIDA,ZMA,RP,VKZ*VOR/DME*175.00
LYFIE,27.61032777777778,-82.38522222222223,FLORIDA,ZMA,RNAV,11/21/2010
LYMIN,22.731658333333332,-72.14191666666667,OFFSHORE ATLANTIC,ZMA,RP,ZIN*NDB*044.69
YADDU,27.47838611111111,-80.27239166666666,FLORIDA,ZMA,RNAV,07/11/2012
YADUD,26.78882777777778,-80.15974166666668,FLORIDA,ZMA,RNAV,12/05/2008
YALOO,26.926625,-81.79913611111111,FLORIDA,ZMA,RNAV,02/20/2008
YANBU,26.69353611111111,-79.84279166666666,FLORIDA,ZMA,RNAV,07/16/2013
YARDS,26.197575,-80.18086944444445,FLORIDA,ZMA,RP,DHP*VORTAC*024.88/25.46
YARTU,28.239505555555557,-81.40178888888889,FLORIDA,ZMA,RNAV,02/08/2005
YATUR,27.189905555555555,-80.60958055555555,FLORIDA,ZMA,RP,PHK*VOR/DME*010.19/24.75
YAYUV,26.180691666666668,-81.806525,FLORIDA,ZMA,RNAV,07/07/2014
YEGUP,26.59278611111111,-80.13928611111112,FLORIDA,ZMA,RNAV,07/16/2013
YEHAW,27.600308333333334,-81.10264722222222,FLORIDA,ZMA,RP,TRV*VORTAC*269.00/33.00
YELUY,26.150616666666664,-80.226275,FLORIDA,ZMA,RNAV,03/18/2013
YENCU,26.882383333333333,-82.0094388888889,FLORIDA,ZMA,RNAV,08/03/2015
YENNE,25.720675,-84.45423611111111,OFFSHORE GULF,ZMA,RNAV,10/31/2012
YENUT,26.978599999999997,-82.09252777777778,FLORIDA,ZMA,RNAV,08/11/2016
YERRU,28.547930555555556,-80.79729999999999,FLORIDA,ZMA,RNAV,05/11/2009
YIBUD,28.059433333333335,-81.75900277777778,FLORIDA,ZMA,RP,LAL*VORTAC*070.99/14.23
YIDUN,27.24983611111111,-81.75841666666666,FLORIDA,ZMA,RNAV,04/09/2014
YIGBO,26.825580555555554,-80.45641944444445,FLORIDA,ZMA,RP,TRV*VORTAC*184.99/51.06
YIYNU,25.502491666666668,-80.60299166666667,FLORIDA,ZMA,RNAV,06/10/2011
YOBUS,26.065044444444446,-80.02462222222222,FLORIDA,ZMA,RP,ADI*LD*096.38/7.38
YOHOR,27.314652777777777,-81.18109722222222,FLORIDA,ZMA,RNAV,10/05/2011
YOJIX,28.04556666666667,-81.56259444444444,FLORIDA,ZMA,RP,LAL*VORTAC*080.46/24.23
YONLI,28.684227777777778,-80.87725833333333,FLORIDA,ZMA,RNAV,04/19/2018
YONMA,28.065466666666666,-81.40866111111112,FLORIDA,ZMA,RP,LAL*VORTAC*080.46/32.48
YONUS,28.318866666666665,-80.61236388888888,FLORIDA,ZMA,RNAV,02/17/2006
YOPUN,27.757202777777778,-82.6463138888889,FLORIDA,ZMA,RNAV,05/29/2007
YOURS,26.70851111111111,-80.00546666666666,FLORIDA,ZMA,RNAV,04/17/2017
UBIDY,26.991280555555555,-82.0442361111111,FLORIDA,ZMA,RNAV,06/10/2015
UBIPY,26.31391388888889,-80.17773333333334,FLORIDA,ZMA,WP,01/30/1996
UBMEF,26.734675,-80.21501666666667,FLORIDA,ZMA,CN,12/06/2011
UBUCI,24.580830555555554,-81.66417222222223,FLORIDA,ZMA,MR,NQX*TACAN*094.00/1.00
UBUYA,24.58454722222222,-81.65605000000001,FLORIDA,ZMA,MR,EYW*VORTAC*089.55/7.90
UCGOR,24.563244444444447,-81.72419722222223,FLORIDA,ZMA,MR,NQX*TACAN*252.00/2.50
UDATE,27.99158888888889,-82.06624722222222,FLORIDA,ZMA,RP,LAL*VORTAC*275.65/2.80
UDIMY,28.345972222222223,-80.69956666666667,FLORIDA,ZMA,WP,11/02/1998
UFRAJ,28.16093611111111,-81.22635555555556,FLORIDA,ZMA,RNAV,08/05/2012
UFSOP,28.03625277777778,-82.15449166666667,FLORIDA,ZMA,RNAV,12/09/2010
UGLEE,26.467691666666664,-80.10121666666666,FLORIDA,ZMA,RP,PBI*VORTAC*186.57/12.73
UGYOW,26.22972222222222,-81.56280277777778,FLORIDA,ZMA,RNAV,11/09/2009
UHCOJ,26.602772222222224,-79.99066111111111,FLORIDA,ZMA,CN,12/29/2009
ULAMA,26.67422777777778,-79.06326944444444,,ZMA,RP,ZFP*VOR/DME*292.99/20.90
ULEGY,26.163927777777776,-79.92243333333334,FLORIDA,ZMA,RNAV,02/09/2018
ULLMN,26.960516666666667,-80.88855555555556,FLORIDA,ZMA,RP,PHK*VOR/DME*315.20/15.00
ULNOY,26.849566666666664,-80.129825,FLORIDA,ZMA,RNAV,09/29/2016
ULSUZ,25.992069444444446,-79.90410277777778,FLORIDA,ZMA,RP,FLL*VOR/DME*115.00/15.00
UMOVY,27.891325,-82.68518333333334,FLORIDA,ZMA,RP,PIE*VORTAC*187.71/0.98
UNITY,28.26150833333333,-81.45058333333334,FLORIDA,ZMA,RP,ORL*VORTAC*200.00/17.90
UROLE,26.66628611111111,-81.35055,FLORIDA,ZMA,RNAV,12/05/2007
URSUS,24.00005277777778,-79.0698,OFFSHORE ATLANTIC,ZMA,RP,ZBV*VORTAC*177.09/102.66
USACA,27.491119444444447,-81.37975555555555,FLORIDA,ZMA,RNAV,10/05/2011
UTELE,26.938966666666666,-81.52231666666667,FLORIDA,ZMA,RP,LBV*VORTAC*312.38/9.66
UTERE,24.553025,-81.74924444444444,FLORIDA,ZMA,MR,NQX*TACAN*252.00/4.00
UTLEY,26.72197222222222,-80.26531388888888,FLORIDA,ZMA,RNAV,11/10/2009
UVEKE,28.385241666666666,-81.32163333333332,FLORIDA,ZMA,RP,OJP*LD*185.46/3.89
UVNAY,26.618147222222223,-81.55545833333333,FLORIDA,ZMA,RNAV,07/09/2017
UXUVE,26.440444444444445,-81.29476944444444,FLORIDA,ZMA,RNAV,07/09/2017
UYORA,26.871325,-80.25059166666666,FLORIDA,ZMA,RNAV,12/04/2008
UZAPA,26.31881388888889,-80.33300555555554,FLORIDA,ZMA,RNAV,08/28/2015
UZAWO,26.436994444444444,-82.04651666666666,FLORIDA,ZMA,RNAV,07/15/2011
KACDE,25.79943888888889,-80.38447777777779,FLORIDA,ZMA,RNAV,11/01/2013
KADTE,26.520741666666666,-81.40842222222223,FLORIDA,ZMA,RNAV,07/09/2017
KAINS,25.963025,-80.09521111111111,FLORIDA,ZMA,RP,VKZ*VOR/DME*018.23/13.03
KARRL,26.74253888888889,-79.94593611111111,FLORIDA,ZMA,RNAV,12/29/2009
KARRN,20.587866666666667,-69.73914722222223,OFFSHORE ATLANTIC,ZMA,RP,PTA*VOR/DME*051.31/68.22
KARTR,25.496044444444447,-81.51284444444444,FLORIDA,ZMA,RP,EYW*VORTAC*015.00/56.66
KASAR,28.32167777777778,-71.919325,OFFSHORE ATLANTIC,ZMA,RNAV,04/08/2008
KATSS,25.793358333333334,-80.47612222222223,FLORIDA,ZMA,RNAV,08/03/2001
KAYWY,28.17,-81.41944444444445,FLORIDA,ZMA,RNAV,10/24/2007
KENVE,27.82748611111111,-82.63824444444445,FLORIDA,ZMA,RNAV,05/22/2007
KERRN,26.013122222222222,-79.58654999999999,OFFSHORE ATLANTIC,ZMA,RNAV,07/25/2014
KEVBE,27.315358333333332,-80.90613333333334,FLORIDA,ZMA,RNAV,04/06/2010
KEVEY,25.98766388888889,-79.95241111111112,FLORIDA,ZMA,RNAV,05/30/2006
KEVYN,27.670608333333334,-81.95888611111111,FLORIDA,ZMA,RNAV,11/19/2008
KEYCY,24.556972222222225,-81.67004444444444,FLORIDA,ZMA,RNAV,04/12/2006
KEYES,25.790686111111114,-80.19420555555556,FLORIDA,ZMA,RP,VKZ*VOR/DME*321.40
KEYYS,24.000061111111112,-80.72974722222223,FLORIDA,ZMA,RP,DHP*VORTAC*195.00/109.64
KFFER,23.76968611111111,-77.04308611111111,OFFSHORE ATLANTIC,ZMA,RNAV,04/08/2008
KICKZ,26.186680555555554,-80.2914,FLORIDA,ZMA,RNAV,02/18/2004
KIQTU,28.565522222222224,-80.7964361111111,FLORIDA,ZMA,RNAV,04/18/2018
KISEC,26.51100277777778,-79.96369166666668,FLORIDA,ZMA,RNAV,08/07/2006
KIXAL,26.85098055555556,-79.61283611111111,OFFSHORE ATLANTIC,ZMA,RP,ZFP*VOR/DME*292.99/52.26
KIZIZ,27.393005555555554,-82.68666111111112,FLORIDA,ZMA,RNAV,11/11/2010
KLMAN,27.944647222222223,-81.48872777777778,FLORIDA,ZMA,RNAV,01/08/2014
KNDLL,21.543980555555557,-68.26066666666667,OFFSHORE ATLANTIC,ZMA,RNAV,04/08/2008
KNEEL,26.066666666666666,-79.25777777777778,OFFSHORE ATLANTIC,ZMA,RNAV,07/13/2010
KNOST,28.000708333333332,-83.42333055555557,OFFSHORE GULF,ZMA,RNAV,02/13/2012
KOCHE,26.52077222222222,-81.40229444444445,FLORIDA,ZMA,RP,LBV*VORTAC*180.82/18.40
KOKEY,26.207533333333334,-80.07918055555555,FLORIDA,ZMA,RNAV,08/14/2014
KOLMN,26.054008333333336,-82.13943888888889,OFFSHORE GULF,ZMA,RNAV,07/01/2008
KONDE,28.087180555555555,-81.80332777777778,FLORIDA,ZMA,RNAV,01/25/2013
KOYEP,27.747341666666667,-80.47571944444445,FLORIDA,ZMA,RNAV,01/04/2012
KR57S,24.5,-82.0,OFFSHORE GULF,ZMA,NRS,03/05/2005
KR57U,24.5,-80.0,OFFSHORE ATLANTIC,ZMA,NRS,03/05/2005
KR60S,25.0,-82.0,OFFSHORE GULF,ZMA,NRS,03/05/2005
KR60U,25.0,-80.0,OFFSHORE ATLANTIC,ZMA,NRS,03/05/2005
KR63S,25.5,-82.0,OFFSHORE GULF,ZMA,NRS,03/05/2005
KR63U,25.5,-80.0,OFFSHORE ATLANTIC,ZMA,NRS,03/05/2005
KR66S,26.0,-82.0,OFFSHORE GULF,ZMA,NRS,03/05/2005
KR66U,26.0,-80.0,FLORIDA,ZMA,NRS,03/05/2005
KR69Q,26.5,-84.0,OFFSHORE GULF,ZMA,NRS,03/05/2005
KR69S,26.5,-82.0,FLORIDA,ZMA,NRS,03/05/2005
KR69U,26.5,-80.0,FLORIDA,ZMA,NRS,03/05/2005
KR72Q,27.0,-84.0,OFFSHORE GULF,ZMA,NRS,03/05/2005
KR72S,27.0,-82.0,FLORIDA,ZMA,NRS,03/05/2005
KR72U,27.0,-80.0,FLORIDA,ZMA,NRS,03/05/2005
KR75Q,27.5,-84.0,OFFSHORE GULF,ZMA,NRS,03/05/2005
KR75S,27.5,-82.0,FLORIDA,ZMA,NRS,03/05/2005
KR75U,27.5,-80.0,OFFSHORE ATLANTIC,ZMA,NRS,03/05/2005
KR78Q,28.0,-84.0,OFFSHORE GULF,ZMA,NRS,03/05/2005
KR78S,28.0,-82.0,FLORIDA,ZMA,NRS,03/05/2005
KR78U,28.0,-80.0,OFFSHORE ATLANTIC,ZMA,NRS,03/05/2005
KR81Q,28.5,-84.0,OFFSHORE GULF,ZMA,NRS,03/05/2005
KR81U,28.5,-80.0,OFFSHORE ATLANTIC,ZMA,NRS,03/05/2005
KR81W,28.5,-78.0,OFFSHORE ATLANTIC,ZMA,NRS,03/05/2005
KR84U,29.0,-80.0,OFFSHORE ATLANTIC,ZMA,NRS,03/05/2005
KR84W,29.0,-78.0,OFFSHORE ATLANTIC,ZMA,NRS,03/05/2005
KR87W,29.5,-78.0,OFFSHORE ATLANTIC,ZMA,NRS,03/05/2005
KR90W,30.0,-78.0,OFFSHORE ATLANTIC,ZMA,NRS,03/05/2005
KRMIT,26.222777777777775,-80.30463611111111,FLORIDA,ZMA,RNAV,08/02/2006
KROME,25.790425000000003,-80.54455555555555,FLORIDA,ZMA,RP,MFA*LD*272.38/15.05
KRSTY,25.883333333333333,-80.55,FLORIDA,ZMA,RNAV,10/22/2009
KRTIS,25.050880555555555,-75.07272222222223,OFFSHORE ATLANTIC,ZMA,RNAV,04/09/2008
KUBIC,26.09765833333333,-80.94951944444445,FLORIDA,ZMA,RP,PHK*VOR/DME*198.79
KUCEP,26.163752777777777,-80.03869444444445,FLORIDA,ZMA,RNAV,08/14/2014
KURAY,25.25921111111111,-77.46079444444445,,ZMA,RP,ZQA*VOR/DME*002.80/14.00
KUVBE,26.59508611111111,-80.21599166666667,FLORIDA,ZMA,RNAV,07/16/2013
KYTEE,28.674655555555557,-80.90146666666668,FLORIDA,ZMA,RNAV,06/09/2009
RACKE,25.27478611111111,-80.66111666666667,FLORIDA,ZMA,MR,HST*TACAN*236.00/20.00
RADVE,26.43621388888889,-81.43189722222223,FLORIDA,ZMA,RNAV,07/09/2017
RAHAM,22.37935277777778,-72.18761666666667,,ZMA,RP,ZIN*NDB*053.18
RAJAY,25.30077222222222,-78.185975,,ZMA,RP,VKZ*VOR/DME*107.75/110.19
RALPH,27.22111111111111,-80.73777777777778,FLORIDA,ZMA,RNAV,06/30/2016
RAMJT,27.520444444444443,-78.78,OFFSHORE ATLANTIC,ZMA,RNAV,04/11/2006
RANCO,26.514708333333335,-80.07215277777777,FLORIDA,ZMA,RNAV,06/13/2014
RAPPR,21.55302222222222,-72.65040277777778,OFFSHORE ATLANTIC,ZMA,RP,ZIN*NDB*064.17
RAPPS,27.05621388888889,-78.67332222222223,,ZMA,RP,ZFP*VOR/DME*005.51/30.00
RATTL,21.969866666666665,-72.13560555555556,OFFSHORE ATLANTIC,ZMA,RP,GTK*VORTAC*307.68/64.27
RAVYO,28.01852222222222,-81.54406944444445,FLORIDA,ZMA,RNAV,10/04/2006
RBACK,26.812169444444446,-79.87153055555555,FLORIDA,ZMA,RNAV,08/13/2015
RELLI,26.801666666666666,-80.97675,FLORIDA,ZMA,RNAV,05/03/2011
RELNE,27.999644444444446,-81.82419444444444,FLORIDA,ZMA,RNAV,05/17/2010
RELTY,26.678361111111112,-79.99813611111111,FLORIDA,ZMA,RP,PBI*VORTAC*/4.75
RENAH,24.56656388888889,-73.55222499999999,OFFSHORE ATLANTIC,ZMA,RNAV,06/10/2008
RETME,27.89198611111111,-81.80315833333333,FLORIDA,ZMA,RNAV,01/25/2013
RHOSE,27.664280555555553,-82.2097,FLORIDA,ZMA,MR,MCF*TACAN*125.00/20.00
RIBEE,26.744483333333335,-80.16230833333334,FLORIDA,ZMA,RNAV,11/10/2009
RIDRR,26.74921666666667,-79.93522222222222,FLORIDA,ZMA,RNAV,08/13/2015
RIGOR,25.122694444444445,-81.79286944444445,FLORIDA,ZMA,RP,EYW*VORTAC*359.74/32.11
RIKEE,25.79093611111111,-80.19711944444445,FLORIDA,ZMA,RNAV,08/04/2006
RILEE,28.13962777777778,-83.37075555555555,FLORIDA,ZMA,RP,PIE*VORTAC*296.00/39.00
RIMZY,26.107136111111114,-79.99091388888888,FLORIDA,ZMA,RNAV,08/14/2014
RINEO,24.86388888888889,-81.9675,OFFSHORE GULF,ZMA,RNAV,05/06/2009
RINGY,27.325380555555554,-82.47498888888889,FLORIDA,ZMA,RP,SRQ*VOR/DME*/6.80
RINSE,27.20523611111111,-81.59244166666666,FLORIDA,ZMA,RP,LBV*VORTAC*333.52/25.00
RITLE,27.43895277777778,-82.5145888888889,FLORIDA,ZMA,RNAV,12/10/2010
RIYDO,28.02422222222222,-81.98529166666667,FLORIDA,ZMA,RNAV,10/04/2006
RMARZ,25.916666666666668,-80.21666666666667,FLORIDA,ZMA,RNAV,08/27/2009
RMONA,25.98753888888889,-84.01467222222222,OFFSHORE GULF,ZMA,RNAV,08/31/2010
RNDLY,22.514944444444446,-72.89993055555556,OFFSHORE ATLANTIC,ZMA,RNAV,04/08/2008
RNTRY,20.82068888888889,-70.256075,OFFSHORE ATLANTIC,ZMA,RP,GTK*VORTAC*134.80/61.65
ROCIT,28.78624166666667,-80.80671666666666,FLORIDA,ZMA,RNAV,08/09/2013
RODDE,26.64763611111111,-81.58354166666666,FLORIDA,ZMA,RNAV,11/11/2009
RODRK,24.17677777777778,-70.01373611111111,OFFSHORE ATLANTIC,ZMA,RNAV,04/08/2008
ROGAN,27.250794444444445,-81.89285833333334,FLORIDA,ZMA,RP,PIE*VORTAC*137.79/57.67
ROMEO,24.532494444444442,-81.79918611111111,FLORIDA,ZMA,MR,NQX*TACAN*247.91/7.00
RONEY,25.566566666666667,-80.34416944444445,FLORIDA,ZMA,RNAV,12/03/2013
RONXI,27.700083333333332,-82.65234722222223,FLORIDA,ZMA,RP,PIE*VORTAC*177.20/12.54
ROOTE,24.5,-81.3386111111111,FLORIDA,ZMA,RNAV,05/06/2009
ROSEA,22.656566666666667,-74.69665277777779,OFFSHORE ATLANTIC,ZMA,RNAV,04/08/2008
RREBA,26.738375,-79.94063611111112,FLORIDA,ZMA,RNAV,04/17/2017
RSNIK,28.131925,-79.4734388888889,FLORIDA,ZMA,RP,VKZ*VOR/DME*018.23/147.00
RSTAA,26.90833333333333,-81.92500000000001,FLORIDA,ZMA,RNAV,07/11/2008
RTROE,28.817777777777778,-80.52361111111111,FLORIDA,ZMA,RNAV,10/24/2007
RUBOE,25.849991666666664,-80.84639166666666,FLORIDA,ZMA,RNAV,08/30/2013
RUCOG,26.58875833333333,-80.00848611111111,FLORIDA,ZMA,RNAV,12/20/2017
RUCYO,27.592894444444443,-80.65148055555557,FLORIDA,ZMA,RNAV,01/04/2012
RUDOF,27.919936111111113,-83.71896111111111,OFFSHORE GULF,ZMA,RP,PIE*VORTAC*276.00/55.00
RUMDE,26.626638888888888,-80.03196666666666,FLORIDA,ZMA,RNAV,11/10/2009
RUSOY,27.473316666666665,-80.29689166666667,FLORIDA,ZMA,RP,TRV*VORTAC*147.00/16.01
RUTAE,27.602769444444444,-82.65885833333334,FLORIDA,ZMA,RNAV,11/21/2010
RUTHY,26.5044,-81.590825,FLORIDA,ZMA,RP,LBV*VORTAC*208.00
RUTNE,28.381858333333334,-81.32626388888889,FLORIDA,ZMA,RNAV,12/31/2014
RUYKI,27.965044444444445,-82.32627777777778,FLORIDA,ZMA,RNAV,04/12/2000
RVERO,27.40972222222222,-81.59916666666666,FLORIDA,ZMA,RNAV,07/22/2008
RXXAN,26.7625,-82.075,FLORIDA,ZMA,RNAV,07/14/2008
RYDEL,24.05388888888889,-77.38972222222223,,ZMA,RP,ZQA*VOR/DME*182.93/58.20
RYDOM,25.317869444444444,-80.60485555555555,FLORIDA,ZMA,MR,HST*TACAN*236.00/16.00
GABEC,25.639522222222222,-80.52017777777777,FLORIDA,ZMA,RP,DHP*VORTAC*228.05
GALVE,26.56276666666667,-81.71433055555556,FLORIDA,ZMA,RNAV,07/13/2005
GANDY,27.768124999999998,-82.57416388888889,FLORIDA,ZMA,RNAV,02/15/2010
GASPR,27.52553888888889,-83.17060000000001,FLORIDA,ZMA,RP,CTY*VORTAC*185.00/124.25
GAVNE,27.59028611111111,-82.66431944444444,FLORIDA,ZMA,MW,06/15/2007
GECER,26.53726388888889,-80.07520277777778,FLORIDA,ZMA,RNAV,06/13/2014
GEGEY,26.004583333333333,-80.433175,FLORIDA,ZMA,RP,DHP*VORTAC*343.62/13.06
GEPRE,28.213283333333333,-80.61824999999999,FLORIDA,ZMA,MR,COF*TACAN*/1.50
GEROT,24.044180555555556,-75.95364444444445,OFFSHORE ATLANTIC,ZMA,RP,ZQA*VOR/DME*131.39/100.57
GHANN,22.0,-75.16666666666667,,ZMA,RNAV,04/11/2008
GIBBS,27.574233333333332,-82.28063055555556,FLORIDA,ZMA,RP,PIE*VORTAC*137.79/29.33
GIGIH,25.02155833333333,-81.79496666666667,OFFSHORE GULF,ZMA,RNAV,11/20/2014
GIGLE,28.532152777777778,-80.66128888888889,FLORIDA,ZMA,MW,06/08/2016
GILBI,26.408825,-80.72901666666667,FLORIDA,ZMA,RP,DHP*VORTAC*334.68/41.81
GILDE,27.989586111111112,-81.80324444444445,FLORIDA,ZMA,RNAV,01/25/2013
GINSE,27.35291666666667,-82.50648333333334,FLORIDA,ZMA,RNAV,05/12/2003
GISSH,26.461199999999998,-79.82123888888889,OFFSHORE ATLANTIC,ZMA,RP,ZFP*VOR/DME*267.93/60.73
GITVE,26.440369444444446,-81.29724444444444,FLORIDA,ZMA,RNAV,07/16/2009
GLRIA,25.923394444444444,-80.54566388888888,FLORIDA,ZMA,RP,GEM*LD*NW CRS/16.75
GLUMM,26.64492222222222,-81.79124722222222,FLORIDA,ZMA,RNAV,07/15/2011
GOLDY,27.525333333333332,-80.39040277777778,FLORIDA,ZMA,RP,TRV*VORTAC*156.95/10.58
GOLTY,27.532049999999998,-83.022775,FLORIDA,ZMA,RNAV,11/11/2010
GOODY,25.976027777777777,-81.63433055555556,FLORIDA,ZMA,RP,RSW*VORTAC*169.00/34.00
GOZZO,25.805405555555556,-80.18651666666668,FLORIDA,ZMA,RNAV,08/09/2006
GRADI,20.52119722222222,-69.632025,,ZMA,RP,GTK*VORTAC*130.82/100.68
GRAMS,26.512741666666667,-81.95369722222223,FLORIDA,ZMA,RNAV,07/15/2011
GRITT,25.779263888888888,-80.47635,FLORIDA,ZMA,RP,BUL*LD*272.38/11.11
GROPP,28.16297222222222,-81.45500277777778,FLORIDA,ZMA,RNAV,10/24/2007
GRREG,26.53526111111111,-77.87893055555556,,ZMA,RP,ZFP*VOR/DME*094.37/44.08
GUANA,22.40711111111111,-72.98517222222222,OFFSHORE ATLANTIC,ZMA,RP,GTK*VORTAC*307.58/118.32
GUAVA,25.139847222222222,-76.91018611111112,,ZMA,RP,ZQA*VOR/DME*082.71/30.00
GUCEL,24.64794722222222,-81.23758333333333,FLORIDA,ZMA,RP,EYW*VORTAC*082.00/31.00
GUDME,25.72163611111111,-80.39520555555556,FLORIDA,ZMA,RNAV,11/01/2017
GULLF,24.713283333333333,-80.86626944444444,FLORIDA,ZMA,RNAV,06/28/2017
GULLO,26.700719444444445,-80.477725,FLORIDA,ZMA,RNAV,12/19/2009
GULPE,25.316475,-80.60355555555554,FLORIDA,ZMA,MR,HST*TACAN*/16.00
GUMMY,27.826502777777776,-82.53235277777777,FLORIDA,ZMA,RP,PIE*VORTAC*126.00/9.43
GURPE,26.911744444444444,-82.1783138888889,FLORIDA,ZMA,RNAV,08/11/2016
GUSHY,24.878091666666666,-81.07546944444444,FLORIDA,ZMA,RNAV,12/15/2015
GUVEQ,27.934883333333335,-82.000525,FLORIDA,ZMA,RNAV,03/30/2009
FAMIN,25.585625,-80.83835555555555,FLORIDA,ZMA,RP,LBV*VORTAC*157.00/80.10
FANED,27.866944444444446,-82.50429166666666,FLORIDA,ZMA,MR,MCF*TACAN*/0.60
FAPTO,26.430475,-81.61140277777777,FLORIDA,ZMA,RNAV,07/16/2009
FARBI,26.888694444444443,-81.97591111111112,FLORIDA,ZMA,RNAV,07/29/2015
FARMN,22.025780555555556,-69.84746388888888,OFFSHORE ATLANTIC,ZMA,RNAV,04/07/2008
FATAD,28.633399999999998,-80.80472222222222,FLORIDA,ZMA,RNAV,06/22/2009
FATHR,27.30713888888889,-79.77539166666666,OFFSHORE ATLANTIC,ZMA,RP,ZBV*VORTAC*349.00/99.33
FATKU,28.035158333333335,-80.40626944444445,FLORIDA,ZMA,RNAV,06/18/2012
FATUB,25.724272222222222,-80.33991666666667,FLORIDA,ZMA,RNAV,11/01/2017
FAVIS,27.86883611111111,-82.50357222222222,FLORIDA,ZMA,RP,MCF*TACAN*053.00/0.70
FAVOS,28.311741666666666,-80.59700277777777,FLORIDA,ZMA,MR,COF*TACAN*017.00/4.50
FAXAN,27.8883,-82.54490555555556,FLORIDA,ZMA,RNAV,06/13/2008
FAXID,27.25497777777778,-82.39461111111112,FLORIDA,ZMA,RNAV,07/23/2007
FDLEE,21.217877777777776,-68.69327222222222,OFFSHORE ATLANTIC,ZMA,RNAV,04/07/2008
FEBOK,26.102030555555558,-80.18568333333334,FLORIDA,ZMA,RNAV,07/19/2011
FEMSO,25.802897222222224,-80.30154166666667,FLORIDA,ZMA,RP,ROY*LE*W CRS/1.58
FENIR,25.238233333333334,-80.46659444444445,FLORIDA,ZMA,RNAV,08/04/2006
FESAK,26.591016666666665,-80.11072777777777,FLORIDA,ZMA,RNAV,12/29/2009
FESHA,28.268880555555555,-81.28078888888889,FLORIDA,ZMA,RP,CER*LD*185.48/10.64
FEVSI,26.06793888888889,-81.99588611111112,FLORIDA,ZMA,RNAV,09/28/2009
FEYFO,26.246497222222224,-80.25071388888888,FLORIDA,ZMA,RNAV,08/07/2006
FFAIR,27.45921388888889,-80.46673611111112,FLORIDA,ZMA,RNAV,01/06/2009
FIBOP,28.096708333333332,-80.75505833333334,FLORIDA,ZMA,RP,MLB*VOR/DME*272.41/6.37
FIDKU,27.915252777777777,-82.01914722222222,FLORIDA,ZMA,RNAV,10/07/2014
FIFMU,28.178169444444446,-80.87579722222222,FLORIDA,ZMA,RNAV,08/03/2012
FIGDA,28.047511111111113,-80.68355555555556,FLORIDA,ZMA,MR,COF*TACAN*206.39/12.00
FIGOX,26.066736111111112,-81.718625,FLORIDA,ZMA,RP,CYY*VOR/DME*151.23/6.10
FIKNI,28.002472222222224,-82.19884444444445,FLORIDA,ZMA,RNAV,12/10/2010
FILBE,28.702288888888887,-80.67661944444446,FLORIDA,ZMA,RP,OMN*VORTAC*147.36/42.66
FILOP,26.364733333333334,-81.80361388888889,FLORIDA,ZMA,RNAV,07/07/2014
FINLO,27.138358333333333,-80.99368333333334,FLORIDA,ZMA,RNAV,02/15/2010
FINNS,26.796611111111112,-80.24070833333333,FLORIDA,ZMA,RNAV,11/10/2009
FIREK,28.410480555555555,-80.57729722222221,FLORIDA,ZMA,MR,COF*TACAN*017.00/10.50
FISEL,26.384138888888888,-79.85765555555555,FLORIDA,ZMA,RP,VKZ*VOR/DME*026.91/41.08
FISHS,24.405494444444443,-80.976975,FLORIDA,ZMA,MR,NQX*TACAN*111.00/40.00
FISLI,24.72950833333333,-81.77876666666667,OFFSHORE ATLANTIC,ZMA,MW,02/12/2016
FITEM,28.257938888888887,-81.29402222222222,FLORIDA,ZMA,RP,DDO*LD*185.47/10.80
FITOL,25.657927777777775,-80.31438888888889,FLORIDA,ZMA,RNAV,09/14/2009
FITPA,27.73143333333333,-82.550225,FLORIDA,ZMA,RNAV,06/13/2008
FIVDO,27.466205555555554,-82.50201944444444,FLORIDA,ZMA,RNAV,11/21/2010
FIVER,26.63983888888889,-81.93967500000001,FLORIDA,ZMA,RP,RSW*VORTAC*308.77/11.00
FIVMA,28.160502777777776,-80.63983611111112,FLORIDA,ZMA,MR,COF*TACAN*/4.85
FLABS,26.68128888888889,-80.06446944444444,FLORIDA,ZMA,RNAV,04/17/2017
FLATE,25.420158333333333,-80.47112777777778,FLORIDA,ZMA,MR,HST*TACAN*/6.50
FLINY,26.664125,-77.88859444444445,,ZMA,RP,ZFP*VOR/DME*084.31/44.00
FLIPR,25.392913888888888,-79.72956666666667,OFFSHORE ATLANTIC,ZMA,RNAV,06/28/2007
FLOZY,28.212574999999998,-81.31979722222222,FLORIDA,ZMA,RP,OJP*LD*185.46/14.22
FLYEN,27.988997222222224,-82.12357222222222,FLORIDA,ZMA,RP,LAL*LD*273.85/6.32
FOBUK,28.205299999999998,-81.29347222222222,FLORIDA,ZMA,RP,DDO*LD*185.47/13.95
FODBI,27.808227777777777,-81.94102777777778,FLORIDA,ZMA,RNAV,03/30/2009
FODIM,28.459847222222223,-80.56743055555555,FLORIDA,ZMA,MR,COF*TACAN*017.00/13.50
FOGSO,25.630311111111112,-80.73670277777778,FLORIDA,ZMA,RP,DHP*VORTAC*248.30/23.33
FOJSO,28.185494444444444,-81.6273111111111,FLORIDA,ZMA,RNAV,08/03/2012
FOLLE,22.801880555555556,-71.58173611111111,OFFSHORE ATLANTIC,ZMA,RP,GTK*VORTAC*351.06/85.12
FOMGU,27.391572222222223,-80.0834,FLORIDA,ZMA,RNAV,01/04/2012
FOMID,26.77397222222222,-80.19497777777778,FLORIDA,ZMA,RNAV,11/10/2009
FOOTY,25.42117777777778,-80.46966666666667,FLORIDA,ZMA,MR,HST*TACAN*236.00/6.40
FORKK,25.991591666666668,-80.22021388888889,FLORIDA,ZMA,RNAV,08/04/2006
FORNI,28.734566666666666,-80.8846388888889,FLORIDA,ZMA,RP,MLB*VOR/DME*347.76/39.90
FORNL,27.32601111111111,-79.91974722222223,FLORIDA,ZMA,RP,PHK*VOR/DME*051.65
FOROM,27.83141388888889,-82.53781944444444,FLORIDA,ZMA,MR,MCF*TACAN*220.00/2.20
FORRA,24.575416666666666,-81.7283,FLORIDA,ZMA,MR,EYW*VORTAC*098.00/4.20
FORRK,24.10611111111111,-75.89277777777778,,ZMA,RNAV,04/07/2008
FORST,22.109722222222224,-75.05527777777777,,ZMA,RNAV,04/07/2008
FORSU,26.21839722222222,-79.967375,FLORIDA,ZMA,RNAV,08/11/2010
FORTB,27.404563888888887,-81.09405555555556,FLORIDA,ZMA,RP,PHK*VOR/DME*330.00/43.00
FORTL,26.309380555555556,-81.35235,FLORIDA,ZMA,RP,LBV*VORTAC*175.12
FOSAR,27.688827777777778,-82.66225277777778,FLORIDA,ZMA,MR,MCF*TACAN*/13.00
FOSEL,27.263066666666667,-81.43581944444445,FLORIDA,ZMA,RNAV,12/30/2008
FOVTA,27.213649999999998,-82.59963888888889,FLORIDA,ZMA,RNAV,05/19/2011
FOWEE,24.937058333333333,-79.19245833333333,OFFSHORE ATLANTIC,ZMA,RP,ZBV*VORTAC*177.09/46.22
FRAAT,27.610944444444446,-83.38727222222222,OFFSHORE GULF,ZMA,RNAV,06/29/2011
FROGG,25.31935,-80.26248055555556,FLORIDA,ZMA,MR,HST*TACAN*154.00/12.00
FRRDY,25.99923888888889,-80.47356388888889,FLORIDA,ZMA,RP,DHP*VORTAC*334.55/13.69
FRUGL,27.472619444444444,-82.64357500000001,FLORIDA,ZMA,RP,SRQ*VOR/DME*/5.80
FRWAY,26.952233333333332,-79.98241944444445,FLORIDA,ZMA,RNAV,12/19/2009
FRZBE,27.273480555555555,-82.65778611111112,FLORIDA,ZMA,RNAV,07/15/2008
FUNDI,24.0,-81.01194444444444,OFFSHORE ATLANTIC,ZMA,RNAV,09/09/2016
FUPGE,27.427544444444447,-81.7118138888889,FLORIDA,ZMA,RP,LBV*VORTAC*333.51/39.75
FUSZY,25.564536111111114,-80.58450833333333,FLORIDA,ZMA,MR,HST*TACAN*295.00/12.00
SAAKO,21.060994444444447,-71.38908888888889,,ZMA,RP,GTK*VORTAC*218.00/27.00
SABEE,27.087833333333332,-82.19148055555556,FLORIDA,ZMA,RP,PIE*VORTAC*156.70/55.66
SABOT,28.251416666666668,-81.2269888888889,FLORIDA,ZMA,RP,ORL*VORTAC*161.82/18.35
SABRA,25.7512,-80.20834444444445,FLORIDA,ZMA,RNAV,08/04/2006
SABRE,20.809166666666666,-73.83222222222221,OFFSHORE ATLANTIC,ZMA,RNAV,04/08/2008
SACCK,26.203516666666665,-80.1203,FLORIDA,ZMA,RNAV,08/14/2014
SACRA,27.135527777777778,-81.99911666666667,FLORIDA,ZMA,RNAV,08/03/2015
SAGLE,24.45452222222222,-81.5353361111111,FLORIDA,ZMA,MW,01/12/2010
SAMPY,28.604408333333335,-80.82036388888889,FLORIDA,ZMA,RNAV,06/09/2009
SANNS,24.800711111111113,-77.95483611111112,,ZMA,RP,ZQA*VOR/DME*250.24/30.82
SANOY,27.796650000000003,-82.09677222222221,FLORIDA,ZMA,RNAV,10/02/2007
SANZZ,26.806530555555558,-80.10821944444444,FLORIDA,ZMA,RNAV,12/20/2009
SAPPO,20.437675,-68.40006944444445,OFFSHORE ATLANTIC,ZMA,RNAV,10/22/2009
SARCO,25.794644444444447,-80.10535555555555,FLORIDA,ZMA,RP,VKZ*VOR/DME*050.11
SAWGA,27.864797222222222,-82.68062222222223,FLORIDA,ZMA,RP,PIE*VORTAC*180.64/2.58
SAXNN,24.492305555555557,-81.95195277777778,FLORIDA,ZMA,MR,EYW*VORTAC*235.00/10.00
SAZBO,25.908299999999997,-80.37804166666666,FLORIDA,ZMA,RP,DHP*VORTAC*350.39
SCATE,25.91488611111111,-80.46336111111111,FLORIDA,ZMA,RNAV,02/12/2012
SCHUZ,27.68887777777778,-83.75229166666666,OFFSHORE GULF,ZMA,RNAV,06/30/2011
SCOBY,29.929941666666668,-77.72494722222223,OFFSHORE ATLANTIC,ZMA,RNAV,05/28/2008
SEAAN,24.90934722222222,-76.87352222222222,,ZMA,RP,ZQA*VOR/DME*108.42/32.00
SEAMO,27.49439166666667,-81.34320833333332,FLORIDA,ZMA,RNAV,11/10/2009
SEBLE,24.43526111111111,-81.80612777777777,FLORIDA,ZMA,MR,NQX*TACAN*224.00/11.00
SEBUG,20.89773333333333,-70.24210277777777,OFFSHORE ATLANTIC,ZMA,RP,PTA*VOR/DME*023.16/70.53
SECOR,26.240883333333333,-80.18900000000001,FLORIDA,ZMA,RNAV,08/01/2006
SEGLE,24.686458333333334,-81.15513055555556,FLORIDA,ZMA,RNAV,10/29/2007
SEKAR,20.416666666666668,-70.795,,ZMA,RP,ZIN*NDB*106.81
SELMN,27.830325,-82.54687222222222,FLORIDA,ZMA,RP,PIE*VORTAC*127.34
SENOY,25.80982777777778,-80.15106944444445,FLORIDA,ZMA,RNAV,08/04/2006
SERAY,28.216241666666665,-81.28025,FLORIDA,ZMA,RP,CER*LD*185.48/13.79
SERFS,26.800652777777778,-81.819575,FLORIDA,ZMA,RP,LBV*VORTAC*265.00
SESOC,27.49703888888889,-80.35009444444444,FLORIDA,ZMA,RNAV,07/11/2012
SETME,28.07111111111111,-81.84055555555555,FLORIDA,ZMA,RNAV,10/24/2007
SETUE,26.86492777777778,-80.70337222222223,FLORIDA,ZMA,RNAV,12/12/2017
SHALW,26.01388888888889,-79.75566944444445,FLORIDA,ZMA,RNAV,08/07/2006
SHANC,26.314205555555557,-80.33337777777777,FLORIDA,ZMA,RP,VKZ*VOR/DME*348.00/35.00
SHANN,25.66243611111111,-80.03544166666667,FLORIDA,ZMA,RP,DCX*LD*124.47/16.70
SHAQQ,25.962777777777777,-83.50833333333334,FLORIDA,ZMA,RNAV,01/20/2006
SHBAG,28.348055555555554,-81.42416666666666,FLORIDA,ZMA,RNAV,10/24/2007
SHDEE,26.780102777777778,-80.22755277777777,FLORIDA,ZMA,RNAV,12/06/2011
SHEDS,27.301280555555557,-80.58706944444444,FLORIDA,ZMA,RP,PHK*VOR/DME*010.19/31.52
SHFTY,27.706663888888887,-81.76603333333334,FLORIDA,ZMA,RNAV,02/08/2012
SHIRL,28.559625,-80.80593888888889,FLORIDA,ZMA,RNAV,06/09/2009
SHOEZ,21.33388611111111,-72.26041666666667,OFFSHORE ATLANTIC,ZMA,RP,ZIN*NDB*080.03
SHOWW,27.592494444444444,-83.57470555555555,OFFSHORE GULF,ZMA,RNAV,05/07/2013
SHRKY,26.533955555555558,-80.054525,FLORIDA,ZMA,RNAV,11/10/2009
SHULA,25.374255555555557,-80.03747777777778,FLORIDA,ZMA,RNAV,08/07/2006
SHUTE,26.043022222222223,-80.41966388888889,FLORIDA,ZMA,RNAV,02/12/2012
SIGNL,27.033444444444445,-81.12381666666666,FLORIDA,ZMA,RP,DHP*VORTAC*334.68/84.78
SIKOY,26.908102777777778,-80.43756944444445,FLORIDA,ZMA,RP,SYK*LD*274.99/6.47
SILIE,27.912641666666666,-81.8192111111111,FLORIDA,ZMA,RNAV,03/30/2009
SILKY,28.26528888888889,-81.32035833333333,FLORIDA,ZMA,RP,OJP*LD*185.46/11.07
SIMMR,27.78391666666667,-84.20438888888889,OFFSHORE GULF,ZMA,RNAV,05/14/2007
SIMPL,24.0,-84.42861111111111,FLORIDA,ZMA,RNAV,01/20/2006
SINGL,24.396652777777778,-68.94633055555556,OFFSHORE ATLANTIC,ZMA,RNAV,04/08/2008
SIVHO,27.338388888888886,-80.89959722222223,FLORIDA,ZMA,RNAV,02/22/2010
SIVYO,27.497525,-80.41685833333334,FLORIDA,ZMA,RP,FJD*LD*277.47/3.23
SIYOL,26.077594444444443,-80.28953888888888,FLORIDA,ZMA,RNAV,03/18/2013
SKHOT,21.040000000000003,-73.26583333333333,OFFSHORE ATLANTIC,ZMA,RNAV,04/08/2008
SKIPP,24.60150555555556,-81.90866111111112,FLORIDA,ZMA,MR,EYW*VORTAC*278.00/5.99
SKIPS,25.55389166666667,-79.27436666666667,,ZMA,RP,ZBV*VORTAC*177.09/9.05
SKIWX,25.608333333333334,-79.5,OFFSHORE ATLANTIC,ZMA,RNAV,01/28/2016
SKORE,25.981627777777778,-80.35786944444443,FLORIDA,ZMA,RNAV,02/12/2012
SLEMA,26.96481111111111,-76.28104166666667,OFFSHORE ATLANTIC,ZMA,RNAV,04/08/2008
SLIDZ,26.92364166666667,-79.70852500000001,OFFSHORE ATLANTIC,ZMA,RNAV,08/13/2015
SLUKA,24.126772222222222,-70.92349166666668,OFFSHORE ATLANTIC,ZMA,RNAV,04/08/2008
SMERE,27.748194444444444,-80.65061666666668,FLORIDA,ZMA,RP,MLB*VOR/DME*189.18/21.38
SMGLR,26.73432777777778,-79.992275,FLORIDA,ZMA,RNAV,11/10/2009
SMTTY,23.789166666666667,-74.00861111111111,OFFSHORE ATLANTIC,ZMA,RNAV,04/09/2008
SMUGS,27.192519444444443,-80.29251388888889,FLORIDA,ZMA,RP,PHK*VOR/DME*041.00
SNAPE,26.0761,-80.02786666666667,FLORIDA,ZMA,RP,UDL*LD*096.37/7.53
SNDLR,27.265975,-80.49452777777778,FLORIDA,ZMA,RNAV,10/26/2009
SNOKE,26.4967,-81.84921944444444,FLORIDA,ZMA,RNAV,02/20/2008
SNOMN,26.65179722222222,-85.48580277777778,OFFSHORE GULF,ZMA,RNAV,08/01/2006
SNORK,27.83059722222222,-82.5468638888889,FLORIDA,ZMA,RNAV,03/23/2015
SNSBK,26.507752777777778,-79.43926944444445,OFFSHORE ATLANTIC,ZMA,RP,ZFP*VOR/DME*269.08/40.00
SOBAY,27.785608333333336,-82.53601111111111,FLORIDA,ZMA,RP,PIE*VORTAC*132.00/11.00
SOBPO,26.57671111111111,-80.03833611111111,FLORIDA,ZMA,RNAV,06/13/2014
SOKIE,26.492155555555556,-81.98088611111112,FLORIDA,ZMA,RNAV,07/13/2005
SOLEI,21.817777777777778,-73.00944444444444,OFFSHORE ATLANTIC,ZMA,RP,GTK*VORTAC*290.48/107.22
SOMMY,24.726141666666663,-81.05137777777777,FLORIDA,ZMA,RP,EYW*VORTAC*077.26/41.80
SONES,27.799105555555556,-82.66933611111112,FLORIDA,ZMA,RP,PIE*VORTAC*178.01/6.55
SOPHA,27.805,-80.01972222222223,OFFSHORE ATLANTIC,ZMA,RNAV,05/11/2016
SORGO,28.032577777777778,-81.85267777777777,FLORIDA,ZMA,RP,LAL*VORTAC*070.99/9.00
SOUBY,25.77643611111111,-80.18561666666668,FLORIDA,ZMA,RP,VKZ*VOR/DME*315.00
SPAAD,24.422555555555558,-81.5789861111111,FLORIDA,ZMA,MR,NQX*TACAN*155.00/11.00
SPACS,28.525469444444443,-80.65709166666667,FLORIDA,ZMA,RNAV,06/19/2010
SPECO,27.91596388888889,-82.4425138888889,FLORIDA,ZMA,MR,MCF*TACAN*053.00/5.00
SPNKE,26.40525,-81.79743611111111,FLORIDA,ZMA,RNAV,07/15/2008
SPOUN,26.97505,-80.36506388888888,FLORIDA,ZMA,RNAV,01/22/2009
SPURR,28.331691666666668,-81.29479444444445,FLORIDA,ZMA,RP,DDO*LD*185.47/6.39
SPYKS,27.148416666666666,-80.37565,FLORIDA,ZMA,RNAV,10/26/2009
SRKUS,27.468224999999997,-82.79358333333333,FLORIDA,ZMA,RNAV,11/11/2010
SSCOT,25.89041111111111,-80.96556111111111,FLORIDA,ZMA,RNAV,08/07/2006
STANL,21.1,-71.84722222222221,OFFSHORE ATLANTIC,ZMA,RNAV,10/02/2006
STAPL,26.530977777777778,-79.62055833333332,OFFSHORE ATLANTIC,ZMA,RNAV,04/10/2012
STARK,27.794722222222223,-80.66222222222223,FLORIDA,ZMA,RNAV,06/30/2016
STARS,28.698027777777778,-80.748825,FLORIDA,ZMA,RNAV,08/09/2013
STIFF,27.605183333333336,-78.64611666666667,,ZMA,RP,ZFP*VOR/DME*005.51/62.88
STING,24.88158888888889,-81.79629166666666,FLORIDA,ZMA,RP,EYW*VORTAC*359.74/17.69
STOOP,27.25314722222222,-80.13139722222222,FLORIDA,ZMA,RP,PHK*VOR/DME*046.71
STRAP,24.831955555555556,-81.58968055555555,FLORIDA,ZMA,RP,EYW*VORTAC*037.00/18.69
STRUD,22.198647222222224,-71.98409166666667,OFFSHORE ATLANTIC,ZMA,RP,GTK*VORTAC*321.85/65.61
STRUG,28.531980555555556,-80.79703055555555,FLORIDA,ZMA,RNAV,06/09/2009
STUUU,26.95268611111111,-82.10481388888888,FLORIDA,ZMA,RNAV,07/11/2008
SUMEE,27.2071,-80.26245,FLORIDA,ZMA,RNAV,10/26/2009
SUNDY,27.510975,-80.25713888888889,FLORIDA,ZMA,RNAV,01/14/2009
SUNFN,27.989147222222222,-82.06963888888889,FLORIDA,ZMA,RP,LAL*LD*273.85/3.46
SURFN,27.26261111111111,-79.81800555555556,FLORIDA,ZMA,RP,PBI*VORTAC*025.38/37.71
SUROY,28.091352777777775,-80.8634111111111,FLORIDA,ZMA,RNAV,08/10/2012
SUZEN,28.2422,-80.98177777777778,FLORIDA,ZMA,RNAV,08/09/2012
SWAGS,26.17696388888889,-81.09998055555555,FLORIDA,ZMA,RP,PHK*VOR/DME*211.35/42.39
SWIMM,25.49977777777778,-79.03835833333333,,ZMA,RP,ZBV*VORTAC*135.30/18.50
SWOMP,27.143530555555554,-79.8731111111111,FLORIDA,ZMA,RNAV,10/20/2009
SYDNY,25.562591666666666,-77.881075,,ZMA,RP,ZQA*VOR/DME*329.75/39.88
SYKES,27.66471111111111,-83.04978333333334,FLORIDA,ZMA,RP,LAL*VORTAC*250.00/58.37
SYRIL,24.059255555555556,-74.47542777777778,,ZMA,RNAV,11/26/2002
JABIT,27.399955555555554,-80.70074722222222,FLORIDA,ZMA,RNAV,08/20/2007
JABMA,26.62553611111111,-81.31941666666667,FLORIDA,ZMA,RNAV,07/16/2009
JACKT,27.82975,-82.650625,FLORIDA,ZMA,RNAV,10/01/2014
JADAK,25.797261111111112,-80.38388888888889,FLORIDA,ZMA,RNAV,08/04/2006
JAKEL,26.816225,-79.10773888888889,,ZMA,RP,ZBV*VORTAC*012.57
JAKOR,28.339088888888888,-81.32114166666666,FLORIDA,ZMA,RP,OJP*LD*185.46/6.65
JAKTA,27.848344444444443,-80.4555388888889,FLORIDA,ZMA,RNAV,06/18/2012
JALOP,26.750430555555557,-79.68408611111111,OFFSHORE ATLANTIC,ZMA,RP,VKZ*VOR/DME*026.91/64.90
JAMAX,26.701194444444443,-78.78852777777777,,ZMA,RP,ZFP*VOR/DME*333.84/10.00
JAMMI,24.8475,-81.4475,FLORIDA,ZMA,RNAV,05/06/2009
JANGL,27.75011111111111,-81.16084444444445,FLORIDA,ZMA,RP,TRV*VORTAC*284.00/36.00
JANGO,27.976658333333333,-81.74433888888889,FLORIDA,ZMA,RNAV,03/30/2009
JANKA,24.645305555555556,-81.26235277777778,FLORIDA,ZMA,RP,EYW*VORTAC*082.00/29.64
JANTU,26.687216666666668,-80.20105555555556,FLORIDA,ZMA,RNAV,11/09/2009
JANUS,26.094113888888888,-79.63351111111112,OFFSHORE ATLANTIC,ZMA,RP,ZBV*VORTAC*325.89
JAPEK,28.125169444444445,-80.65426944444445,FLORIDA,ZMA,MR,COF*TACAN*205.52/7.10
JAPIT,28.45916111111111,-80.55431944444445,FLORIDA,ZMA,RNAV,03/05/2008
JAREM,26.089594444444444,-80.75413611111111,FLORIDA,ZMA,RNAV,05/30/2006
JARNO,25.997525,-80.44387222222223,FLORIDA,ZMA,RP,DHP*VORTAC*340.55
JATAL,24.53725,-81.65420555555556,OFFSHORE ATLANTIC,ZMA,MW,02/18/2016
JATEL,26.86628888888889,-80.687925,FLORIDA,ZMA,RP,PHK*VOR/DME*002.15/5.00
JATSU,28.252155555555557,-80.60232222222221,FLORIDA,ZMA,MR,COF*TACAN*037.00/1.00
JAVUX,26.854294444444445,-80.08635555555556,FLORIDA,ZMA,RNAV,03/13/2014
JAXEK,25.861772222222225,-81.10005,FLORIDA,ZMA,RNAV,11/01/2013
JAYBG,26.601036111111114,-80.80344722222222,FLORIDA,ZMA,RNAV,03/08/2018
JAYEE,24.432161111111114,-77.72350833333334,,ZMA,RP,ZBV*VORTAC*135.30/114.51
JAYMC,26.980833333333333,-81.36888888888888,FLORIDA,ZMA,RNAV,07/22/2008
JEBON,26.03688055555556,-81.69818055555555,FLORIDA,ZMA,RP,CYY*VOR/DME*151.23/8.20
JEFFO,22.111855555555557,-71.35633333333332,OFFSHORE ATLANTIC,ZMA,RP,GTK*VORTAC*350.88/42.00
JEFRY,24.58389722222222,-77.65296111111111,,ZMA,RP,ZQA*VOR/DME*209.16/28.72
JEKOL,27.686616666666666,-80.63779444444445,FLORIDA,ZMA,RNAV,06/18/2012
JEKPA,26.781091666666665,-82.42130833333334,FLORIDA,ZMA,RNAV,02/02/2006
JELSU,27.420072222222224,-82.5981361111111,FLORIDA,ZMA,RP,SRQ*VOR/DME*298.00/2.00
JEMAL,26.816258333333334,-80.2419,FLORIDA,ZMA,RNAV,05/31/2005
JEMDO,28.09817222222222,-80.69130555555556,FLORIDA,ZMA,RP,MLB*VOR/DME*268.86/3.00
JENOV,28.106730555555558,-80.54750555555556,FLORIDA,ZMA,RNAV,08/06/2012
JEPIR,24.071413888888888,-74.6273611111111,,ZMA,RNAV,11/26/2002
JERII,26.743769444444446,-80.00145833333333,FLORIDA,ZMA,RNAV,04/17/2017
JERMA,26.7371,-79.94036944444444,FLORIDA,ZMA,RNAV,12/29/2009
JEROX,26.546797222222224,-81.74086111111112,FLORIDA,ZMA,RP,RSW*VORTAC*063.67/2.13
JERRE,24.973149999999997,-78.52894722222221,OFFSHORE ATLANTIC,ZMA,RP,ZBV*VORTAC*140.26/60.36
JESSS,25.883983333333333,-80.27830833333333,FLORIDA,ZMA,RNAV,08/04/2006
JETUD,27.939644444444443,-81.53138333333334,FLORIDA,ZMA,RNAV,06/13/2011
JEVES,26.901325,-82.36636388888888,FLORIDA,ZMA,RP,CYY*VOR/DME*327.85/54.81
JEVOD,27.83133888888889,-82.4144888888889,FLORIDA,ZMA,RNAV,12/09/2010
JEXQU,26.57792222222222,-81.17222222222223,FLORIDA,ZMA,RNAV,07/09/2017
JIBTO,26.81645277777778,-81.20559722222222,FLORIDA,ZMA,RP,LBV*VORTAC*092.98/10.00
JICTI,26.71901944444444,-81.53246388888888,FLORIDA,ZMA,RP,LBV*VORTAC*228.26/10.00
JIDBO,25.519166666666667,-80.48206388888889,FLORIDA,ZMA,RNAV,11/27/2013
JIDVA,26.14975,-80.0784,FLORIDA,ZMA,RNAV,03/18/2013
JIHMU,28.184963888888888,-80.99408333333334,FLORIDA,ZMA,RP,ORL*VORTAC*139.79/28.00
JIJCI,28.225213888888888,-81.72364722222223,FLORIDA,ZMA,RP,ORL*VORTAC*227.36/28.00
JILKO,27.467230555555552,-80.33929166666667,FLORIDA,ZMA,RNAV,01/04/2012
JIMEY,26.687925,-79.94163055555556,FLORIDA,ZMA,RNAV,11/10/2009
JIMNY,26.334380555555555,-80.18307777777778,FLORIDA,ZMA,RP,PMP*LE*329.65/6.92
JINBA,28.096930555555556,-80.75056111111111,FLORIDA,ZMA,RNAV,08/06/2012
JINGI,25.645,-80.39158611111112,FLORIDA,ZMA,RNAV,09/15/2009
JINGL,26.104522222222222,-80.96801388888889,FLORIDA,ZMA,RNAV,05/30/2006
JINPI,27.94654166666667,-82.69468611111111,FLORIDA,ZMA,RP,PIE*VORTAC*/2.38
JINSO,27.508505555555555,-80.5424,FLORIDA,ZMA,RNAV,01/14/2009
JIRAX,26.233555555555558,-81.54021666666667,FLORIDA,ZMA,RNAV,07/09/2017
JISAS,26.429808333333334,-80.10384166666667,FLORIDA,ZMA,RP,08/07/2006
JIVGA,27.133477777777777,-82.5105,FLORIDA,ZMA,RNAV,05/19/2011
JIVLU,26.62706388888889,-81.26923055555555,FLORIDA,ZMA,RNAV,07/07/2017
JIXOM,26.78059722222222,-80.0624611111111,FLORIDA,ZMA,RNAV,05/03/2016
JIXOT,26.438119444444446,-80.17478611111112,FLORIDA,ZMA,RNAV,12/11/2017
JOBVA,27.709658333333334,-81.7868,FLORIDA,ZMA,RNAV,12/08/2006
JOCKS,27.009569444444445,-81.85352222222221,FLORIDA,ZMA,RP,PGD*VOR*059.06
JODAX,25.80732777777778,-80.1937,FLORIDA,ZMA,RP,CNV*LE*E CRS/6.01
JODPO,25.692694444444445,-80.68997777777778,FLORIDA,ZMA,RNAV,08/30/2013
JOEWY,27.03289722222222,-79.45178333333334,OFFSHORE ATLANTIC,ZMA,RNAV,10/26/2009
JOGNO,25.65153611111111,-80.46587777777778,FLORIDA,ZMA,RNAV,09/15/2009
JOKOB,27.423444444444446,-80.94791666666667,FLORIDA,ZMA,RNAV,08/15/2012
JOLTS,26.993105555555555,-79.21421388888889,,ZMA,RP,PBI*VORTAC*071.00/50.42
JOLYN,25.918083333333335,-80.175375,FLORIDA,ZMA,RP,VKZ*VOR/DME*357.50
JOMDU,27.561555555555557,-80.44343611111111,FLORIDA,ZMA,RNAV,07/11/2012
JOMIN,25.223952777777775,-80.348675,FLORIDA,ZMA,MR,HST*TACAN*180.00/16.00
JOMOV,28.532533333333333,-80.64052222222223,FLORIDA,ZMA,RNAV,06/18/2010
JONZI,25.781924999999998,-80.20636388888889,FLORIDA,ZMA,RNAV,02/12/2012
JOOOE,27.01793611111111,-82.06535833333334,FLORIDA,ZMA,RNAV,07/11/2008
JORAY,28.342813888888887,-79.03496666666666,OFFSHORE ATLANTIC,ZMA,RNAV,04/12/2012
JORGG,23.393119444444444,-70.86548055555555,OFFSHORE ATLANTIC,ZMA,RNAV,09/19/2008
JOSES,20.144247222222223,-73.21819444444445,OFFSHORE ATLANTIC,ZMA,RNAV,04/08/2008
JOSFF,27.026477777777778,-82.46575277777778,FLORIDA,ZMA,RP,RSW*VORTAC*310.88/47.49
JOSIR,28.082533333333334,-81.85204722222221,FLORIDA,ZMA,RNAV,10/04/2006
JOVCU,24.583333333333332,-81.46666666666667,FLORIDA,ZMA,CN,12/04/2014
JOVLI,26.538466666666668,-80.02149722222222,FLORIDA,ZMA,RNAV,07/17/2014
JOVMU,28.120844444444444,-81.86614166666666,FLORIDA,ZMA,RNAV,10/02/2007
JOVOX,26.550511111111113,-80.23837777777779,FLORIDA,ZMA,RNAV,03/13/2014
JOXOB,27.319916666666668,-81.97379444444445,FLORIDA,ZMA,RNAV,12/08/2006
JRGAL,27.5868,-82.60683611111111,FLORIDA,ZMA,RP,LAL*VORTAC*232.00
JSTIN,21.361150000000002,-69.79737222222222,OFFSHORE ATLANTIC,ZMA,RNAV,10/05/2011
JSTRM,27.691825,-82.42251944444445,FLORIDA,ZMA,RP,PIE*VORTAC*131.79/19.00
JUDUD,27.346516666666666,-80.19208611111111,FLORIDA,ZMA,RNAV,07/11/2012
JUELE,20.41763888888889,-71.11850833333332,OFFSHORE ATLANTIC,ZMA,RP,PTA*VOR/DME*330.92/50.07
JUKIG,26.172908333333336,-82.01033333333334,FLORIDA,ZMA,RNAV,07/07/2014
JULED,25.64421388888889,-80.63481111111112,FLORIDA,ZMA,RNAV,09/15/2009
JULSO,27.86623888888889,-82.71592777777778,FLORIDA,ZMA,RP,PIE*VORTAC*219.09/3.50
JUMAR,26.075322222222223,-79.91700277777778,FLORIDA,ZMA,RP,UDL*LD*096.37/13.52
JUMDV,26.699183333333334,-80.62650555555555,FLORIDA,ZMA,RNAV,12/29/2014
JUMUV,26.002188888888888,-80.23053333333334,FLORIDA,ZMA,RNAV,08/06/2012
JUNLO,27.344030555555555,-81.85046388888888,FLORIDA,ZMA,RNAV,07/15/2008
JUNUR,25.38789722222222,-79.72216666666667,FLORIDA,ZMA,RP,ZBV*VORTAC*234.91/29.94
JUPEM,26.986741666666667,-80.46264722222223,FLORIDA,ZMA,RP,PHK*VOR/DME*045.11/17.31
JURER,25.651263888888888,-80.24162777777778,FLORIDA,ZMA,RP,DHP*VORTAC*150.78/10.63
JUSAB,27.768527777777777,-82.62491388888888,FLORIDA,ZMA,RP,PIE*VORTAC*164.22/8.91
JUSTA,24.611925000000003,-81.98111111111112,FLORIDA,ZMA,MR,EYW*VORTAC*278.00/10.00
JUTAS,26.677902777777778,-79.98664722222222,FLORIDA,ZMA,RNAV,05/31/2005
JUULI,27.95,-82.74166666666667,FLORIDA,ZMA,RNAV,07/02/2008
JUXUP,27.994766666666667,-82.08117222222222,FLORIDA,ZMA,RNAV,10/07/2014
IBISS,25.709369444444444,-79.99934722222223,FLORIDA,ZMA,RNAV,12/15/2015
IBITE,26.62547222222222,-81.8151861111111,FLORIDA,ZMA,RNAV,07/15/2011
IBUSE,24.592016666666666,-81.63012777777777,FLORIDA,ZMA,MW,02/18/2016
ICUCI,25.72803611111111,-81.09991666666666,FLORIDA,ZMA,RNAV,11/01/2013
ICZAY,26.622325,-80.02719444444445,FLORIDA,ZMA,RNAV,12/29/2009
ICZOR,28.03566388888889,-82.04148611111111,FLORIDA,ZMA,RNAV,12/10/2010
IDLUW,27.380283333333335,-80.83325555555555,FLORIDA,ZMA,RNAV,02/22/2010
IGMIF,28.199241666666666,-80.43112777777779,FLORIDA,ZMA,RNAV,08/03/2012
IGOOR,26.907958333333333,-80.55113888888889,FLORIDA,ZMA,RP,PHK*VOR/DME*045.11
IJEPY,26.145663888888887,-80.30411388888889,FLORIDA,ZMA,RNAV,03/18/2013
IJERE,26.643827777777776,-81.93589722222222,FLORIDA,ZMA,RNAV,07/15/2011
IKBIX,24.0,-81.23333333333333,OFFSHORE ATLANTIC,ZMA,RNAV,09/19/2016
ILIND,28.696944444444444,-80.83833333333332,FLORIDA,ZMA,RNAV,07/01/2014
IMOCK,26.536944444444448,-81.76527777777778,FLORIDA,ZMA,RNAV,02/11/2010
INDEE,23.13978611111111,-74.38953611111111,,ZMA,RP,ZIN*NDB*352.20
INDIA,28.434497222222223,-80.76534722222222,FLORIDA,ZMA,RP,ORL*VORTAC*102.00/30.81
INDRO,29.236716666666666,-79.096075,OFFSHORE ATLANTIC,ZMA,RNAV,05/02/2008
INESS,25.7832,-80.384275,FLORIDA,ZMA,RP,BUL*LD*272.38/6.12
INEVY,26.85631388888889,-80.06515833333333,FLORIDA,ZMA,RNAV,12/29/2009
INGRA,25.465430555555553,-77.22233333333334,,ZMA,RP,ZQA*VOR/DME*030.81/29.00
IORIO,24.09978611111111,-71.87344999999999,OFFSHORE ATLANTIC,ZMA,RNAV,01/12/2009
IPFAH,25.812561111111112,-80.3282611111111,FLORIDA,ZMA,RNAV,08/03/2001
IPINE,27.851258333333334,-80.37726388888888,FLORIDA,ZMA,RNAV,01/14/2009
IPUNE,27.914366666666666,-82.23024444444445,FLORIDA,ZMA,RNAV,10/03/2007
IPZOF,28.330905555555557,-80.91576388888889,FLORIDA,ZMA,RNAV,02/17/2006
IRIDE,25.861819444444446,-80.96838611111112,FLORIDA,ZMA,RNAV,11/01/2013
IRNIE,26.66575,-81.39688055555557,FLORIDA,ZMA,RNAV,11/11/2009
ISAAC,25.952125,-78.79775833333333,,ZMA,RP,ZBV*VORTAC*065.01
ISAJY,26.086205555555555,-81.97624166666667,FLORIDA,ZMA,RNAV,07/01/2008
ISOVE,27.909705555555554,-82.43096111111112,FLORIDA,ZMA,RNAV,11/03/2011
ISOXE,26.892594444444445,-82.00308611111112,FLORIDA,ZMA,RP,PGD*LD*215.16/2.56
ISQUF,26.76568333333333,-80.19678611111111,FLORIDA,ZMA,CN,12/29/2009
ISUVE,27.70960277777778,-81.88069166666666,FLORIDA,ZMA,RNAV,12/08/2006
ITOWN,26.689644444444443,-80.04558888888889,FLORIDA,ZMA,RNAV,04/17/2017
ITUYA,27.32003611111111,-81.88023333333332,FLORIDA,ZMA,RNAV,12/08/2006
IVETY,27.151819444444442,-80.45848611111111,FLORIDA,ZMA,RNAV,03/21/2013
IVONY,27.954602777777776,-81.56443888888889,FLORIDA,ZMA,RNAV,03/30/2009
IXIVE,26.438972222222223,-81.34239722222222,FLORIDA,ZMA,RNAV,07/09/2017
IZROZ,25.92257777777778,-80.08005277777778,FLORIDA,ZMA,RP,PLJ*LD*092.95/11.50
EADEN,24.526238888888887,-81.85836111111111,FLORIDA,ZMA,RNAV,12/15/2015
EARTH,28.84380277777778,-80.71350833333334,FLORIDA,ZMA,RNAV,08/09/2013
EBAXE,26.613522222222223,-81.82988888888889,FLORIDA,ZMA,RNAV,07/15/2011
EBPAD,27.868330555555556,-82.00633333333333,FLORIDA,ZMA,RNAV,03/30/2009
ECADE,27.989458333333335,-81.91808611111112,FLORIDA,ZMA,RNAV,01/25/2013
ECAMO,26.433958333333333,-81.5037,FLORIDA,ZMA,RNAV,07/09/2017
ECIPA,24.571458333333332,-81.70115833333334,FLORIDA,ZMA,MR,EYW*VORTAC*098.00/5.50
ECKOS,27.786194444444448,-80.34507777777777,FLORIDA,ZMA,RP,MLB*VOR/DME*148.00
ECOYI,26.22875833333333,-80.13865000000001,FLORIDA,ZMA,RNAV,06/01/2006
ECQUG,26.631616666666666,-80.00070555555556,FLORIDA,ZMA,CN,12/20/2009
ECUBE,26.112130555555556,-80.21760555555555,FLORIDA,ZMA,RNAV,07/19/2011
EGANN,22.021305555555553,-72.23394166666667,,ZMA,RP,GTK*VORTAC*307.68/70.56
EGBIJ,28.52373888888889,-80.79629444444444,FLORIDA,ZMA,CN,06/22/2009
EGEYA,26.109733333333335,-80.19444166666668,FLORIDA,ZMA,RNAV,07/19/2011
EGOTE,26.94935,-81.96775277777778,FLORIDA,ZMA,RNAV,07/29/2015
EHAGU,28.061825000000002,-81.79944166666667,FLORIDA,ZMA,RNAV,10/03/2007
EHECU,28.269158333333333,-81.47608611111112,FLORIDA,ZMA,RNAV,08/02/2012
EHFAZ,26.79545277777778,-82.32711944444443,FLORIDA,ZMA,RNAV,08/11/2016
EJAMO,26.074480555555557,-81.69170833333334,FLORIDA,ZMA,RNAV,11/10/2009
ELBOW,26.426172222222224,-76.72650833333334,,ZMA,RP,ZQA*VOR/DME*030.81/92.42
ELDER,27.991230555555557,-78.62695,FLORIDA,ZMA,RP,ZFP*VOR/DME*005.51/86.00
ELEBE,27.663013888888887,-82.76890277777778,FLORIDA,ZMA,MW,05/25/2007
ELJOM,25.65437222222222,-80.39912222222223,FLORIDA,ZMA,RNAV,09/14/2009
ELLEE,24.880613888888888,-79.69001944444445,,ZMA,RP,DHP*VORTAC*150.78/65.63
EMASE,27.774705555555556,-82.58769444444444,FLORIDA,ZMA,MR,MCF*TACAN*/6.51
EMBRA,25.804655555555556,-80.20496666666666,FLORIDA,ZMA,RNAV,07/26/2007
EMBRU,27.26338888888889,-81.34230555555555,FLORIDA,ZMA,RNAV,12/29/2008
EMDUJ,25.951419444444443,-81.8632361111111,FLORIDA,ZMA,RNAV,09/28/2009
EMGOR,24.161905555555553,-74.7103,,ZMA,RNAV,11/26/2002
EMIPE,27.831647222222223,-82.538175,FLORIDA,ZMA,MR,MCF*TACAN*/2.20
ENAMO,23.56218611111111,-77.35961111111111,OFFSHORE ATLANTIC,ZMA,RP,ZQA*VOR/DME*182.87/87.65
ENDUW,26.886080555555555,-80.0393888888889,FLORIDA,ZMA,RNAV,12/29/2009
ENVER,26.175272222222222,-80.40576944444445,FLORIDA,ZMA,RP,PHK*VOR/DME*157.00/39.46
EONNS,25.296719444444445,-79.98683888888888,FLORIDA,ZMA,RP,ZBV*VORTAC*241.19
EONWX,25.304166666666667,-80.0111111111111,OFFSHORE ATLANTIC,ZMA,RNAV,01/28/2016
EPENY,25.903752777777775,-80.47028888888889,FLORIDA,ZMA,RNAV,12/15/2015
EPLOW,27.557755555555556,-80.61813055555555,FLORIDA,ZMA,RNAV,01/06/2009
ERICO,27.551991666666666,-82.41503611111112,FLORIDA,ZMA,RNAV,05/15/2003
ERRCA,22.704722222222223,-76.13722222222223,OFFSHORE ATLANTIC,ZMA,RNAV,05/18/2011
ERRIN,26.80795,-81.98232777777778,FLORIDA,ZMA,RP,LBV*VORTAC*266.95
ETAPY,26.79664166666667,-80.27723055555555,FLORIDA,ZMA,RNAV,12/29/2009
ETECK,29.485666666666667,-78.487275,OFFSHORE ATLANTIC,ZMA,RNAV,05/02/2008
ETIGY,27.419908333333336,-82.58314999999999,FLORIDA,ZMA,RP,SRQ*VOR/DME*/1.30
ETONY,25.77913611111111,-80.47978611111111,FLORIDA,ZMA,RP,DHP*VORTAC*/7.19
EVETS,23.678222222222225,-75.4084,,ZMA,RP,ZIN*NDB*335.70
EVFAM,27.77601111111111,-81.61171944444443,FLORIDA,ZMA,RNAV,02/12/2010
EWAKA,25.726025,-80.30305555555556,FLORIDA,ZMA,RNAV,11/01/2017
EWKIF,25.802983333333334,-80.24608611111111,FLORIDA,ZMA,RNAV,08/03/2001
EXBAN,28.212474999999998,-81.3244611111111,FLORIDA,ZMA,RNAV,01/08/2015
EXHUD,27.913922222222222,-81.93565833333334,FLORIDA,ZMA,RNAV,06/13/2011
EXTER,25.774575,-76.27125,OFFSHORE ATLANTIC,ZMA,RP,ZQA*VOR/DME*060.69/78.00
EYAXO,25.634519444444443,-80.63488611111111,FLORIDA,ZMA,CN,02/28/2012
EYSEL,22.339269444444444,-70.28931944444444,OFFSHORE ATLANTIC,ZMA,RNAV,04/07/2008
EYWIM,27.990247222222223,-82.01283055555555,FLORIDA,ZMA,RNAV,10/07/2014
PAARR,23.245,-74.30694444444444,OFFSHORE ATLANTIC,ZMA,RNAV,04/08/2008
PABOY,25.795572222222223,-80.47586666666668,FLORIDA,ZMA,RP,ROY*LE*W CRS/11.03
PACIB,27.75465833333333,-82.23458055555555,FLORIDA,ZMA,RP,PIE*VORTAC*115.85
PADDS,26.18653888888889,-80.29266111111112,FLORIDA,ZMA,RP,FLL*VOR/DME*320.69
PADUS,26.354008333333336,-79.10858333333333,,ZMA,RP,ZFP*VOR/DME*244.52/25.18
PAIRS,27.569191666666665,-82.47978888888889,FLORIDA,ZMA,RP,PIE*VORTAC*156.70/23.00
PAKEE,26.077111111111112,-80.1944,FLORIDA,ZMA,RP,LHI*LD*276.37/3.06
PALCY,28.476788888888887,-80.83611111111111,FLORIDA,ZMA,RNAV,02/17/2006
PALLM,26.667369444444446,-79.9368638888889,FLORIDA,ZMA,RNAV,12/29/2009
PAMMS,20.997122222222224,-70.81441111111111,,ZMA,RP,GTK*VORTAC*153.92/32.00
PANDA,24.505325,-81.86607222222221,FLORIDA,ZMA,MR,NQX*TACAN*252.00/11.00
PAPDE,26.52736111111111,-81.61529444444444,FLORIDA,ZMA,RNAV,07/09/2017
PARYE,25.914602777777777,-81.65313611111112,FLORIDA,ZMA,RNAV,11/10/2009
PASAE,26.60463888888889,-80.67080833333334,FLORIDA,ZMA,RNAV,07/08/2008
PASOE,27.542672222222222,-82.72401666666667,FLORIDA,ZMA,RP,PIE*VORTAC*190.54
PASTE,26.684108333333334,-80.12896944444444,FLORIDA,ZMA,RP,PBI*LD*278.77/2.92
PASTR,26.440275,-82.00259166666666,FLORIDA,ZMA,RP,RSW*VORTAC*248.35
PATLY,25.805722222222222,-80.23299722222222,FLORIDA,ZMA,RNAV,06/16/2016
PCMAN,28.547975,-80.81042777777778,FLORIDA,ZMA,RP,OMN*VORTAC*160.53/47.92
PEACH,25.42963055555556,-77.77301111111112,,ZMA,RP,ZQA*VOR/DME*329.75/30.00
PEAKY,24.58992222222222,-81.14830833333335,FLORIDA,ZMA,RNAV,09/09/2016
PECOT,25.768152777777775,-80.24144722222222,FLORIDA,ZMA,RP,DCX*LD*124.47/3.87
PEGYY,22.17388888888889,-72.40138888888889,OFFSHORE ATLANTIC,ZMA,RNAV,04/08/2008
PEKRE,24.737786111111113,-78.09610833333333,,ZMA,RP,ZBV*VORTAC*135.30/87.13
PERMT,27.41419722222222,-78.94726666666666,FLORIDA,ZMA,RP,PBI*VORTAC*057.00/75.19
PETEE,28.925269444444446,-80.12110555555554,OFFSHORE ATLANTIC,ZMA,RNAV,10/23/2013
PETNE,27.244369444444445,-80.42042222222223,FLORIDA,ZMA,RNAV,03/21/2013
PETSE,26.754444444444445,-81.88673611111112,FLORIDA,ZMA,RNAV,03/31/2008
PHIEL,27.684108333333334,-82.80122777777777,FLORIDA,ZMA,RNAV,01/25/2013
PHORD,27.30128888888889,-80.33640555555554,FLORIDA,ZMA,RP,TRV*VORTAC*167.04/24.00
PIANA,25.87419166666667,-80.44901944444445,FLORIDA,ZMA,RP,GEM*LD*NW CRS/10.75
PIBDE,24.599202777777776,-81.71777777777778,OFFSHORE ATLANTIC,ZMA,MW,02/10/2016
PICOL,27.77675,-82.62497222222221,FLORIDA,ZMA,RNAV,05/22/2007
PIKKR,26.940119444444445,-82.69035555555556,OFFSHORE GULF,ZMA,RNAV,07/01/2008
PINGL,27.161649999999998,-80.15624444444445,FLORIDA,ZMA,RNAV,10/26/2009
PINTS,26.802891666666667,-82.13585833333335,FLORIDA,ZMA,RP,LBV*VORTAC*267.00
PIONN,26.078044444444444,-80.3814,FLORIDA,ZMA,RP,DHP*VORTAC*358.00
PIPER,28.264905555555554,-80.15986111111111,OFFSHORE ATLANTIC,ZMA,RNAV,07/01/2014
PIVVV,28.8474,-79.68505277777778,FLORIDA,ZMA,RNAV,11/10/2009
POBCI,27.64166388888889,-80.5321,FLORIDA,ZMA,RNAV,01/04/2012
POJHY,26.346469444444445,-81.69551944444444,FLORIDA,ZMA,RNAV,11/05/2009
POKME,27.87348888888889,-80.42712222222222,FLORIDA,ZMA,RNAV,06/18/2012
PONTY,26.35675277777778,-81.87202222222221,FLORIDA,ZMA,RNAV,07/15/2008
POPHY,28.571538888888888,-80.79996666666666,FLORIDA,ZMA,RNAV,06/22/2009
POPMM,27.365011111111112,-81.34270277777777,FLORIDA,ZMA,RNAV,03/21/2013
POROC,27.250922222222222,-82.60575555555555,FLORIDA,ZMA,RNAV,11/11/2010
POSEL,27.836816666666664,-82.53535833333333,FLORIDA,ZMA,MW,07/11/2008
POTTR,25.808186111111112,-80.17345277777778,FLORIDA,ZMA,RP,VKZ*VOR/DME*347.00
PRAIZ,26.185644444444446,-80.2985,FLORIDA,ZMA,RP,DHP*VORTAC*010.74
PREDA,26.357969444444446,-79.51175,FLORIDA,ZMA,RP,ZBV*VORTAC*347.33/40.84
PRESK,28.33620277777778,-81.1378388888889,FLORIDA,ZMA,RP,ORL*VORTAC*139.79/16.17
PRHIB,26.086575,-79.98899166666666,FLORIDA,ZMA,RNAV,03/18/2013
PRRDO,22.449166666666667,-71.8175,OFFSHORE ATLANTIC,ZMA,RNAV,10/02/2006
PRRIE,26.81718611111111,-81.08438055555555,FLORIDA,ZMA,RNAV,07/11/2008
PRUNE,25.215769444444444,-77.95616666666668,,ZMA,RP,ZQA*VOR/DME*298.40/30.00
PSTOL,27.558055555555555,-84.16527777777779,OFFSHORE GULF,ZMA,RNAV,05/14/2007
PTBUL,24.331527777777776,-81.43828611111111,OFFSHORE ATLANTIC,ZMA,RNAV,01/29/2016
PUBPO,27.519583333333333,-81.60829166666666,FLORIDA,ZMA,RNAV,03/03/2010
PULEC,27.779430555555553,-82.00713888888889,FLORIDA,ZMA,RNAV,11/18/2009
PULME,27.520627777777776,-80.39821666666667,FLORIDA,ZMA,RNAV,01/04/2012
PUNAE,26.814419444444447,-81.50572222222222,FLORIDA,ZMA,RNAV,12/04/2007
PUTVE,28.29502777777778,-81.07916944444445,FLORIDA,ZMA,MR,03/17/2016
PUUMA,27.58915,-80.22401111111111,FLORIDA,ZMA,RNAV,01/14/2009
PYRUT,26.81265,-80.1427638888889,FLORIDA,ZMA,RNAV,11/10/2009
QATHY,26.555466666666668,-80.08364444444445,FLORIDA,ZMA,RNAV,12/29/2009
QEEZY,25.641658333333332,-80.50482222222222,FLORIDA,ZMA,RP,DHP*VORTAC*225.75
QELAH,26.739841666666667,-80.18795,FLORIDA,ZMA,RNAV,12/29/2009
QEPRO,26.040794444444447,-80.07333888888888,FLORIDA,ZMA,RP,VKZ*VOR/DME*018.23/17.83
QUASH,28.358311111111114,-80.09848055555555,OFFSHORE ATLANTIC,ZMA,RP,OMN*VORTAC*136.37/77.81
QUASI,26.696644444444445,-80.0658,FLORIDA,ZMA,RNAV,01/24/2017
QUAZR,27.840947222222223,-81.32121666666666,FLORIDA,ZMA,RP,ORL*VORTAC*179.00/42.00
QUNCY,27.036947222222224,-81.63839166666668,FLORIDA,ZMA,RP,LBV*VORTAC*312.38
QUZSY,26.70924722222222,-82.02133888888889,FLORIDA,ZMA,RNAV,07/15/2011
QWARY,26.466355555555555,-81.70394444444445,FLORIDA,ZMA,RNAV,04/10/2014
DAAST,26.008747222222222,-75.85156944444444,,ZMA,RNAV,04/07/2008
DALOO,27.210908333333332,-80.01359722222222,FLORIDA,ZMA,RP,PBI*VORTAC*010.00/32.00
DAWNO,27.900555555555552,-82.53115555555556,FLORIDA,ZMA,RP,PIE*VORTAC*092.00
DEAKK,27.452616666666668,-82.13440000000001,FLORIDA,ZMA,RNAV,03/16/2007
DEARY,28.10070277777778,-80.91427777777778,FLORIDA,ZMA,RP,VKZ*VOR/DME*348.00/146.31
DEEDS,25.977863888888887,-81.23322222222222,FLORIDA,ZMA,RP,PHK*VOR/DME*211.35/56.31
DEEEP,25.580780555555556,-80.39912500000001,FLORIDA,ZMA,RNAV,02/12/2012
DEKAL,25.850561111111112,-79.63135833333332,OFFSHORE ATLANTIC,ZMA,RP,ZBV*VORTAC*299.71/20.24
DELDO,26.534375,-81.79331944444445,FLORIDA,ZMA,RNAV,07/15/2011
DEMTE,24.521577777777775,-81.88203333333333,FLORIDA,ZMA,MW,01/13/2010
DEPAC,24.54071388888889,-81.71620555555556,FLORIDA,ZMA,RP,NQX*TACAN*220.00/3.00
DIAPR,26.86345,-80.33239999999999,FLORIDA,ZMA,RNAV,11/10/2009
DIAZZ,24.8549,-75.36900277777777,OFFSHORE ATLANTIC,ZMA,RP,ZQA*VOR/DME*101.71/113.75
DIBUF,26.238063888888888,-81.39758055555556,FLORIDA,ZMA,RNAV,06/22/2009
DICKI,25.554886111111113,-80.17453888888889,FLORIDA,ZMA,RNAV,08/07/2006
DIDDY,27.310597222222224,-80.8822,FLORIDA,ZMA,RP,PHK*VOR/DME*342.11/33.19
DIINO,28.666652777777777,-80.42650833333335,FLORIDA,ZMA,RP,OMN*VORTAC*136.37/52.49
DIMND,27.555183333333336,-79.20961944444444,FLORIDA,ZMA,RP,VKZ*VOR/DME*029.00/119.24
DIMVE,24.56404722222222,-81.73032777777777,FLORIDA,ZMA,MW,01/12/2010
DIRAY,27.471780555555554,-82.48568888888889,FLORIDA,ZMA,RNAV,12/09/2010
DMGBD,26.490305555555558,-81.98121111111111,FLORIDA,ZMA,CN,07/15/2011
DODIK,26.84130833333333,-81.94440833333334,FLORIDA,ZMA,RP,02/15/2018
DOGLE,26.997777777777777,-81.93756666666667,FLORIDA,ZMA,RNAV,07/29/2015
DOLKE,27.38803888888889,-81.64407222222223,FLORIDA,ZMA,RNAV,05/10/2013
DOLPN,26.482813888888888,-81.83703888888888,FLORIDA,ZMA,RP,RSW*LD*238.10/6.60
DOMGE,28.21299722222222,-80.61667222222222,FLORIDA,ZMA,MR,COF*TACAN*197.00/1.50
DONEZ,24.26295,-76.28249166666667,OFFSHORE ATLANTIC,ZMA,RP,ZQA*VOR/DME*131.39/78.28
DONVN,26.612758333333336,-80.64149722222223,FLORIDA,ZMA,RNAV,11/10/2009
DORMR,27.644027777777776,-83.27380833333333,OFFSHORE GULF,ZMA,RNAV,02/16/2010
DORWX,25.89238888888889,-81.01649722222223,FLORIDA,ZMA,RNAV,01/28/2016
DOUGZ,26.440555555555555,-80.65722222222223,FLORIDA,ZMA,RNAV,02/11/2010
DOWNN,27.510766666666665,-81.75657777777778,FLORIDA,ZMA,RP,RSW*VORTAC*003.00/58.70
DOXSI,25.782794444444445,-80.39392777777779,FLORIDA,ZMA,RNAV,09/12/2013
DRIVM,25.679144444444447,-80.46187777777779,FLORIDA,ZMA,RNAV,02/12/2012
DRMEE,25.933219444444447,-81.09585,FLORIDA,ZMA,RNAV,09/20/2010
DROWN,24.717788888888887,-80.57929166666666,FLORIDA,ZMA,RP,EYW*VORTAC*082.00/67.22
DRUUM,25.828019444444443,-80.2439888888889,FLORIDA,ZMA,RP,PHK*VOR/DME*157.00/62.00
DUBBL,26.7055,-79.65895,FLORIDA,ZMA,RP,VKZ*VOR/DME*029.00/63.00
DUDGE,26.790566666666667,-80.69109444444445,FLORIDA,ZMA,RP,PHK*VOR/DME*002.15/0.47
DUFBO,26.082794444444446,-81.850825,FLORIDA,ZMA,RNAV,09/28/2009
DUKKY,23.580555555555556,-75.26388888888889,,ZMA,RP,ZIN*NDB*339.90
DULEE,29.8307,-79.14928611111112,OFFSHORE ATLANTIC,ZMA,RNAV,08/29/2005
DUMDE,27.67322777777778,-82.67575000000001,FLORIDA,ZMA,MR,MCF*TACAN*/14.18
DUNED,22.427577777777778,-69.60300833333332,OFFSHORE ATLANTIC,ZMA,RP,PTA*VOR/DME*026.62/168.50
DUNNO,22.928405555555557,-75.93127777777778,,ZMA,RP,ZIN*NDB*319.53
DUPNT,26.66110833333333,-81.39734444444446,FLORIDA,ZMA,RP,LBV*VORTAC*180.82/10.00
DVALL,25.51468611111111,-80.99895555555555,FLORIDA,ZMA,RP,EYW*VORTAC*037.00/70.66
DYLYN,26.691388888888888,-81.17444444444445,FLORIDA,ZMA,RNAV,02/15/2018
DYNAH,23.949497222222224,-77.94683333333333,OFFSHORE ATLANTIC,ZMA,RP,ZQA*VOR/DME*209.16/69.94
HAANA,26.731341666666665,-77.36963888888889,,ZMA,RP,ZFP*VOR/DME*084.31/72.17
HABED,28.46535,-80.55291111111111,FLORIDA,ZMA,MW,03/05/2008
HADMO,26.558422222222223,-81.89761666666668,FLORIDA,ZMA,RNAV,07/15/2011
HALBI,26.676775000000003,-79.14322222222224,,ZMA,RP,ZBV*VORTAC*011.95
HALLR,27.544669444444445,-81.59882499999999,FLORIDA,ZMA,RP,LAL*VORTAC*139.00/34.44
HALOM,26.807336111111113,-80.06194166666667,FLORIDA,ZMA,RNAV,03/13/2014
HALSS,29.170366666666666,-79.31554722222222,OFFSHORE ATLANTIC,ZMA,RNAV,08/30/2005
HAMVA,27.752483333333334,-80.22566111111111,FLORIDA,ZMA,RNAV,01/06/2009
HANAX,27.98826111111111,-82.03399722222223,FLORIDA,ZMA,RP,LAL*VORTAC*275.65/1.08
HANKX,25.686319444444443,-77.48720277777778,,ZMA,RP,ZFP*VOR/DME*131.22/83.52
HAPOR,26.21196388888889,-79.94876666666667,FLORIDA,ZMA,RNAV,08/01/2006
HAPUG,25.718999999999998,-80.45049166666666,FLORIDA,ZMA,RNAV,11/01/2017
HARBG,19.867261111111112,-68.94751944444445,OFFSHORE ATLANTIC,ZMA,RP,BQN*VORTAC*318.38/132.69
HARKY,24.940472222222223,-81.9804,OFFSHORE GULF,ZMA,MR,NQX*TACAN*325.00/27.00
HASBO,26.482127777777777,-81.8381111111111,FLORIDA,ZMA,RNAV,07/13/2005
HASDU,25.649102777777777,-80.52249444444445,FLORIDA,ZMA,RNAV,09/15/2009
HASOK,27.400002777777775,-80.61419444444444,FLORIDA,ZMA,RNAV,01/18/2017
HASUP,27.889977777777776,-80.24566944444445,FLORIDA,ZMA,RNAV,06/18/2012
HATVA,28.481066666666663,-80.58629166666667,FLORIDA,ZMA,MW,03/05/2008
HAUSR,25.95351388888889,-80.36526388888889,FLORIDA,ZMA,RP,DHP*VORTAC*358.54
HAXAM,25.634438888888887,-80.63672777777778,FLORIDA,ZMA,RNAV,09/22/2012
HAXIN,27.244425,-80.87521944444444,FLORIDA,ZMA,RNAV,08/20/2007
HEATT,26.490941666666668,-79.94614722222222,FLORIDA,ZMA,RP,ZFP*VOR/DME*270.00/67.29
HEBNI,26.821944444444444,-80.26777777777778,FLORIDA,ZMA,RNAV,03/13/2014
HEDLY,26.582669444444445,-80.5970111111111,FLORIDA,ZMA,RP,PHK*VOR/DME*157.00/13.00
HEDWX,26.416666666666668,-80.525,FLORIDA,ZMA,RNAV,06/30/2016
HEGAV,27.645755555555557,-81.46595277777779,FLORIDA,ZMA,RNAV,03/03/2010
HEGIP,27.29076666666667,-80.82329166666666,FLORIDA,ZMA,RNAV,08/15/2012
HEKEM,24.604000000000003,-81.5872111111111,FLORIDA,ZMA,MW,05/07/2018
HEMAG,26.19101388888889,-80.28315833333333,FLORIDA,ZMA,RNAV,03/19/2013
HEMGO,27.53750555555556,-80.41686666666668,FLORIDA,ZMA,RNAV,02/22/2010
HEMOP,25.799780555555557,-80.32356666666666,FLORIDA,ZMA,RP,MFA*LD*272.38/3.07
HENDN,25.79818888888889,-80.01614166666667,FLORIDA,ZMA,RP,VKZ*VOR/DME*073.68
HERAL,28.411302777777777,-80.49835833333333,FLORIDA,ZMA,MR,COF*TACAN*037.00/12.00
HETES,28.40703333333333,-80.78775,FLORIDA,ZMA,RNAV,06/22/2009
HETMO,26.802908333333335,-79.95322777777778,FLORIDA,ZMA,RNAV,12/29/2009
HEVEL,24.556525,-81.70270277777779,FLORIDA,ZMA,MR,NQX*TACAN*220.00/1.80
HEWES,28.34257222222222,-81.28154444444445,FLORIDA,ZMA,RP,CER*LD*185.48/6.23
HHUGH,27.340833333333332,-80.47722222222222,FLORIDA,ZMA,RNAV,06/30/2016
HIBAC,29.094063888888886,-79.56795833333332,OFFSHORE ATLANTIC,ZMA,RNAV,11/29/2007
HIBDU,26.195541666666667,-80.18688333333334,FLORIDA,ZMA,RNAV,06/01/2006
HICUP,26.413597222222222,-81.77728888888889,FLORIDA,ZMA,RP,LBV*VORTAC*219.00
HIGIB,24.56096388888889,-81.741225,FLORIDA,ZMA,MW,02/18/2016
HIILL,27.402191666666667,-79.76077777777778,OFFSHORE ATLANTIC,ZMA,RNAV,09/01/2005
HIJEG,26.037222222222223,-81.64345,FLORIDA,ZMA,RNAV,07/07/2014
HIKZE,27.593780555555554,-81.63900000000001,FLORIDA,ZMA,RNAV,03/03/2010
HILEY,26.254391666666667,-80.01308333333333,FLORIDA,ZMA,RP,VKZ*VOR/DME*018.23
HILTI,28.001047222222223,-83.14306944444445,OFFSHORE GULF,ZMA,RP,CTY*VORTAC*185.00/95.76
HIMIX,25.998319444444444,-80.26194444444444,FLORIDA,ZMA,RNAV,08/03/2012
HINKU,25.81106666666667,-80.10107777777777,FLORIDA,ZMA,RP,CNV*LE*E CRS/11.03
HINZY,25.114519444444447,-77.68410833333334,,ZMA,RP,ZQA*VOR/DME*298.40/14.00
HIPWO,28.06524166666667,-82.00650555555555,FLORIDA,ZMA,RNAV,10/07/2014
HIROC,26.49041666666667,-78.30252777777777,,ZMA,RNAV,05/09/2011
HIRPU,26.569,-81.52045833333334,FLORIDA,ZMA,RNAV,02/27/2013
HITAG,25.864644444444444,-80.05668888888889,FLORIDA,ZMA,RNAV,02/12/2012
HITUX,28.324505555555554,-80.55510277777778,FLORIDA,ZMA,MR,COF*TACAN*037.00/6.00
HIVUR,26.43767777777778,-80.04343333333333,FLORIDA,ZMA,RNAV,06/13/2014
HOAGG,29.78436388888889,-78.84273611111111,OFFSHORE ATLANTIC,ZMA,RNAV,08/29/2005
HOBBL,28.200052777777778,-81.32428888888889,FLORIDA,ZMA,RNAV,ORL*VORTAC*178.41/20.51
HOBEE,29.22238611111111,-79.15125,FLORIDA,ZMA,RP,ORL*VORTAC*070.00/122.00
HOCKI,27.719391666666667,-80.61283611111111,FLORIDA,ZMA,RNAV,01/13/2009
HODGY,24.1605,-77.39477777777779,,ZMA,RP,ZBV*VORTAC*135.30/138.77
HODLE,25.779113888888887,-80.48093055555556,FLORIDA,ZMA,RNAV,09/09/2013
HODSO,27.73263611111111,-80.74835833333333,FLORIDA,ZMA,RNAV,06/18/2012
HODUB,28.593341666666664,-80.75125555555556,FLORIDA,ZMA,MW,06/08/2016
HODVU,41.67932222222222,-71.45990833333333,RHODE ISLAND,ZMA,RP,PVD*VOR/DME*220.75/3.02
HOJLO,27.904305555555553,-82.36538333333333,FLORIDA,ZMA,RNAV,12/10/2010
HOKTU,28.006830555555556,-81.94225833333334,FLORIDA,ZMA,RP,LAL*VORTAC*070.99/4.00
HOLID,26.078588888888888,-80.52238055555556,FLORIDA,ZMA,RP,DHP*VORTAC*334.68/19.12
HOLMU,25.50163611111111,-80.75164722222222,FLORIDA,ZMA,RNAV,06/10/2011
HOOKY,28.214269444444444,-77.47285277777777,OFFSHORE ATLANTIC,ZMA,RNAV,05/28/2008
HOREP,26.704988888888888,-80.68333333333334,FLORIDA,ZMA,RNAV,12/12/2017
HOSFU,25.99867777777778,-80.33593888888889,FLORIDA,ZMA,RNAV,02/13/2012
HOTMA,25.662569444444443,-80.20196666666666,FLORIDA,ZMA,RNAV,09/15/2009
HOVOM,28.105622222222223,-81.96401388888889,FLORIDA,ZMA,RNAV,10/04/2006
HOXIL,25.906052777777777,-79.90520555555557,FLORIDA,ZMA,RNAV,08/04/2006
HRBOR,27.702025,-80.55998333333334,FLORIDA,ZMA,RP,MLB*VOR/DME*177.56
HUBOT,27.94375,-82.42320555555555,FLORIDA,ZMA,MR,MCF*TACAN*/6.89
HUKDI,28.11031666666667,-80.55741666666667,FLORIDA,ZMA,RNAV,08/03/2012
HUKUK,26.195302777777776,-80.40952777777778,FLORIDA,ZMA,RP,DHP*VORTAC*356.14
HULLA,27.66731111111111,-80.19081944444444,FLORIDA,ZMA,RNAV,08/03/2012
HUMKI,27.73696111111111,-82.37389166666667,FLORIDA,ZMA,RNAV,12/10/2010
HUMKO,28.654463888888888,-80.720275,FLORIDA,ZMA,RNAV,06/18/2010
HURDE,28.025227777777776,-80.19248055555556,OFFSHORE ATLANTIC,ZMA,RP,OMN*VORTAC*147.36/90.60
HURGI,26.429402777777778,-80.22963888888889,FLORIDA,ZMA,RNAV,12/11/2017
HUSMA,27.70948333333333,-81.97458333333334,FLORIDA,ZMA,RNAV,12/08/2006
HUTOX,26.718127777777777,-80.6616,FLORIDA,ZMA,RNAV,12/29/2014
HUXIM,26.149686111111112,-79.92338333333333,FLORIDA,ZMA,RNAV,03/18/2013
HYRON,27.58238611111111,-82.78967222222222,FLORIDA,ZMA,RNAV,11/11/2010
CACSA,25.652963888888888,-80.19997222222223,FLORIDA,ZMA,RNAV,09/14/2009
CAFFE,20.09005833333333,-64.73568888888889,OFFSHORE ATLANTIC,ZMA,RNAV,04/09/2008
CAHOO,25.545897222222223,-80.31094166666666,FLORIDA,ZMA,MR,HST*TACAN*054.00/5.00
CAJUN,25.16698611111111,-80.80159444444445,FLORIDA,ZMA,MR,HST*TACAN*236.00/30.00
CAKNA,26.33868888888889,-81.40143333333334,FLORIDA,ZMA,RNAV,07/09/2017
CALCA,27.323030555555555,-82.61646111111111,FLORIDA,ZMA,RNAV,12/09/2010
CALOO,26.515875,-81.94985277777778,FLORIDA,ZMA,RNAV,FMY*LO*000.00
CANEE,25.079705555555556,-73.24472222222222,OFFSHORE ATLANTIC,ZMA,RNAV,04/07/2008
CANIN,24.583772222222223,-81.57278888888888,FLORIDA,ZMA,MR,EYW*VORTAC*089.53/12.45
CANIT,29.562505555555557,-78.42585000000001,OFFSHORE ATLANTIC,ZMA,RNAV,06/11/2008
CANOA,24.000441666666667,-83.04981944444444,FLORIDA,ZMA,RP,FIS*NDB*248.94
CAPEN,28.107194444444445,-80.53776111111111,FLORIDA,ZMA,RP,MLB*VOR/DME*095.71/5.18
CARAH,21.23218333333333,-72.25912222222222,OFFSHORE ATLANTIC,ZMA,RP,ZIN*NDB*084.18
CAREY,25.59883611111111,-78.229975,,ZMA,RP,ZBV*VORTAC*100.00/58.06
CARIR,27.686866666666667,-82.55073333333333,FLORIDA,ZMA,RP,PIE*VORTAC*156.70
CARNU,25.138369444444443,-81.32558888888889,FLORIDA,ZMA,RP,EYW*VORTAC*037.00/41.99
CASKI,26.78128611111111,-80.45238333333333,FLORIDA,ZMA,RP,PHK*VOR/DME*090.33/12.84
CASPR,29.507341666666665,-77.70311111111111,OFFSHORE ATLANTIC,ZMA,RP,PBI*VORTAC*039.23/211.21
CATHI,21.642841666666666,-72.49321944444445,OFFSHORE ATLANTIC,ZMA,RP,PVN*VOR/DME*247.69/14.86
CAVAR,27.699869444444445,-81.74421111111111,FLORIDA,ZMA,RP,LAL*VORTAC*139.00/22.34
CAVIS,25.065,-81.15972222222223,FLORIDA,ZMA,RNAV,05/06/2009
CAXOB,27.29348611111111,-81.69487500000001,FLORIDA,ZMA,RNAV,04/08/2014
CAYSL,26.467902777777777,-80.1601888888889,FLORIDA,ZMA,RNAV,06/03/2014
CEDLU,26.15383333333333,-79.69244444444445,OFFSHORE ATLANTIC,ZMA,RNAV,05/30/2006
CEGEX,24.622705555555555,-81.65761944444445,OFFSHORE ATLANTIC,ZMA,MW,02/12/2016
CEGUR,26.451766666666664,-78.55195833333333,,ZMA,RP,ZFP*VOR/DME*131.22/10.00
CEJNO,28.095469444444443,-80.86233055555554,FLORIDA,ZMA,RNAV,08/01/2012
CEKOS,24.55784166666667,-81.75253055555555,FLORIDA,ZMA,MW,01/12/2010
CELBO,26.483383333333336,-81.83616388888889,FLORIDA,ZMA,RNAV,07/13/2005
CEMTI,26.508588888888887,-80.25128055555555,FLORIDA,ZMA,RNAV,12/11/2017
CEPAR,26.767225,-80.06272222222222,FLORIDA,ZMA,RNAV,03/13/2014
CERAR,26.85532777777778,-80.15343333333334,FLORIDA,ZMA,RNAV,03/13/2014
CERDA,22.74535277777778,-69.90249722222222,OFFSHORE ATLANTIC,ZMA,RNAV,06/10/2008
CETOS,27.531016666666666,-81.38348611111111,FLORIDA,ZMA,RNAV,05/23/2013
CEVIM,28.04018611111111,-80.65100833333334,FLORIDA,ZMA,MR,COF*TACAN*197.00/12.00
CEXAN,26.93747777777778,-82.07894444444445,FLORIDA,ZMA,RP,RSW*VORTAC*328.33/29.32
CEXIG,24.627052777777777,-81.48029166666667,FLORIDA,ZMA,MW,01/12/2010
CEZBA,27.949555555555555,-81.67910555555557,FLORIDA,ZMA,RNAV,03/27/2009
CFBFS,27.494255555555558,-81.3844388888889,FLORIDA,ZMA,CN,07/19/2013
CFBFT,27.416675,-81.51697777777778,FLORIDA,ZMA,CN,07/19/2013
CFBLS,24.555975,-81.7667,FLORIDA,ZMA,CN,01/25/2013
CFBLW,26.109491666666667,-80.02320555555555,FLORIDA,ZMA,CN,03/18/2013
CFBLZ,26.109458333333336,-80.01601388888889,FLORIDA,ZMA,CN,03/18/2013
CFBMB,26.110994444444447,-80.28211944444445,FLORIDA,ZMA,CN,03/18/2013
CFBMC,26.111027777777778,-80.28934166666666,FLORIDA,ZMA,CN,03/18/2013
CFBMS,26.36608888888889,-80.19893888888889,FLORIDA,ZMA,CN,06/13/2014
CFBSX,27.887194444444443,-82.12809444444444,FLORIDA,ZMA,CN,01/30/2012
CFCJV,26.907788888888888,-80.63755,FLORIDA,ZMA,CN,05/06/2009
CFDSL,26.58789722222222,-80.08258055555555,FLORIDA,ZMA,CN,12/05/2017
CFFGT,28.09112777777778,-80.86795,FLORIDA,ZMA,CN,08/01/2012
CFFGV,28.110747222222223,-80.46247777777778,FLORIDA,ZMA,CN,08/02/2012
CFKNE,28.243066666666667,-81.30540833333333,FLORIDA,ZMA,CN,01/26/2001
CFNQX,26.70168333333333,-80.06391666666666,FLORIDA,ZMA,CN,04/17/2017
CFVPP,27.866566666666667,-81.08786388888889,FLORIDA,ZMA,CN,02/09/2018
CFVVQ,26.469583333333333,-80.07968055555556,FLORIDA,ZMA,CN,06/13/2014
CHADO,27.32087222222222,-80.13689166666667,FLORIDA,ZMA,RNAV,12/19/2011
CHAOS,27.138033333333333,-81.08628888888889,FLORIDA,ZMA,RP,PHK*VOR/DME*315.21/30.00
CHARO,26.960755555555554,-82.09635555555555,FLORIDA,ZMA,RP,LBV*VORTAC*281.01
CHETS,24.637519444444443,-81.96895555555555,FLORIDA,ZMA,RNAV,04/13/2006
CHHAZ,25.79158055555556,-80.18130277777779,FLORIDA,ZMA,RP,VKZ*VOR/DME*332.50
CHORA,25.25556388888889,-81.95280833333334,OFFSHORE GULF,ZMA,MR,NQX*TACAN*342.00/43.00
CHRRI,27.050194444444447,-81.6541138888889,FLORIDA,ZMA,RP,LBV*VORTAC*312.38/19.36
CIBIB,26.012105555555557,-80.139775,FLORIDA,ZMA,RNAV,08/02/2012
CICIV,25.77366111111111,-80.50475555555556,FLORIDA,ZMA,RP,VKZ*VOR/DME*278.00/19.02
CIGAR,27.493502777777778,-84.78319722222223,OFFSHORE GULF,ZMA,WP,07/25/2001
CIMBA,25.918100000000003,-80.17502222222222,FLORIDA,ZMA,RNAV,08/04/2006
CISET,27.634480555555555,-81.77136666666667,FLORIDA,ZMA,RNAV,02/12/2010
CISTS,26.84021111111111,-82.03566111111111,FLORIDA,ZMA,RP,RSW*VORTAC*325.10
CITAG,26.237036111111113,-81.77954166666666,FLORIDA,ZMA,RP,RSW*VORTAC*182.67/17.52
CITER,27.909002777777776,-82.37300277777777,FLORIDA,ZMA,MR,MCF*TACAN*073.00/8.00
CIVOV,26.311419444444446,-80.0184111111111,FLORIDA,ZMA,RNAV,06/01/2006
CLKVL,26.728444444444442,-79.99537777777778,FLORIDA,ZMA,CN,12/20/2009
CLOUW,27.905849999999997,-83.01221944444444,FLORIDA,ZMA,RNAV,11/21/2010
CLUNY,25.816666666666666,-80.53333333333333,FLORIDA,ZMA,RNAV,05/11/2009
CNNOR,27.833333333333332,-74.83333333333333,OFFSHORE ATLANTIC,ZMA,RNAV,04/07/2008
COBBL,24.756891666666668,-75.18801666666667,,ZMA,RP,ZQA*VOR/DME*102.95/124.25
COBID,27.930833333333336,-82.53012777777778,FLORIDA,ZMA,RNAV,02/06/2004
COCBU,21.14988888888889,-70.65436111111111,,ZMA,RP,GTK*VORTAC*130.79/32.02
CODGR,27.44051111111111,-83.35557222222222,FLORIDA,ZMA,RNAV,10/26/2005
CODMA,25.473602777777778,-80.4027138888889,FLORIDA,ZMA,MR,HST*TACAN*/1.60
COGDL,26.304266666666667,-81.48470555555555,FLORIDA,ZMA,RNAV,07/14/2008
COKPO,24.07860833333333,-74.7181138888889,,ZMA,RNAV,11/26/2002
COKUX,27.079494444444443,-82.19050833333334,FLORIDA,ZMA,RNAV,08/11/2016
COLUD,27.947308333333332,-82.34981111111111,FLORIDA,ZMA,RNAV,04/23/2010
COMET,28.616666666666667,-80.43333333333334,FLORIDA,ZMA,RP,ORL*VORTAC*084.48/47.84
CONCH,20.23678888888889,-67.86581388888888,OFFSHORE ATLANTIC,ZMA,RP,11/20/1998
CONST,25.804072222222224,-80.2197,FLORIDA,ZMA,RP,VIN*LD*092.39/4.58
COOPR,26.468363888888888,-81.70045833333333,FLORIDA,ZMA,RNAV,07/14/2008
COOPY,28.212888888888887,-81.47051388888889,FLORIDA,ZMA,RP,ORL*VORTAC*200.00/21.00
COPGI,25.79721388888889,-81.71938333333334,FLORIDA,ZMA,RNAV,11/10/2009
COPRA,25.793586111111114,-80.4708,FLORIDA,ZMA,RP,MFA*LD*272.38/11.06
CORDI,27.209819444444445,-80.91388055555556,FLORIDA,ZMA,RNAV,02/15/2010
COREG,25.26056388888889,-74.50793888888889,,ZMA,RNAV,11/26/2002
CORFU,26.404958333333333,-81.65235833333334,FLORIDA,ZMA,RP,LBV*VORTAC*208.05
CORGI,24.861800000000002,-81.71375,FLORIDA,ZMA,RP,EYW*VORTAC*015.00/17.17
CORNL,26.27861111111111,-79.34527777777777,OFFSHORE ATLANTIC,ZMA,RNAV,12/29/2008
COSTR,28.111158333333336,-81.75830555555555,FLORIDA,ZMA,RNAV,10/24/2007
COSTY,27.531866666666666,-82.80198888888889,FLORIDA,ZMA,MR,MCF*TACAN*217.00/25.00
COSVA,27.415186111111108,-80.28193333333333,FLORIDA,ZMA,RNAV,01/04/2012
COTEB,26.58490833333333,-80.00401944444444,FLORIDA,ZMA,RNAV,12/20/2009
COUKY,23.36198888888889,-71.77581944444444,OFFSHORE ATLANTIC,ZMA,RP,GTK*VORTAC*350.88/120.29
COVIA,27.93627777777778,-84.736025,OFFSHORE GULF,ZMA,RP,SZW*VORTAC*185.00
COXOK,26.797261111111112,-81.12084722222221,FLORIDA,ZMA,RNAV,12/29/2008
COYDA,28.35651388888889,-80.73354722222223,FLORIDA,ZMA,RNAV,02/17/2006
COZIE,24.68138888888889,-76.98194444444445,OFFSHORE ATLANTIC,ZMA,RNAV,04/07/2008
CRABI,25.64988888888889,-79.70116388888889,FLORIDA,ZMA,RNAV,08/04/2006
CRANS,28.303544444444444,-79.53380277777778,OFFSHORE ATLANTIC,ZMA,RNAV,06/02/2006
CRIZZ,28.671944444444446,-79.9625,OFFSHORE ATLANTIC,ZMA,RNAV,07/14/2008
CRMIN,28.066505555555555,-81.36458888888889,FLORIDA,ZMA,RNAV,07/15/2008
CROWD,27.667072222222224,-81.96116388888889,FLORIDA,ZMA,RP,PIE*VORTAC*115.35/41.09
CRRMN,26.678983333333335,-80.01220277777777,FLORIDA,ZMA,RNAV,08/13/2015
CRTHY,26.705613888888887,-80.03258333333333,FLORIDA,ZMA,RNAV,04/17/2017
CRUSE,28.17429166666667,-81.27982222222222,FLORIDA,ZMA,RP,CER*LD*185.48/16.30
CRYER,26.687830555555557,-80.21529444444445,FLORIDA,ZMA,RNAV,11/10/2009
CSHEL,27.023422222222223,-81.74467222222222,FLORIDA,ZMA,RNAV,11/19/2008
CUBEL,37.082597222222226,-76.36104166666667,VIRGINIA,ZMA,RNAV,09/12/2017
CUDES,26.01321111111111,-80.04165277777777,FLORIDA,ZMA,RNAV,08/02/2012
CUJEN,28.453066666666665,-81.08141666666667,FLORIDA,ZMA,RNAV,06/09/2009
CUKAR,28.24895,-81.23045555555555,FLORIDA,ZMA,WP,11/02/1998
CUKBU,27.1363,-82.36670277777777,FLORIDA,ZMA,RNAV,08/12/2013
CUKPO,27.6078,-80.25464444444444,FLORIDA,ZMA,RP,MLB*VOR/DME*152.69/36.00
CULBY,25.53786388888889,-80.4482888888889,FLORIDA,ZMA,RNAV,08/04/2006
CULLY,26.382722222222224,-85.23749444444445,OFFSHORE GULF,ZMA,RNAV,08/01/2006
CUNSI,27.59946111111111,-81.50221111111111,FLORIDA,ZMA,RNAV,10/05/2011
CUPAV,26.65681111111111,-82.05916111111111,FLORIDA,ZMA,RNAV,04/13/2012
CUPED,26.673372222222223,-79.88654166666667,FLORIDA,ZMA,RP,PBI*VORTAC*/10.75
CUPKU,28.155394444444443,-80.62813055555554,FLORIDA,ZMA,MR,COF*TACAN*197.00/5.00
CUPUL,27.858211111111114,-82.53259444444444,FLORIDA,ZMA,RNAV,11/01/2010
CURDU,26.629505555555557,-80.59975833333333,FLORIDA,ZMA,RNAV,12/29/2014
CURSO,25.556033333333335,-80.90552777777778,FLORIDA,ZMA,RNAV,08/04/2006
CURUG,27.75788888888889,-82.75250833333334,FLORIDA,ZMA,RP,SRQ*VOR/DME*339.42/23.28
CURVE,25.78329722222222,-80.63830277777778,FLORIDA,ZMA,RP,DHP*VORTAC*270.42/15.70
CUSIK,26.650327777777775,-80.05813055555555,FLORIDA,ZMA,RNAV,05/31/2005
CUSMO,27.463938888888887,-80.71902777777778,FLORIDA,ZMA,RP,PBI*VORTAC*327.30/57.86
CUSRA,26.149416666666667,-80.0228361111111,FLORIDA,ZMA,RNAV,03/18/2013
CUSSR,28.29416666666667,-80.15777777777778,OFFSHORE ATLANTIC,ZMA,RNAV,10/20/2009
CUTON,28.67328611111111,-80.80779444444444,FLORIDA,ZMA,RNAV,06/18/2009
CUTSL,27.307183333333334,-82.99729722222223,FLORIDA,ZMA,RP,MCF*TACAN*222.00/42.00
CUVMO,26.585055555555556,-79.89158055555556,FLORIDA,ZMA,RNAV,07/15/2013
CUVNA,27.98936666666667,-81.97176388888889,FLORIDA,ZMA,RNAV,01/25/2013
CUVYA,27.90443611111111,-82.44598611111111,FLORIDA,ZMA,RNAV,12/09/2010
CVIKK,27.009166666666665,-77.57,,ZMA,RNAV,04/07/2008
CWBIL,27.594475,-82.75859166666666,FLORIDA,ZMA,RNAV,01/25/2013
CYCLP,25.73122222222222,-79.8984638888889,FLORIDA,ZMA,RNAV,08/04/2006
VACTE,28.102822222222223,-81.61362777777777,FLORIDA,ZMA,RNAV,08/05/2012
VADDO,27.748091666666667,-81.87579444444444,FLORIDA,ZMA,RNAV,03/30/2009
VALCH,28.055708333333335,-81.665625,FLORIDA,ZMA,RNAV,07/15/2008
VALKA,27.91835,-80.57143611111111,FLORIDA,ZMA,RP,TRV*VORTAC*350.17/15.00
VALLY,26.415525,-79.13878055555556,OFFSHORE ATLANTIC,ZMA,RP,VKZ*VOR/DME*057.89/67.72
VALWX,26.15,-79.54861111111111,OFFSHORE ATLANTIC,ZMA,RNAV,06/30/2016
VANUY,26.11118888888889,-80.32637222222222,FLORIDA,ZMA,RNAV,03/18/2013
VAPOR,25.810822222222225,-80.049825,FLORIDA,ZMA,RP,VIN*LD*E CRS/13.77
VASES,26.808447222222224,-81.70045833333333,FLORIDA,ZMA,RP,LBV*VORTAC*265.00
VASQZ,26.949841666666668,-81.26361944444444,FLORIDA,ZMA,RP,LBV*VORTAC*042.26/10.00
VAULT,24.765208333333334,-81.00936666666666,FLORIDA,ZMA,RNAV,06/28/2017
VAYQO,25.774613888888886,-80.2540638888889,FLORIDA,ZMA,RNAV,08/03/2001
VECIE,27.39963611111111,-82.63097777777777,FLORIDA,ZMA,RNAV,12/17/2010
VEGIE,25.757927777777777,-81.00840833333334,FLORIDA,ZMA,MR,HST*TACAN*294.00/38.00
VEPCO,25.84841388888889,-80.398475,FLORIDA,ZMA,RP,GEM*LD*NW CRS/7.61
VICHY,26.9453,-82.01359166666667,FLORIDA,ZMA,RNAV,08/03/2015
VICLB,25.472302777777777,-79.8560111111111,OFFSHORE ATLANTIC,ZMA,RNAV,02/16/2010
VICUV,25.794744444444447,-80.49523888888889,FLORIDA,ZMA,RNAV,04/09/2007
VIGGO,26.399091666666667,-80.84452499999999,FLORIDA,ZMA,RNAV,12/29/2008
VIOLA,26.95095,-82.33237222222222,FLORIDA,ZMA,RP,LBV*VORTAC*277.49
VIZAF,26.009694444444445,-81.92952777777778,FLORIDA,ZMA,RNAV,11/09/2009
VNDAL,26.514027777777777,-80.07640833333333,FLORIDA,ZMA,RNAV,12/29/2009
VOYUT,27.551397222222224,-80.12995,FLORIDA,ZMA,RNAV,07/11/2012
VPACH,26.01527777777778,-80.11555555555555,FLORIDA,ZMA,VFR,08/19/2009
VPBOV,27.95,-80.77916666666667,FLORIDA,ZMA,VFR,07/14/2003
VPCLE,26.45111111111111,-82.01472222222222,FLORIDA,ZMA,VFR,08/30/2001
VPCNY,28.5,-80.75,FLORIDA,ZMA,VFR,07/14/2003
VPCTE,26.154722222222222,-81.345,FLORIDA,ZMA,VFR,08/30/2001
VPDUT,27.628333333333334,-82.15166666666667,FLORIDA,ZMA,VFR,07/14/2003
VPDZE,27.316666666666666,-80.73611111111111,FLORIDA,ZMA,VFR,08/30/2001
VPEDY,26.14638888888889,-80.46666666666667,FLORIDA,ZMA,VFR,12/22/2003
VPFAH,26.423333333333336,-81.49444444444444,FLORIDA,ZMA,VFR,08/28/2001
VPGPE,27.724999999999998,-82.74444444444444,FLORIDA,ZMA,VFR,07/14/2003
VPHRO,27.099444444444444,-82.20333333333333,FLORIDA,ZMA,VFR,08/30/2001
VPIBR,27.20777777777778,-81.67027777777778,FLORIDA,ZMA,VFR,08/30/2001
VPKER,28.066666666666666,-81.93333333333334,FLORIDA,ZMA,VFR,07/14/2003
VPKOE,24.668055555555558,-81.3425,FLORIDA,ZMA,VFR,08/28/2001
VPLEV,28.8,-80.86666666666666,FLORIDA,ZMA,VFR,07/14/2003
VPLYY,24.817777777777778,-80.81944444444444,FLORIDA,ZMA,VFR,08/30/2001
VPMBO,25.97611111111111,-80.13611111111112,FLORIDA,ZMA,VFR,08/19/2009
VPOBA,26.471666666666664,-80.44583333333334,FLORIDA,ZMA,VFR,07/14/2003
VPRBI,25.844444444444445,-80.91972222222223,FLORIDA,ZMA,VFR,07/14/2003
VPRNL,25.381944444444446,-80.60972222222222,FLORIDA,ZMA,VFR,07/14/2003
VPWMO,27.05,-80.58333333333333,FLORIDA,ZMA,VFR,08/30/2001
VRGAS,24.464166666666667,-81.13222222222221,FLORIDA,ZMA,RP,EYW*VORTAC*100.12/37.28
VRNON,27.863744444444446,-82.50955,FLORIDA,ZMA,MW,06/20/2007
VURYU,26.45248611111111,-79.89735,FLORIDA,ZMA,RNAV,08/07/2006
VUYUY,27.17210277777778,-81.87134999999999,FLORIDA,ZMA,RNAV,04/02/2014
VVMAX,26.227938888888886,-80.42826666666667,FLORIDA,ZMA,RNAV,08/07/2006
OBADE,24.513755555555555,-81.60994722222222,FLORIDA,ZMA,MW,02/10/2016
OBBIN,24.539405555555557,-81.78263333333334,FLORIDA,ZMA,MR,NQX*TACAN*252.00/6.00
OBBIX,28.005252777777777,-82.24163888888889,FLORIDA,ZMA,RNAV,12/09/2010
OBEYS,28.175086111111113,-80.29900277777777,OFFSHORE ATLANTIC,ZMA,RP,OMN*VORTAC*147.36/80.00
OBMEE,26.33358611111111,-81.60751666666665,FLORIDA,ZMA,RNAV,07/09/2017
OBTEE,26.906086111111108,-80.02206111111111,FLORIDA,ZMA,RNAV,12/29/2009
OBTOQ,28.04860277777778,-81.94730833333334,FLORIDA,ZMA,RNAV,10/02/2007
OCETA,24.632119444444445,-81.75938611111111,FLORIDA,ZMA,MW,01/12/2010
ODDEL,28.095975,-81.16951111111112,FLORIDA,ZMA,RP,ORL*VORTAC*161.81/28.13
ODERY,26.715402777777776,-81.63799166666668,FLORIDA,ZMA,RNAV,04/09/2013
ODKEY,26.528163888888887,-79.98001944444445,FLORIDA,ZMA,RNAV,12/06/2011
ODNAE,27.206144444444444,-80.784075,FLORIDA,ZMA,RNAV,02/22/2010
OFDOY,26.288111111111114,-81.62912777777777,FLORIDA,ZMA,MW,11/05/2009
OGGAN,26.717494444444444,-80.27763333333333,FLORIDA,ZMA,RNAV,12/29/2009
OGIHI,26.150944444444445,-80.28184444444445,FLORIDA,ZMA,RNAV,03/18/2013
