name,latitude,longitude,state,artcc,type,updated
TAFFI,39.54351111111111,-76.62760833333333,MARYLAND,ZNY,RP,BAL*VORTAC*015.00/22.38
TALLI,41.31711111111112,-75.11199166666665,PENNSYLVANIA,ZNY,RP,LVZ*VORTAC*094.00/26.25
TALSU,24.93558611111111,-65.78789166666667,OFFSHORE ATLANTIC,ZNY,RNAV,06/09/2008
TALTE,40.764808333333335,-74.12253333333332,NEW JERSEY,ZNY,RP,JNN*LD*038.83/4.00
TANBY,40.15033333333333,-75.09714166666666,PENNSYLVANIA,ZDC,MW,01/27/2009
TARMO,23.5,-63.05257777777778,OFFSHORE ATLANTIC,ZNY,RNAV,02/07/2008
TASBE,40.952244444444446,-76.72964166666667,PENNSYLVANIA,ZNY,RNAV,12/11/2017
TASNI,30.900311111111108,-69.22494444444445,OFFSHORE ATLANTIC,ZNY,RNAV,05/27/2008
TATRE,40.764133333333334,-74.8033,NEW JERSEY,ZNY,RNAV,03/13/2017
TATVE,40.287219444444446,-75.00709722222223,PENNSYLVANIA,ZDC,RP,ARD*VOR/DME*304.00/5.00
TAYLO,39.66332777777777,-76.46199166666666,MARYLAND,ZNY,RNAV,06/16/2011
TBERN,40.80518333333333,-74.13592777777778,NEW JERSEY,ZNY,RNAV,11/20/2013
TCKER,33.02815,-64.09045833333333,OFFSHORE ATLANTIC,ZNY,RNAV,01/10/2017
TECUM,40.91238055555555,-76.54899444444445,PENNSYLVANIA,ZNY,RP,MIP*VORTAC*150.51/8.50
TECUT,40.47998333333334,-74.91030277777779,NEW JERSEY,ZNY,RNAV,09/29/2006
TEDIY,33.72046111111111,-65.37500833333333,OFFSHORE ATLANTIC,ZNY,RNAV,01/10/2017
TELEX,40.71179722222222,-73.90968055555557,NEW YORK,ZNY,RP,LGA*VOR/DME*215.49
TELLO,40.93095833333333,-74.04116666666667,NEW JERSEY,ZNY,RP,TEB*VOR/DME*022.01/5.00
TETER,40.866550000000004,-74.06286666666666,NEW JERSEY,ZNY,RP,05/24/2012
THLMA,23.500005555555557,-62.793099999999995,OFFSHORE ATLANTIC,ZNY,RP,07/11/1991
THMAS,39.668813888888884,-74.57117777777778,NEW JERSEY,ZNY,RNAV,09/06/2013
TICKL,40.56807222222223,-74.05213611111111,NEW YORK,ZNY,RP,COL*VOR/DME*028.74
TIFZY,42.59955277777778,-76.61890277777778,NEW YORK,ZNY,RNAV,12/30/2009
TIHWO,40.62092777777778,-73.75620833333333,NEW YORK,ZNY,RNAV,12/13/2016
TIHYI,40.22013888888889,-77.07482777777777,PENNSYLVANIA,ZNY,RNAV,05/20/2009
TIKLE,40.85082777777778,-75.63825833333334,PENNSYLVANIA,ZNY,RNAV,05/13/2013
TILED,37.26609444444444,-68.97326666666667,OFFSHORE ATLANTIC,ZNY,RNAV,04/01/2008
TINNI,40.97023611111111,-74.52512777777778,NEW JERSEY,ZNY,RP,STW*VOR/DME*106.49
TIVNE,40.174838888888885,-77.01410277777778,PENNSYLVANIA,ZNY,RP,HAR*VORTAC*171.53
TIVUC,41.930524999999996,-76.43810277777779,PENNSYLVANIA,ZNY,RP,ULW*VOR/DME*122.32/28.02
TIYUK,40.79324444444444,-73.85586388888888,NEW YORK,ZNY,RP,TKD*DD*NE CRS/2.01
TOBME,40.021852777777774,-74.34260277777777,NEW JERSEY,ZNY,MR,CYN*VORTAC*028.50
TOBUY,40.117219444444444,-76.31279722222222,PENNSYLVANIA,ZNY,RP,LRP*VOR/DME*269.53/1.00
TOCKS,41.01884722222222,-75.04248055555556,NEW JERSEY,ZNY,RP,STW*VOR/DME*291.00/8.00
TOCUB,40.49992777777778,-74.2905611111111,NEW JERSEY,ZNY,RNAV,06/19/2012
TODOY,42.32168055555556,-76.20424722222222,NEW YORK,ZNY,RNAV,06/04/2004
TOLAN,40.36607222222222,-74.4229888888889,NEW JERSEY,ZNY,RNAV,06/08/2011
TOLMY,41.780125,-74.87423333333332,NEW YORK,ZBW,RNAV,07/10/2012
TOMVE,40.051430555555555,-74.33216388888889,NEW JERSEY,ZNY,MR,COL*VOR/DME*218.00/17.50
TOMYD,39.68116666666666,-77.14067222222224,MARYLAND,ZNY,RNAV,08/19/2013
TOMYE,41.08020277777778,-72.40512777777778,NEW YORK,ZNY,WP,04/10/2001
TONEY,30.223119444444443,-64.42343333333334,OFFSHORE ATLANTIC,ZNY,RNAV,08/25/2009
TOPOE,40.32667222222223,-75.27903333333333,PENNSYLVANIA,ZNY,MW,01/27/2009
TORET,42.546791666666664,-76.60249444444445,NEW YORK,ZNY,RNAV,11/28/2017
TORNE,39.906083333333335,-75.04730833333333,NEW JERSEY,ZNY,RP,GLC*LD*087.49/8.72
TOWIN,40.53521111111111,-75.40037777777778,PENNSYLVANIA,ZNY,RP,BWZ*VOR/DME*250.33/30.77
TOYOS,40.783427777777774,-77.96270833333334,PENNSYLVANIA,ZNY,RNAV,09/01/2016
TOYUB,40.04556111111111,-74.33454166666667,NEW JERSEY,ZNY,MR,NEL*TACAN*070.00/1.00
TRAGG,40.09576388888889,-75.93910833333334,PENNSYLVANIA,ZNY,RP,LRP*VOR/DME*104.00/16.28
TRISH,39.50345277777778,-76.3738861111111,MARYLAND,ZNY,RP,BAL*VORTAC*044.79/24.00
TRISK,40.683211111111106,-73.8638111111111,NEW YORK,ZNY,RNAV,04/10/2012
TRNKY,18.420280555555557,-63.189702777777775,OFFSHORE ATLANTIC,ZNY,RNAV,04/09/2008
TROGS,40.79843333333333,-73.79624444444444,NEW YORK,ZNY,WP,09/17/1991
TROVA,40.845025,-74.16535277777778,NEW JERSEY,ZNY,RP,TEB*VOR/DME*278.33/4.70
TROXL,40.55528333333333,-75.30798888888889,PENNSYLVANIA,ZNY,RP,ETX*VOR/DME*104.00/17.26
TROYZ,39.684,-76.11824166666666,MARYLAND,ZNY,RP,MXE*VORTAC*245.00/25.00
TRRIO,31.78297222222222,-66.947525,OFFSHORE ATLANTIC,ZNY,RNAV,01/10/2017
TRUEE,32.532441666666664,-64.77629166666667,OFFSHORE ATLANTIC,ZNY,RNAV,01/10/2017
TRUER,41.39382222222222,-77.14430277777778,PENNSYLVANIA,ZNY,RP,SEG*VOR/DME*350.00
TRYEB,32.37170277777778,-65.67345277777778,OFFSHORE ATLANTIC,ZNY,RNAV,01/10/2017
TUBBS,31.71516111111111,-76.98577222222222,OFFSHORE ATLANTIC,ZNY,RNAV,09/15/2016
TUDIE,32.22833333333333,-64.485,OFFSHORE ATLANTIC,ZNY,RNAV,01/10/2017
TUDVE,42.47926388888889,-76.44113333333334,NEW YORK,ZNY,RP,ITH*VOR/DME*/1.26
TUGGZ,40.92999444444444,-74.05365833333333,NEW JERSEY,ZNY,RP,SAX*VORTAC*121.37
TUHSY,42.65340833333333,-76.12864444444443,NEW YORK,ZNY,WP,11/02/1998
TUSTE,40.79920277777778,-73.49876666666667,NEW YORK,ZNY,RNAV,08/11/2008
TUYOT,41.290025,-75.76623055555555,PENNSYLVANIA,ZNY,RP,AVP*LD*225.47/3.83
TWIIN,41.74940277777778,-76.45698611111112,PENNSYLVANIA,ZNY,RP,ULW*VOR/DME*140.93/32.78
TYKES,40.28955,-74.38503611111112,NEW JERSEY,ZNY,RP,COL*VOR/DME*273.78/10.43
TYMAN,40.90898055555555,-77.38541666666667,PENNSYLVANIA,ZNY,RP,ULW*VOR/DME*205.00/72.91
TYROD,42.46687777777778,-76.773225,NEW YORK,ZNY,RNAV,09/15/2015
TYYLR,41.724672222222225,-75.71930833333333,PENNSYLVANIA,ZNY,RP,CFB*VOR/DME*154.12/31.98
AARUN,33.73481944444445,-66.26180833333333,OFFSHORE ATLANTIC,ZNY,RNAV,01/10/2017
ACKEX,41.52301666666666,-73.98674166666667,NEW YORK,ZNY,RNAV,02/09/2018
ACOCU,40.11369166666667,-76.28171111111111,PENNSYLVANIA,ZNY,RP,LRP*VOR/DME*139.42/0.58
ADEMR,32.862319444444445,-65.16488055555556,OFFSHORE ATLANTIC,ZNY,RNAV,01/10/2017
ADENN,32.54055833333333,-65.40714166666667,OFFSHORE ATLANTIC,ZNY,RNAV,02/27/2018
ADIUM,40.422916666666666,-74.79566944444444,NEW JERSEY,ZNY,RNAV,08/27/2007
AFKEZ,42.08881111111111,-76.63903333333334,NEW YORK,ZNY,RNAV,05/08/2018
AFOPY,40.64188055555555,-74.37695833333332,NEW JERSEY,ZNY,RNAV,04/20/2012
AGENE,40.06456111111111,-74.03741944444444,NEW JERSEY,ZNY,MW,09/06/2017
AGNSS,40.850572222222226,-74.0677861111111,NEW JERSEY,ZNY,RP,JNN*LD*038.83/9.71
AGUNE,38.10805555555556,-72.83388888888888,OFFSHORE ATLANTIC,ZNY,RNAV,03/26/2018
AJGON,39.92793333333333,-73.88919722222222,NEW JERSEY,ZNY,RP,CYN*VORTAC*085.00/25.92
AKELE,39.84005277777778,-74.81555555555555,NEW JERSEY,ZNY,RNAV,01/26/2009
AKEXE,40.60511944444445,-74.59211666666666,NEW JERSEY,ZNY,RNAV,01/27/2015
ALABE,40.77783055555555,-73.48434444444445,NEW YORK,ZNY,RNAV,06/27/2011
ALBEK,39.77775555555556,-74.90721944444445,NEW JERSEY,ZNY,RP,CYN*VORTAC*273.99/22.12
ALEKS,40.83140277777778,-73.83264444444444,NEW YORK,ZNY,RP,URD*LD*044.14/3.10
ALIDA,40.799613888888885,-74.41371944444445,NEW JERSEY,ZNY,RNAV,07/27/2009
ALLDE,39.396388888888886,-76.51099722222222,MARYLAND,ZNY,RP,BAL*VORTAC*038.35
ALOBI,32.04542222222222,-71.779975,OFFSHORE ATLANTIC,ZNY,RNAV,04/04/2008
ALSIW,40.93005833333333,-74.05365277777777,NEW JERSEY,ZNY,RNAV,07/27/2009
AMADE,40.39098055555556,-74.26883611111111,NEW JERSEY,ZNY,RNAV,07/07/2009
AMBIE,40.82056388888889,-76.6680638888889,PENNSYLVANIA,ZNY,RP,MIP*VORTAC*189.60
AMENO,29.0,-60.0,OFFSHORE ATLANTIC,ZNY,RNAV,04/11/2008
AMIDY,40.43963333333333,-74.95745833333334,NEW JERSEY,ZNY,RNAV,08/16/2012
AMISH,39.94253333333333,-77.62614722222222,PENNSYLVANIA,ZNY,RP,THS*VORTAC*094.76/15.00
AMTTO,18.0,-61.0,OFFSHORE ATLANTIC,ZNY,RNAV,12/22/2014
AMYEB,40.14026666666667,-76.34361666666666,PENNSYLVANIA,ZNY,RNAV,06/10/2011
ANGLE,40.91858333333333,-73.98391111111111,NEW JERSEY,ZNY,RP,JFK*VOR/DME*342.58/19.68
ANKLE,41.130630555555555,-74.57846666666666,NEW JERSEY,ZNY,RP,STW*VOR/DME*069.40
ANMAR,40.26638888888889,-75.32527777777777,PENNSYLVANIA,ZNY,RNAV,09/26/2002
ANNGO,39.218611111111116,-72.14777777777779,OFFSHORE ATLANTIC,ZNY,RNAV,03/23/2018
ANORY,40.535174999999995,-75.98976666666667,PENNSYLVANIA,ZNY,RNAV,07/09/2009
ANTHA,40.94110277777777,-73.8929638888889,NEW YORK,ZNY,RNAV,02/04/2010
ANTIG,31.484683333333333,-68.06050277777777,OFFSHORE ATLANTIC,ZNY,RNAV,01/10/2017
ANVER,35.252027777777776,-65.68779166666667,OFFSHORE ATLANTIC,ZNY,RNAV,BDA*VOR/DME*359.18/180.00
APEGE,40.516825,-74.75067777777778,NEW JERSEY,ZNY,RP,SBJ*VOR/DME*195.88/3.99
APPLE,40.55613611111111,-74.06225277777777,NEW YORK,ZNY,RP,LGA*VOR/DME*225.00/16.26
APUCO,39.90435,-77.74271388888889,PENNSYLVANIA,ZNY,RNAV,09/03/2003
ARIAN,40.268547222222224,-74.42481111111111,NEW JERSEY,ZDC,RNAV,07/07/2009
ARIEL,41.45475277777778,-75.36154166666667,PENNSYLVANIA,ZNY,RP,LVZ*VORTAC*063.52/18.40
ARMIF,40.44161388888889,-76.43200277777778,PENNSYLVANIA,ZNY,MW,10/05/2007
ARMMS,40.98051388888889,-74.66138333333333,NEW JERSEY,ZNY,RP,STW*VOR/DME*106.49
ARMUZ,40.951575000000005,-76.58999444444444,PENNSYLVANIA,ZNY,RP,MIP*VORTAC*150.51/5.50
AROKE,40.47237777777778,-73.90211111111111,NEW JERSEY,ZNY,RP,CRI*VOR/DME*193.39
ARORE,40.86811388888889,-76.63735555555556,PENNSYLVANIA,ZNY,RNAV,07/12/2006
ARRUY,40.29470833333333,-77.0261,PENNSYLVANIA,ZNY,RNAV,05/20/2009
ASALT,40.527588888888886,-73.96393888888889,NEW YORK,ZNY,RP,CRI*VOR/DME*223.00/6.00
ASKHR,33.15927222222222,-67.02785555555556,OFFSHORE ATLANTIC,ZNY,RNAV,01/10/2017
ASMEC,40.578947222222226,-75.11768888888888,NEW JERSEY,ZNY,RNAV,12/16/2015
ASOMY,40.61471111111111,-75.36800277777778,PENNSYLVANIA,ZNY,RNAV,05/10/2013
ATUCA,40.736625000000004,-74.4265,NEW JERSEY,ZNY,RNAV,03/10/2011
ATUGI,35.638466666666666,-71.52674999999999,OFFSHORE ATLANTIC,ZNY,RNAV,06/11/2008
AUDIL,42.87187222222222,-76.44307500000001,NEW YORK,ZNY,RP,RKA*VOR/DME*305.94
AUREY,42.27695555555555,-76.03899166666666,NEW YORK,ZNY,RP,CFB*VOR/DME*041.21
AVAST,41.92230555555555,-64.87930555555555,OFFSHORE ATLANTIC,ZNY,RNAV,03/31/2017
AVAYU,39.98732777777778,-75.58537222222222,PENNSYLVANIA,ZNY,RP,MXE*VORTAC*052.48/5.73
AVETE,40.60628888888889,-74.93423055555556,NEW JERSEY,ZNY,RNAV,02/25/2003
AVJUB,41.65548611111111,-74.74852777777778,NEW YORK,ZBW,RNAV,07/10/2012
AVOCI,40.17415555555555,-76.17648333333334,PENNSYLVANIA,ZNY,RP,LRP*VOR/DME*067.37/6.20
AVOYO,39.931475,-77.70345555555556,PENNSYLVANIA,ZNY,RNAV,09/03/2003
AVUKE,40.04532222222222,-74.20786666666667,NEW JERSEY,ZNY,RNAV,01/06/2017
AWARE,40.522213888888885,-75.03728055555555,NEW JERSEY,ZNY,WP,06/13/1991
AWISA,40.17607777777778,-75.28054722222222,PENNSYLVANIA,ZNY,RP,ARD*VOR/DME*265.00/17.76
AWKEB,40.80855833333333,-74.13732777777778,NEW JERSEY,ZNY,RNAV,07/27/2009
AWSOM,33.02708055555556,-67.34119444444444,OFFSHORE ATLANTIC,ZNY,RNAV,08/25/2009
AWYIR,40.90951666666667,-76.90927777777779,PENNSYLVANIA,ZNY,RNAV,08/24/2017
AXAJI,40.2476,-76.90354166666667,PENNSYLVANIA,ZNY,RNAV,05/20/2009
AXULE,40.95719444444445,-74.78595833333333,NEW JERSEY,ZNY,RNAV,04/15/2008
AYCEE,39.95288055555556,-74.25851388888888,NEW JERSEY,ZNY,RP,CYN*VORTAC*054.48/11.40
AYEHI,42.56031944444444,-79.35192222222221,NEW YORK,ZNY,RNAV,03/02/2015
AYIYE,40.982033333333334,-73.91255555555556,NEW JERSEY,ZNY,RP,JFK*VOR/DME*354.97/21.90
AYOSA,40.03623888888889,-76.10200277777777,PENNSYLVANIA,ZNY,RNAV,06/10/2011
AYRON,40.76430833333333,-74.11904999999999,NEW JERSEY,ZNY,RP,LSQ*LD*038.83/4.56
AYTTE,28.0,-60.0,OFFSHORE ATLANTIC,ZNY,RNAV,07/25/2008
AYUKU,41.406752777777776,-75.217975,PENNSYLVANIA,ZNY,RNAV,12/24/2008
AZBIC,40.01121111111111,-76.92927777777778,PENNSYLVANIA,ZNY,RNAV,04/20/2011
AZEFY,39.99829722222222,-75.98796666666667,PENNSYLVANIA,ZNY,RNAV,06/18/2008
AZEZU,37.874472222222224,-72.37866666666666,OFFSHORE ATLANTIC,ZNY,RNAV,08/08/2008
AZICE,40.439902777777775,-75.11056944444444,PENNSYLVANIA,ZNY,RNAV,01/30/2001
AZOFE,40.038025,-77.54864166666667,PENNSYLVANIA,ZNY,RNAV,09/03/2003
XAGKE,41.38056111111111,-75.68579166666667,PENNSYLVANIA,ZNY,RP,IZK*LD*045.37/2.71
XAREW,40.68005833333333,-73.413475,NEW YORK,ZNY,RNAV,06/27/2011
XENIJ,40.74817222222222,-73.51969444444444,NEW YORK,ZNY,CN,06/27/2011
XETUW,41.346358333333335,-75.41955277777778,PENNSYLVANIA,ZNY,RP,LVZ*VORTAC*080.04/12.98
XIHGA,41.13878888888889,-75.38940000000001,PENNSYLVANIA,ZNY,RP,LVZ*VORTAC*130.50/15.79
XIKCY,42.17831388888889,-75.95286666666667,NEW YORK,ZNY,RP,CFB*VOR/DME*091.27
XILWE,40.1855,-76.73150833333334,PENNSYLVANIA,ZNY,RP,LRP*VOR/DME*290.12/20.63
XODYU,40.73263888888889,-74.10091388888888,NEW JERSEY,ZNY,CN,05/24/2012
XOGLY,41.46075277777778,-74.49212777777778,NEW YORK,ZNY,RNAV,02/09/2010
XOPPA,39.73464722222222,-76.76466111111111,PENNSYLVANIA,ZNY,RNAV,04/20/2011
XOQUR,39.90179166666667,-74.3319361111111,NEW JERSEY,ZNY,RP,GXU*VORTAC*129.79
XUCCO,42.430455555555554,-76.76974166666666,NEW YORK,ZNY,RP,ULW*VOR/DME*041.32/23.15
XUGLY,40.906016666666666,-74.38007777777777,NEW JERSEY,ZNY,CN,06/27/2011
XULAW,40.107169444444445,-76.34514166666666,PENNSYLVANIA,ZNY,RP,LRP*VOR/DME*081.77/2.59
MAADE,30.453555555555553,-65.50132222222223,OFFSHORE ATLANTIC,ZNY,RNAV,01/10/2017
MABDE,41.61530833333333,-74.70793888888889,NEW YORK,ZNY,CN,12/04/2014
MABLE,40.50207777777778,-74.39711666666668,NEW JERSEY,ZNY,RP,SBJ*VOR/DME*117.00/16.49
MACAF,40.815619444444444,-76.86135277777777,PENNSYLVANIA,ZNY,CN,12/04/2014
MACBD,40.88196666666667,-74.2817,NEW JERSEY,ZNY,CN,08/21/2002
MACDD,42.59004166666667,-76.21867777777778,NEW YORK,ZNY,CN,08/21/2002
MACID,41.512116666666664,-75.24975277777777,PENNSYLVANIA,ZNY,CN,12/04/2014
MACKE,40.56016666666667,-74.98971944444445,NEW JERSEY,ZNY,RP,SBJ*VOR/DME*273.18/11.42
MACOR,22.22991111111111,-67.32137222222222,OFFSHORE ATLANTIC,ZNY,RNAV,12/20/2009
MACOZ,40.582675,-75.02349444444444,NEW JERSEY,ZNY,RP,SBJ*VOR/DME*279.99/12.88
MACPA,40.18823055555555,-74.65032500000001,NEW JERSEY,ZDC,MR,GXU*VORTAC*359.00/11.00
MACPN,42.08179444444445,-76.09949444444445,NEW YORK,ZNY,RP,CFB*VOR/DME*170.00/4.83
MACVA,41.00773888888889,-74.7401,NEW JERSEY,ZNY,CN,12/04/2014
MADCA,40.18720555555555,-74.13596111111111,NEW JERSEY,ZNY,RP,RBV*VORTAC*103.04/16.53
MADIW,40.886291666666665,-77.82063611111111,PENNSYLVANIA,ZNY,RP,PSB*VORTAC*112.87/8.03
MADRT,40.09,-76.56717222222221,PENNSYLVANIA,ZNY,CN,08/21/2002
MAFAS,40.786652777777775,-73.87524722222221,NEW YORK,ZNY,RP,LGA*VOR/DME*312.16/0.35
MAFAV,40.851711111111115,-77.85131666666666,PENNSYLVANIA,ZNY,RP,PSB*VORTAC*130.98/7.51
MAFHU,40.354419444444446,-76.33310277777777,PENNSYLVANIA,ZNY,CN,12/04/2014
MAGIO,41.52738333333333,-76.59649444444445,PENNSYLVANIA,ZNY,RP,HNK*VOR/DME*252.21/65.83
MAHAD,42.914474999999996,-76.43872777777779,NEW YORK,ZNY,CN,12/04/2014
MAHAL,40.654605555555555,-73.74745833333334,NEW YORK,ZNY,RP,JFK*VOR/DME*052.00/1.70
MAHDO,39.466572222222226,-77.01788611111111,MARYLAND,ZNY,CN,12/04/2014
MAHIG,40.97399444444444,-74.99336944444444,NEW JERSEY,ZNY,CN,12/04/2014
MAHNI,40.127027777777776,-76.28206666666667,PENNSYLVANIA,ZNY,CN,12/04/2014
MAJAJ,41.03381944444444,-75.15639444444444,PENNSYLVANIA,ZNY,RP,STW*VOR/DME*291.00/13.25
MAJDO,39.90382777777778,-74.747925,NEW JERSEY,ZNY,RP,CYN*VORTAC*299.64/15.51
MAJEH,40.259375,-75.66783333333333,PENNSYLVANIA,ZNY,RP,PTW*VORTAC*303.27/5.42
MALDE,40.564880555555554,-73.58600833333333,NEW YORK,ZNY,RP,DPK*VOR/DME*235.55
MANEE,41.45269166666667,-74.43842222222223,NEW YORK,ZNY,RP,HUO*VOR/DME*080.49/7.38
MANTA,39.90194722222222,-73.54211944444444,NEW JERSEY,ZNY,RP,SIE*VORTAC*059.00/75.84
MANTU,41.00420833333333,-74.74031388888889,NEW JERSEY,ZNY,RNAV,03/03/2003
MARIG,38.32844444444445,-70.05951666666667,OFFSHORE ATLANTIC,ZNY,RNAV,02/07/2008
MARRC,40.91888611111111,-76.23172777777778,PENNSYLVANIA,ZNY,RP,MIP*VORTAC*116.50/20.68
MARRH,41.92144722222222,-77.09549722222222,PENNSYLVANIA,ZNY,RP,ULW*VOR/DME*209.00/10.83
MARRT,40.60695277777778,-74.62026944444443,NEW JERSEY,ZNY,RNAV,02/14/2008
MARRY,39.57131944444445,-76.31238055555555,MARYLAND,ZNY,RNAV,06/20/2010
MARTT,40.365497222222224,-77.38345833333334,PENNSYLVANIA,ZNY,RP,HAR*VORTAC*294.85/14.89
MASTT,40.67513888888889,-73.92268055555556,NEW YORK,ZNY,RNAV,04/10/2012
MATLG,42.202447222222226,-75.97286111111111,NEW YORK,ZNY,CN,04/22/2003
MATTR,40.72539166666667,-73.71105833333334,NEW YORK,ZNY,RP,JOC*LD*NE CRS/5.02
MAVBE,40.128255555555555,-76.62320277777778,PENNSYLVANIA,ZNY,RNAV,01/08/2013
MAZIE,40.322097222222226,-75.10979999999999,PENNSYLVANIA,ZNY,RP,SBJ*VOR/DME*237.25/23.00
MCMAN,40.63780833333333,-77.57064166666666,PENNSYLVANIA,ZNY,RP,HAR*VORTAC*321.41/30.52
MCOOP,24.270733333333332,-67.74409722222222,OFFSHORE ATLANTIC,ZNY,RNAV,10/19/2009
MEALS,40.58620833333334,-73.67979166666667,NEW YORK,ZNY,RP,DPK*VOR/DME*246.45
MEATS,41.23193055555556,-76.208,PENNSYLVANIA,ZNY,RP,FJC*VORTAC*321.76/45.71
MEATZ,40.82454166666667,-73.93399166666667,NEW YORK,ZNY,RNAV,01/26/2017
MEDPE,40.068736111111114,-74.28429166666666,NEW JERSEY,ZNY,MR,NEL*TACAN*070.00/3.70
MEGGG,28.361133333333335,-67.52852222222222,OFFSHORE ATLANTIC,ZNY,RNAV,04/08/2008
MEGSS,41.18702222222222,-76.21139444444445,PENNSYLVANIA,ZNY,RP,LVZ*VORTAC*267.89
MEHAN,39.48370277777778,-76.63304444444444,MARYLAND,ZNY,RP,BAL*VORTAC*015.00/18.79
MEMMS,42.51658611111111,-76.30428611111111,NEW YORK,ZNY,RP,HNK*VOR/DME*313.06/51.73
MERSR,40.31012222222222,-74.82801111111111,NEW JERSEY,ZNY,RP,ARD*VOR/DME*057.01/5.00
MESTE,42.30598611111111,-76.47929166666667,NEW YORK,ZNY,RP,CFB*VOR/DME*310.35/17.69
METRO,40.422713888888886,-74.66952777777779,NEW JERSEY,ZNY,RP,SBJ*VOR/DME*170.99
METSS,40.563966666666666,-73.93417777777778,NEW YORK,ZNY,RNAV,12/22/2005
METVE,40.32555277777778,-76.59101666666666,PENNSYLVANIA,ZNY,RNAV,09/02/2008
METZZ,34.675,-74.0,OFFSHORE ATLANTIC,ZNY,RNAV,12/29/2015
MEVNE,40.99196944444444,-74.72215833333334,NEW JERSEY,ZNY,RNAV,06/29/2005
MIBNE,40.969630555555554,-76.62206388888889,PENNSYLVANIA,ZNY,RNAV,12/11/2017
MICAH,40.15919722222222,-77.4464,PENNSYLVANIA,ZNY,RP,HAR*VORTAC*253.78/19.32
MIKEF,40.887391666666666,-74.32860833333334,NEW JERSEY,ZNY,RNAV,12/28/2011
MIKYG,40.60166666666667,-75.81972222222223,PENNSYLVANIA,ZNY,RNAV,10/26/2012
MILLE,25.927325,-73.72449166666667,OFFSHORE ATLANTIC,ZNY,RNAV,04/08/2008
MINKS,40.37487222222222,-74.27697222222223,NEW JERSEY,ZNY,RP,SBJ*VOR/DME*130.24
MIXUE,42.154725,-77.18929166666668,NEW YORK,ZNY,RNAV,09/12/2012
MLSAP,25.636677777777777,-74.17591111111112,OFFSHORE ATLANTIC,ZNY,RP,04/22/2008
MNOLO,18.34556111111111,-62.802102777777776,OFFSHORE ATLANTIC,ZNY,RNAV,06/09/2008
MOIRE,40.80159444444444,-73.41578055555556,NEW YORK,ZNY,RNAV,06/27/2011
MOMOM,33.061388888888885,-65.24583333333334,OFFSHORE ATLANTIC,ZNY,RNAV,01/10/2017
MOMSE,40.38288333333333,-77.58660833333333,PENNSYLVANIA,ZNY,RNAV,02/05/2002
MONGA,41.76669444444445,-74.86066388888888,NEW YORK,ZBW,RP,07/02/2012
MOOVY,40.711075,-75.56294722222222,PENNSYLVANIA,ZNY,RP,ETX*VOR/DME*044.31
MORNS,40.8393,-74.32019444444444,NEW JERSEY,ZNY,RP,SBJ*VOR/DME*061.25/24.62
MORTI,39.95091111111111,-75.77200277777777,PENNSYLVANIA,ZNY,RP,PTW*VORTAC*220.00
MORTO,40.59686111111111,-76.95803333333333,PENNSYLVANIA,ZNY,RP,SEG*VOR/DME*204.21/12.11
MOSKO,41.38959722222222,-75.479375,PENNSYLVANIA,ZNY,RP,LVZ*VORTAC*063.52/11.80
MOSME,40.74252222222222,-74.09192777777777,NEW JERSEY,ZNY,RNAV,12/12/2005
MOSSE,40.43194722222222,-74.8456861111111,NEW JERSEY,ZNY,RNAV,08/05/2002
MOUGH,38.988,-71.9452,OFFSHORE ATLANTIC,ZNY,RNAV,10/20/2016
MOVFA,40.231794444444446,-74.06623888888889,NEW JERSEY,ZNY,RP,COL*VOR/DME*149.08
MRAVE,40.682227777777776,-74.25717777777778,NEW JERSEY,ZNY,RP,04/13/2011
MRRTN,39.54931944444444,-76.27123611111111,MARYLAND,ZNY,RNAV,08/03/2007
MSLIN,41.49189444444445,-74.55396666666667,NEW YORK,ZNY,RP,HUO*VOR/DME*029.99
MTCAF,41.769816666666664,-76.52238333333334,PENNSYLVANIA,ZNY,RNAV,08/27/2013
MTJOY,40.09184166666667,-76.50215833333333,PENNSYLVANIA,ZNY,RP,LRP*VOR/DME*269.21
MUDDR,40.86663611111111,-76.50121944444444,PENNSYLVANIA,ZNY,RP,MIP*VORTAC*150.51/12.00
MUDNE,40.097208333333334,-75.42335555555556,PENNSYLVANIA,ZNY,RP,SBJ*VOR/DME*237.25
MUDRE,40.78477777777778,-75.22425555555556,PENNSYLVANIA,ZNY,RP,SBJ*VOR/DME*308.94
MUFIE,40.71718055555556,-74.39905833333334,NEW JERSEY,ZNY,RNAV,08/30/2001
MUGGS,39.90526388888889,-76.36333888888889,PENNSYLVANIA,ZNY,RP,CYN*VORTAC*284.00
MUGZY,41.03012777777778,-74.96936111111111,NEW JERSEY,ZNY,RP,STW*VOR/DME*305.33/5.00
MULRR,39.63142222222222,-77.33569722222222,MARYLAND,ZNY,RP,EMI*VORTAC*304.38
MUMVE,41.54561388888889,-74.63823888888889,NEW YORK,ZNY,RNAV,07/10/2012
MUNCI,41.321275,-76.472475,PENNSYLVANIA,ZNY,RP,FQM*VOR/DME*103.24/13.71
MUNEY,38.5,-64.96436111111112,OFFSHORE ATLANTIC,ZNY,RNAV,04/01/2008
MUNNZ,40.76622777777778,-74.23870833333334,NEW JERSEY,ZNY,RNAV,02/04/2010
MURPH,39.46422777777778,-76.38534444444446,MARYLAND,ZNY,RP,ETX*VOR/DME*215.00/74.35
MUSYK,40.72345,-75.32521388888888,PENNSYLVANIA,ZNY,RP,GUW*LD*063.28/7.72
LAAYK,41.47573333333334,-75.48258611111112,PENNSYLVANIA,ZNY,RP,HUO*VOR/DME*286.92
LAAZE,40.84555833333334,-73.58277222222222,NEW YORK,ZNY,RNAV,02/26/2010
LACES,39.632105555555555,-76.89908611111112,MARYLAND,ZNY,RNAV,04/21/2011
LACIE,41.55415277777777,-76.14010555555556,PENNSYLVANIA,ZNY,RP,LVZ*VORTAC*319.82/26.43
LACKS,40.000147222222225,-68.19937777777778,OFFSHORE ATLANTIC,ZNY,RP,ACK*VOR/DME*147.00/113.00
LADBE,39.89953611111111,-74.32881388888889,NEW JERSEY,ZNY,MR,GXU*VORTAC*130.00/14.00
LADYE,41.09115,-74.25605277777778,NEW JERSEY,ZNY,RNAV,04/21/2016
LAFER,39.976061111111115,-77.63901666666668,PENNSYLVANIA,ZNY,MW,THS*VORTAC*086.78/14.62
LAKIE,40.82913333333334,-73.97679166666667,NEW JERSEY,ZNY,RNAV,04/13/2012
LAMER,25.0,-70.05152777777778,OFFSHORE ATLANTIC,ZNY,RNAV,04/10/2008
LANNA,40.55974166666666,-75.027725,NEW JERSEY,ZNY,RP,SBJ*VOR/DME*273.99/13.15
LARGE,39.28525555555555,-69.30124444444444,OFFSHORE ATLANTIC,ZNY,RNAV,07/25/2008
LARRI,39.95064722222222,-77.29837222222223,PENNSYLVANIA,ZNY,RP,CYN*VORTAC*284.37/132.64
LASBE,40.06014722222222,-75.537125,PENNSYLVANIA,ZNY,RNAV,09/26/2002
LATLE,40.17819166666666,-77.00559444444444,PENNSYLVANIA,ZNY,RP,CXY*LS*W CRS
LATME,41.393633333333334,-75.50356111111111,PENNSYLVANIA,ZNY,RNAV,05/30/2012
LATTY,42.00091666666667,-75.80618333333334,NEW YORK,ZNY,RP,LVZ*VORTAC*003.18
LAURN,40.55161111111111,-74.12046388888888,NEW YORK,ZNY,RP,RBV*VORTAC*049.24/27.08
LAWNE,40.64199722222222,-74.14179166666668,NEW YORK,ZNY,RNAV,12/23/2013
LAYEG,40.03135555555556,-74.5637611111111,NEW JERSEY,ZNY,MR,GXU*VORTAC*061.00/2.00
LAZEY,33.589000000000006,-61.485,OFFSHORE ATLANTIC,ZNY,RP,BDA*VOR/DME*079.75/177.58
LEAHA,41.001736111111114,-73.33653055555556,NEW YORK,ZNY,WP,04/10/2001
LEBBI,40.11162222222222,-75.04467777777778,PENNSYLVANIA,ZDC,RNAV,01/26/2012
LEBVE,39.65694722222222,-74.73983888888888,NEW JERSEY,ZNY,RP,CYN*VORTAC*246.12/17.20
LECOR,41.455758333333335,-75.78091944444445,PENNSYLVANIA,ZNY,RP,HUO*VOR/DME*284.34
LEGGO,40.28778055555556,-77.04045833333333,PENNSYLVANIA,ZNY,RP,SEG*VOR/DME*201.40/31.00
LELME,41.03489722222222,-74.40878055555557,NEW JERSEY,ZNY,RNAV,07/29/2009
LEMEE,39.94367222222222,-77.86533888888889,PENNSYLVANIA,ZNY,RP,THS*VORTAC*087.96/4.00
LEMOR,41.29742777777778,-74.63421666666667,NEW YORK,ZNY,RP,HUO*VOR/DME*206.98/7.00
LENDY,40.91483611111111,-74.13525833333334,NEW JERSEY,ZNY,RP,LGA*VOR/DME*315.01/14.46
LEOES,39.97492777777778,-72.64593611111111,OFFSHORE ATLANTIC,ZNY,RP,JFK*VOR/DME*139.00/65.00
LETON,25.0,-71.99411111111111,OFFSHORE ATLANTIC,ZNY,RNAV,04/08/2008
LEXAD,36.755544444444446,-72.39399166666668,OFFSHORE ATLANTIC,ZNY,RNAV,04/10/2008
LEXIM,31.799300000000002,-73.84497499999999,OFFSHORE ATLANTIC,ZNY,RNAV,04/09/2008
LFANO,26.4339,-71.09835,OFFSHORE ATLANTIC,ZNY,RNAV,10/19/2009
LICXA,40.43809444444444,-76.5535,PENNSYLVANIA,ZNY,MW,10/05/2007
LIIMY,32.85828333333333,-65.48505555555556,OFFSHORE ATLANTIC,ZNY,RNAV,01/10/2017
LINER,40.50129722222222,-74.55846111111111,NEW JERSEY,ZNY,RP,SBJ*VOR/DME*130.25
LINND,39.40975833333333,-71.71048611111111,OFFSHORE ATLANTIC,ZNY,RP,JFK*VOR/DME*139.00/120.00
LIRCH,39.82676666666667,-76.92223055555556,PENNSYLVANIA,ZNY,RP,LRP*VOR/DME*248.07/34.00
LISAL,41.164788888888886,-73.11963333333333,CONNECTICUT,ZNY,RP,BDR*VOR/DME*053.92/0.33
LITBE,40.745577777777775,-74.13480277777778,NEW JERSEY,ZNY,RNAV,03/07/2006
LITTL,32.37354722222222,-66.07684166666667,OFFSHORE ATLANTIC,ZNY,RNAV,08/25/2009
LIVNE,40.072119444444446,-74.29319444444444,NEW JERSEY,ZNY,MR,NEL*NDB*061.00
LIXCA,40.648983333333334,-76.64030833333334,PENNSYLVANIA,ZNY,RNAV,07/10/2009
LIZZI,40.665661111111106,-75.14879444444445,NEW JERSEY,ZNY,RP,SBJ*VOR/DME*295.05/19.24
LNHOM,25.0,-71.01,OFFSHORE ATLANTIC,ZNY,RNAV,05/20/2008
LOCID,40.75674166666667,-75.6557638888889,PENNSYLVANIA,ZNY,RNAV,05/13/2013
LOCKI,40.718494444444445,-74.27373055555556,NEW JERSEY,ZNY,RP,JFK*VOR/DME*294.78/23.50
LOKOE,40.557202777777775,-73.71584722222222,NEW YORK,ZNY,RP,DPK*VOR/DME*245.36
LOMON,40.30806666666666,-77.48340277777778,PENNSYLVANIA,ZNY,RP,HAR*VORTAC*281.19/19.00
LOMPI,44.0,-57.0,OFFSHORE ATLANTIC,ZNY,RNAV,04/08/2008
LOPEZ,41.44324444444444,-75.96170000000001,PENNSYLVANIA,ZNY,RP,LVZ*VORTAC*319.82/15.99
LORRS,40.72448333333333,-73.69275555555556,NEW YORK,ZNY,RP,IWY*LD*NE CRS/6.93
LOTCI,40.185002777777775,-76.97540277777777,PENNSYLVANIA,ZNY,RNAV,08/18/2006
LOVIC,39.57494444444445,-76.08231388888889,MARYLAND,ZNY,RNAV,10/01/2008
LOVIW,42.142975,-76.05834166666666,NEW YORK,ZNY,RNAV,03/25/2010
LOYEY,40.631394444444446,-74.69235,NEW JERSEY,ZNY,RNAV,01/12/2015
LOZER,34.8,-74.16666666666667,OFFSHORE ATLANTIC,ZNY,RNAV,12/29/2015
LSIER,33.02805,-72.04176666666666,OFFSHORE ATLANTIC,ZNY,RNAV,10/19/2009
LUCKS,40.522758333333336,-77.85758333333332,PENNSYLVANIA,ZNY,RP,PSB*VORTAC*175.31
LUFKO,40.744875,-75.17620277777779,NEW JERSEY,ZNY,RP,STW*VOR/DME*234.00
LUIGI,40.06934722222223,-74.44453333333334,NEW JERSEY,ZNY,RP,VCN*VOR/DME*047.00/40.00
LUNKR,35.33681388888889,-66.3833638888889,OFFSHORE ATLANTIC,ZNY,RNAV,06/02/2014
LYART,40.938649999999996,-74.80393888888888,NEW JERSEY,ZNY,RNAV,03/03/2003
LYNUS,38.014694444444444,-72.65401666666668,OFFSHORE ATLANTIC,ZNY,RP,SIE*VORTAC*131.00/120.00
LYTEL,40.93021944444444,-75.87067222222221,PENNSYLVANIA,ZNY,RP,MIP*VORTAC*107.53/36.54
LYTTA,39.98291666666667,-75.62102222222221,PENNSYLVANIA,ZNY,RNAV,06/25/2015
YAALE,38.2814,-71.95360000000001,OFFSHORE ATLANTIC,ZNY,RNAV,10/20/2016
YABUL,40.868972222222226,-74.03756944444444,NEW JERSEY,ZNY,RNAV,04/01/2008
YALUN,41.98142777777778,-76.53509166666666,PENNSYLVANIA,ZNY,RNAV,10/21/2014
YANUB,40.82042777777778,-76.62091944444444,PENNSYLVANIA,ZNY,RNAV,06/28/2011
YANUD,41.166263888888885,-74.29115,NEW JERSEY,ZNY,RNAV,12/12/2011
YAPSU,40.339847222222225,-76.23492777777778,PENNSYLVANIA,ZNY,RNAV,04/26/2012
YAZUU,39.41245,-74.01709722222222,NEW JERSEY,ZNY,RP,HTO*VORTAC*234.44/119.48
YEGXE,41.248691666666666,-75.79956944444444,PENNSYLVANIA,ZNY,RNAV,09/05/2013
YEPSY,31.864622222222224,-62.287394444444445,OFFSHORE ATLANTIC,ZNY,RNAV,08/26/2009
YERDU,41.231675,-75.96875277777778,PENNSYLVANIA,ZNY,RNAV,05/30/2012
YERUY,39.57322777777778,-76.35974444444444,MARYLAND,ZNY,RNAV,04/23/2007
YETTI,38.6154,-71.9501,OFFSHORE ATLANTIC,ZNY,RNAV,10/20/2016
YEWSU,40.42864722222222,-75.97055277777778,PENNSYLVANIA,ZNY,RNAV,07/09/2009
YEXWU,41.24733055555556,-76.9370888888889,PENNSYLVANIA,ZNY,RNAV,04/24/2017
YEZJO,40.51490277777778,-75.60357499999999,PENNSYLVANIA,ZNY,RNAV,06/29/2011
YINON,40.100294444444444,-73.8444,NEW JERSEY,ZNY,RNAV,03/27/2012
YIVUY,40.56507777777777,-73.82721666666666,NEW YORK,ZNY,CN,08/12/2008
YIYYO,20.753566666666668,-63.63247222222222,OFFSHORE ATLANTIC,ZNY,RNAV,04/09/2008
YNKEE,40.483583333333335,-73.84921666666666,NEW YORK,ZNY,RNAV,12/22/2005
YOCTA,40.58473888888889,-75.99872777777777,PENNSYLVANIA,ZNY,RNAV,07/09/2009
YODAH,40.524455555555555,-75.19107777777778,PENNSYLVANIA,ZNY,RNAV,08/25/2015
YODUR,40.62974444444445,-74.39211666666667,NEW JERSEY,ZNY,RNAV,03/10/2011
YOGII,37.4664,-72.38430000000001,OFFSHORE ATLANTIC,ZNY,RNAV,10/20/2016
YOKRI,39.842369444444444,-76.8286,PENNSYLVANIA,ZNY,RNAV,04/20/2011
YOLBU,40.97058055555556,-75.70496666666666,PENNSYLVANIA,ZNY,RNAV,03/21/2013
YOLSU,40.14541944444444,-76.63940277777779,PENNSYLVANIA,ZNY,RNAV,05/20/2009
YONUP,41.10596388888889,-75.40921666666667,PENNSYLVANIA,ZNY,RNAV,01/28/2009
YOPUK,40.384055555555555,-74.244825,NEW JERSEY,ZNY,RNAV,03/27/2012
YOPUS,40.163691666666665,-75.64678055555557,PENNSYLVANIA,ZNY,RNAV,12/02/2004
YORCI,41.00636111111111,-73.59869444444443,NEW YORK,ZNY,RNAV,02/22/2010
YOVUN,40.69981111111111,-74.41169722222223,NEW JERSEY,ZNY,RP,BWZ*VOR/DME*118.41
YOYUL,40.60366388888889,-77.39150833333333,PENNSYLVANIA,ZNY,RNAV,03/18/2016
YUDUC,40.90948611111111,-77.76865,PENNSYLVANIA,ZNY,RNAV,08/14/2013
YUKPU,41.10148888888889,-75.28220277777778,PENNSYLVANIA,ZNY,RNAV,10/18/2012
YULUS,41.584900000000005,-76.59188888888889,PENNSYLVANIA,ZNY,RNAV,05/30/2012
YUNCU,40.82788055555556,-77.93027777777779,PENNSYLVANIA,ZNY,RNAV,08/14/2013
YUTUG,41.97219722222222,-75.91370555555557,PENNSYLVANIA,ZNY,RNAV,12/08/2009
YUTYO,40.80799722222222,-76.67231666666667,PENNSYLVANIA,ZNY,RNAV,06/28/2011
YUWSO,40.18906111111111,-75.17565277777778,PENNSYLVANIA,ZNY,RNAV,08/17/2010
YYOST,41.58271666666667,-75.85584722222222,PENNSYLVANIA,ZNY,RNAV,08/27/2013
UBUCK,40.902227777777775,-74.42434166666668,NEW JERSEY,ZNY,RP,SBJ*VOR/DME*047.00/24.00
UCEYA,40.784025,-74.34889722222222,NEW JERSEY,ZNY,RNAV,10/14/2008
UDDEL,42.71088888888889,-76.04682222222222,NEW YORK,ZNY,WP,11/02/1998
UGAQO,40.79609166666666,-74.02494722222222,NEW JERSEY,ZNY,CN,05/24/2012
UJODY,40.65676666666666,-74.04554166666667,NEW JERSEY,ZNY,RNAV,07/13/2015
UNOLY,42.00633333333333,-77.14155833333334,NEW YORK,ZNY,RP,ULW*VOR/DME*/7.41
UNOSE,41.23881388888889,-76.93445833333334,PENNSYLVANIA,ZNY,RNAV,FQM*VOR/DME*239.41/9.37
UNVIL,41.02833888888889,-74.04640833333333,NEW JERSEY,ZNY,RP,SAX*VORTAC*106.84
UNWET,39.81018611111111,-76.96855277777777,PENNSYLVANIA,ZNY,RNAV,07/26/2013
UNYAD,39.818900000000006,-73.0365,OFFSHORE ATLANTIC,ZNY,RNAV,10/20/2016
UNYON,33.38967777777778,-65.93794444444445,OFFSHORE ATLANTIC,ZNY,RNAV,01/10/2017
UNYTS,39.75861666666667,-77.12931388888889,PENNSYLVANIA,ZNY,RNAV,10/20/2004
UPACI,42.48018611111112,-76.53371944444444,NEW YORK,ZNY,RNAV,11/28/2017
URLAW,41.086775,-76.00567222222222,PENNSYLVANIA,ZNY,RNAV,05/30/2012
UROUT,40.366255555555554,-75.940825,PENNSYLVANIA,ZNY,RNAV,07/09/2009
USCAD,40.53341944444444,-74.85572777777777,NEW JERSEY,ZNY,RNAV,05/21/2009
USIGY,40.894552777777776,-76.31180277777777,PENNSYLVANIA,ZNY,RNAV,06/28/2011
UTECU,40.218558333333334,-74.66428333333334,NEW JERSEY,ZDC,RNAV,04/20/2012
UXHUB,40.67354722222222,-73.82508055555556,NEW YORK,ZNY,RP,LGA*VOR/DME*175.26
UYOGA,42.40946388888889,-76.01310833333334,NEW YORK,ZNY,RNAV,06/04/2004
UYUKU,40.58556388888889,-73.83652222222221,NEW YORK,ZNY,CN,08/11/2008
UZAWI,40.894574999999996,-77.46692222222222,PENNSYLVANIA,ZNY,RNAV,06/17/2008
UZIHE,40.943349999999995,-77.70132222222223,PENNSYLVANIA,ZNY,RNAV,08/14/2013
UZSOR,39.94897777777778,-74.34309999999999,NEW JERSEY,ZNY,RNAV,01/06/2017
KACGE,40.64288611111111,-76.85294722222221,PENNSYLVANIA,ZNY,RNAV,08/24/2017
KAICE,32.08432222222223,-66.99491944444445,OFFSHORE ATLANTIC,ZNY,RNAV,01/10/2017
KANSE,40.09458055555556,-74.13857222222222,NEW JERSEY,ZNY,RNAV,01/06/2017
KANUX,30.559966666666668,-72.56744166666667,OFFSHORE ATLANTIC,ZNY,RNAV,04/09/2008
KAPPI,31.692075,-66.23592777777777,OFFSHORE ATLANTIC,ZNY,RNAV,01/10/2017
KARRS,39.840872222222224,-73.98598888888888,NEW JERSEY,ZNY,RP,DPK*VOR/DME*221.00/65.05
KATHH,39.54604166666667,-76.95748611111111,MARYLAND,ZNY,RNAV,04/23/2010
KATTE,40.80020555555555,-73.69630000000001,NEW YORK,ZNY,RNAV,02/04/2010
KATVE,40.3972,-75.69938611111111,PENNSYLVANIA,ZNY,RP,ARD*VOR/DME*293.61/37.34
KAVAX,23.0,-60.0,OFFSHORE ATLANTIC,ZNY,RNAV,04/11/2008
KAYNE,40.424280555555555,-75.64094444444446,PENNSYLVANIA,ZNY,RP,LRP*VOR/DME*067.37/35.00
KAYYT,38.877175,-67.57285555555555,OFFSHORE ATLANTIC,ZNY,RNAV,02/07/2008
KEAVR,41.191177777777774,-74.24268333333333,NEW YORK,ZNY,RNAV,06/30/2015
KEBLE,39.870875,-74.80390277777778,NEW JERSEY,ZNY,RNAV,05/11/2012
KEEKA,22.097069444444443,-65.134825,OFFSHORE ATLANTIC,ZNY,RNAV,12/20/2011
KEEPM,40.83743611111111,-73.54516111111111,NEW YORK,ZNY,RP,CCC*VOR/DME*274.00/34.41
KEHSO,40.21349722222222,-75.15360000000001,PENNSYLVANIA,ZNY,RNAV,01/26/2012
KEMAR,39.562580555555556,-77.26721388888889,MARYLAND,ZNY,RP,EMI*VORTAC*294.91/14.00
KENDA,39.35296944444445,-70.49944722222223,OFFSHORE ATLANTIC,ZNY,RNAV,07/25/2008
KERYN,40.377830555555555,-76.27239166666666,PENNSYLVANIA,ZNY,RP,LRP*VOR/DME*012.21/15.49
KETPE,40.03045,-74.562775,NEW JERSEY,ZNY,MR,GXU*VORTAC*/2.00
KETTS,39.83936388888889,-74.85491111111111,NEW JERSEY,ZNY,RP,CYN*VORTAC*284.00/19.60
KEVMY,40.59691111111111,-76.145825,PENNSYLVANIA,ZNY,RNAV,08/16/2010
KEVNN,34.93333333333333,-74.33333333333333,OFFSHORE ATLANTIC,ZNY,RNAV,12/29/2015
KIACK,40.8629,-76.6596888888889,PENNSYLVANIA,ZNY,RNAV,09/03/2013
KIETH,40.10877777777778,-68.36408333333333,OFFSHORE ATLANTIC,ZNY,WP,01/08/2007
KILMA,40.48602777777778,-74.40245,NEW JERSEY,ZNY,RP,CRI*VOR/DME*263.09/24.44
KIMKE,40.79669444444444,-75.18258888888889,NEW JERSEY,ZNY,RNAV,07/05/2005
KINER,36.57423055555556,-68.28744722222223,OFFSHORE ATLANTIC,ZNY,RNAV,06/11/2008
KINGG,38.13881111111111,-70.35998055555555,OFFSHORE ATLANTIC,ZNY,RNAV,04/17/2008
KIPPI,39.94387222222222,-77.10473055555555,PENNSYLVANIA,ZNY,RP,CYN*VORTAC*284.37/123.70
KIRSE,40.64765833333333,-74.75446111111111,NEW JERSEY,ZNY,RNAV,01/12/2015
KITHE,39.809869444444445,-76.2967,PENNSYLVANIA,ZNY,RP,LRP*VOR/DME*189.77/18.59
KIWIE,40.712783333333334,-73.82590277777777,NEW YORK,ZNY,RNAV,04/10/2012
KIYEG,40.86805277777778,-74.30608055555555,NEW JERSEY,ZNY,RNAV,03/05/2007
KLATU,40.46652777777778,-75.64830277777779,PENNSYLVANIA,ZNY,RNAV,04/20/2012
KLOND,40.22221944444445,-74.71420277777779,NEW JERSEY,ZDC,RNAV,04/19/2012
KLOOF,39.846986111111114,-76.83054444444444,PENNSYLVANIA,ZNY,RNAV,07/26/2013
KMCHI,40.62532222222222,-74.04396666666666,NEW YORK,ZNY,RNAV,07/14/2015
KN45C,37.5,-72.0,OFFSHORE ATLANTIC,ZNY,NRS,03/05/2005
KN48A,38.0,-74.0,OFFSHORE ATLANTIC,ZNY,NRS,03/05/2005
KN48C,38.0,-72.0,OFFSHORE ATLANTIC,ZNY,NRS,03/05/2005
KN51A,38.5,-74.0,OFFSHORE ATLANTIC,ZNY,NRS,03/05/2005
KN51C,38.5,-72.0,OFFSHORE ATLANTIC,ZNY,NRS,03/05/2005
KN51E,38.5,-70.0,OFFSHORE ATLANTIC,ZNY,NRS,03/05/2005
KN54C,39.0,-72.0,OFFSHORE ATLANTIC,ZNY,NRS,03/05/2005
KN54E,39.0,-70.0,OFFSHORE ATLANTIC,ZNY,NRS,03/05/2005
KN54G,39.0,-68.0,OFFSHORE ATLANTIC,ZNY,NRS,03/05/2005
KN57C,39.5,-72.0,OFFSHORE ATLANTIC,ZNY,NRS,03/05/2005
KN57E,39.5,-70.0,OFFSHORE ATLANTIC,ZNY,NRS,03/05/2005
KN57G,39.5,-68.0,OFFSHORE ATLANTIC,ZNY,NRS,03/05/2005
KN60C,40.0,-72.0,OFFSHORE ATLANTIC,ZNY,NRS,03/05/2005
KN60E,40.0,-70.0,OFFSHORE ATLANTIC,ZNY,NRS,03/05/2005
KN60G,40.0,-68.0,OFFSHORE ATLANTIC,ZNY,NRS,03/05/2005
KN60Y,40.0,-76.0,PENNSYLVANIA,ZNY,NRS,03/05/2005
KN63A,40.5,-74.0,NEW YORK,ZNY,NRS,03/05/2005
KN63E,40.5,-70.0,OFFSHORE ATLANTIC,ZNY,NRS,03/05/2005
KN63G,40.5,-68.0,OFFSHORE ATLANTIC,ZNY,NRS,03/05/2005
KN63Y,40.5,-76.0,PENNSYLVANIA,ZNY,NRS,03/05/2005
KN66A,41.0,-74.0,NEW JERSEY,ZNY,NRS,03/05/2005
KN66G,41.0,-68.0,OFFSHORE ATLANTIC,ZNY,NRS,03/05/2005
KN66W,41.0,-78.0,PENNSYLVANIA,ZNY,NRS,03/05/2005
KN66Y,41.0,-76.0,PENNSYLVANIA,ZNY,NRS,03/05/2005
KN69Y,41.5,-76.0,PENNSYLVANIA,ZNY,NRS,03/05/2005
KN72Y,42.0,-76.0,NEW YORK,ZNY,NRS,03/05/2005
KOCEC,40.61161388888889,-75.36179722222222,PENNSYLVANIA,ZNY,RNAV,05/13/2013
KOLBY,40.073508333333336,-77.04354166666667,PENNSYLVANIA,ZNY,RP,HAR*VORTAC*185.01/13.77
KOLLI,40.913091666666666,-74.25236944444444,NEW JERSEY,ZNY,RP,TEB*VOR/DME*305.10
KONAA,41.431377777777776,-75.64391666666667,PENNSYLVANIA,ZNY,RNAV,09/05/2013
KONFY,40.10319166666667,-77.33615555555555,PENNSYLVANIA,ZNY,WP,11/17/1998
KONJE,41.82069444444445,-77.10928333333332,PENNSYLVANIA,ZNY,RP,ULW*VOR/DME*205.00/16.84
KOORT,40.15301111111111,-76.51157222222223,PENNSYLVANIA,ZNY,RP,LRP*VOR/DME*290.13/10.33
KOPPS,40.36931666666667,-74.5303611111111,NEW JERSEY,ZNY,RP,SBJ*VOR/DME*152.87/16.06
KORRY,40.09384166666667,-74.65154444444445,NEW JERSEY,ZNY,RP,ARD*VOR/DME*139.00/15.17
KOZIK,26.807430555555555,-63.75045277777778,OFFSHORE ATLANTIC,ZNY,RNAV,10/19/2009
KRAZE,40.836983333333336,-75.919675,PENNSYLVANIA,ZNY,RP,MIP*VORTAC*117.00/35.70
KRSTL,40.55872222222222,-73.83496944444444,NEW YORK,ZNY,RP,HIQ*LD*224.75/4.95
KRVER,39.60885833333334,-76.08965833333333,MARYLAND,ZNY,RNAV,08/12/2015
KTAIT,40.56504722222222,-73.84584444444444,NEW YORK,ZNY,RP,CRI*VOR/DME*152.99
KULPE,40.145855555555556,-74.82433611111111,PENNSYLVANIA,ZDC,RNAV,08/16/2012
KUNVE,40.46385277777778,-74.1755888888889,NEW JERSEY,ZNY,RNAV,07/07/2009
KUPPS,40.28731111111111,-76.45194722222223,PENNSYLVANIA,ZNY,RP,LRP*VOR/DME*332.69/12.46
KURNL,41.20130555555556,-74.45843611111111,NEW JERSEY,ZNY,RNAV,08/29/2011
KURTS,30.166355555555555,-64.49521111111112,OFFSHORE ATLANTIC,ZNY,RNAV,08/26/2009
KUVTE,40.09073055555556,-74.6209361111111,NEW JERSEY,ZDC,MR,GXU*VORTAC*359.00/5.00
KUZZZ,40.840719444444446,-73.79873888888889,NEW YORK,ZNY,RNAV,07/06/2007
KWITE,40.64425,-74.5616611111111,NEW JERSEY,ZNY,RNAV,04/13/2011
KYILL,39.935599999999994,-75.38011944444443,PENNSYLVANIA,ZNY,RNAV,09/26/2002
KYLIE,40.81367777777778,-73.84731666666666,NEW YORK,ZNY,RNAV,07/11/2007
RABAL,26.7245,-69.45389444444444,OFFSHORE ATLANTIC,ZNY,RNAV,05/27/2008
RABBY,40.8656,-73.94681944444444,NEW JERSEY,ZNY,RNAV,01/26/2017
RACKI,41.012166666666666,-75.57695833333332,PENNSYLVANIA,ZNY,RP,BWZ*VOR/DME*301.71
RAGER,41.568311111111115,-74.91282222222223,NEW YORK,ZNY,RP,HUO*VOR/DME*314.40/17.33
RAINR,40.55169722222222,-77.94698611111112,PENNSYLVANIA,ZNY,RNAV,11/06/2017
RAMEE,40.072050000000004,-74.29251666666667,NEW JERSEY,ZNY,MW,06/04/2014
RASHE,40.676677777777776,-77.64415000000001,PENNSYLVANIA,ZNY,RP,HAR*VORTAC*320.67/34.58
RATEE,40.685224999999996,-74.89893611111111,NEW JERSEY,ZNY,RNAV,02/25/2003
RAUKY,39.71044444444445,-76.46316111111112,MARYLAND,ZNY,RNAV,08/12/2015
REBBL,41.882675,-76.93279444444445,PENNSYLVANIA,ZNY,RP,SLT*VORTAC*072.21/51.63
REDGY,40.05214722222222,-77.49645555555556,PENNSYLVANIA,ZNY,MR,THS*VORTAC*078.07/22.14
REEFI,39.79438333333333,-76.18064722222223,PENNSYLVANIA,ZNY,RP,ETX*VOR/DME*215.00/52.40
REEFO,40.54293055555555,-73.82888888888888,NEW YORK,ZNY,RP,CRI*VOR/DME*155.27
REGLE,40.401602777777775,-74.99805833333333,PENNSYLVANIA,ZNY,RNAV,02/12/2008
REIFS,32.63395,-64.86396111111111,OFFSHORE ATLANTIC,ZNY,RNAV,01/10/2017
REKAE,41.138708333333334,-77.41623333333334,PENNSYLVANIA,ZNY,RNAV,03/17/2003
RELNY,40.05883333333333,-75.43050000000001,PENNSYLVANIA,ZNY,CN,10/31/2002
RENUE,40.51853333333333,-74.09408888888889,NEW YORK,ZNY,RP,SBJ*VOR/DME*107.23
REPIE,42.280274999999996,-76.03758888888889,NEW YORK,ZNY,RNAV,11/18/2009
REPRE,40.46550833333334,-73.90749166666667,NEW JERSEY,ZNY,RNAV,04/13/2015
RESQU,37.47940833333333,-71.44716666666667,OFFSHORE ATLANTIC,ZNY,RNAV,05/20/2008
REWAX,40.62813611111111,-74.67993055555556,NEW JERSEY,ZNY,RNAV,01/12/2015
RICKF,39.946666666666665,-76.22850833333334,PENNSYLVANIA,ZNY,RNAV,10/17/2015
RIDNE,40.30981944444444,-76.7684,PENNSYLVANIA,ZNY,RNAV,09/02/2008
RIETA,40.58971666666667,-74.40905833333333,NEW JERSEY,ZNY,RNAV,06/09/2008
RIRAE,40.904355555555554,-75.29666388888889,PENNSYLVANIA,ZNY,RNAV,05/13/2013
RISSY,40.397825,-73.58716388888888,NEW YORK,ZBW,RNAV,06/11/2014
RITTY,41.26126388888889,-75.47454166666667,PENNSYLVANIA,ZNY,RP,FJC*VORTAC*008.40
RIVRA,40.8093,-73.63881944444445,NEW YORK,ZNY,RNAV,02/27/2013
RIYWY,40.15807222222222,-76.43180277777778,PENNSYLVANIA,ZNY,RNAV,05/20/2009
RKDIA,21.0,-60.0,OFFSHORE ATLANTIC,ZNY,RNAV,06/09/2008
RNGRR,40.23016388888889,-74.20574722222223,NEW JERSEY,ZNY,RP,CRI*VOR/DME*223.00/27.00
RNGRS,35.06666666666667,-63.15,OFFSHORE ATLANTIC,ZNY,RNAV,01/10/2017
ROAST,39.956586111111115,-76.4336138888889,PENNSYLVANIA,ZNY,RP,LRP*VOR/DME*222.85/11.79
ROBBB,33.52331111111111,-74.44307500000001,OFFSHORE ATLANTIC,ZNY,RNAV,09/15/2016
ROCOY,41.043436111111106,-75.46644166666667,PENNSYLVANIA,ZNY,RP,STW*VOR/DME*287.20
RODII,40.627972222222226,-74.20954166666667,NEW JERSEY,ZNY,RP,EWR*LD*218.82/4.85
ROLER,40.85143055555556,-73.44153611111112,NEW YORK,ZNY,WP,JFK*VOR/DME*061.00/20.00
ROLLE,37.39312777777778,-71.70586388888889,OFFSHORE ATLANTIC,ZNY,RNAV,04/08/2008
RONOW,40.963,-74.25568888888888,NEW JERSEY,ZNY,RNAV,04/13/2011
ROOFE,31.67471111111111,-65.917725,OFFSHORE ATLANTIC,ZNY,RNAV,08/25/2009
ROSLY,40.79716944444444,-73.63567777777779,NEW YORK,ZNY,RP,DPK*VOR/DME*283.22
ROTHM,27.55840277777778,-75.30437777777777,OFFSHORE ATLANTIC,ZNY,RNAV,04/18/2008
ROUFF,40.658627777777774,-75.4417,PENNSYLVANIA,ZNY,RP,FJC*VORTAC*181.69/4.12
ROWEK,40.582433333333334,-75.10925555555555,NEW JERSEY,ZNY,RP,SBJ*VOR/DME*280.00/16.80
ROWND,40.657605555555556,-74.28725555555556,NEW JERSEY,ZNY,RNAV,12/23/2013
ROXXE,41.11806388888889,-75.91022777777778,PENNSYLVANIA,ZNY,RNAV,05/19/2009
RRUMM,32.442927777777776,-64.54324166666666,OFFSHORE ATLANTIC,ZNY,RNAV,01/10/2017
RTWOO,40.55690277777777,-75.10239166666666,PENNSYLVANIA,ZNY,RNAV,08/25/2015
RUDJU,40.206125,-74.49704444444444,NEW JERSEY,ZDC,RNAV,04/19/2012
RUDLI,27.523641666666666,-71.048075,OFFSHORE ATLANTIC,ZNY,RNAV,04/09/2008
RUNDY,34.09776666666667,-73.77047777777777,OFFSHORE ATLANTIC,ZNY,RNAV,04/11/2008
RUSDE,40.33974166666667,-75.42440277777779,PENNSYLVANIA,ZNY,RNAV,06/16/2008
RUSHY,40.69673888888889,-73.7009638888889,NEW YORK,ZNY,RP,JFK*VOR/DME*052.00/5.00
RUUDY,40.81558888888889,-74.278175,NEW JERSEY,ZNY,RNAV,11/24/2008
RUYNO,41.99279166666667,-76.54278333333333,PENNSYLVANIA,ZNY,RNAV,05/08/2018
RYANF,41.19343333333333,-75.54145555555556,PENNSYLVANIA,ZNY,RNAV,10/18/2012
RYDOR,41.00766388888889,-76.534825,PENNSYLVANIA,ZNY,RP,MIP*VORTAC*108.00/6.00
GAALO,40.669291666666666,-73.73605555555555,NEW YORK,ZNY,RNAV,07/10/2017
GAAPP,40.535513888888886,-76.89999722222223,PENNSYLVANIA,ZNY,RP,HAR*VORTAC*039.00/16.00
GAKEC,39.91707777777778,-74.5848861111111,NEW JERSEY,ZNY,MW,08/12/2009
GALVN,30.15898611111111,-72.44759444444445,OFFSHORE ATLANTIC,ZNY,RNAV,10/19/2009
GALWY,33.58336111111112,-74.48675,OFFSHORE ATLANTIC,ZNY,RNAV,05/02/2008
GAMBY,40.00617222222222,-73.86896388888889,NEW JERSEY,ZNY,RP,DPK*VOR/DME*221.00/53.76
GANRE,40.994847222222226,-76.4395638888889,PENNSYLVANIA,ZNY,RNAV,01/04/2016
GATHR,39.65300833333333,-77.16825277777778,MARYLAND,ZNY,RP,EMI*VORTAC*325.17
GAYEL,41.40669166666667,-74.35714444444444,NEW YORK,ZNY,RP,DPK*VOR/DME*320.00/60.36
GBINS,33.56870555555556,-64.72836111111111,OFFSHORE ATLANTIC,ZNY,RNAV,01/10/2017
GEBLE,40.61566111111111,-75.50184444444444,PENNSYLVANIA,ZNY,RNAV,05/13/2013
GECAL,29.42449166666667,-65.42136388888889,OFFSHORE ATLANTIC,ZNY,RNAV,01/10/2017
GECEC,40.24391388888889,-74.78248611111111,NEW JERSEY,ZDC,RNAV,08/16/2012
GECVE,41.24732222222222,-76.88230277777777,PENNSYLVANIA,ZNY,RNAV,07/15/2011
GEDIC,40.14613888888889,-73.20194166666667,NEW JERSEY,ZNY,RP,CCC*VOR/DME*214.56/50.47
GEDSE,40.73508888888889,-76.326925,PENNSYLVANIA,ZNY,RNAV,08/19/2006
GEEKS,39.99761388888889,-75.54110555555556,PENNSYLVANIA,ZNY,RNAV,06/25/2015
GEENE,39.849444444444444,-72.86027777777777,OFFSHORE ATLANTIC,ZNY,RNAV,03/23/2018
GEERI,39.94991666666667,-76.29416388888889,PENNSYLVANIA,ZNY,RP,LRP*VOR/DME*189.74/10.20
GEFWI,40.555727777777776,-76.13950555555556,PENNSYLVANIA,ZNY,RNAV,02/09/2018
GEHRG,37.9415,-72.513,OFFSHORE ATLANTIC,ZNY,RNAV,10/20/2016
GEKDE,40.92375277777778,-77.7196,PENNSYLVANIA,ZNY,RNAV,09/01/2016
GEMGE,39.958955555555555,-74.05528055555556,NEW JERSEY,ZNY,MW,09/06/2017
GEMTE,39.951169444444446,-74.28617222222222,NEW JERSEY,ZNY,MR,NEL*TACAN*160.00/6.00
GENNA,40.77752777777778,-69.39783333333334,OFFSHORE ATLANTIC,ZNY,WP,03/26/2002
GEPGE,40.77968611111111,-76.842975,PENNSYLVANIA,ZNY,RNAV,11/04/2009
GESMY,40.13845833333333,-75.77125277777778,PENNSYLVANIA,ZNY,RNAV,04/17/2014
GETPE,40.60803333333333,-74.90247222222223,NEW JERSEY,ZNY,RNAV,04/17/2012
GETRO,29.50034722222222,-67.44913333333334,OFFSHORE ATLANTIC,ZNY,RP,11/13/1978
GEZSY,40.5374,-74.34089999999999,NEW JERSEY,ZNY,RNAV,02/09/2018
GIBTE,40.90193333333333,-74.03498333333333,NEW JERSEY,ZNY,RNAV,03/07/2006
GIMEE,40.81313055555555,-74.08790277777777,NEW JERSEY,ZNY,RP,JFK*VOR/DME*318.92
GISGE,39.559955555555554,-77.21453055555556,MARYLAND,ZNY,RNAV,07/02/2003
GLAAS,18.0,-55.0,OFFSHORE ATLANTIC,ZNY,RNAV,12/22/2014
GLDMN,40.703469444444444,-73.96998333333333,NEW YORK,ZNY,RNAV,02/04/2010
GLENA,38.536944444444444,-73.66722222222222,OFFSHORE ATLANTIC,ZNY,WP,03/26/2002
GLINN,40.010869444444445,-73.04568333333333,OFFSHORE ATLANTIC,ZNY,RP,JFK*VOR/DME*150.00/50.00
GLOBS,40.528275,-76.29128333333333,PENNSYLVANIA,ZNY,RP,LRP*VOR/DME*009.00
GLOMO,39.865211111111115,-75.97922777777778,PENNSYLVANIA,ZNY,RP,PTW*VORTAC*231.18/28.83
GODLY,41.04485833333333,-74.31781944444444,NEW JERSEY,ZNY,RNAV,08/31/2015
GOKYI,41.95487777777778,-76.16901111111112,PENNSYLVANIA,ZNY,RNAV,03/25/2010
GOLDE,40.12799722222222,-74.58226388888889,NEW JERSEY,ZDC,RP,CYN*VORTAC*349.59
GOLFF,40.884966666666664,-74.09434999999999,NEW JERSEY,ZNY,RNAV,04/13/2012
GOLSN,40.65266111111111,-74.08603611111111,NEW JERSEY,ZNY,RNAV,02/02/2009
GONVE,40.029602777777775,-75.36593333333333,PENNSYLVANIA,ZNY,RNAV,06/25/2015
GOOGL,40.24818611111111,-75.44706388888889,PENNSYLVANIA,ZNY,RP,ETX*VOR/DME*160.37
GOOSY,40.27248611111111,-73.94433333333333,NEW JERSEY,ZNY,WP,RBV*VORTAC*090.39/25.65
GORDI,34.50876111111111,-64.76185277777778,OFFSHORE ATLANTIC,ZNY,RNAV,01/10/2017
GORTT,40.44248333333333,-75.44373055555556,PENNSYLVANIA,ZNY,RNAV,04/20/2012
GOUGH,34.66974444444444,-71.28065555555555,OFFSHORE ATLANTIC,ZNY,RNAV,10/19/2009
GOVET,21.004297222222224,-71.61211388888889,OFFSHORE ATLANTIC,ZNY,RP,PTA*VOR/DME*330.91/94.80
GOWZO,39.857505555555555,-75.63810555555557,PENNSYLVANIA,ZNY,RNAV,06/18/2008
GOZLE,39.564141666666664,-76.30926388888889,MARYLAND,ZNY,WP,06/01/1995
GPOLE,40.79982222222222,-73.52704722222222,NEW YORK,ZNY,RP,JFK*VOR/DME*060.00/14.98
GRAMN,30.369091666666666,-70.25388333333333,OFFSHORE ATLANTIC,ZNY,RNAV,08/01/2008
GRAMO,39.96245833333334,-76.78234722222223,PENNSYLVANIA,ZNY,RP,THS*VORTAC*094.76/53.95
GRAPT,40.00416666666667,-72.69500000000001,OFFSHORE ATLANTIC,ZNY,RNAV,03/23/2018
GRATX,26.911313888888888,-74.29169166666667,OFFSHORE ATLANTIC,ZNY,RNAV,04/08/2008
GREKO,40.86546111111111,-73.80440833333333,NEW YORK,ZNY,RP,DPK*VOR/DME*293.13
GRENE,40.62815833333333,-74.00030277777778,NEW YORK,ZNY,RP,LGA*VOR/DME*/11.10
GRITY,40.51558888888889,-74.27693055555555,NEW JERSEY,ZNY,RP,RBV*VORTAC*037.97
GROOM,40.38973611111111,-75.03774722222222,PENNSYLVANIA,ZNY,RP,SBJ*VOR/DME*239.55/17.83
GUESS,40.191427777777776,-74.23309444444445,NEW JERSEY,ZNY,RP,COL*VOR/DME*216.09
GUICE,32.74035555555556,-66.1613638888889,OFFSHORE ATLANTIC,ZNY,RNAV,08/25/2009
GUYED,41.63676944444445,-76.87279444444444,PENNSYLVANIA,ZNY,RP,SFK*VOR/DME*106.00
GUZTI,40.70964166666667,-74.336175,NEW JERSEY,ZNY,RNAV,07/28/2009
GYNTS,40.86843611111111,-75.3989888888889,PENNSYLVANIA,ZNY,RP,SBJ*VOR/DME*309.93
FAAIR,40.95625833333334,-74.21997222222222,NEW JERSEY,ZNY,RP,SAX*VORTAC*125.67/15.93
FAAYE,40.755655555555556,-73.4521888888889,NEW YORK,ZNY,RNAV,02/26/2010
FABDI,40.9413,-76.46509722222223,PENNSYLVANIA,ZNY,RNAV,04/18/2017
FABDU,40.60783888888889,-75.19890277777777,PENNSYLVANIA,ZNY,RNAV,12/16/2015
FABOK,39.910627777777776,-74.61684166666666,NEW JERSEY,ZNY,MR,GXU*VORTAC*201.00/6.00
FABRY,40.72544722222222,-73.76493333333333,NEW YORK,ZNY,RP,CRI*VOR/DME*052.07
FAGHU,40.19064722222222,-76.19896666666666,PENNSYLVANIA,ZNY,CN,12/04/2014
FAINT,39.86884166666667,-76.74852222222222,PENNSYLVANIA,ZNY,RNAV,07/26/2013
FALAS,40.37331666666667,-76.6500388888889,PENNSYLVANIA,ZNY,MW,08/30/2007
FALLZ,41.071469444444446,-74.12506666666665,NEW JERSEY,ZNY,RP,HUO*VOR/DME*144.69/29.28
FALNA,41.985191666666665,-76.66605000000001,PENNSYLVANIA,ZNY,RNAV,08/17/2006
FALON,39.81686944444445,-74.11049999999999,NEW JERSEY,ZNY,RP,CYN*VORTAC*100.01/14.85
FALTY,41.02334444444444,-74.43573888888889,NEW JERSEY,ZNY,RNAV,08/31/2015
FALUT,41.383338888888886,-74.3381111111111,NEW YORK,ZNY,RNAV,04/28/2010
FAMAV,40.072722222222225,-76.7660638888889,PENNSYLVANIA,ZNY,RP,HAR*VORTAC*144.50/19.60
FANRU,40.08860555555556,-76.40468611111112,PENNSYLVANIA,ZNY,RNAV,06/10/2011
FANSI,40.400241666666666,-77.557925,PENNSYLVANIA,ZNY,RP,HAR*VORTAC*294.86/23.16
FANUS,41.081361111111114,-77.57334444444444,PENNSYLVANIA,ZNY,RNAV,11/07/2014
FAPAV,41.016038888888886,-74.8914,NEW JERSEY,ZNY,RNAV,01/12/2011
FARAL,40.34802777777778,-75.27786388888889,PENNSYLVANIA,ZNY,RNAV,05/26/2009
FAVIG,41.18015,-77.345175,PENNSYLVANIA,ZNY,RNAV,08/30/2016
FAVUM,41.26643611111111,-77.59508888888888,PENNSYLVANIA,ZNY,RP,SLT*VORTAC*138.97/22.47
FAXAT,40.887588888888885,-76.85983333333333,PENNSYLVANIA,ZNY,RNAV,09/08/2016
FEBUT,42.21169444444445,-75.83806944444444,NEW YORK,ZNY,RNAV,02/22/2011
FEDAR,40.643724999999996,-73.75927777777778,NEW YORK,ZNY,RNAV,07/08/2009
FEDUB,40.723533333333336,-74.80268888888888,NEW JERSEY,ZNY,RNAV,01/12/2015
FEDUS,41.12651388888889,-77.60182777777777,PENNSYLVANIA,ZNY,RNAV,08/17/2006
FEGAN,40.23646111111111,-74.195325,NEW JERSEY,ZNY,RNAV,04/19/2012
FEGLO,41.670180555555554,-75.9557138888889,PENNSYLVANIA,ZNY,RNAV,10/21/2014
FEGOZ,39.56776944444445,-76.44888333333334,MARYLAND,ZNY,RP,BAL*VORTAC*033.50
FEGSI,41.32564166666667,-75.79996944444444,PENNSYLVANIA,ZNY,RNAV,05/30/2012
FEHLO,42.669266666666665,-76.62281388888889,NEW YORK,ZNY,RNAV,10/23/2014
FELDI,41.346155555555555,-75.71703611111111,PENNSYLVANIA,ZNY,RP,IZK*LD*045.37/0.22
FELIX,35.83354166666667,-69.39934444444445,OFFSHORE ATLANTIC,ZNY,RP,04/29/1987
FEMDU,41.05269722222222,-73.87969166666666,NEW YORK,ZNY,RNAV,10/02/2012
FEMSU,42.06692777777778,-75.57478611111111,NEW YORK,ZNY,RNAV,08/17/2006
FEMVU,40.309805555555556,-74.76646944444444,NEW JERSEY,ZNY,RNAV,08/16/2012
FENBU,41.751175,-77.43197500000001,PENNSYLVANIA,ZNY,RNAV,08/17/2006
FENKA,39.93923611111111,-74.68447222222223,NEW JERSEY,ZNY,MR,GXU*VORTAC*/5.85
FENLY,40.70572777777778,-74.56834722222222,NEW JERSEY,ZNY,RNAV,06/24/2008
FENUN,41.5518,-75.79445833333334,PENNSYLVANIA,ZNY,RNAV,12/28/2007
FEREP,41.09205,-74.06134444444444,NEW YORK,ZNY,RNAV,11/22/2011
FERIB,40.221000000000004,-76.99407222222223,PENNSYLVANIA,ZNY,RNAV,08/17/2006
FERKO,40.16188888888889,-76.16870833333334,PENNSYLVANIA,ZNY,RNAV,06/10/2011
FERUS,40.04869444444444,-74.82395277777778,NEW JERSEY,ZNY,RNAV,09/26/2002
FEVOR,41.32852777777778,-75.73120277777778,PENNSYLVANIA,ZNY,RP,AVP*LD*225.47/1.03
FEXGO,40.67027777777778,-69.22966666666667,OFFSHORE ATLANTIC,ZNY,WP,03/26/2002
FEXIN,41.478147222222226,-75.27131944444444,PENNSYLVANIA,ZNY,RNAV,01/31/2002
FEYJA,40.771658333333335,-75.89046666666667,PENNSYLVANIA,ZNY,RNAV,03/10/2011
FIBTI,41.75508888888889,-75.88148055555556,PENNSYLVANIA,ZNY,RNAV,08/12/2015
FIDON,42.15936388888889,-76.72051666666667,NEW YORK,ZNY,RNAV,09/12/2012
FIENE,40.79176666666667,-75.45891944444445,PENNSYLVANIA,ZNY,RNAV,03/10/2011
FIGAB,40.15893333333333,-76.38717500000001,PENNSYLVANIA,ZNY,RNAV,02/10/2012
FIGID,39.58225,-76.82161666666666,MARYLAND,ZNY,RNAV,03/15/2012
FIGON,40.935763888888886,-74.42014166666667,NEW JERSEY,ZNY,RNAV,06/27/2011
FILNI,40.51219444444445,-74.50946666666667,NEW JERSEY,ZNY,RNAV,12/20/2013
FIMUB,41.35816388888889,-75.75671944444444,PENNSYLVANIA,ZNY,RNAV,10/21/2014
FIMUS,39.420630555555555,-76.49897222222222,MARYLAND,ZNY,RNAV,05/20/2009
FINIT,39.901944444444446,-72.52361111111111,OFFSHORE ATLANTIC,ZNY,RNAV,03/23/2018
FINLY,40.96644166666667,-77.64529166666668,PENNSYLVANIA,ZNY,RNAV,11/21/2005
FINRA,40.642833333333336,-75.10419444444445,NEW JERSEY,ZNY,RNAV,05/13/2013
FIPDI,40.574963888888895,-75.57495555555555,PENNSYLVANIA,ZNY,RP,ETX*VOR/DME*103.14/5.00
FIRIM,42.06908888888889,-76.59297777777778,NEW YORK,ZNY,RNAV,08/19/2006
FIRSI,40.67786666666667,-74.36667499999999,NEW JERSEY,ZNY,RNAV,02/02/2009
FISRU,40.34748611111112,-76.532225,PENNSYLVANIA,ZNY,RNAV,08/28/2008
FISST,18.0,-56.0,OFFSHORE ATLANTIC,ZNY,RNAV,01/21/2015
FITVA,42.18856666666667,-79.85544722222221,PENNSYLVANIA,ZNY,RNAV,02/23/2004
FIVIG,41.62164444444444,-75.97185555555556,PENNSYLVANIA,ZNY,RNAV,08/18/2006
FIVLU,42.045249999999996,-75.63527500000001,NEW YORK,ZNY,RNAV,02/26/2015
FIVZE,25.0,-60.0,OFFSHORE ATLANTIC,ZNY,RNAV,06/11/2008
FIXIN,40.60905555555556,-73.79335,NEW YORK,ZNY,RNAV,08/02/2001
FLAAG,39.46586944444445,-76.87117777777777,MARYLAND,ZNY,RNAV,09/23/2014
FLAMO,33.376780555555555,-66.30971944444444,OFFSHORE ATLANTIC,ZNY,RNAV,08/25/2009
FLIKR,40.38003055555556,-74.25109166666667,NEW JERSEY,ZNY,RNAV,07/13/2015
FLING,40.4899,-74.88475277777779,NEW JERSEY,ZNY,RP,SBJ*VOR/DME*239.55/8.60
FLIRT,39.928752777777774,-76.70425277777778,PENNSYLVANIA,ZNY,RP,CYN*VORTAC*284.37/105.19
FLOAT,40.42995555555555,-75.88440833333334,PENNSYLVANIA,ZNY,RP,ETX*VOR/DME*234.42/12.89
FLUPS,30.576722222222223,-73.9568,OFFSHORE ATLANTIC,ZNY,RNAV,10/19/2009
FLURA,34.37906111111111,-65.50808333333333,OFFSHORE ATLANTIC,ZNY,RNAV,01/10/2017
FLUTE,39.70015277777778,-72.18766666666667,OFFSHORE ATLANTIC,ZNY,RNAV,05/02/2008
FOBGO,41.999919444444444,-75.60691388888888,PENNSYLVANIA,ZNY,RNAV,12/01/2006
FOLAM,40.3966,-74.90872222222222,NEW JERSEY,ZNY,RNAV,10/03/2006
FOLEP,40.62799444444445,-73.77178055555555,NEW YORK,ZNY,RNAV,06/19/2015
FOLER,40.60224166666667,-73.78844722222222,NEW YORK,ZNY,RNAV,06/29/2005
FOLES,38.465,-73.52361111111111,OFFSHORE ATLANTIC,ZNY,WP,03/26/2002
FOLEV,40.95431666666667,-76.53539722222222,PENNSYLVANIA,ZNY,RNAV,09/26/2002
FOMDU,41.97876388888889,-75.59368611111111,PENNSYLVANIA,ZNY,RNAV,08/18/2006
FOMPI,41.991175,-76.14770833333334,PENNSYLVANIA,ZNY,RNAV,03/25/2010
FONDE,39.72416666666667,-72.7175,OFFSHORE ATLANTIC,ZNY,RNAV,03/23/2018
FONRA,39.809580555555556,-77.23955555555555,PENNSYLVANIA,ZNY,RNAV,04/25/2010
FONUP,40.77552222222222,-75.2395138888889,PENNSYLVANIA,ZNY,RNAV,05/13/2013
FOORE,24.0,-60.0,OFFSHORE ATLANTIC,ZNY,RNAV,05/28/2008
FOOTH,40.68183333333333,-76.1516,PENNSYLVANIA,ZNY,WP,RAV*VORTAC*080.23/21.86
FORTT,40.839800000000004,-77.43469166666667,PENNSYLVANIA,ZNY,RP,AML*VOR/DME*008.73/114.23
FORYA,41.32280555555556,-74.33580555555555,NEW YORK,ZNY,RNAV,02/03/2010
FOSUR,42.02681388888889,-76.62885,NEW YORK,ZNY,RNAV,10/21/2014
FOUST,39.459358333333334,-76.88778611111111,MARYLAND,ZNY,RNAV,04/21/2010
FOVEX,40.695499999999996,-74.07156388888889,NEW JERSEY,ZNY,RNAV,01/05/2010
FOXIB,40.80009444444444,-74.20252500000001,NEW JERSEY,ZNY,RNAV,07/28/2009
FOXIT,32.598708333333335,-65.63609722222223,OFFSHORE ATLANTIC,ZNY,RNAV,01/10/2017
FREEE,39.57860555555556,-76.26625277777778,MARYLAND,ZNY,RNAV,09/23/2014
FRIKK,40.776491666666665,-73.48245833333334,NEW YORK,ZNY,RP,DPK*VOR/DME*275.65
FRNKI,40.76613611111111,-74.2499,NEW JERSEY,ZNY,RNAV,04/09/2014
FRNKY,40.41323333333333,-73.73770277777778,NEW YORK,ZNY,RNAV,06/11/2014
FROGI,40.95422222222223,-73.73067777777779,NEW YORK,ZNY,RNAV,04/12/2006
FROSE,40.06218333333333,-75.47188888888888,PENNSYLVANIA,ZNY,RP,SBJ*VOR/DME*237.25
FRSON,31.517063888888888,-66.78085,OFFSHORE ATLANTIC,ZNY,RNAV,01/10/2017
SAAME,40.03106111111111,-76.48399722222223,PENNSYLVANIA,ZNY,RP,RBV*VORTAC*274.24/92.13
SACRI,39.60203888888889,-76.17352777777778,MARYLAND,ZNY,RP,MXE*VORTAC*240.00/30.00
SAKEY,40.21001666666667,-76.8061361111111,PENNSYLVANIA,ZNY,RNAV,05/20/2009
SARAA,40.439325,-75.88786111111112,PENNSYLVANIA,ZNY,RP,LRP*VOR/DME*052.92
SATES,40.13997222222222,-73.77373888888889,NEW JERSEY,ZNY,RP,DPK*VOR/DME*221.00/44.62
SAUCR,34.724325,-72.38188333333332,OFFSHORE ATLANTIC,ZNY,RNAV,06/02/2014
SAVIK,37.711536111111116,-70.98382222222223,OFFSHORE ATLANTIC,ZNY,RNAV,02/07/2008
SAVON,31.44353611111111,-70.50118611111111,OFFSHORE ATLANTIC,ZNY,RNAV,04/08/2008
SAYOV,40.62996666666667,-75.79246666666667,PENNSYLVANIA,ZNY,RNAV,05/13/2013
SAYRE,41.98778055555556,-76.64187222222223,PENNSYLVANIA,ZNY,RP,ULW*VOR/DME*122.31/18.27
SCAPE,39.94493333333333,-77.53675833333332,PENNSYLVANIA,ZNY,RP,HAR*VORTAC*235.26/30.35
SCIPO,42.808074999999995,-76.47935555555556,NEW YORK,ZNY,RP,GGT*VORTAC*283.50/28.85
SCLNK,40.187749999999994,-77.16710277777779,PENNSYLVANIA,ZNY,RNAV,09/29/2017
SCOFF,41.51535555555556,-75.81072222222222,PENNSYLVANIA,ZNY,RP,LVZ*VORTAC*349.41/15.54
SCOOL,40.06664722222222,-75.41959722222222,PENNSYLVANIA,ZNY,RNAV,09/26/2002
SCOOR,39.79972222222222,-72.35277777777777,OFFSHORE ATLANTIC,ZNY,RNAV,03/23/2018
SCOUP,41.055191666666666,-75.04287777777778,PENNSYLVANIA,ZNY,RP,HUO*VOR/DME*235.01/29.48
SEAVR,29.698858333333334,-63.07361666666667,OFFSHORE ATLANTIC,ZNY,RNAV,08/15/2017
SEAVY,41.20854444444445,-74.3265611111111,NEW JERSEY,ZNY,RP,HUO*VOR/DME*146.10
SEBIS,27.75821388888889,-69.6751388888889,OFFSHORE ATLANTIC,ZNY,RNAV,04/08/2008
SEBOY,40.101327777777776,-76.44424722222223,PENNSYLVANIA,ZNY,RNAV,10/22/2007
SEEAL,32.371833333333335,-66.47701944444445,OFFSHORE ATLANTIC,ZNY,RNAV,01/10/2017
SEHDO,40.662475,-73.47390833333334,NEW YORK,ZNY,RNAV,06/27/2011
SEILR,40.713033333333335,-76.37332777777777,PENNSYLVANIA,ZNY,RNAV,03/11/2009
SELIM,38.5,-62.66893333333333,OFFSHORE ATLANTIC,ZNY,RNAV,04/01/2008
SESKE,40.656794444444444,-73.43240277777778,NEW YORK,ZNY,RNAV,08/03/2001
SETAJ,40.46653888888889,-78.05478333333333,PENNSYLVANIA,ZNY,RNAV,11/06/2017
SEWEL,38.93385555555555,-74.90503055555556,NEW JERSEY,ZNY,RP,SIE*VORTAC*215.84/10.86
SHAFF,41.28970555555556,-74.44340555555556,NEW YORK,ZNY,RP,HUO*VOR/DME*148.01
SHAGY,40.58303611111111,-75.5551,PENNSYLVANIA,ZNY,RP,ETX*VOR/DME*097.79
SHAYD,39.1562,-72.1267,OFFSHORE ATLANTIC,ZNY,RNAV,10/20/2016
SHEIL,29.90983888888889,-66.70880555555556,OFFSHORE ATLANTIC,ZNY,RNAV,01/10/2017
SHERL,40.25570833333333,-73.12173888888888,NEW YORK,ZNY,RP,CCC*VOR/DME*213.17/43.02
SHILO,39.683388888888885,-76.61489166666667,MARYLAND,ZNY,RP,BAL*VORTAC*015.00/30.79
SHIPP,40.329433333333334,-73.24727222222222,OFFSHORE ATLANTIC,ZNY,RP,JFK*VOR/DME*139.00/30.11
SHOKR,38.551399999999994,-69.5348,OFFSHORE ATLANTIC,ZNY,RNAV,10/20/2016
SHOLL,32.76368055555555,-65.55557777777777,OFFSHORE ATLANTIC,ZNY,RNAV,01/10/2017
SHOTT,40.865808333333334,-74.51039722222222,NEW JERSEY,ZNY,RP,BWZ*VOR/DME*085.00
SHUEY,39.48205277777778,-77.30060277777777,MARYLAND,ZNY,RNAV,07/02/2003
SIBUW,40.28386666666667,-76.99787222222223,PENNSYLVANIA,ZNY,RP,RAV*VORTAC*239.62
SICKL,31.059150000000002,-65.77958333333333,OFFSHORE ATLANTIC,ZNY,RNAV,08/25/2009
SICOB,40.277969444444444,-74.97646944444445,PENNSYLVANIA,ZDC,RNAV,08/16/2012
SIDHE,39.81345833333333,-76.95628888888889,PENNSYLVANIA,ZNY,RNAV,07/26/2013
SIFEN,27.0,-60.0,OFFSHORE ATLANTIC,ZNY,RNAV,05/02/2008
SIGBE,39.410333333333334,-77.36366666666666,MARYLAND,ZNY,RNAV,07/28/2015
SILLY,37.2278,-72.5534,OFFSHORE ATLANTIC,ZNY,RNAV,10/20/2016
SIMDE,40.088461111111116,-74.24146111111111,NEW JERSEY,ZNY,MR,NEL*TACAN*070.00/6.00
SINON,40.03716111111111,-75.579425,PENNSYLVANIA,ZNY,RNAV,06/10/2011
SIRLY,40.65000833333333,-74.41633611111112,NEW JERSEY,ZNY,RNAV,06/09/2008
SIXIE,40.40833333333333,-74.98885833333334,PENNSYLVANIA,ZNY,RNAV,10/30/2012
SIYOS,40.01793055555555,-74.66042777777778,NEW JERSEY,ZDC,RNAV,06/29/2011
SKIIP,40.63826944444445,-76.46394722222223,PENNSYLVANIA,ZNY,RNAV,03/11/2009
SKILL,40.79858888888889,-74.14996388888889,NEW JERSEY,ZNY,RP,TEB*VOR/DME*244.07/5.00
SKILS,39.50388888888889,-76.63119999999999,MARYLAND,ZNY,RP,BAL*VORTAC*015.00/20.00
SKINK,30.88848611111111,-66.23978611111112,OFFSHORE ATLANTIC,ZNY,RNAV,01/10/2017
SKORR,40.60998888888889,-73.89711944444446,NEW YORK,ZNY,RNAV,04/10/2010
SKPPR,35.75916111111111,-70.44878611111112,OFFSHORE ATLANTIC,ZNY,RNAV,10/19/2009
SKUBY,41.14069166666667,-74.22339166666667,NEW YORK,ZNY,RNAV,11/07/2017
SLATN,39.11666666666667,-67.0,OFFSHORE ATLANTIC,ZNY,RP,ACK*VOR/DME*147.03/190.28
SLATT,40.73823333333333,-75.68523055555556,PENNSYLVANIA,ZNY,RP,FJC*VORTAC*283.84/10.54
SLIMR,40.732108333333336,-74.08151944444444,NEW JERSEY,ZNY,RNAV,06/20/2012
SLONE,40.34366111111111,-74.56843055555555,NEW JERSEY,ZNY,WP,06/14/1991
SLYNG,40.839819444444444,-74.63101944444443,NEW JERSEY,ZNY,RP,BWZ*VOR/DME*085.00
SMITE,42.10449166666667,-75.89173333333333,NEW YORK,ZNY,RP,CFB*VOR/DME*116.03
SNAGY,29.607330555555556,-76.86427222222221,OFFSHORE ATLANTIC,ZNY,RNAV,04/09/2008
SNAZI,39.57607222222222,-76.41997777777779,MARYLAND,ZNY,RNAV,06/20/2010
SNOWY,40.75160277777778,-75.96434166666667,PENNSYLVANIA,ZNY,RP,SEG*VOR/DME*100.91
SOCOP,42.365611111111114,-76.10874444444444,NEW YORK,ZNY,RNAV,06/04/2004
SOGOE,40.70441111111111,-73.70289166666667,NEW YORK,ZNY,RNAV,08/11/2008
SOITE,39.80246666666666,-74.48427222222222,NEW JERSEY,ZNY,RP,GXU*VORTAC*169.30
SOLLY,39.95042777777778,-74.28257222222223,NEW JERSEY,ZNY,MR,CYN*VORTAC*050.74/10.54
SOLOA,40.617383333333336,-74.93632777777778,NEW JERSEY,ZNY,RNAV,08/25/2015
SOLYO,41.247261111111115,-77.05199722222223,PENNSYLVANIA,ZNY,RNAV,07/15/2011
SOMRR,32.386513888888885,-64.80977777777777,OFFSHORE ATLANTIC,ZNY,RNAV,01/10/2017
SOORY,38.5,-60.267583333333334,OFFSHORE ATLANTIC,ZNY,RNAV,04/01/2008
SOOYS,39.87682222222222,-74.64876666666667,NEW JERSEY,ZNY,RP,CYN*VORTAC*299.64/10.65
SORAE,40.248194444444444,-75.19795,PENNSYLVANIA,ZNY,MW,01/27/2009
SPATE,40.52276666666667,-74.12512777777778,NEW YORK,ZNY,RNAV,06/08/2011
SPERY,40.08068611111111,-75.72713333333334,PENNSYLVANIA,ZNY,RP,PTW*VORTAC*231.18
SPOTZ,40.765277777777776,-75.38305555555554,PENNSYLVANIA,ZNY,RNAV,08/25/2011
SPUDS,40.45136388888889,-75.43293333333334,PENNSYLVANIA,ZNY,RP,PTW*VORTAC*032.00/14.93
SPURT,40.501491666666666,-74.84360833333332,NEW JERSEY,ZNY,WP,06/13/1991
SQUAD,37.998158333333336,-70.58252777777777,OFFSHORE ATLANTIC,ZNY,RNAV,06/09/2008
SROKA,40.293105555555556,-75.94619166666666,PENNSYLVANIA,ZNY,RP,LRP*VOR/DME*065.69
SSIXX,40.783766666666665,-77.96194444444444,PENNSYLVANIA,ZNY,RNAV,11/23/2005
STAAL,24.61388888888889,-74.71833333333333,OFFSHORE ATLANTIC,ZNY,RNAV,06/11/2008
STALK,39.38756388888889,-76.72299444444445,MARYLAND,ZNY,RNAV,09/23/2014
STATN,42.53196388888889,-76.51888055555555,NEW YORK,ZNY,RNAV,12/30/2009
STATU,40.68490555555555,-74.08192222222222,NEW JERSEY,ZNY,RNAV,07/13/2015
STEED,40.831100000000006,-73.980925,NEW JERSEY,ZNY,RP,GDI*LD*NW CRS/5.91
STENT,41.679047222222216,-77.15275555555556,PENNSYLVANIA,ZNY,RP,ULW*VOR/DME*205.01/25.55
STENY,40.40168611111111,-74.26248055555556,NEW JERSEY,ZNY,RP,COL*VOR/DME*329.91
STERN,34.96790277777778,-72.3420861111111,OFFSHORE ATLANTIC,ZNY,RNAV,09/15/2016
STHRE,40.81411666666666,-77.90960833333334,PENNSYLVANIA,ZNY,RNAV,11/23/2005
STICC,40.80381944444444,-74.1333111111111,NEW JERSEY,ZNY,RNAV,04/01/2008
STINK,37.82790000000001,-72.2878,OFFSHORE ATLANTIC,ZNY,RNAV,10/20/2016
STOEN,39.83820555555556,-75.79858888888889,PENNSYLVANIA,ZNY,RP,DQO*VORTAC*327.34/13.06
STOMP,41.59632777777778,-74.79660833333332,NEW YORK,ZNY,RP,HUO*VOR/DME*331.52/14.52
STOOG,39.06477777777778,-69.96286388888889,OFFSHORE ATLANTIC,ZNY,RNAV,09/15/2016
STORT,40.51700833333333,-75.98646111111111,PENNSYLVANIA,ZNY,WP,ETX*VOR/DME*263.60/14.40
STRAD,41.18055277777778,-74.32003333333333,NEW YORK,ZNY,RNAV,11/07/2017
STROH,40.61564166666667,-77.71918333333333,PENNSYLVANIA,ZNY,RNAV,06/18/2008
STUFF,41.42092222222222,-74.2998361111111,NEW YORK,ZNY,RNAV,02/09/2010
SUDOY,39.60917777777778,-76.1390638888889,MARYLAND,ZNY,RP,LRP*VOR/DME*176.02/31.42
SUEDE,39.91204166666667,-76.74006111111112,PENNSYLVANIA,ZNY,RP,LRP*VOR/DME*248.07/24.15
SULOY,40.86591111111111,-74.40893611111112,NEW JERSEY,ZNY,RNAV,11/04/2011
SUMRS,28.711688888888887,-76.55849722222221,OFFSHORE ATLANTIC,ZNY,RNAV,05/28/2008
SURGE,40.624383333333334,-75.48761111111111,PENNSYLVANIA,ZNY,RNAV,05/13/2013
SUSLE,39.70035277777778,-77.11908055555556,MARYLAND,ZNY,RNAV,04/25/2010
SUTKE,40.12751111111111,-74.09216666666666,NEW JERSEY,ZNY,RNAV,01/06/2017
SUZIE,40.45325555555556,-75.97276388888889,PENNSYLVANIA,ZNY,RP,RBV*VORTAC*292.98/69.46
SWANK,41.30233333333333,-76.15616111111112,PENNSYLVANIA,ZNY,RP,LVZ*VORTAC*284.95/21.18
SWEET,40.828272222222225,-74.92431944444445,NEW JERSEY,ZNY,RP,BWZ*VOR/DME*302.00/5.00
SWICH,40.59028055555556,-74.23342222222222,NEW JERSEY,ZNY,RNAV,04/23/2014
SWISS,41.128525,-77.38716666666667,PENNSYLVANIA,ZNY,RP,SLT*VORTAC*138.97/35.01
SWIZL,32.7079,-65.25546111111112,OFFSHORE ATLANTIC,ZNY,RNAV,01/10/2017
SWOBS,42.549025,-73.42311388888889,NEW YORK,ZNY,RNAV,08/25/2015
JABAH,40.441469444444444,-75.18033333333334,PENNSYLVANIA,ZNY,RNAV,08/25/2015
JAFFE,41.04553611111111,-74.2919388888889,NEW JERSEY,ZNY,RNAV,03/15/2007
JALPO,40.378572222222225,-77.607675,PENNSYLVANIA,ZNY,RNAV,02/05/2002
JAMCA,40.4844,-73.66255833333334,NEW YORK,ZNY,RP,DPK*VOR/DME*233.77
JAMRA,39.78541111111111,-76.79666944444445,PENNSYLVANIA,ZNY,RNAV,07/26/2013
JANMA,20.539305555555558,-67.17739444444445,OFFSHORE ATLANTIC,ZNY,RNAV,04/09/2008
JANNA,39.54244444444444,-72.27449166666666,OFFSHORE ATLANTIC,ZNY,RP,JFK*VOR/DME*145.00/95.00
JANOV,39.778819444444444,-74.64385555555556,NEW JERSEY,ZNY,MR,GXU*VORTAC*201.00/14.00
JAPDU,40.16521111111111,-74.14478055555556,NEW JERSEY,ZNY,MW,09/06/2017
JAPEN,40.224516666666666,-75.28884444444444,PENNSYLVANIA,ZNY,RNAV,03/13/2017
JAPIR,40.86740833333334,-74.05825833333333,NEW JERSEY,ZNY,RNAV,11/09/2009
JARAF,40.51755,-77.87528333333333,PENNSYLVANIA,ZNY,RP,PSB*VORTAC*177.33/24.50
JAREV,40.700894444444444,-75.76996944444444,PENNSYLVANIA,ZNY,RNAV,05/13/2013
JARIT,40.71404166666667,-74.38903055555556,NEW JERSEY,ZNY,RP,TEB*VOR/DME*252.64
JARLI,40.66663611111111,-74.77370277777777,NEW JERSEY,ZNY,RNAV,05/21/2009
JAROM,44.166666666666664,-54.88333333333333,,ZNY,RP,05/19/2017
JASOG,40.97106111111111,-77.10139444444444,PENNSYLVANIA,ZNY,RNAV,08/24/2017
JAVIL,42.02900277777778,-77.10494999999999,NEW YORK,ZNY,RNAV,03/26/2001
JAYCE,41.61703611111111,-74.73428333333334,NEW YORK,ZNY,RP,HUO*VOR/DME*343.70/14.00
JAYSO,39.95028888888889,-76.89288333333334,PENNSYLVANIA,ZNY,RNAV,04/20/2011
JEBBY,43.07222222222222,-57.86805555555556,,ZNY,RNAV,04/08/2008
JEBUV,40.83482138888889,-74.08779527777777,NEW JERSEY,ZNY,RNAV,11/20/2013
JEDIL,41.00265,-73.87980833333333,NEW YORK,ZNY,RNAV,11/12/2014
JEDNO,40.71100833333334,-73.9321388888889,NEW YORK,ZNY,RNAV,04/12/2006
JEENO,40.70866111111111,-74.28403888888889,NEW JERSEY,ZNY,RP,TEB*VOR/DME*241.35
JEFFF,41.24621666666667,-74.462025,NEW JERSEY,ZNY,RP,HUO*VOR/DME*160.10/11.42
JEKBI,40.09075277777778,-77.1702138888889,PENNSYLVANIA,ZNY,RNAV,04/20/2011
JEKEP,40.15763333333333,-75.2302888888889,PENNSYLVANIA,ZNY,RNAV,08/17/2010
JEKID,42.19979166666666,-76.10523055555555,NEW YORK,ZNY,RNAV,02/22/2011
JELIV,40.28553333333333,-76.57386666666666,PENNSYLVANIA,ZNY,RNAV,04/12/2011
JEMIP,40.910022222222224,-76.62854999999999,PENNSYLVANIA,ZNY,RNAV,09/26/2002
JEMSO,41.988422222222226,-76.52827777777777,PENNSYLVANIA,ZNY,RNAV,05/08/2018
JENNO,41.152924999999996,-75.33140833333333,PENNSYLVANIA,ZNY,RP,STW*VOR/DME*305.33/23.00
JENYY,39.937599999999996,-68.11261666666667,OFFSHORE ATLANTIC,ZNY,RNAV,02/28/2017
JEPRI,40.76003611111111,-73.50840555555556,NEW YORK,ZNY,RNAV,04/25/2005
JERSE,40.731408333333334,-74.36228055555554,NEW JERSEY,ZNY,RNAV,04/09/2014
JERSY,40.79138611111111,-74.39944444444446,NEW JERSEY,ZNY,RP,SBJ*VOR/DME*061.24/20.00
JERYY,40.31955000000001,-74.62323888888888,NEW JERSEY,ZNY,RP,SBJ*VOR/DME*171.00
JETER,38.69333333333333,-73.98472222222222,OFFSHORE ATLANTIC,ZNY,RNAV,03/23/2018
JETOR,40.401019444444444,-74.41081944444446,NEW JERSEY,ZNY,RNAV,10/03/2006
JETTZ,40.65972222222222,-75.37888888888888,PENNSYLVANIA,ZNY,RNAV,08/27/2011
JETVY,40.70927777777778,-74.27895833333334,NEW JERSEY,ZNY,RNAV,08/30/2001
JETZZ,40.1037,-72.7961,OFFSHORE ATLANTIC,ZNY,RNAV,10/20/2016
JEVAP,40.76383333333333,-74.07938888888889,NEW JERSEY,ZNY,RP,06/19/2012
JEVNI,40.66314722222222,-73.80211666666666,NEW YORK,ZNY,RNAV,04/25/2012
JIBGO,41.301474999999996,-76.57187222222223,PENNSYLVANIA,ZNY,RP,IPT*LD*085.96/16.98
JIDIN,40.752072222222225,-78.01677777777778,PENNSYLVANIA,ZNY,RNAV,10/14/2008
JIDPU,41.5143,-75.57291111111111,PENNSYLVANIA,ZNY,RNAV,12/02/2009
JILUB,40.47912777777778,-75.13688888888889,PENNSYLVANIA,ZNY,RP,04/17/2012
JIMAC,32.357511111111116,-68.23155,OFFSHORE ATLANTIC,ZNY,RNAV,01/10/2017
JIMEE,39.81698055555556,-74.15380555555556,NEW JERSEY,ZNY,RP,CYN*VORTAC*100.00/12.84
JIMLO,40.758541666666666,-74.069925,NEW JERSEY,ZNY,RP,05/24/2012
JINET,40.40005,-74.54398611111111,NEW JERSEY,ZNY,RNAV,10/03/2006
JINLA,40.745891666666665,-74.13078055555555,NEW JERSEY,ZNY,RNAV,08/09/2016
JIPAS,41.21576944444445,-77.06474722222222,PENNSYLVANIA,ZNY,RNAV,07/05/2011
JIRBO,41.0464,-74.15215833333333,NEW JERSEY,ZNY,RNAV,11/04/2011
JIRVA,40.72001111111111,-73.67778333333334,NEW YORK,ZNY,RNAV,05/15/2013
JISAG,41.20404444444445,-75.84430833333333,PENNSYLVANIA,ZNY,RP,AVP*LD*225.47/10.08
JISEL,39.51302222222222,-73.67516388888889,OFFSHORE ATLANTIC,ZNY,RP,VCN*VOR/DME*101.00/60.00
JISTO,40.51318611111111,-75.66880277777778,PENNSYLVANIA,ZNY,RP,ETX*VOR/DME*179.28/4.13
JIVAL,41.188313888888885,-76.66534166666668,PENNSYLVANIA,ZNY,RNAV,07/05/2011
JLUIS,34.11794722222222,-63.05203611111111,OFFSHORE ATLANTIC,ZNY,RNAV,01/10/2017
JOANE,40.04402222222222,-76.45594444444444,PENNSYLVANIA,ZNY,RP,HAR*VORTAC*128.55
JOANI,40.30408055555555,-74.10837222222221,NEW JERSEY,ZNY,RP,RBV*VORTAC*080.93/18.78
JOBOC,40.11666666666667,-67.0,OFFSHORE ATLANTIC,ZNY,RP,ACK*VOR/DME*130.84/154.78
JODIE,41.475052777777776,-75.60654444444444,PENNSYLVANIA,ZNY,RNAV,05/19/2009
JOELL,40.71555,-74.49074166666666,NEW JERSEY,ZNY,RP,ARD*VOR/DME*044.42
JOELO,35.05833333333333,-74.5,OFFSHORE ATLANTIC,ZNY,RNAV,12/29/2015
JOKEN,42.08088333333334,-77.02121944444444,NEW YORK,ZNY,RP,ULW*VOR/DME*180.62
JOKMI,40.77856111111111,-74.61778888888888,NEW JERSEY,ZNY,RP,RBV*VORTAC*000.80/35.00
JOKUN,40.5113,-74.45266388888889,NEW JERSEY,ZNY,RNAV,12/20/2013
JOMET,39.84130277777778,-77.27465555555555,PENNSYLVANIA,ZNY,RNAV,04/25/2010
JOMIP,40.131077777777776,-74.045425,NEW JERSEY,ZNY,RNAV,03/27/2012
JOMIV,40.95274166666667,-77.66913333333333,PENNSYLVANIA,ZNY,RNAV,10/14/2008
JONAT,40.65144166666666,-73.82351666666666,NEW YORK,ZNY,RNAV,09/05/2006
JONJR,39.955022222222226,-76.39580555555557,PENNSYLVANIA,ZNY,RP,LRP*VOR/DME*215.00/11.00
JONOB,40.49041666666667,-76.3477861111111,PENNSYLVANIA,ZNY,RNAV,12/12/2006
JORBA,40.88628055555556,-73.92704444444445,NEW JERSEY,ZNY,RNAV,11/12/2014
JORUT,40.32201666666667,-74.7256388888889,NEW JERSEY,ZNY,RNAV,08/16/2012
JOVKU,40.979197222222226,-75.85753333333332,PENNSYLVANIA,ZNY,RNAV,03/21/2013
JOYST,41.320350000000005,-74.33670277777777,NEW YORK,ZNY,RP,HUO*VOR/DME*125.86
JUBIL,40.782830555555556,-73.66711111111111,NEW YORK,ZNY,RNAV,06/19/2012
JUDPA,39.401538888888886,-76.48798333333333,MARYLAND,ZNY,RNAV,10/21/2014
JUDVA,39.77608333333333,-77.34063055555555,PENNSYLVANIA,ZNY,RNAV,10/21/2014
JUGGY,40.7359,-74.23279722222222,NEW JERSEY,ZNY,RNAV,04/01/2008
JUKUL,40.26701666666666,-76.31851666666667,PENNSYLVANIA,ZNY,RNAV,11/15/2006
JULEB,40.874116666666666,-74.01122222222222,NEW JERSEY,ZNY,RNAV,09/23/2010
JULGO,40.868183333333334,-74.06044444444444,NEW JERSEY,ZNY,RP,LGA*VOR/DME*312.16/10.10
JULUT,41.45538333333334,-75.61766388888888,PENNSYLVANIA,ZNY,RP,IZK*LD*045.37/8.14
JUMDU,40.65782222222222,-74.81900833333333,NEW JERSEY,ZNY,RNAV,01/12/2015
JUMUX,40.851875,-76.49024722222222,PENNSYLVANIA,ZNY,RNAV,06/28/2011
JUNEY,40.31123611111111,-77.77115555555555,PENNSYLVANIA,ZNY,RP,THS*VORTAC*027.00/24.13
JUNYA,41.81963888888889,-76.37229722222222,PENNSYLVANIA,ZNY,RNAV,08/27/2003
JUPAS,40.61947777777778,-76.25457222222222,PENNSYLVANIA,ZNY,RP,LRP*VOR/DME*012.21/30.00
JURAB,40.280569444444446,-76.56234722222221,PENNSYLVANIA,ZNY,RNAV,09/02/2008
JUTES,40.80008333333333,-73.75719444444445,NEW YORK,ZNY,RNAV,04/15/2011
JUVUS,40.137727777777776,-77.15493055555557,PENNSYLVANIA,ZNY,RNAV,06/12/2014
IBIYU,41.06485277777777,-74.77564444444444,NEW JERSEY,ZNY,RNAV,06/27/2005
ICCEY,39.5078,-71.708,OFFSHORE ATLANTIC,ZNY,RNAV,10/20/2016
ICIPA,41.49545,-74.72685,NEW YORK,ZNY,RNAV,07/10/2012
IDACE,40.81168888888889,-74.09266111111111,NEW JERSEY,ZNY,RNAV,03/07/2006
IDUME,41.24088611111111,-77.08278888888889,PENNSYLVANIA,ZNY,RNAV,03/17/2003
IDWUN,40.69363333333333,-76.26278333333333,PENNSYLVANIA,ZNY,RNAV,07/10/2009
IFFLY,38.67527777777777,-73.94388888888889,OFFSHORE ATLANTIC,ZNY,WP,03/26/2002
IGCAS,40.76204722222222,-76.1151861111111,PENNSYLVANIA,ZNY,RNAV,08/16/2010
IGIDE,40.59583888888889,-73.65388055555556,NEW YORK,ZNY,RNAV,06/11/2014
IILEN,42.5207,-76.2054888888889,NEW YORK,ZNY,RP,ITH*VOR/DME*092.14
ILENE,40.14585833333333,-75.27451944444444,PENNSYLVANIA,ZNY,RNAV,02/12/2008
ILIDO,28.24463888888889,-74.123925,OFFSHORE ATLANTIC,ZNY,RNAV,08/01/2008
ILINE,39.56335277777777,-76.14028055555556,MARYLAND,ZNY,RNAV,06/20/2010
ILLGO,35.18333333333333,-74.66666666666667,OFFSHORE ATLANTIC,ZNY,RNAV,12/29/2015
ILLIW,40.009394444444446,-76.5302138888889,PENNSYLVANIA,ZNY,RNAV,05/20/2009
ILVER,40.73489166666667,-76.01510555555555,PENNSYLVANIA,ZNY,RNAV,03/11/2011
IMAME,41.193616666666664,-74.25110555555555,NEW YORK,ZNY,RNAV,12/12/2011
IMULE,39.87648333333333,-74.18595833333333,NEW JERSEY,ZNY,MW,09/06/2017
IMZIS,41.27194444444444,-74.54912777777777,NEW JERSEY,ZNY,RNAV,07/24/2012
INNEZ,39.78859722222222,-74.77932222222222,NEW JERSEY,ZNY,RP,CYN*VORTAC*273.99/16.17
INOFO,41.04396944444444,-72.27101944444445,NEW YORK,ZNY,WP,HTO*VORTAC*/7.78
IPURE,40.033852777777774,-74.60383333333333,NEW JERSEY,ZNY,MR,GXU*VORTAC*359.00/1.50
IRCIT,40.73161666666667,-76.62561944444444,PENNSYLVANIA,ZNY,RNAV,08/16/2010
IREKE,42.31578888888889,-76.63885555555557,NEW YORK,ZNY,RP,ULW*VOR/DME*064.19/21.75
IRKUH,42.19311666666666,-76.02872222222223,NEW YORK,ZNY,RNAV,03/25/2010
ISACE,40.51448888888889,-74.27761666666666,NEW JERSEY,ZNY,RNAV,12/12/2005
ISERE,40.700525000000006,-74.14642500000001,NEW JERSEY,ZNY,RNAV,07/13/2015
ISLES,39.426899999999996,-71.31349999999999,OFFSHORE ATLANTIC,ZNY,RNAV,10/20/2016
ISOLE,25.091944444444444,-74.36083333333333,OFFSHORE ATLANTIC,ZNY,RNAV,04/09/2008
ITEHO,41.731319444444445,-77.269625,PENNSYLVANIA,ZNY,RNAV,09/04/2012
ITGUW,40.369258333333335,-76.97726388888888,PENNSYLVANIA,ZNY,RNAV,05/20/2009
IWTOJ,40.99084166666667,-76.06959166666667,PENNSYLVANIA,ZNY,RNAV,03/21/2013
IXAGE,42.229794444444444,-79.89354166666668,PENNSYLVANIA,ZNY,RNAV,02/23/2004
IYIKA,40.636944444444445,-77.21044166666667,PENNSYLVANIA,ZNY,RNAV,02/22/2006
IZEKO,40.855580555555555,-74.06077499999999,NEW JERSEY,ZNY,RNAV,01/05/2010
IZIMY,41.457947222222224,-73.85595833333333,NEW YORK,ZNY,RNAV,02/09/2018
IZIWA,40.26018333333333,-75.29217222222222,PENNSYLVANIA,ZNY,RNAV,04/17/2014
IZKIP,40.678799999999995,-75.49752222222223,PENNSYLVANIA,ZNY,RP,ETX*VOR/DME*064.41
IZZEE,40.941511111111105,-77.52908611111111,PENNSYLVANIA,ZNY,RNAV,08/12/2015
EBBEE,40.56081111111111,-73.82076388888889,NEW YORK,ZNY,RP,JFK*LD*224.76/6.07
EBEGE,39.732875,-77.30793055555556,PENNSYLVANIA,ZNY,RNAV,08/17/2006
EBELE,39.991350000000004,-74.60024166666666,NEW JERSEY,ZNY,MR,GXU*VORTAC*201.00/1.10
EBOXY,40.96906666666667,-75.00237222222222,NEW JERSEY,ZNY,WP,11/02/1998
ECAVI,39.83777777777778,-72.4175,OFFSHORE ATLANTIC,ZNY,WP,03/26/2002
ECBES,40.84881111111111,-73.41665555555556,NEW YORK,ZNY,CN,06/07/2002
ECCOR,40.26576388888889,-74.25245833333334,NEW JERSEY,ZNY,MW,09/06/2017
ECEDI,41.002272222222224,-76.28486666666666,PENNSYLVANIA,ZNY,RNAV,03/20/2013
ECOCA,39.954011111111114,-77.77969722222223,PENNSYLVANIA,ZNY,RP,THS*VORTAC*087.96/8.00
ECOSE,38.39694444444444,-73.39194444444445,OFFSHORE ATLANTIC,ZNY,WP,03/26/2002
ECZEL,40.03133888888889,-75.82280555555555,PENNSYLVANIA,ZNY,RNAV,02/21/2003
EDDEK,40.266397222222224,-75.06947777777778,PENNSYLVANIA,ZNY,WP,11/02/1998
EDDER,42.358530555555554,-76.11319444444445,NEW YORK,ZNY,RP,ITH*VOR/DME*127.88
EFECO,39.959875000000004,-75.7454,PENNSYLVANIA,ZNY,RP,DQO*VORTAC*349.31
EGIBE,40.022675,-74.34196944444444,NEW JERSEY,ZNY,MR,NEL*TACAN*160.00/1.00
EGNER,39.71638055555556,-76.30037222222222,MARYLAND,ZNY,WP,06/17/1991
EGUSE,41.658655555555555,-75.89079722222223,PENNSYLVANIA,ZNY,RNAV,09/15/2009
EGYPT,40.71206666666667,-75.56329444444444,PENNSYLVANIA,ZNY,RP,FJC*VORTAC*270.00
EHLUN,40.722944444444444,-74.14920277777779,NEW JERSEY,ZNY,RNAV,02/26/2010
EHPUZ,40.717908333333334,-76.49333055555556,PENNSYLVANIA,ZNY,RNAV,07/10/2009
EITEE,31.525305555555555,-66.16258333333334,OFFSHORE ATLANTIC,ZAB,RNAV,01/10/2017
EJEBA,40.84207222222223,-75.65006666666667,PENNSYLVANIA,ZNY,RNAV,03/10/2011
EKETE,41.464958333333335,-74.36073055555555,NEW YORK,ZNY,RNAV,04/28/2010
EKSIC,40.367177777777776,-75.36822222222222,PENNSYLVANIA,ZNY,RNAV,10/29/2009
ELCAM,39.598888888888894,-72.575,OFFSHORE ATLANTIC,ZNY,RNAV,03/23/2018
ELEXY,41.43158611111111,-76.12644444444443,PENNSYLVANIA,ZNY,RNAV,08/21/2013
ELIOT,40.818513888888894,-75.13011944444443,PENNSYLVANIA,ZNY,RP,BWZ*VOR/DME*286.00
ELIZE,40.91297222222222,-74.67668888888889,NEW JERSEY,ZNY,RNAV,07/28/2009
ELJEZ,18.0,-57.0,OFFSHORE ATLANTIC,ZNY,RNAV,12/22/2014
ELREQ,42.44271111111111,-76.92538888888889,NEW YORK,ZNY,RNAV,03/23/2007
ELVAE,40.54633333333333,-74.27633333333333,NEW JERSEY,ZNY,RP,COL*VOR/DME*350.25/15.05
EMAKO,31.396413888888887,-68.23868333333334,OFFSHORE ATLANTIC,ZNY,RNAV,05/27/2008
EMATE,41.65841944444444,-77.38196666666666,PENNSYLVANIA,ZNY,RNAV,08/17/2006
EMBAY,40.51674722222222,-74.27995277777778,NEW JERSEY,ZNY,RP,CRI*VOR/DME*263.09
EMJAY,40.093025000000004,-73.26175277777777,NEW JERSEY,ZNY,RP,JFK*VOR/DME*156.00/39.93
EMPYR,40.46154722222222,-74.22646944444445,NEW YORK,ZNY,RP,SBJ*VOR/DME*117.00/24.68
EMQUE,31.999083333333335,-76.6866388888889,OFFSHORE ATLANTIC,ZNY,RNAV,05/02/2008
EMRSN,41.00171111111111,-74.55358055555556,NEW JERSEY,ZNY,RNAV,08/31/2015
EMUNY,40.24677777777778,-74.85314444444444,PENNSYLVANIA,ZDC,RP,GXU*VORTAC*332.38
ENAPI,33.206025000000004,-68.10599166666667,OFFSHORE ATLANTIC,ZNY,RNAV,01/10/2017
ENVUH,40.55911111111111,-69.0563611111111,OFFSHORE ATLANTIC,ZNY,WP,03/26/2002
EPAHA,40.85692777777778,-74.06376944444445,NEW JERSEY,ZNY,RNAV,01/05/2010
EPEYI,41.25346666666667,-76.84954444444443,PENNSYLVANIA,ZNY,RNAV,07/05/2011
ERHOW,40.65548611111111,-74.77808888888889,NEW JERSEY,ZNY,CN,12/04/2014
ERINN,42.202313888888895,-76.82416944444444,NEW YORK,ZNY,RP,ULW*VOR/DME*/11.06
ERORE,40.954819444444446,-73.89923333333334,NEW YORK,ZNY,RNAV,10/02/2012
ESAAL,40.10517222222222,-76.44214166666667,PENNSYLVANIA,ZNY,RP,LRP*VOR/DME*271.77/7.00
ESEBY,42.51739444444444,-76.50478611111112,NEW YORK,ZNY,RP,ITH*VOR/DME*314.00/2.40
ESJAY,41.23396944444445,-74.06786666666666,NEW YORK,ZNY,RP,CMK*VOR/DME*275.00
ESTOO,39.720463888888894,-75.87465833333333,MARYLAND,ZNY,RNAV,09/11/2009
ETATE,41.012861111111114,-78.30721666666666,PENNSYLVANIA,ZNY,RNAV,08/17/2006
ETINY,41.50575833333333,-74.52491388888889,NEW YORK,ZNY,CN,12/04/2014
ETSIW,40.67948055555555,-76.13052499999999,PENNSYLVANIA,ZNY,RNAV,07/10/2009
ETUVY,40.20360277777778,-76.85118888888888,PENNSYLVANIA,ZNY,RNAV,04/20/2011
EUMIG,40.98267777777778,-75.92019444444445,PENNSYLVANIA,ZNY,RNAV,03/20/2013
EVAMY,41.43966944444444,-74.65237222222223,NEW YORK,ZNY,RNAV,07/24/2012
EVEGE,40.80721666666666,-74.15038055555556,NEW JERSEY,ZNY,RNAV,07/28/2009
EVITT,40.55191666666666,-75.07764999999999,NEW JERSEY,ZNY,RP,SBJ*VOR/DME*272.88/15.47
EWOKO,40.37643888888889,-75.33553333333333,PENNSYLVANIA,ZNY,RNAV,10/29/2009
EXAGE,41.28550833333333,-75.52770277777778,PENNSYLVANIA,ZNY,RP,LVZ*VORTAC*094.00/7.36
EXLAV,41.01226111111111,-76.96195833333334,PENNSYLVANIA,ZNY,RNAV,08/24/2017
EXPRS,39.906036111111106,-75.50748333333334,PENNSYLVANIA,ZNY,RNAV,09/26/2002
EXTOL,42.657691666666665,-76.6183611111111,NEW YORK,ZNY,RP,ROC*VOR/DME*132.33
EXXES,39.44130555555555,-72.99008333333333,OFFSHORE ATLANTIC,ZNY,RP,JFK*VOR/DME*165.00/80.00
EYMON,40.33783888888889,-75.47130833333334,PENNSYLVANIA,ZNY,RNAV,01/30/2001
EYRIE,39.9914,-75.0837,PENNSYLVANIA,ZNY,RNAV,09/26/2002
EZABO,40.22146111111111,-75.78261944444445,PENNSYLVANIA,ZNY,RNAV,04/17/2014
EZIMO,40.413494444444446,-76.41191666666667,PENNSYLVANIA,ZNY,CN,02/06/2012
EZUCE,40.76480277777778,-77.49559722222223,PENNSYLVANIA,ZNY,RNAV,06/17/2008
EZUMO,39.79182222222222,-76.79856944444444,PENNSYLVANIA,ZNY,RNAV,04/20/2011
PACHU,40.66016388888889,-73.97398333333334,NEW YORK,ZNY,RNAV,05/04/2017
PACKS,40.13480833333333,-75.06943055555556,PENNSYLVANIA,ZDC,RNAV,02/08/2012
PADRE,39.93796388888889,-76.05517499999999,PENNSYLVANIA,ZNY,RP,LRP*VOR/DME*144.00
PAEPR,35.042,-72.41658333333334,OFFSHORE ATLANTIC,ZNY,RNAV,04/14/2008
PAGED,40.504558333333335,-74.79199444444444,NEW JERSEY,ZNY,WP,11/02/1998
PALET,39.89423055555555,-74.33554444444444,NEW JERSEY,ZNY,RP,CYN*VORTAC*053.89/6.40
PALVE,40.55697222222222,-73.94019444444444,NEW YORK,ZNY,RNAV,04/25/2012
PAMRE,40.10386388888889,-74.24386944444444,NEW JERSEY,ZNY,MR,NEL*NDB*061.00
PANNE,41.17781111111111,-75.47646944444445,PENNSYLVANIA,ZNY,RP,LVZ*VORTAC*130.50/11.20
PANZE,39.67599444444444,-74.16818055555557,NEW JERSEY,ZNY,RP,CYN*VORTAC*134.71
PAOLI,39.975636111111115,-75.53436944444444,PENNSYLVANIA,ZNY,WP,06/13/1991
PARGS,40.82255000000001,-73.83578333333332,NEW YORK,ZNY,RNAV,07/11/2007
PARKE,40.68318333333333,-75.07647777777777,NEW JERSEY,ZNY,RP,SBJ*VOR/DME*301.55
PATRN,40.941222222222216,-74.15092222222223,NEW JERSEY,ZNY,RP,HUO*VOR/DME*155.45
PATTI,41.02453055555556,-74.73717500000001,NEW JERSEY,ZNY,RP,BWZ*VOR/DME*026.83/14.09
PAYCO,39.74632777777778,-76.57621388888889,PENNSYLVANIA,ZNY,RNAV,04/20/2011
PAYMI,40.85900277777778,-74.03953888888888,NEW JERSEY,ZNY,RP,LGA*VOR/DME*312.16
PEETS,32.61285,-64.753,OFFSHORE ATLANTIC,ZNY,RNAV,01/10/2017
PEGDE,40.460547222222225,-76.34386111111111,PENNSYLVANIA,ZNY,RNAV,11/16/2006
PENNS,40.88063611111111,-75.10955,PENNSYLVANIA,ZNY,RP,BWZ*VOR/DME*301.71/14.00
PENSY,39.90721111111111,-76.18253611111112,PENNSYLVANIA,ZNY,RP,PTW*VORTAC*245.82/34.33
PENUE,40.91075277777777,-77.74219722222222,PENNSYLVANIA,ZNY,RNAV,02/28/2014
PENYT,39.23112777777778,-68.499375,OFFSHORE ATLANTIC,ZNY,RNAV,09/09/2008
PEPLE,40.920786111111106,-74.95764722222222,NEW JERSEY,ZNY,RNAV,03/03/2003
PERDO,33.68716111111111,-71.03698888888889,OFFSHORE ATLANTIC,ZNY,RNAV,05/27/2008
PERSD,32.37233611111111,-65.43415555555556,OFFSHORE ATLANTIC,ZNY,RNAV,02/27/2018
PESME,40.78737888888889,-74.18795138888889,NEW JERSEY,ZNY,RNAV,11/20/2013
PGODA,40.42937777777777,-76.07693333333333,PENNSYLVANIA,ZNY,RP,LRP*VOR/DME*036.88
PHILA,40.02348611111111,-75.46249444444445,PENNSYLVANIA,ZNY,RNAV,08/16/2010
PHLBO,40.83038611111112,-74.56018888888889,NEW JERSEY,ZNY,RNAV,01/11/2007
PHYLS,39.55043055555555,-72.69216666666667,OFFSHORE ATLANTIC,ZNY,WP,03/26/2002
PICKE,40.0037,-74.19334444444445,NEW JERSEY,ZNY,RP,CYN*VORTAC*054.48/15.68
PIDTO,40.613772222222224,-73.79202777777778,NEW YORK,ZNY,RNAV,06/29/2005
PIERC,32.03516388888889,-65.99948611111111,OFFSHORE ATLANTIC,ZNY,RNAV,08/25/2009
PIERO,40.72870277777778,-73.84656944444444,NEW YORK,ZNY,RNAV,05/04/2017
PIFER,39.95723055555556,-77.0303888888889,PENNSYLVANIA,ZNY,RP,THS*VORTAC*094.76/42.50
PIJAY,40.565597222222216,-74.03800833333334,NEW YORK,ZNY,RNAV,07/13/2015
PILES,39.990363888888886,-74.26196944444445,NEW JERSEY,ZNY,RP,GXU*VORTAC*105.16
PIMUE,40.70460555555556,-75.08706666666666,NEW JERSEY,ZNY,RNAV,05/13/2013
PINEZ,40.73875,-74.39469722222223,NEW JERSEY,ZNY,RP,JFK*VOR/DME*294.78/29.15
PINNA,40.608497222222226,-75.8367111111111,PENNSYLVANIA,ZNY,RP,ETX*VOR/DME*292.33/7.17
PINNS,41.245222222222225,-73.95082500000001,NEW YORK,ZNY,RP,CMK*VOR/DME*275.00/16.85
PIREX,29.37436111111111,-64.32118888888888,OFFSHORE ATLANTIC,ZNY,RP,BDA*VOR/DME*188.84/180.00
PISTE,41.28378611111111,-75.76975,PENNSYLVANIA,ZNY,RNAV,09/05/2013
PIXDY,40.8945,-73.99997222222223,NEW JERSEY,ZNY,RNAV,07/29/2009
PIYIN,40.77659722222222,-74.49898333333333,NEW JERSEY,ZNY,RP,BWZ*VOR/DME*105.98
PLAYS,40.08400555555556,-75.35794999999999,PENNSYLVANIA,ZNY,RNAV,08/17/2010
PLEXS,40.451661111111115,-74.54788333333333,NEW JERSEY,ZNY,RP,SBJ*VOR/DME*141.54
PLUME,40.118519444444445,-73.28556388888889,NEW JERSEY,ZNY,RP,JFK*VOR/DME*156.00
POKOE,41.31820277777778,-77.12416666666665,PENNSYLVANIA,ZNY,RNAV,03/17/2003
POLCU,40.07973055555556,-76.43318333333333,PENNSYLVANIA,ZNY,RP,LRP*VOR/DME*258.77/6.96
POMUF,40.22910277777778,-75.68792777777779,PENNSYLVANIA,ZNY,RNAV,04/17/2014
PONAE,40.59960277777778,-74.02375833333333,NEW YORK,ZNY,RNAV,07/12/2007
PONEY,40.69358333333333,-73.86946111111111,NEW YORK,ZNY,RP,LGA*VOR/DME*192.41
POPOP,32.119994444444444,-65.63449166666668,OFFSHORE ATLANTIC,ZNY,RNAV,01/10/2017
POPPN,39.6493,-72.19330000000001,OFFSHORE ATLANTIC,ZNY,RNAV,10/20/2016
PORTT,40.590805555555555,-74.29395,NEW JERSEY,ZNY,RNAV,06/09/2008
POTTE,39.959225,-77.73688333333334,PENNSYLVANIA,ZNY,RP,THS*VORTAC*087.96/10.00
POTVN,39.095400000000005,-68.7309,OFFSHORE ATLANTIC,ZNY,RNAV,10/20/2016
PRCHA,22.92453888888889,-66.35290555555555,OFFSHORE ATLANTIC,ZNY,RNAV,12/20/2009
PREPI,39.81140555555555,-73.26130555555555,OFFSHORE ATLANTIC,ZNY,RP,CYN*VORTAC*100.00/54.11
PRIVO,40.08293611111112,-77.74889166666667,PENNSYLVANIA,ZNY,RP,THS*VORTAC*053.00
PRLJM,40.0,-71.81666666666666,OFFSHORE ATLANTIC,ZNY,RNAV,02/12/2016
PROPP,40.193688888888886,-75.19611666666667,PENNSYLVANIA,ZNY,RP,ARD*VOR/DME*265.00/14.00
PROUD,40.62979166666667,-73.99975555555555,NEW YORK,ZNY,RP,LGA*VOR/DME*225.00/11.00
PRTZL,40.072269444444444,-77.10671111111111,PENNSYLVANIA,ZNY,RP,SEG*VOR/DME*201.40/44.28
PRUZK,40.786674999999995,-73.88769444444445,NEW YORK,ZNY,RNAV,01/26/2017
PTAKI,42.65008611111111,-76.60132499999999,NEW YORK,ZNY,RP,ITH*VOR/DME*336.07
PUNLE,40.98062777777778,-76.68705277777778,PENNSYLVANIA,ZNY,RNAV,09/26/2002
PYCAT,40.446275,-77.2892611111111,PENNSYLVANIA,ZNY,RP,HAR*VORTAC*320.68/13.27
QATAR,40.60390833333334,-74.02775277777778,NEW YORK,ZNY,RP,LGA*VOR/DME*226.02/13.00
QINCY,35.36666666666667,-64.46666666666667,OFFSHORE ATLANTIC,ZNY,RNAV,01/10/2017
QNEPA,22.841324999999998,-64.04058333333333,OFFSHORE ATLANTIC,ZNY,RNAV,04/09/2008
QRTET,31.75225,-67.07736388888888,OFFSHORE ATLANTIC,ZNY,RNAV,08/29/2009
QTIPP,41.64680833333333,-74.9147638888889,NEW YORK,ZNY,RNAV,09/03/2013
QUALE,40.082750000000004,-76.23444166666667,PENNSYLVANIA,ZNY,RP,LRP*VOR/DME*139.42/3.44
QUENE,40.68351666666666,-73.68307777777778,NEW YORK,ZNY,RP,CRI*VOR/DME*077.12
DABAK,18.0,-51.325,OFFSHORE ATLANTIC,ZNY,RNAV,05/02/2008
DACEM,38.46638888888889,-127.0,OFFSHORE PACIFIC,ZOA,RP,08/27/2003
DAFIX,39.914008333333335,-77.70021666666666,PENNSYLVANIA,ZNY,RP,PSB*VORTAC*177.33/61.57
DALAC,40.03563611111111,-76.57385833333333,PENNSYLVANIA,ZNY,RP,LRP*VOR/DME*257.86/13.96
DAMTE,39.81133055555555,-74.75696944444445,NEW JERSEY,ZNY,MR,GXU*VORTAC*224.00/14.00
DANDY,40.780030555555555,-74.16818888888889,NEW JERSEY,ZNY,RP,TEB*VOR/DME*/6.34
DANNR,40.666422222222224,-76.2401888888889,PENNSYLVANIA,ZNY,RP,LRP*VOR/DME*013.07
DAPNY,40.25143888888889,-76.7208888888889,PENNSYLVANIA,ZNY,RNAV,06/12/2014
DAPVY,40.46225555555556,-74.38843333333334,NEW JERSEY,ZNY,RNAV,02/09/2018
DARBO,41.80032222222222,-75.95110555555556,PENNSYLVANIA,ZNY,RP,ULW*VOR/DME*121.78/51.21
DARUX,36.15987777777778,-69.45508611111111,OFFSHORE ATLANTIC,ZNY,RNAV,06/11/2008
DASDE,40.11877222222222,-75.39339166666667,PENNSYLVANIA,ZNY,RNAV,06/25/2015
DASER,34.138508333333334,-67.57762222222222,OFFSHORE ATLANTIC,ZNY,RNAV,BDA*VOR/DME*321.96/180.00
DAVEW,40.211336111111116,-77.50164722222222,PENNSYLVANIA,ZNY,RNAV,09/03/2003
DAVIM,40.828969444444446,-74.09640277777777,NEW JERSEY,ZNY,RNAV,05/31/2017
DAVYT,34.18145555555555,-66.11589166666666,OFFSHORE ATLANTIC,ZNY,RNAV,01/10/2017
DBABE,41.141666666666666,-74.0961111111111,NEW YORK,ZNY,RNAV,06/30/2015
DCOTA,40.713094444444444,-74.24162777777778,NEW JERSEY,ZNY,RP,JFK*VOR/DME*294.78/22.00
DEACN,42.508469444444444,-76.64594722222223,NEW YORK,ZNY,RNAV,11/28/2017
DECKR,40.651963888888886,-74.04502777777778,NEW YORK,ZNY,RNAV,06/08/2011
DEDME,39.754444444444445,-72.275,OFFSHORE ATLANTIC,ZNY,WP,03/26/2002
DEGDE,41.21460277777778,-75.601475,PENNSYLVANIA,ZNY,RNAV,10/18/2012
DEGDY,40.48455,-75.98062777777778,PENNSYLVANIA,ZNY,RNAV,07/09/2009
DELLI,40.723261111111114,-74.28128611111111,NEW JERSEY,ZNY,RP,TEB*VOR/DME*244.07/12.50
DELRO,39.965475000000005,-76.62534444444444,PENNSYLVANIA,ZNY,RP,BAL*VORTAC*012.99
DEMGY,39.50861111111111,-72.4713888888889,OFFSHORE ATLANTIC,ZNY,WP,03/26/2002
DEPME,41.767427777777776,-75.94622777777778,PENNSYLVANIA,ZNY,RNAV,08/16/2006
DETTE,40.23798333333333,-76.040675,PENNSYLVANIA,ZNY,RP,LRP*VOR/DME*067.37/13.52
DEUCE,40.643030555555555,-73.41278055555556,NEW YORK,ZNY,RNAV,06/27/2011
DEYEC,39.81610833333333,-74.5683,NEW JERSEY,ZNY,MW,06/16/2011
DFRTZ,40.46946944444445,-74.69055277777778,NEW JERSEY,ZNY,RP,SBJ*VOR/DME*170.99
DGRAF,41.686255555555555,-76.22254166666667,PENNSYLVANIA,ZNY,RP,HNK*VOR/DME*252.22/46.48
DHALP,40.96517222222222,-73.7223861111111,NEW YORK,ZNY,RNAV,01/26/2017
DIAAN,38.43816666666666,-73.48333333333333,OFFSHORE ATLANTIC,ZNY,RP,SIE*VORTAC*131.10/73.29
DIALS,40.71556944444445,-73.92676666666667,NEW YORK,ZNY,RP,LGA*VOR/DME*225.01/4.87
DIANO,41.00055277777778,-76.22605,PENNSYLVANIA,ZNY,RP,SEG*VOR/DME*075.00/32.47
DICAN,39.937888888888885,-77.69413888888889,PENNSYLVANIA,ZNY,RNAV,09/03/2003
DIMPE,41.03663611111111,-76.50520277777778,PENNSYLVANIA,ZNY,RNAV,04/18/2017
DINSY,41.090722222222226,-74.66434166666667,NEW JERSEY,ZNY,RNAV,08/20/2009
DIPGE,41.86031944444444,-76.35301944444444,PENNSYLVANIA,ZNY,RNAV,08/27/2003
DIPPY,40.43117222222222,-76.51527777777778,PENNSYLVANIA,ZNY,MR,BZJ*NDB*108.81
DIRMY,40.56339444444444,-74.47036944444444,NEW JERSEY,ZNY,RP,SAX*VORTAC*185.13/30.39
DIRPE,40.473038888888894,-74.99361944444445,NEW JERSEY,ZNY,RP,SBJ*VOR/DME*250.29/13.28
DITCH,39.79385,-74.71663333333333,NEW JERSEY,ZNY,RP,CYN*VORTAC*274.00/13.25
DIVET,38.32888888888889,-73.26027777777777,OFFSHORE ATLANTIC,ZNY,WP,03/26/2002
DIVTE,40.90331944444444,-76.71585277777778,PENNSYLVANIA,ZNY,RNAV,12/11/2017
DIXIE,40.09936666666667,-74.16449166666668,NEW JERSEY,ZNY,RP,COL*VOR/DME*191.99
DIYAD,41.43581111111111,-74.29436666666666,NEW YORK,ZNY,RP,HUO*VOR/DME*094.24/13.51
DLUCA,39.43882222222222,-76.43007222222222,MARYLAND,ZNY,RP,BAL*VORTAC*044.78/19.33
DMARZ,31.350355555555556,-66.70863611111112,OFFSHORE ATLANTIC,ZNY,RNAV,01/10/2017
DMYHL,40.649588888888886,-73.86630833333332,NEW YORK,ZNY,RP,CRI*VOR/DME*041.00/2.57
DNNIS,40.69938055555555,-73.94169166666667,NEW YORK,ZNY,RP,LGA*VOR/DME*/6.06
DNSTN,32.19978333333333,-66.41421111111111,OFFSHORE ATLANTIC,ZNY,RNAV,01/10/2017
DOBLE,40.08710833333333,-74.48015000000001,NEW JERSEY,ZNY,MR,GXU*VORTAC*061.00/7.10
DOCLO,42.676430555555555,-76.09596388888889,NEW YORK,ZNY,CN,06/07/2002
DOCYU,41.353725000000004,-74.59346388888889,NEW YORK,ZNY,RNAV,07/24/2012
DODLY,40.72938333333334,-74.62483055555555,NEW JERSEY,ZNY,RNAV,06/15/2009
DOMVY,41.87136666666667,-76.22943333333333,PENNSYLVANIA,ZNY,RP,ULW*VOR/DME*122.32/38.02
DONAA,39.6217,-72.6142,OFFSHORE ATLANTIC,ZNY,RNAV,10/20/2016
DOOIN,40.602136111111115,-74.22213055555555,NEW JERSEY,ZNY,RP,CRI*VOR/DME*278.74
DOORE,41.02817777777778,-74.36770277777777,NEW JERSEY,ZNY,RP,LGA*VOR/DME*315.01/27.03
DOOTH,40.87511388888889,-77.68985,PENNSYLVANIA,ZNY,RP,PSB*VORTAC*110.05/14.00
DOPRE,40.48441944444445,-74.56398333333333,NEW JERSEY,ZNY,RNAV,12/20/2013
DORTH,39.72631388888889,-74.67061666666667,NEW JERSEY,ZNY,RP,VCN*VOR/DME*060.46/17.80
DOSAN,40.44211111111111,-68.87497222222221,OFFSHORE ATLANTIC,ZNY,WP,03/26/2002
DOSTR,40.461175000000004,-75.7168138888889,PENNSYLVANIA,ZNY,RNAV,10/05/2007
DOVEY,41.11666666666667,-67.0,OFFSHORE ATLANTIC,ZNY,RNAV,08/27/2015
DOVPY,39.93687222222222,-76.1391388888889,PENNSYLVANIA,ZNY,RNAV,06/18/2008
DOWDY,41.013083333333334,-74.17724722222222,NEW JERSEY,ZNY,RP,TEB*VOR/DME*343.08
DRDGE,18.0,-58.0,OFFSHORE ATLANTIC,ZNY,RNAV,12/22/2014
DREMS,40.42788611111111,-74.54075277777778,NEW JERSEY,ZNY,RP,COL*VOR/DME*302.87/18.81
DRIFT,39.814877777777774,-73.680425,NEW JERSEY,ZNY,RP,CYN*VORTAC*100.00/34.73
DRRES,39.90351111111111,-76.5466,PENNSYLVANIA,ZNY,RNAV,08/12/2015
DRREW,31.849838888888886,-65.46231666666667,OFFSHORE ATLANTIC,ZNY,RNAV,01/10/2017
DRYED,38.63227777777778,-66.66746111111111,OFFSHORE ATLANTIC,ZNY,RNAV,06/09/2008
DUCVA,39.93405833333333,-74.92545,NEW JERSEY,ZNY,RNAV,09/12/2005
DUFFY,40.79111111111111,-73.52260833333334,NEW YORK,ZNY,RP,CMK*VOR/DME*186.79
DUMFY,39.751688888888886,-74.86020555555555,NEW JERSEY,ZNY,RNAV,05/31/2000
DUMKY,41.37598333333333,-74.53612777777778,NEW YORK,ZNY,RNAV,07/24/2012
DUMMR,40.469633333333334,-76.1111611111111,PENNSYLVANIA,ZNY,RP,LRP*VOR/DME*030.47
DUMPR,39.7451,-71.9924,OFFSHORE ATLANTIC,ZNY,RNAV,10/20/2016
DUMVF,40.635777777777776,-76.31090555555555,PENNSYLVANIA,ZNY,RNAV,08/17/2006
DUNIG,28.823366666666665,-68.74079166666667,OFFSHORE ATLANTIC,ZNY,RNAV,02/07/2008
DUNKY,32.89826111111111,-63.93083055555555,OFFSHORE ATLANTIC,ZNY,RNAV,01/10/2017
DUNVE,40.42966666666666,-75.33595555555556,PENNSYLVANIA,ZNY,RNAV,04/20/2012
DUOVR,40.118497222222224,-74.61812222222221,NEW JERSEY,ZNY,MW,11/03/2015
DUPAN,25.512505555555556,-64.58191944444444,OFFSHORE ATLANTIC,ZNY,RNAV,04/16/2008
DUPOX,27.940969444444445,-68.54110555555556,OFFSHORE ATLANTIC,ZNY,RNAV,04/11/2008
DUTTU,39.76027777777778,-74.89748333333334,NEW JERSEY,ZNY,RNAV,01/26/2009
DUYAB,40.54252222222222,-74.5629861111111,NEW JERSEY,ZNY,RNAV,03/10/2011
DVETO,40.451505555555556,-73.9607388888889,NEW YORK,ZNY,RNAV,06/02/2009
DWIZZ,40.59665833333334,-74.40654444444445,NEW JERSEY,ZNY,RNAV,07/13/2015
DWURF,40.780569444444446,-74.33880555555555,NEW JERSEY,ZNY,RNAV,04/01/2008
HAAGN,39.96149722222223,-76.0762,PENNSYLVANIA,ZNY,RP,ETX*VOR/DME*215.00/41.28
HAAYS,41.32000555555556,-74.46718055555556,NEW YORK,ZNY,RP,HUO*VOR/DME*144.69/7.78
HAAYY,35.30833333333333,-74.83333333333333,OFFSHORE ATLANTIC,ZNY,RNAV,12/29/2015
HABER,40.01777222222222,-76.13540277777778,PENNSYLVANIA,ZNY,RP,LRP*VOR/DME*139.42/9.44
HABOM,42.15625555555555,-77.05485833333333,NEW YORK,ZNY,RNAV,09/12/2012
HADAD,40.40926666666667,-75.55923888888888,PENNSYLVANIA,ZNY,RNAV,05/13/2013
HAGOD,41.80340833333333,-75.86418888888889,PENNSYLVANIA,ZNY,RNAV,08/19/2006
HAGRU,40.93401944444444,-78.38849166666667,PENNSYLVANIA,ZNY,RNAV,08/19/2006
HAILS,40.570397222222226,-76.058825,PENNSYLVANIA,ZNY,RP,LRP*VOR/DME*030.47
HALNI,41.10251944444445,-77.51342222222222,PENNSYLVANIA,ZNY,RNAV,11/07/2014
HALPA,40.697824999999995,-74.10602777777777,NEW JERSEY,ZNY,RNAV,02/02/2009
HALVE,40.13478333333333,-75.26996111111112,PENNSYLVANIA,ZNY,WP,PTW*VORTAC*120.35/14.34
HAMMA,40.20467777777778,-74.74755277777778,NEW JERSEY,ZDC,RNAV,08/16/2012
HAMOR,39.85574722222222,-75.78799722222222,PENNSYLVANIA,ZNY,RNAV,06/08/2011
HAMPR,39.515372222222226,-77.10815833333332,MARYLAND,ZNY,RNAV,12/07/2011
HANRI,31.76463888888889,-77.0,OFFSHORE ATLANTIC,ZNY,RNAV,05/02/2008
HANSS,40.64968888888889,-74.84722222222221,NEW JERSEY,ZNY,RNAV,08/25/2015
HAPVY,38.513333333333335,-73.62666666666667,OFFSHORE ATLANTIC,ZNY,RNAV,03/23/2018
HARBO,39.607511111111116,-74.00737777777778,NEW JERSEY,ZNY,RP,CYN*VORTAC*132.50
HARLM,40.490744444444445,-74.74909166666667,NEW JERSEY,ZNY,RP,COL*VOR/DME*302.87/29.07
HARRS,40.34070833333334,-75.08369166666667,PENNSYLVANIA,ZNY,RP,SBJ*VOR/DME*237.25/21.36
HARRY,40.78627222222222,-73.87809444444444,NEW YORK,ZNY,RP,BDR*VOR/DME*249.00
HARTY,41.07118888888889,-75.08989444444444,PENNSYLVANIA,ZNY,RP,STW*VOR/DME*305.33/11.00
HASIS,40.76488611111111,-75.67234444444445,PENNSYLVANIA,ZNY,RP,ETX*VOR/DME*011.77
HATBU,40.14514166666667,-76.22282222222222,PENNSYLVANIA,ZNY,RNAV,06/10/2011
HAVES,41.11689722222222,-77.48910277777777,PENNSYLVANIA,ZNY,RNAV,08/19/2006
HAVUM,40.77670833333333,-76.69093055555555,PENNSYLVANIA,ZNY,RNAV,08/19/2006
HAVVI,41.01164722222222,-75.23409444444445,PENNSYLVANIA,ZNY,RNAV,07/24/2012
HAWLY,41.53980833333333,-75.09046111111111,PENNSYLVANIA,ZNY,RP,LGA*VOR/DME*321.71/71.57
HAWNS,40.98084444444444,-75.88712777777778,PENNSYLVANIA,ZNY,RP,ETX*VOR/DME*347.95
HAXEL,40.69913611111111,-74.78356388888889,NEW JERSEY,ZNY,RNAV,03/13/2017
HAYED,41.14391666666667,-76.05345277777778,PENNSYLVANIA,ZNY,RP,LVZ*VORTAC*255.00/18.21
HAYER,40.301938888888884,-74.69926944444445,NEW JERSEY,ZNY,WP,06/14/1991
HAZNN,41.20151111111112,-75.83959722222222,PENNSYLVANIA,ZNY,RNAV,09/05/2013
HEAPP,41.09987777777778,-75.9385638888889,PENNSYLVANIA,ZNY,RP,LVZ*VORTAC*237.50/15.33
HEBAD,40.749208333333335,-74.88880555555556,NEW JERSEY,ZNY,RNAV,05/21/2009
HEBAR,40.63638888888889,-74.71147777777779,NEW JERSEY,ZNY,RNAV,02/25/2003
HEBIL,40.973822222222225,-78.34851388888889,PENNSYLVANIA,ZNY,RNAV,03/20/2015
HEDED,40.204172222222226,-76.0316,PENNSYLVANIA,ZNY,RNAV,06/10/2011
HEDIB,40.82266388888889,-76.66489722222222,PENNSYLVANIA,ZNY,RNAV,10/21/2014
HEERO,41.16885555555555,-74.11558055555555,NEW YORK,ZNY,RNAV,08/29/2011
HEGIN,40.64161111111111,-76.46604166666667,PENNSYLVANIA,ZNY,RP,RAV*VORTAC*060.00/8.07
HELEP,41.277877777777775,-74.04669444444444,NEW YORK,ZNY,RNAV,08/06/2010
HELIN,40.600147222222226,-73.62205277777777,NEW YORK,ZNY,RP,DPK*VOR/DME*243.77
HELOD,41.38319166666667,-75.69921666666667,PENNSYLVANIA,ZNY,RNAV,08/19/2006
HELOG,40.54671666666666,-73.994375,NEW YORK,ZNY,RNAV,06/10/2002
HENEB,40.72333611111112,-73.70630833333334,NEW YORK,ZNY,RNAV,06/29/2005
HENIB,40.669013888888884,-74.18349166666667,NEW JERSEY,ZNY,RNAV,03/07/2006
HEPIS,41.51447777777778,-75.25312777777778,PENNSYLVANIA,ZNY,RP,LVZ*VORTAC*063.52/24.46
HEPOP,40.97372222222222,-76.51098333333333,PENNSYLVANIA,ZNY,RNAV,04/26/2012
HEPVO,41.86163888888889,-76.22360833333333,PENNSYLVANIA,ZNY,RNAV,11/02/2017
HERDA,40.63105,-77.24776666666666,PENNSYLVANIA,ZNY,RP,HAR*VORTAC*347.57
HERES,39.55363333333333,-76.80008611111111,MARYLAND,ZNY,RP,EMI*VORTAC*074.96/9.00
HERHY,39.99118611111111,-75.57609722222222,PENNSYLVANIA,ZNY,RP,MXE*VORTAC*053.87/6.19
HEROS,40.71226666666667,-74.01313888888889,NEW YORK,ZNY,RNAV,01/16/2004
HERUB,40.95196666666667,-76.481025,PENNSYLVANIA,ZNY,RNAV,04/19/2017
HESIN,41.097188888888894,-74.39204722222223,NEW JERSEY,ZNY,RNAV,12/12/2011
HESIP,40.78579166666667,-73.56482777777778,NEW YORK,ZNY,RNAV,04/25/2005
HESOR,40.68821944444444,-73.72123888888889,NEW YORK,ZNY,RNAV,08/11/2008
HESPO,41.41408333333333,-75.3422361111111,PENNSYLVANIA,ZNY,RNAV,01/31/2002
HEVIR,39.57403611111111,-76.98003888888888,MARYLAND,ZNY,RNAV,04/21/2010
HEVNO,40.85781388888889,-77.87109166666666,PENNSYLVANIA,ZNY,RNAV,08/14/2013
HEVNU,40.90051388888889,-74.03204166666667,NEW JERSEY,ZNY,RNAV,12/12/2005
HEWFY,40.020777777777774,-75.59379166666666,PENNSYLVANIA,ZNY,RNAV,06/18/2008
HEXEF,41.045791666666666,-72.80603055555555,NEW YORK,ZNY,WP,04/10/2001
HIFAL,39.972,-75.1746,PENNSYLVANIA,ZNY,RNAV,09/26/2002
HIGAD,40.10857222222222,-74.61465,NEW JERSEY,ZDC,MR,GXU*VORTAC*004.00/6.00
HIKES,40.38220277777778,-75.61524999999999,PENNSYLVANIA,ZNY,RP,ARD*VOR/DME*293.61/33.38
HIKIM,41.83562222222223,-75.85265277777778,PENNSYLVANIA,ZNY,RNAV,08/12/2015
HILKI,40.85904444444444,-74.48307222222222,NEW JERSEY,ZNY,RNAV,11/04/2011
HILOG,40.31321666666666,-74.90714444444446,PENNSYLVANIA,ZNY,RNAV,10/16/2006
HIMAR,40.484408333333334,-74.41177222222223,NEW JERSEY,ZNY,RNAV,10/16/2006
HIMDA,39.953775,-74.2684111111111,NEW JERSEY,ZNY,MW,09/06/2017
HIMVU,40.28425,-76.66685555555556,PENNSYLVANIA,ZNY,RNAV,09/02/2008
HINDU,40.37688333333333,-75.47857222222223,PENNSYLVANIA,ZNY,RP,PTW*VORTAC*031.00/10.00
HINSA,40.936527777777776,-76.87353888888889,PENNSYLVANIA,ZNY,RNAV,12/04/2006
HINTO,40.14640555555555,-76.6419388888889,PENNSYLVANIA,ZNY,RP,HQA*LS*SE CRS
HIPSI,40.675977777777774,-77.46455555555556,PENNSYLVANIA,ZNY,RNAV,02/26/2015
