name,latitude,longitude,state,artcc,type,updated
TANZY,17.66877777777778,-64.40246944444445,VIRGIN ISLANDS,ZSU,RP,COY*VOR/DME*112.89/17.53
TARGT,18.46765,-67.22689166666667,PUERTO RICO,ZSU,RP,BQN*VORTAC*265.00/7.00
TAYOG,17.90433611111111,-66.85416111111111,PUERTO RICO,ZSU,RNAV,06/27/2017
TBURN,18.574827777777777,-66.86448888888889,PUERTO RICO,ZSU,RNAV,05/06/2013
TEJOS,17.96568611111111,-66.52811666666666,PUERTO RICO,ZSU,RNAV,01/21/2015
THANK,21.460372222222222,-66.05347777777777,PUERTO RICO,ZSU,RNAV,DDP*NDB*017.41
TIKAL,17.473805555555554,-62.81800277777778,PUERTO RICO,ZSU,RP,PJM*VOR/DME*164.90/37.88
TILDI,20.16361111111111,-67.62944444444443,PUERTO RICO,ZSU,RNAV,04/08/2008
TNNER,18.433875,-66.19948333333333,PUERTO RICO,ZSU,RP,SJU*VORTAC*277.49/12.00
TOREY,17.422841666666667,-66.49274722222222,OFFSHORE ATLANTIC,ZSU,RNAV,07/09/2009
TOURO,18.48056111111111,-65.46471666666667,PUERTO RICO,ZSU,RP,SJU*VORTAC*097.00/30.00
TROCO,18.18722222222222,-65.75777777777778,PUERTO RICO,ZSU,RNAV,07/31/2010
TUKRE,18.480655555555554,-65.91143055555555,PUERTO RICO,ZSU,RNAV,06/06/2002
TUUNA,17.980877777777778,-65.88613055555557,PUERTO RICO,ZSU,RP,BQN*VORTAC*123.69
ACONY,18.927366666666668,-66.47744722222222,OFFSHORE ATLANTIC,ZSU,RNAV,07/09/2009
ADECY,17.938333333333333,-66.53079722222222,PUERTO RICO,ZSU,RNAV,01/21/2015
ADVLL,18.11811388888889,-65.82841388888889,PUERTO RICO,ZSU,MW,11/01/2017
AGADA,18.730802777777775,-64.34054722222221,VIRGIN ISLANDS,ZSU,RP,COY*VOR/DME*029.00
ALASK,16.83692222222222,-66.537525,PUERTO RICO,ZSU,RNAV,01/20/2015
ANADA,15.0,-64.14624722222223,OFFSHORE ATLANTIC,ZSU,RP,DDP*NDB*158.47
ANNER,16.23669166666667,-64.94299444444445,OFFSHORE ATLANTIC,ZSU,RP,11/20/1998
ANTEN,18.41357222222222,-66.08895,PUERTO RICO,ZSU,RP,SJU*VORTAC*262.00/6.00
ANTEX,18.479249999999997,-68.0,PUERTO RICO,ZSU,RP,MAZ*VOR/DME*295.50/50.24
APPOL,18.081233333333333,-67.5613,PUERTO RICO,ZSU,MR,BQN*VORTAC*236.00/36.00
AQABA,18.595877777777776,-67.37469166666666,PUERTO RICO,ZSU,RP,BQN*VORTAC*301.11/16.27
AQHAN,17.681516666666667,-64.9985138888889,VIRGIN ISLANDS,ZSU,RNAV,03/06/2006
ARECA,18.026947222222223,-67.23362222222222,PUERTO RICO,ZSU,RNAV,12/30/2014
ARETE,18.543744444444446,-65.82586944444444,PUERTO RICO,ZSU,RP,SJU*VORTAC*069.00/11.00
ARMUR,15.543333333333333,-66.635,PUERTO RICO,ZSU,RP,10/22/2009
MACHE,17.666969444444447,-65.94445277777778,PUERTO RICO,ZSU,MR,NRR*TACAN*218.00/38.00
MAELO,18.705844444444445,-65.83094722222222,PUERTO RICO,ZSU,RNAV,11/21/2008
MALCU,18.43516388888889,-66.27741944444445,PUERTO RICO,ZSU,RNAV,02/09/2018
MALIE,18.492383333333333,-65.2784861111111,VIRGIN ISLANDS,ZSU,RP,SJU*VORTAC*097.00/40.64
MAVIE,18.052500000000002,-65.55138888888888,PUERTO RICO,ZSU,RNAV,07/31/2010
MAWLY,20.15684444444444,-65.990225,OFFSHORE ATLANTIC,ZSU,RNAV,10/22/2009
MELLA,18.2,-68.0,PUERTO RICO,ZSU,RNAV,07/31/2010
MIGGL,17.843241666666664,-66.53296666666667,PUERTO RICO,ZSU,RNAV,01/21/2015
MIGHT,18.16498611111111,-66.31833888888889,PUERTO RICO,ZSU,RP,BQN*VORTAC*123.69/49.29
MILOH,18.31106388888889,-65.54713333333333,PUERTO RICO,ZSU,MW,11/01/2017
MILOK,15.293333333333333,-65.88,OFFSHORE ATLANTIC,ZSU,RP,11/23/1998
MIXEE,18.09149722222222,-65.68495,PUERTO RICO,ZSU,RNAV,04/26/2002
MODUX,16.95888888888889,-63.0,VIRGIN ISLANDS,ZSU,RP,COY*VOR/DME*125.14/108.05
MORRS,22.0,-62.666666666666664,PUERTO RICO,ZSU,RP,06/01/1987
MUNDS,18.438744444444445,-66.01486388888888,PUERTO RICO,ZSU,WP,11/02/1998
MUNGE,18.132094444444444,-65.50565,PUERTO RICO,ZSU,RNAV,04/26/2002
MUNOZ,19.016147222222223,-67.797825,OFFSHORE ATLANTIC,ZSU,RNAV,04/07/2014
MYLET,18.503811111111112,-66.28973888888889,PUERTO RICO,ZSU,RNAV,11/21/2008
LACEC,17.808902777777778,-64.57080277777777,VIRGIN ISLANDS,ZSU,RNAV,11/04/2008
LAMKN,18.0,-61.96599722222223,OFFSHORE ATLANTIC,ZSU,RNAV,04/10/2008
LARPP,18.205269444444443,-64.10880833333333,VIRGIN ISLANDS,ZSU,RP,COY*VOR/DME*060.18
LAZTY,18.075716666666665,-65.70428333333334,PUERTO RICO,ZSU,RNAV,01/24/2001
LEEOO,17.577580555555556,-64.44055555555556,OFFSHORE ATLANTIC,ZSU,RNAV,04/08/2008
LEILA,18.49047777777778,-67.49061666666667,OFFSHORE ATLANTIC,ZSU,RNAV,04/09/2008
LENNT,21.267174999999998,-67.13225833333333,OFFSHORE ATLANTIC,ZSU,RNAV,08/10/2010
LIIMA,18.039922222222224,-65.74656388888889,PUERTO RICO,ZSU,MR,NRR*TACAN*218.00/13.00
LIYIP,18.732825,-66.91668055555556,PUERTO RICO,ZSU,RNAV,05/06/2013
LOBOZ,18.755555555555556,-65.11972222222222,PUERTO RICO,ZSU,MR,NRR*TACAN*054.67/43.17
LODZI,18.27207222222222,-65.60408055555556,PUERTO RICO,ZSU,RNAV,11/01/2017
LOGVY,18.335416666666667,-65.01732777777778,VIRGIN ISLANDS,ZSU,RNAV,02/29/2012
LYANI,19.475555555555555,-64.05027777777778,OFFSHORE ATLANTIC,ZSU,RNAV,01/26/2016
YADUB,18.214941666666665,-67.32573055555555,PUERTO RICO,ZSU,RNAV,04/14/2011
YEPUP,18.279858333333333,-66.40729166666667,PUERTO RICO,ZSU,RNAV,11/24/2008
YIGTO,18.382661111111112,-66.2496388888889,PUERTO RICO,ZSU,RNAV,01/25/2013
YORUS,17.87355277777778,-65.33816944444445,PUERTO RICO,ZSU,RNAV,11/24/2008
YUNKE,18.272116666666665,-65.88149722222222,PUERTO RICO,ZSU,RNAV,11/24/2008
UPKEC,18.34183611111111,-66.25334722222222,PUERTO RICO,ZSU,RNAV,08/08/2000
URZUM,18.466230555555555,-65.9470888888889,PUERTO RICO,ZSU,RNAV,07/31/2010
UTAHS,19.690544444444445,-67.28678333333333,PUERTO RICO,ZSU,RP,BQN*VORTAC*001.93/72.00
KATOK,18.830761111111112,-68.0,PUERTO RICO,ZSU,RP,BQN*VORTAC*301.52/54.55
KBEZA,16.208925,-67.474475,OFFSHORE ATLANTIC,ZSU,RNAV,04/28/2017
KIKER,15.098372222222222,-65.29484722222222,OFFSHORE ATLANTIC,ZSU,RNAV,DDP*NDB*173.12
KINCH,21.621477777777777,-67.19781666666667,OFFSHORE ATLANTIC,ZSU,RNAV,08/20/2009
KMCHO,18.249505555555558,-66.81807222222221,PUERTO RICO,ZSU,RNAV,01/21/2015
KOTME,18.625158333333335,-66.08511944444444,PUERTO RICO,ZSU,RP,SJU*VORTAC*344.00/12.00
KUTHO,18.328363888888887,-65.18016111111112,VIRGIN ISLANDS,ZSU,RP,TMN*LD*W CRS/12.53
KYAAK,17.657375,-66.53007777777778,PUERTO RICO,ZSU,RNAV,01/20/2015
RAFEE,16.109233333333336,-65.07008888888889,OFFSHORE ATLANTIC,ZSU,RNAV,04/08/2008
RAYAS,15.687861111111111,-65.48856666666667,OFFSHORE ATLANTIC,ZSU,RP,11/23/1998
REKUA,18.362244444444446,-65.97008611111112,PUERTO RICO,ZSU,RNAV,11/21/2008
REMSY,18.43372777777778,-66.09291666666667,PUERTO RICO,ZSU,RP,SJU*VORTAC*273.77/5.95
RENTS,18.26551111111111,-64.77883055555556,VIRGIN ISLANDS,ZSU,RP,COY*VOR/DME*001.00
RIMMA,18.407377777777775,-66.09216944444444,PUERTO RICO,ZSU,RNAV,07/31/2010
RIQIE,17.834391666666665,-65.599525,PUERTO RICO,ZSU,MR,NRR*TACAN*185.00/24.00
ROBLL,18.954525,-67.01404722222222,PUERTO RICO,ZSU,RP,BQN*VORTAC*021.11/27.81
ROJAN,17.968441666666664,-66.43433611111111,PUERTO RICO,ZSU,RNAV,01/21/2015
RORPE,18.018027777777778,-66.677025,PUERTO RICO,ZSU,RNAV,03/06/2006
RUTPE,18.416875,-66.81218888888888,PUERTO RICO,ZSU,RNAV,05/06/2013
GABAR,17.353322222222225,-63.0,VIRGIN ISLANDS,ZSU,RP,SKB*NDB/DME*297.48
GABYY,17.697972222222223,-66.72660833333333,PUERTO RICO,ZSU,RNAV,12/03/2008
GAGDD,19.66444444444444,-68.22472222222223,OFFSHORE ATLANTIC,ZSU,RNAV,04/07/2008
GANBO,18.267733333333332,-66.19841666666667,PUERTO RICO,ZSU,RP,BQN*VORTAC*114.70/53.71
GARCY,18.36266666666667,-66.19996666666667,PUERTO RICO,ZSU,RNAV,11/21/2008
GEECE,15.0,-63.25,OFFSHORE ATLANTIC,ZSU,RNAV,05/25/2016
GEROA,21.33962777777778,-65.83923055555555,OFFSHORE ATLANTIC,ZSU,RNAV,09/19/2016
GESGE,17.979630555555556,-66.47037777777778,PUERTO RICO,ZSU,RNAV,08/16/2006
GESSO,17.493822222222224,-65.77857777777778,PUERTO RICO,ZSU,RP,SJU*VORTAC*179.00/58.19
GLADA,18.94578611111111,-65.97687777777777,OFFSHORE ATLANTIC,ZSU,RNAV,07/09/2009
GOALL,18.181583333333336,-65.73602777777778,PUERTO RICO,ZSU,MW,11/01/2017
GOUDA,17.934019444444445,-63.666666666666664,VIRGIN ISLANDS,ZSU,RP,PJM*VOR/DME*270.90/31.97
GRUFF,17.932772222222223,-64.7335361111111,VIRGIN ISLANDS,ZSU,RP,COY*VOR/DME*001.00/12.00
GUADE,18.36341388888889,-66.20033611111111,PUERTO RICO,ZSU,RNAV,07/31/2010
GUYRO,18.671236111111114,-64.10880833333333,VIRGIN ISLANDS,ZSU,RP,PJM*VOR/DME*316.00/68.02
FAJAR,18.469302777777777,-65.63967500000001,PUERTO RICO,ZSU,RP,SJU*VORTAC*097.00/20.00
FEGIR,17.706699999999998,-64.75059166666666,VIRGIN ISLANDS,ZSU,RNAV,11/04/2008
FERNA,21.76877222222222,-67.02148055555556,OFFSHORE ATLANTIC,ZSU,RNAV,12/20/2009
FIRPE,18.445755555555557,-66.18993611111111,PUERTO RICO,ZSU,RNAV,02/09/2018
FLABO,18.749722222222225,-66.16305555555556,PUERTO RICO,ZSU,RNAV,07/31/2010
FORTN,18.40743611111111,-65.5062,PUERTO RICO,ZSU,MR,NRR*TACAN*048.00/13.00
FRATT,19.434491666666666,-65.80563333333333,OFFSHORE ATLANTIC,ZSU,RNAV,04/07/2008
FRNDO,18.61645277777778,-66.17013333333334,PUERTO RICO,ZSU,RNAV,07/31/2010
SAALR,19.113186111111112,-66.33616944444444,PUERTO RICO,ZSU,RP,BQN*VORTAC*059.96
SANLO,18.200769444444443,-65.9349,PUERTO RICO,ZSU,RP,SJU*VORTAC*179.00/15.00
SATOE,17.666666666666668,-68.0,OFFSHORE ATLANTIC,ZSU,RNAV,09/19/2016
SCAPA,15.834138888888889,-67.49952777777779,PUERTO RICO,ZSU,RNAV,10/25/2016
SEPBO,17.970219444444442,-66.77501666666666,PUERTO RICO,ZSU,RNAV,03/07/2006
SHMUU,19.344175,-67.63955277777778,OFFSHORE ATLANTIC,ZSU,RNAV,11/21/2008
SILOE,18.51335277777778,-65.83058333333332,PUERTO RICO,ZSU,RNAV,06/06/2002
SIYPO,17.642475,-64.55267222222221,VIRGIN ISLANDS,ZSU,RNAV,11/04/2008
SLUGO,18.389444444444443,-63.666666666666664,VIRGIN ISLANDS,ZSU,RP,PJM*VOR/DME*315.75/37.71
SNGRA,18.400502777777778,-65.76490555555556,OFFSHORE ATLANTIC,ZSU,RNAV,07/09/2009
SNOOZ,17.81496388888889,-65.08387222222221,VIRGIN ISLANDS,ZSU,RP,COY*VOR/DME*292.43/22.46
SOCCO,21.11640277777778,-63.061877777777774,OFFSHORE ATLANTIC,ZSU,RNAV,08/20/2009
JAAWS,18.978341666666665,-66.54066388888889,PUERTO RICO,ZSU,RP,BQN*VORTAC*058.30
JAMIX,18.157869444444444,-65.68773888888889,PUERTO RICO,ZSU,RNAV,01/24/2001
JANER,18.520916666666665,-64.81656944444444,VIRGIN ISLANDS,ZSU,RP,SJU*VORTAC*097.00/67.04
JAQYY,18.332172222222223,-65.09264999999999,VIRGIN ISLANDS,ZSU,RP,TMN*LD*280.45/7.52
JAVIE,17.921758333333333,-66.38240833333333,PUERTO RICO,ZSU,RNAV,01/21/2015
JETSS,18.673394444444444,-65.36594722222222,PUERTO RICO,ZSU,RP,SJU*VORTAC*080.00/38.05
JEYBU,17.692591666666665,-64.88984722222223,VIRGIN ISLANDS,ZSU,RNAV,03/06/2006
JIREG,17.885355555555556,-66.63885833333335,PUERTO RICO,ZSU,RNAV,08/16/2006
JOMBI,17.710555555555555,-64.71239444444444,VIRGIN ISLANDS,ZSU,RNAV,10/21/2008
JONIB,18.43351388888889,-66.02776944444444,PUERTO RICO,ZSU,RP,SJU*VORTAC*/2.31
JORIL,18.38901388888889,-66.13731944444446,PUERTO RICO,ZSU,RP,SJU*VORTAC*/9.10
JOSHE,18.24236666666667,-66.50098333333334,PUERTO RICO,ZSU,RP,MAZ*VOR/DME*101.20/37.13
JUICE,18.13093888888889,-63.666666666666664,VIRGIN ISLANDS,ZSU,RP,PJM*VOR/DME*292.15/31.83
JUNTA,18.388730555555554,-67.47973333333333,PUERTO RICO,ZSU,WP,11/02/1998
IDAHO,19.26052222222222,-67.63955277777778,PUERTO RICO,ZSU,RP,BQN*VORTAC*336.53/54.69
ILURI,16.3,-63.0,OFFSHORE ATLANTIC,ZSU,RP,COY*VOR/DME*140.99/130.03
INNES,18.46476111111111,-67.22885000000001,PUERTO RICO,ZSU,RNAV,08/07/2002
ISLLA,18.459025,-65.79711111111111,PUERTO RICO,ZSU,RP,SJU*VORTAC*097.00/11.00
ISSLA,18.454666666666665,-65.80960555555555,PUERTO RICO,ZSU,RNAV,SJU*VORTAC*097.00/10.00
EGNIW,18.23313333333333,-65.64951111111112,PUERTO RICO,ZSU,RNAV,01/24/2001
ELMUC,20.78392777777778,-68.08319999999999,OFFSHORE ATLANTIC,ZSU,RNAV,08/02/2010
ELOPO,17.650055555555554,-62.55438888888889,PUERTO RICO,ZSU,RP,PJM*VOR/DME*137.59/39.73
ETEEE,16.58056388888889,-65.46676111111111,OFFSHORE ATLANTIC,ZSU,RNAV,04/07/2008
EYOCI,17.916836111111113,-66.3863,PUERTO RICO,ZSU,RNAV,08/16/2006
PAESO,18.490602777777777,-65.91515000000001,PUERTO RICO,ZSU,RP,SJU*VORTAC*069.00/5.00
PALCO,18.29171388888889,-65.23561944444444,PUERTO RICO,ZSU,RP,SJU*VORTAC*113.00/44.00
PALDE,19.077702777777777,-66.62990277777777,OFFSHORE ATLANTIC,ZSU,RNAV,07/09/2009
PALON,18.033091666666667,-65.65065555555556,PUERTO RICO,ZSU,MR,NRR*TACAN*193.00/12.00
PANMO,19.169408333333333,-66.28351388888889,OFFSHORE ATLANTIC,ZSU,RNAV,04/08/2008
PAPPO,18.725022222222222,-66.110875,PUERTO RICO,ZSU,RNAV,11/21/2008
PASIC,18.29481388888889,-64.65001666666667,VIRGIN ISLANDS,ZSU,RP,COY*VOR/DME*014.94
PATTY,18.408541666666665,-66.08926388888888,PUERTO RICO,ZSU,RP,SJU*VORTAC*/6.12
PEBKY,17.706463888888887,-64.752925,VIRGIN ISLANDS,ZSU,RNAV,03/06/2006
PEBLO,18.486441666666668,-66.84545277777778,PUERTO RICO,ZSU,RP,MAZ*VOR/DME*062.00
PERRE,17.953858333333333,-65.79505555555555,PUERTO RICO,ZSU,MW,11/01/2017
PEVOE,18.110794444444444,-65.59982222222222,PUERTO RICO,ZSU,RNAV,04/26/2002
PICKI,18.745686111111112,-64.80199722222223,PUERTO RICO,ZSU,MR,SJU*VORTAC*086.00/70.00
PLAYR,18.390825,-66.19166944444444,PUERTO RICO,ZSU,MR,SJU*VORTAC*265.00/12.00
PLENA,18.297383333333336,-66.15016944444444,PUERTO RICO,ZSU,RNAV,11/21/2008
PLENO,18.68347222222222,-66.17072777777778,PUERTO RICO,ZSU,RNAV,07/31/2010
PLING,19.992172222222223,-66.79793611111111,PUERTO RICO,ZSU,RP,BQN*VORTAC*021.11/91.03
POKEG,20.17521111111111,-70.06009999999999,,ZSU,RP,PTA*VOR/DME*057.15/38.08
PORQE,17.159994444444443,-64.01448611111111,VIRGIN ISLANDS,ZSU,RP,PJM*VOR/DME*236.53/73.37
POVEE,18.429891666666666,-66.03670833333334,PUERTO RICO,ZSU,RNAV,06/06/2002
DAKES,17.04805277777778,-66.99961666666667,PUERTO RICO,ZSU,RP,COY*VOR/DME*263.07
DANDE,17.50418888888889,-63.66467222222222,VIRGIN ISLANDS,ZSU,RP,PJM*VOR/DME*236.53/44.63
DAWIN,20.538769444444448,-62.45757777777778,OFFSHORE ATLANTIC,ZSU,RNAV,08/20/2009
DEEDY,18.69525,-66.02264166666667,PUERTO RICO,ZSU,RP,BQN*VORTAC*089.04
DEKKA,18.22723333333333,-66.65175555555557,PUERTO RICO,ZSU,MR,SJU*VORTAC*259.00/40.00
DENGE,17.824277777777777,-65.85147222222221,PUERTO RICO,ZSU,MR,SJU*VORTAC*179.00/38.00
DONKE,18.61127777777778,-66.07500833333333,PUERTO RICO,ZSU,RP,SJU*VORTAC*344.71/11.00
DOSAO,18.559752777777778,-67.04917777777777,PUERTO RICO,ZSU,RP,BQN*VORTAC*052.42/5.00
DRADO,18.468277777777775,-66.41239166666668,PUERTO RICO,ZSU,WP,11/02/1998
DRINK,18.507702777777777,-65.03286944444444,VIRGIN ISLANDS,ZSU,RP,SJU*VORTAC*097.00/54.68
DROUN,18.359619444444444,-67.28618888888889,PUERTO RICO,ZSU,WP,11/02/1998
HAKVO,17.850933333333334,-65.25642222222223,OFFSHORE ATLANTIC,ZSU,RP,COY*VOR/DME*292.43/32.57
HAMAR,18.55923611111111,-65.62032777777777,OFFSHORE ATLANTIC,ZSU,RNAV,07/09/2009
HAMIL,17.719675,-64.74156111111111,VIRGIN ISLANDS,ZSU,RP,COY*VOR/DME*259.33/2.50
HANCY,22.036886111111112,-66.17061944444445,OFFSHORE ATLANTIC,ZSU,RNAV,08/20/2009
HARDE,20.00638888888889,-68.81702777777777,PUERTO RICO,ZSU,RP,GTK*VORTAC*130.93/156.00
HASTO,18.366619444444446,-65.4999888888889,PUERTO RICO,ZSU,RNAV,02/21/2002
HENLI,16.91949166666667,-65.40874722222223,PUERTO RICO,ZSU,RP,03/21/1994
HIVOD,17.715166666666665,-64.66661944444445,VIRGIN ISLANDS,ZSU,RNAV,11/04/2008
HOMAG,18.1142,-65.58479444444444,PUERTO RICO,ZSU,RNAV,07/07/2003
HORIL,18.015733333333333,-66.63091666666666,PUERTO RICO,ZSU,RNAV,03/06/2006
HOVIP,18.00115,-66.53987222222221,PUERTO RICO,ZSU,RNAV,08/16/2006
CARBI,17.69981388888889,-64.81458333333333,VIRGIN ISLANDS,ZSU,WP,11/02/1998
CAVTU,18.122086111111113,-65.54992777777778,PUERTO RICO,ZSU,RNAV,01/16/2003
CETLO,18.39719722222222,-66.13865833333334,PUERTO RICO,ZSU,RNAV,SJU*VORTAC*262.00/9.00
CHAKA,18.372880555555557,-65.62952499999999,PUERTO RICO,ZSU,RP,SJU*VORTAC*113.00/21.00
CHEDR,22.046697222222225,-66.00961944444444,OFFSHORE ATLANTIC,ZSU,RNAV,08/20/2009
CHUMA,19.222258333333333,-68.39235555555557,OFFSHORE ATLANTIC,ZSU,RNAV,09/19/2016
CITPO,18.48860277777778,-67.14510833333334,PUERTO RICO,ZSU,RP,BQN*VORTAC*265.00/2.17
CLAYO,18.056997222222222,-66.444125,PUERTO RICO,ZSU,RP,SJU*VORTAC*239.20/34.86
CODRA,17.725688888888886,-64.56173333333334,VIRGIN ISLANDS,ZSU,RNAV,11/04/2008
CORAF,18.646638888888887,-66.38998333333333,PUERTO RICO,ZSU,RP,SJU*VORTAC*308.74/25.78
COVPI,17.675680555555555,-65.05555,VIRGIN ISLANDS,ZSU,CN,03/06/2006
CRSTL,16.298697222222224,-66.57811944444444,PUERTO RICO,ZSU,RP,06/08/2017
CRUPE,22.043088888888892,-66.06120833333333,PUERTO RICO,ZSU,RNAV,12/20/2009
CULEB,17.850880555555555,-66.44006111111112,PUERTO RICO,ZSU,RNAV,08/16/2006
CUMAD,18.43803611111111,-66.01460277777778,PUERTO RICO,ZSU,RP,SJU*VORTAC*262.00/1.51
CUREV,18.52436388888889,-67.03174444444444,PUERTO RICO,ZSU,RNAV,05/06/2013
CUVOP,18.01311388888889,-66.57852222222222,PUERTO RICO,ZSU,RNAV,03/22/2006
CWEJO,18.666666666666668,-64.83333333333333,PUERTO RICO,ZSU,RNAV,05/29/2012
VARNA,18.31727777777778,-66.31361666666666,PUERTO RICO,ZSU,RP,BQN*VORTAC*113.27
VCNTE,17.776091666666666,-66.35018055555555,PUERTO RICO,ZSU,RNAV,01/21/2015
VECUG,18.367730555555557,-66.18308055555556,PUERTO RICO,ZSU,RP,SJU*VORTAC*258.00/12.00
VEDAS,17.919344444444445,-65.58658055555556,PUERTO RICO,ZSU,RP,COY*VOR/DME*292.43/51.90
VERMO,20.126177777777777,-66.21522222222222,PUERTO RICO,ZSU,RP,BQN*VORTAC*037.36
VORCE,21.515597222222222,-65.88841666666667,OFFSHORE ATLANTIC,ZSU,RNAV,07/09/2009
OBIKE,19.341283333333333,-61.76716388888889,OFFSHORE ATLANTIC,ZSU,RNAV,08/20/2009
ODEZZ,18.439344444444444,-67.31265555555555,PUERTO RICO,ZSU,RNAV,08/07/2002
OGDAW,18.25876111111111,-65.6235111111111,PUERTO RICO,ZSU,RNAV,01/24/2001
OLGAH,17.820061111111112,-66.10477222222222,PUERTO RICO,ZSU,MR,NRR*TACAN*237.93/36.16
OMMAR,17.756611111111113,-66.474875,PUERTO RICO,ZSU,RNAV,01/21/2015
OPAUL,21.856597222222224,-63.84657777777778,OFFSHORE ATLANTIC,ZSU,RNAV,08/20/2009
ORAJO,18.429094444444445,-66.04178333333333,PUERTO RICO,ZSU,RP,SJU*VORTAC*262.00/3.15
OSSEL,18.131222222222224,-64.90719444444446,VIRGIN ISLANDS,ZSU,RP,STT*VOR/DME*163.45/15.00
ZABOR,21.390944444444443,-62.62623888888889,OFFSHORE ATLANTIC,ZSU,RNAV,04/10/2008
ZADAV,18.23366388888889,-67.50045555555556,PUERTO RICO,ZSU,RP,MAZ*VOR/DME*276.15/20.00
ZASPU,18.433625,-66.04353055555555,PUERTO RICO,ZSU,RP,CLA*LD*281.14/3.19
ZATOG,19.611933333333333,-66.27685555555556,OFFSHORE ATLANTIC,ZSU,RNAV,11/24/2008
ZIDUG,17.954633333333334,-65.29058888888889,OFFSHORE ATLANTIC,ZSU,RNAV,11/24/2008
ZNDER,17.69357777777778,-66.28730555555555,PUERTO RICO,ZSU,RNAV,11/24/2008
ZUGOD,18.356572222222223,-66.32110833333333,PUERTO RICO,ZSU,RNAV,11/24/2008
ZULRO,18.437816666666667,-66.0152638888889,PUERTO RICO,ZSU,RP,SJU*VORTAC*262.00/1.55
NAILL,18.593391666666665,-65.29704166666666,OFFSHORE ATLANTIC,ZSU,RNAV,07/09/2009
NEGON,16.621666666666666,-68.0,,ZSU,RP,02/27/2012
NIFEF,18.356261111111113,-65.48114722222222,PUERTO RICO,ZSU,RNAV,01/24/2001
NIIMO,18.479999999999997,-66.68995000000001,PUERTO RICO,ZSU,MR,SJU*VORTAC*281.00/40.00
NOMUE,18.257355555555556,-65.07011388888888,VIRGIN ISLANDS,ZSU,RP,COY*VOR/DME*336.00/37.72
WALNA,18.645466666666668,-66.01601666666667,PUERTO RICO,ZSU,RP,SJU*VORTAC*003.77/12.00
WATRS,21.887552777777778,-67.79223611111111,OFFSHORE ATLANTIC,ZSU,RP,PTA*VOR/DME*058.34/201.41
WESEN,18.370025000000002,-66.18408055555555,PUERTO RICO,ZSU,RP,SJU*VORTAC*258.71/12.00
WEXET,19.58738611111111,-66.50945,PUERTO RICO,ZSU,RNAV,11/24/2008
WEXIG,18.236341666666668,-67.23272777777778,PUERTO RICO,ZSU,RNAV,04/14/2011
WIGUM,17.992383333333333,-66.51918055555555,PUERTO RICO,ZSU,RP,MAZ*VOR/DME*123.51
WITRA,18.472316666666664,-67.20405277777778,PUERTO RICO,ZSU,RNAV,05/06/2013
WLFRD,17.861616666666666,-66.32727222222222,PUERTO RICO,ZSU,RNAV,01/21/2015
BAROE,22.059194444444444,-65.793025,OFFSHORE ATLANTIC,ZSU,RNAV,12/20/2009
BARVE,18.38081111111111,-66.18835277777778,PUERTO RICO,ZSU,RP,SJU*VORTAC*262.00/12.00
BAZRI,18.30751111111111,-65.55233888888888,PUERTO RICO,ZSU,RNAV,01/24/2001
BEANO,18.75985,-66.61956111111111,PUERTO RICO,ZSU,RP,BQN*VORTAC*070.59
BETIR,19.34312222222222,-68.60431944444444,PUERTO RICO,ZSU,RP,CDO*VOR/DME*055.86/81.34
BEWIK,17.870322222222224,-66.6608638888889,PUERTO RICO,ZSU,RP,MAZ*VOR/DME*139.40
BOCCA,18.475944444444444,-66.60239444444444,PUERTO RICO,ZSU,RP,SJU*VORTAC*284.00/35.00
BUKLE,18.37438888888889,-65.45453888888889,PUERTO RICO,ZSU,MW,11/01/2017
