[
	{
		"name": "AAGEE",
		"latitude": "40-1-37.71 N",
		"longitude": "104-46-41.74 W",
		"state": "COLORADO",
		"artcc": "ZDV",
		"type": "RNAV",
		"updated": "03/22/2012"
	},
	{
		"name": "ACAGI",
		"latitude": "40-25-56.2 N",
		"longitude": "106-50-33.84 W",
		"state": "COLORADO",
		"artcc": "ZDV",
		"type": "RP",
		"updated": "BQZ*VOR/DME*131.32/2.32"
	},
	{
		"name": "ACAVA",
		"latitude": "38-2-52.24 N",
		"longitude": "103-36-59.85 W",
		"state": "COLORADO",
		"artcc": "ZDV",
		"type": "RNAV",
		"updated": "06/05/2009"
	},
	{
		"name": "ACEHO",
		"latitude": "41-51-12.13 N",
		"longitude": "102-41-42.54 W",
		"state": "NEBRASKA",
		"artcc": "ZDV",
		"type": "RNAV",
		"updated": "11/27/2006"
	},
	{
		"name": "ACERI",
		"latitude": "38-2-54.31 N",
		"longitude": "103-24-4.46 W",
		"state": "COLORADO",
		"artcc": "ZDV",
		"type": "RNAV",
		"updated": "06/05/2009"
	},
	{
		"name": "ACHES",
		"latitude": "37-26-9.18 N",
		"longitude": "105-26-0.8 W",
		"state": "COLORADO",
		"artcc": "ZDV",
		"type": "RNAV",
		"updated": "01/20/2013"
	},
	{
		"name": "ACITU",
		"latitude": "44-26-20.9 N",
		"longitude": "105-33-53.26 W",
		"state": "WYOMING",
		"artcc": "ZDV",
		"type": "RNAV",
		"updated": "07/12/2005"
	},
	{
		"name": "ACODI",
		"latitude": "36-44-29.87 N",
		"longitude": "108-13-1.48 W",
		"state": "NEW MEXICO",
		"artcc": "ZDV",
		"type": "WP",
		"updated": "11/02/1998"
	},
	{
		"name": "ACOSI",
		"latitude": "37-7-7.35 N",
		"longitude": "111-32-4.59 W",
		"state": "UTAH",
		"artcc": "ZDV",
		"type": "RP",
		"updated": "PGA*VOR/DME*326.60/12.00"
	},
	{
		"name": "ACTOR",
		"latitude": "39-45-20.73 N",
		"longitude": "104-31-23.2 W",
		"state": "COLORADO",
		"artcc": "ZDV",
		"type": "RP",
		"updated": "DVV*VORTAC*142.64"
	},
	{
		"name": "ACZES",
		"latitude": "38-19-34.88 N",
		"longitude": "104-53-21.76 W",
		"state": "COLORADO",
		"artcc": "ZDV",
		"type": "RP",
		"updated": "PUB*VORTAC*267.20/21.81"
	},
	{
		"name": "ADANE",
		"latitude": "38-54-57.26 N",
		"longitude": "104-23-56.46 W",
		"state": "COLORADO",
		"artcc": "ZDV",
		"type": "RP",
		"updated": "PUB*VORTAC*354.19/37.29"
	},
	{
		"name": "ADESE",
		"latitude": "44-26-38.85 N",
		"longitude": "103-25-57.96 W",
		"state": "SOUTH DAKOTA",
		"artcc": "ZDV",
		"type": "RNAV",
		"updated": "02/11/2013"
	},
	{
		"name": "ADEWU",
		"latitude": "40-13-10.33 N",
		"longitude": "103-19-26.67 W",
		"state": "COLORADO",
		"artcc": "ZDV",
		"type": "RNAV",
		"updated": "01/18/2017"
	},
	{
		"name": "ADINY",
		"latitude": "39-14-52.13 N",
		"longitude": "106-52-50.2 W",
		"state": "COLORADO",
		"artcc": "ZDV",
		"type": "RNAV",
		"updated": "03/12/2009"
	},
	{
		"name": "ADNUC",
		"latitude": "39-39-4.3 N",
		"longitude": "106-51-12.78 W",
		"state": "COLORADO",
		"artcc": "ZDV",
		"type": "RP",
		"updated": "VAZ*DD*NE CRS/3.92"
	},
	{
		"name": "ADUMY",
		"latitude": "36-45-28.27 N",
		"longitude": "107-56-39.83 W",
		"state": "NEW MEXICO",
		"artcc": "ZDV",
		"type": "RNAV",
		"updated": "07/07/2009"
	},
	{
		"name": "AEONS",
		"latitude": "39-54-0.24 N",
		"longitude": "105-6-9.79 W",
		"state": "COLORADO",
		"artcc": "ZDV",
		"type": "RP",
		"updated": "BJC*VOR/DME*103.73/1.85"
	},
	{
		"name": "AFELO",
		"latitude": "40-30-2.22 N",
		"longitude": "99-54-5.82 W",
		"state": "NEBRASKA",
		"artcc": "ZDV",
		"type": "RNAV",
		"updated": "07/29/2004"
	},
	{
		"name": "AFMAG",
		"latitude": "41-37-4.78 N",
		"longitude": "104-44-1.62 W",
		"state": "WYOMING",
		"artcc": "ZDV",
		"type": "CN",
		"updated": "12/04/2014"
	},
	{
		"name": "AFWOX",
		"latitude": "42-31-2.78 N",
		"longitude": "104-36-35.71 W",
		"state": "WYOMING",
		"artcc": "ZDV",
		"type": "CN",
		"updated": "06/20/2005"
	},
	{
		"name": "AFYAB",
		"latitude": "43-14-42.63 N",
		"longitude": "105-44-18.07 W",
		"state": "WYOMING",
		"artcc": "ZDV",
		"type": "RP",
		"updated": "DDY*VOR/DME*056.44/25.40"
	},
	{
		"name": "AGARS",
		"latitude": "43-50-40.84 N",
		"longitude": "104-16-28.75 W",
		"state": "WYOMING",
		"artcc": "ZDV",
		"type": "RNAV",
		"updated": "07/03/2014"
	},
	{
		"name": "AGBAH",
		"latitude": "44-9-52.85 N",
		"longitude": "103-7-40.96 W",
		"state": "SOUTH DAKOTA",
		"artcc": "ZDV",
		"type": "MR",
		"updated": "RCA*TACAN*/1.91"
	},
	{
		"name": "AGHAN",
		"latitude": "41-14-52.94 N",
		"longitude": "100-54-9.41 W",
		"state": "NEBRASKA",
		"artcc": "ZDV",
		"type": "RNAV",
		"updated": "07/26/2013"
	},
	{
		"name": "AGIME",
		"latitude": "38-29-41.43 N",
		"longitude": "108-25-13.19 W",
		"state": "COLORADO",
		"artcc": "ZDV",
		"type": "RNAV",
		"updated": "09/21/2015"
	},
	{
		"name": "AHHUJ",
		"latitude": "41-2-6.34 N",
		"longitude": "101-52-48.66 W",
		"state": "NEBRASKA",
		"artcc": "ZDV",
		"type": "RNAV",
		"updated": "06/13/2008"
	},
	{
		"name": "AHOFU",
		"latitude": "43-0-21.37 N",
		"longitude": "100-41-14.4 W",
		"state": "SOUTH DAKOTA",
		"artcc": "ZDV",
		"type": "RNAV",
		"updated": "04/06/2005"
	},
	{
		"name": "AHUFU",
		"latitude": "41-7-1.45 N",
		"longitude": "102-4-32.7 W",
		"state": "NEBRASKA",
		"artcc": "ZDV",
		"type": "RNAV",
		"updated": "11/20/2012"
	},
	{
		"name": "AIGLE",
		"latitude": "39-40-23.09 N",
		"longitude": "106-42-25.95 W",
		"state": "COLORADO",
		"artcc": "ZDV",
		"type": "RP",
		"updated": "ESJ*LD*NE CRS/10.83"
	},
	{
		"name": "AIMES",
		"latitude": "40-35-13.73 N",
		"longitude": "104-32-50.24 W",
		"state": "COLORADO",
		"artcc": "ZDV",
		"type": "RP",
		"updated": "GLL*VOR/DME*350.00/5.00"
	},
	{
		"name": "AIRNS",
		"latitude": "38-42-15.58 N",
		"longitude": "108-9-24.83 W",
		"state": "COLORADO",
		"artcc": "ZDV",
		"type": "RNAV",
		"updated": "09/21/2015"
	},
	{
		"name": "AJAKS",
		"latitude": "39-25-36.78 N",
		"longitude": "104-42-5.28 W",
		"state": "COLORADO",
		"artcc": "ZDV",
		"type": "RNAV",
		"updated": "03/25/2012"
	},
	{
		"name": "AJAXX",
		"latitude": "39-30-28.07 N",
		"longitude": "107-0-19.23 W",
		"state": "COLORADO",
		"artcc": "ZDV",
		"type": "RP",
		"updated": "DBL*VOR/DME*296.63/6.58"
	},
	{
		"name": "AJBUF",
		"latitude": "40-5-12.17 N",
		"longitude": "100-45-20.57 W",
		"state": "NEBRASKA",
		"artcc": "ZDV",
		"type": "RNAV",
		"updated": "10/03/2000"
	},
	{
		"name": "AJCIZ",
		"latitude": "41-0-21.56 N",
		"longitude": "100-27-36.99 W",
		"state": "NEBRASKA",
		"artcc": "ZDV",
		"type": "RNAV",
		"updated": "07/26/2013"
	},
	{
		"name": "AJIRE",
		"latitude": "42-52-22.65 N",
		"longitude": "103-10-19.54 W",
		"state": "NEBRASKA",
		"artcc": "ZDV",
		"type": "RNAV",
		"updated": "06/29/2011"
	},
	{
		"name": "AKICE",
		"latitude": "42-54-44.06 N",
		"longitude": "106-11-46.44 W",
		"state": "WYOMING",
		"artcc": "ZDV",
		"type": "RNAV",
		"updated": "05/11/2009"
	},
	{
		"name": "AKIGY",
		"latitude": "38-23-19.29 N",
		"longitude": "107-12-26.47 W",
		"state": "COLORADO",
		"artcc": "ZDV",
		"type": "CN",
		"updated": "06/08/2009"
	},
	{
		"name": "AKNAC",
		"latitude": "38-42-6.44 N",
		"longitude": "106-4-14.69 W",
		"state": "COLORADO",
		"artcc": "ZDV",
		"type": "RNAV",
		"updated": "11/01/2013"
	},
	{
		"name": "AKODY",
		"latitude": "38-31-43.57 N",
		"longitude": "104-41-10.26 W",
		"state": "COLORADO",
		"artcc": "ZDV",
		"type": "WP",
		"updated": "11/02/1998"
	},
	{
		"name": "AKUPE",
		"latitude": "43-48-40.91 N",
		"longitude": "104-14-28.14 W",
		"state": "WYOMING",
		"artcc": "ZDV",
		"type": "RNAV",
		"updated": "07/03/2014"
	},
	{
		"name": "ALARM",
		"latitude": "38-21-48.21 N",
		"longitude": "101-44-59.02 W",
		"state": "KANSAS",
		"artcc": "ZDV",
		"type": "RNAV",
		"updated": "07/08/2015"
	},
	{
		"name": "ALBIN",
		"latitude": "41-28-3.95 N",
		"longitude": "104-17-38.38 W",
		"state": "WYOMING",
		"artcc": "ZDV",
		"type": "RP",
		"updated": "SNY*VOR/DME*278.00"
	},
	{
		"name": "ALCEM",
		"latitude": "40-18-21.17 N",
		"longitude": "106-42-0.01 W",
		"state": "COLORADO",
		"artcc": "ZDV",
		"type": "RNAV",
		"updated": "11/17/2014"
	},
	{
		"name": "ALCOS",
		"latitude": "42-47-26.75 N",
		"longitude": "106-34-35.37 W",
		"state": "WYOMING",
		"artcc": "ZDV",
		"type": "RP",
		"updated": "DDY*VOR/DME*204.35/22.32"
	},
	{
		"name": "ALFIE",
		"latitude": "40-3-37.8 N",
		"longitude": "105-9-11.38 W",
		"state": "COLORADO",
		"artcc": "ZDV",
		"type": "RP",
		"updated": "BJC*VOR/DME*344.79/8.87"
	},
	{
		"name": "ALIKE",
		"latitude": "39-51-37.97 N",
		"longitude": "105-1-27.61 W",
		"state": "COLORADO",
		"artcc": "ZDV",
		"type": "RP",
		"updated": "BJC*VOR/DME*109.69/6.16"
	},
	{
		"name": "ALISE",
		"latitude": "40-14-50.74 N",
		"longitude": "105-15-54.69 W",
		"state": "COLORADO",
		"artcc": "ZDV",
		"type": "RNAV",
		"updated": "07/15/2014"
	},
	{
		"name": "ALLAN",
		"latitude": "40-25-22.66 N",
		"longitude": "105-31-9.32 W",
		"state": "COLORADO",
		"artcc": "ZDV",
		"type": "RP",
		"updated": "GLL*VOR/DME*251.06"
	},
	{
		"name": "ALLIX",
		"latitude": "39-20-22.49 N",
		"longitude": "106-53-3.47 W",
		"state": "COLORADO",
		"artcc": "ZDV",
		"type": "RP",
		"updated": "DBL*VOR/DME*163.38/6.00"
	},
	{
		"name": "ALLYX",
		"latitude": "39-36-43.6 N",
		"longitude": "104-41-16.73 W",
		"state": "COLORADO",
		"artcc": "ZDV",
		"type": "RP",
		"updated": "BKF*TACAN*/6.44"
	},
	{
		"name": "ALPNE",
		"latitude": "39-27-17.44 N",
		"longitude": "104-43-23.73 W",
		"state": "COLORADO",
		"artcc": "ZDV",
		"type": "RNAV",
		"updated": "03/28/2012"
	},
	{
		"name": "ALPOE",
		"latitude": "40-57-28.55 N",
		"longitude": "106-18-56.92 W",
		"state": "COLORADO",
		"artcc": "ZDV",
		"type": "RP",
		"updated": "GLL*VOR/DME*276.28/84.89"
	},
	{
		"name": "ALVAA",
		"latitude": "44-29-58.35 N",
		"longitude": "104-41-49.37 W",
		"state": "WYOMING",
		"artcc": "ZDV",
		"type": "RNAV",
		"updated": "02/12/2014"
	},
	{
		"name": "ALVOJ",
		"latitude": "39-2-14.98 N",
		"longitude": "108-26-22.66 W",
		"state": "COLORADO",
		"artcc": "ZDV",
		"type": "RP",
		"updated": "ACD*DD*E CRS/5.94"
	},
	{
		"name": "ALWEN",
		"latitude": "40-33-26.54 N",
		"longitude": "107-11-23.68 W",
		"state": "COLORADO",
		"artcc": "ZDV",
		"type": "RNAV",
		"updated": "04/06/2018"
	},
	{
		"name": "ALZOY",
		"latitude": "40-30-52.75 N",
		"longitude": "107-18-44.5 W",
		"state": "COLORADO",
		"artcc": "ZDV",
		"type": "RNAV",
		"updated": "04/06/2018"
	},
	{
		"name": "AMEGE",
		"latitude": "39-49-14.4 N",
		"longitude": "99-24-3.19 W",
		"state": "KANSAS",
		"artcc": "ZDV",
		"type": "RNAV",
		"updated": "01/12/2016"
	},
	{
		"name": "AMNIP",
		"latitude": "41-56-37.91 N",
		"longitude": "100-17-23.42 W",
		"state": "NEBRASKA",
		"artcc": "ZDV",
		"type": "RNAV",
		"updated": "05/30/2010"
	},
	{
		"name": "AMOHO",
		"latitude": "40-39-54.35 N",
		"longitude": "102-16-44.48 W",
		"state": "COLORADO",
		"artcc": "ZDV",
		"type": "WP",
		"updated": "11/02/1998"
	},
	{
		"name": "AMUCK",
		"latitude": "40-20-51.52 N",
		"longitude": "105-7-15.22 W",
		"state": "COLORADO",
		"artcc": "ZDV",
		"type": "RNAV",
		"updated": "09/22/2012"
	},
	{
		"name": "AMUYO",
		"latitude": "40-18-54.68 N",
		"longitude": "103-12-3.86 W",
		"state": "COLORADO",
		"artcc": "ZDV",
		"type": "CN",
		"updated": "07/16/2002"
	},
	{
		"name": "AMWAY",
		"latitude": "40-37-59.87 N",
		"longitude": "103-11-0.95 W",
		"state": "COLORADO",
		"artcc": "ZDV",
		"type": "RP",
		"updated": "GLD*VORTAC*305.84/101.50"
	},
	{
		"name": "ANCHR",
		"latitude": "40-28-12.8 N",
		"longitude": "103-50-58.98 W",
		"state": "COLORADO",
		"artcc": "ZDV",
		"type": "RNAV",
		"updated": "07/15/2014"
	},
	{
		"name": "ANDDY",
		"latitude": "39-55-11.55 N",
		"longitude": "106-38-26.29 W",
		"state": "COLORADO",
		"artcc": "ZDV",
		"type": "RNAV",
		"updated": "12/11/2017"
	},
	{
		"name": "ANEAR",
		"latitude": "40-29-18.78 N",
		"longitude": "107-35-32.51 W",
		"state": "COLORADO",
		"artcc": "ZDV",
		"type": "RNAV",
		"updated": "04/06/2018"
	},
	{
		"name": "ANEBE",
		"latitude": "39-39-38.92 N",
		"longitude": "99-14-36.18 W",
		"state": "KANSAS",
		"artcc": "ZDV",
		"type": "RNAV",
		"updated": "01/12/2016"
	},
	{
		"name": "ANIUM",
		"latitude": "38-27-13.59 N",
		"longitude": "109-46-34.26 W",
		"state": "UTAH",
		"artcc": "ZDV",
		"type": "RP",
		"updated": "HVE*VORTAC*071.80/43.60"
	},
	{
		"name": "ANNNE",
		"latitude": "39-30-58.78 N",
		"longitude": "104-37-11.23 W",
		"state": "COLORADO",
		"artcc": "ZDV",
		"type": "MR",
		"updated": "BKF*TACAN*143.73/13.00"
	},
	{
		"name": "ANOME",
		"latitude": "44-9-52.13 N",
		"longitude": "103-7-40.31 W",
		"state": "SOUTH DAKOTA",
		"artcc": "ZDV",
		"type": "MR",
		"updated": "RCA*TACAN*312.60/1.90"
	},
	{
		"name": "ANTEJ",
		"latitude": "39-31-51.79 N",
		"longitude": "107-30-19.52 W",
		"state": "COLORADO",
		"artcc": "ZDV",
		"type": "RP",
		"updated": "RIL*LD*078.46/11.08"
	},
	{
		"name": "ANUCE",
		"latitude": "40-24-49.73 N",
		"longitude": "103-10-57.08 W",
		"state": "COLORADO",
		"artcc": "ZDV",
		"type": "RNAV",
		"updated": "08/13/2012"
	},
	{
		"name": "APAYU",
		"latitude": "41-12-55.64 N",
		"longitude": "103-23-43.26 W",
		"state": "NEBRASKA",
		"artcc": "ZDV",
		"type": "RP",
		"updated": "SNY*VOR/DME*278.00/20.00"
	},
	{
		"name": "APOGE",
		"latitude": "44-10-34.48 N",
		"longitude": "103-8-53.61 W",
		"state": "SOUTH DAKOTA",
		"artcc": "ZDV",
		"type": "MR",
		"updated": "RCA*TACAN*310.00/3.00"
	},
	{
		"name": "APOKE",
		"latitude": "38-33-31.37 N",
		"longitude": "106-48-42.94 W",
		"state": "COLORADO",
		"artcc": "ZDV",
		"type": "WP",
		"updated": "07/18/1995"
	},
	{
		"name": "APORY",
		"latitude": "37-29-13.59 N",
		"longitude": "109-29-0.14 W",
		"state": "UTAH",
		"artcc": "ZDV",
		"type": "RNAV",
		"updated": "07/06/2011"
	},
	{
		"name": "APRUF",
		"latitude": "38-48-57.92 N",
		"longitude": "104-41-8.66 W",
		"state": "COLORADO",
		"artcc": "ZDV",
		"type": "WP",
		"updated": "11/02/1998"
	},
	{
		"name": "APUNE",
		"latitude": "40-12-37.51 N",
		"longitude": "99-20-57.27 W",
		"state": "NEBRASKA",
		"artcc": "ZDV",
		"type": "RNAV",
		"updated": "06/16/2015"
	},
	{
		"name": "APUUU",
		"latitude": "39-39-19.69 N",
		"longitude": "103-57-8.68 W",
		"state": "COLORADO",
		"artcc": "ZDV",
		"type": "RNAV",
		"updated": "11/22/2012"
	},
	{
		"name": "AQFAV",
		"latitude": "40-19-33.35 N",
		"longitude": "100-25-59.59 W",
		"state": "NEBRASKA",
		"artcc": "ZDV",
		"type": "RNAV",
		"updated": "10/03/2000"
	},
	{
		"name": "AQIMU",
		"latitude": "40-20-59.92 N",
		"longitude": "101-28-2.46 W",
		"state": "NEBRASKA",
		"artcc": "ZDV",
		"type": "RNAV",
		"updated": "05/10/2007"
	},
	{
		"name": "AQULA",
		"latitude": "39-41-34.97 N",
		"longitude": "106-34-21.61 W",
		"state": "COLORADO",
		"artcc": "ZDV",
		"type": "RP",
		"updated": "RLG*VOR/DME*184.00/19.51"
	},
	{
		"name": "ARCHH",
		"latitude": "38-47-58.42 N",
		"longitude": "109-34-45.83 W",
		"state": "UTAH",
		"artcc": "ZDV",
		"type": "RP",
		"updated": "JNC*VOR/DME*232.32/40.00"
	},
	{
		"name": "ARCHY",
		"latitude": "40-0-27.98 N",
		"longitude": "104-53-29.62 W",
		"state": "COLORADO",
		"artcc": "ZDV",
		"type": "RNAV",
		"updated": "09/22/2012"
	},
	{
		"name": "ARCOT",
		"latitude": "44-51-54 N",
		"longitude": "104-1-48 W",
		"state": "SOUTH DAKOTA",
		"artcc": "ZDV",
		"type": "RNAV",
		"updated": "04/16/2002"
	},
	{
		"name": "ARDYN",
		"latitude": "36-44-55.69 N",
		"longitude": "107-53-29.47 W",
		"state": "NEW MEXICO",
		"artcc": "ZDV",
		"type": "RP",
		"updated": "RSK*VORTAC*075.80/10.00"
	},
	{
		"name": "AREND",
		"latitude": "39-39-32.66 N",
		"longitude": "106-48-3.66 W",
		"state": "COLORADO",
		"artcc": "ZDV",
		"type": "RP",
		"updated": "ESJ*LD*NE CRS/6.40"
	},
	{
		"name": "ARFEJ",
		"latitude": "42-10-26.17 N",
		"longitude": "107-10-50.62 W",
		"state": "WYOMING",
		"artcc": "ZDV",
		"type": "RP",
		"updated": "CKW*VOR/DME*020.47/30.85"
	},
	{
		"name": "AROGE",
		"latitude": "36-46-0.28 N",
		"longitude": "111-24-39.71 W",
		"state": "ARIZONA",
		"artcc": "ZDV",
		"type": "RP",
		"updated": "PGA*VOR/DME*156.89/10.00"
	},
	{
		"name": "ARRES",
		"latitude": "39-39-44.49 N",
		"longitude": "104-31-27.14 W",
		"state": "COLORADO",
		"artcc": "ZDV",
		"type": "RP",
		"updated": "DVV*VORTAC*153.57/14.68"
	},
	{
		"name": "ARTSS",
		"latitude": "40-23-48.64 N",
		"longitude": "104-37-45.35 W",
		"state": "COLORADO",
		"artcc": "ZDV",
		"type": "RP",
		"updated": "DCI*LD*169.81/3.74"
	},
	{
		"name": "ASETB",
		"latitude": "39-15-55.89 N",
		"longitude": "106-54-52.19 W",
		"state": "COLORADO",
		"artcc": "ZDV",
		"type": "CN",
		"updated": "09/02/2008"
	},
	{
		"name": "ASETC",
		"latitude": "39-13-18.85 N",
		"longitude": "106-54-9.18 W",
		"state": "COLORADO",
		"artcc": "ZDV",
		"type": "CN",
		"updated": "09/02/2008"
	},
	{
		"name": "ASETD",
		"latitude": "39-23-12.36 N",
		"longitude": "106-54-11.46 W",
		"state": "COLORADO",
		"artcc": "ZDV",
		"type": "CN",
		"updated": "09/02/2008"
	},
	{
		"name": "ASHBY",
		"latitude": "40-19-2.06 N",
		"longitude": "102-0-5.43 W",
		"state": "NEBRASKA",
		"artcc": "ZDV",
		"type": "RP",
		"updated": "AKO*VOR/DME*066.47/55.00"
	},
	{
		"name": "ASHLL",
		"latitude": "38-32-13.11 N",
		"longitude": "104-34-49.69 W",
		"state": "COLORADO",
		"artcc": "ZDV",
		"type": "RNAV",
		"updated": "03/31/2016"
	},
	{
		"name": "ASUNE",
		"latitude": "38-10-48.35 N",
		"longitude": "104-47-5.08 W",
		"state": "COLORADO",
		"artcc": "ZDV",
		"type": "RNAV",
		"updated": "05/15/2013"
	},
	{
		"name": "ASUVE",
		"latitude": "44-20-42.37 N",
		"longitude": "103-16-57.41 W",
		"state": "SOUTH DAKOTA",
		"artcc": "ZDV",
		"type": "RNAV",
		"updated": "06/20/2005"
	},
	{
		"name": "ASYLM",
		"latitude": "38-32-22.4 N",
		"longitude": "103-6-13.03 W",
		"state": "COLORADO",
		"artcc": "ZDV",
		"type": "RNAV",
		"updated": "07/15/2014"
	},
	{
		"name": "ATCAY",
		"latitude": "40-21-3.36 N",
		"longitude": "101-44-37.9 W",
		"state": "NEBRASKA",
		"artcc": "ZDV",
		"type": "RP",
		"updated": "HCT*VORTAC*249.93/38.10"
	},
	{
		"name": "ATEMY",
		"latitude": "37-23-11.41 N",
		"longitude": "108-32-6.99 W",
		"state": "COLORADO",
		"artcc": "ZDV",
		"type": "RNAV",
		"updated": "02/17/2006"
	},
	{
		"name": "ATETE",
		"latitude": "42-39-36.9 N",
		"longitude": "102-23-1.73 W",
		"state": "NEBRASKA",
		"artcc": "ZDV",
		"type": "RNAV",
		"updated": "07/04/2009"
	},
	{
		"name": "ATFOW",
		"latitude": "38-29-12.28 N",
		"longitude": "106-35-32.68 W",
		"state": "COLORADO",
		"artcc": "ZDV",
		"type": "CN",
		"updated": "06/10/2002"
	},
	{
		"name": "AUTIM",
		"latitude": "40-45-17.63 N",
		"longitude": "105-30-41.53 W",
		"state": "COLORADO",
		"artcc": "ZDV",
		"type": "RP",
		"updated": "GLL*VOR/DME*276.28/46.30"
	},
	{
		"name": "AVEGA",
		"latitude": "36-33-45.89 N",
		"longitude": "110-20-26.6 W",
		"state": "ARIZONA",
		"artcc": "ZDV",
		"type": "RNAV",
		"updated": "05/03/2002"
	},
	{
		"name": "AVNEW",
		"latitude": "39-31-8.54 N",
		"longitude": "104-25-20 W",
		"state": "COLORADO",
		"artcc": "ZDV",
		"type": "RP",
		"updated": "FQF*VORTAC*127.00/13.79"
	},
	{
		"name": "AVUXE",
		"latitude": "39-10-4.08 N",
		"longitude": "108-47-26.49 W",
		"state": "COLORADO",
		"artcc": "ZDV",
		"type": "RNAV",
		"updated": "06/05/2009"
	},
	{
		"name": "AVVVS",
		"latitude": "40-2-7.82 N",
		"longitude": "104-46-3.16 W",
		"state": "COLORADO",
		"artcc": "ZDV",
		"type": "RP",
		"updated": "DVV*VORTAC*314.00/10.72"
	},
	{
		"name": "AWACC",
		"latitude": "39-39-59.06 N",
		"longitude": "106-44-40.3 W",
		"state": "COLORADO",
		"artcc": "ZDV",
		"type": "WP",
		"updated": "11/02/1998"
	},
	{
		"name": "AWONE",
		"latitude": "39-0-58.61 N",
		"longitude": "104-41-7.35 W",
		"state": "COLORADO",
		"artcc": "ZDV",
		"type": "RP",
		"updated": "BRK*VOR/DME*322.57"
	},
	{
		"name": "AWRAW",
		"latitude": "39-34-25.26 N",
		"longitude": "108-21-13.58 W",
		"state": "COLORADO",
		"artcc": "ZDV",
		"type": "RP",
		"updated": "EKR*VOR/DME*198.95/35.63"
	},
	{
		"name": "AWUCO",
		"latitude": "38-18-19.8 N",
		"longitude": "107-50-19 W",
		"state": "COLORADO",
		"artcc": "ZDV",
		"type": "RNAV",
		"updated": "03/10/2009"
	},
	{
		"name": "AWUDE",
		"latitude": "39-36-1.53 N",
		"longitude": "107-16-37.39 W",
		"state": "COLORADO",
		"artcc": "ZDV",
		"type": "CN",
		"updated": "07/16/2002"
	},
	{
		"name": "AWXIL",
		"latitude": "39-27-18.98 N",
		"longitude": "108-0-10.15 W",
		"state": "COLORADO",
		"artcc": "ZDV",
		"type": "RNAV",
		"updated": "09/20/2010"
	},
	{
		"name": "AXALY",
		"latitude": "40-15-3.69 N",
		"longitude": "102-21-12.9 W",
		"state": "COLORADO",
		"artcc": "ZDV",
		"type": "WP",
		"updated": "11/02/1998"
	},
	{
		"name": "AXFAL",
		"latitude": "39-31-54.92 N",
		"longitude": "107-24-47.11 W",
		"state": "COLORADO",
		"artcc": "ZDV",
		"type": "CN",
		"updated": "07/16/2002"
	},
	{
		"name": "AXGEX",
		"latitude": "37-39-20.41 N",
		"longitude": "111-5-12.56 W",
		"state": "UTAH",
		"artcc": "ZDV",
		"type": "RP",
		"updated": "PGA*VOR/DME*008.57/46.73"
	},
	{
		"name": "AXIAL",
		"latitude": "40-20-10.84 N",
		"longitude": "107-33-29.25 W",
		"state": "COLORADO",
		"artcc": "ZDV",
		"type": "RP",
		"updated": "CHE*VOR/DME*212.57/16.00"
	},
	{
		"name": "AXIBY",
		"latitude": "42-38-42.27 N",
		"longitude": "106-32-55.84 W",
		"state": "WYOMING",
		"artcc": "ZDV",
		"type": "RNAV",
		"updated": "08/15/2008"
	},
	{
		"name": "AXOYA",
		"latitude": "38-26-16.31 N",
		"longitude": "106-49-52.95 W",
		"state": "COLORADO",
		"artcc": "ZDV",
		"type": "CN",
		"updated": "08/16/2010"
	},
	{
		"name": "AXOYY",
		"latitude": "42-55-3.66 N",
		"longitude": "103-1-9.71 W",
		"state": "NEBRASKA",
		"artcc": "ZDV",
		"type": "RNAV",
		"updated": "06/29/2011"
	},
	{
		"name": "AXOZU",
		"latitude": "38-23-15.4 N",
		"longitude": "107-12-1 W",
		"state": "COLORADO",
		"artcc": "ZDV",
		"type": "CN",
		"updated": "06/08/2009"
	},
	{
		"name": "AXPUX",
		"latitude": "40-40-18.86 N",
		"longitude": "101-46-39.96 W",
		"state": "NEBRASKA",
		"artcc": "ZDV",
		"type": "RNAV",
		"updated": "05/10/2007"
	},
	{
		"name": "AXSEH",
		"latitude": "42-41-31.68 N",
		"longitude": "102-21-4.67 W",
		"state": "NEBRASKA",
		"artcc": "ZDV",
		"type": "RNAV",
		"updated": "08/22/2001"
	},
	{
		"name": "AYANI",
		"latitude": "41-54-43.73 N",
		"longitude": "103-28-9.54 W",
		"state": "NEBRASKA",
		"artcc": "ZDV",
		"type": "RNAV",
		"updated": "10/29/2007"
	},
	{
		"name": "AYAVA",
		"latitude": "36-52-8.58 N",
		"longitude": "111-26-8.55 W",
		"state": "ARIZONA",
		"artcc": "ZDV",
		"type": "RNAV",
		"updated": "12/05/2007"
	},
	{
		"name": "AYAYI",
		"latitude": "42-4-28.93 N",
		"longitude": "103-42-4.91 W",
		"state": "NEBRASKA",
		"artcc": "ZDV",
		"type": "RNAV",
		"updated": "10/29/2007"
	},
	{
		"name": "AYAYO",
		"latitude": "41-12-35.77 N",
		"longitude": "101-51-3.51 W",
		"state": "NEBRASKA",
		"artcc": "ZDV",
		"type": "RNAV",
		"updated": "11/20/2012"
	},
	{
		"name": "AYEDY",
		"latitude": "38-57-49.42 N",
		"longitude": "108-30-31.79 W",
		"state": "COLORADO",
		"artcc": "ZDV",
		"type": "RP",
		"updated": "JNC*VOR/DME*098.32/14.46"
	},
	{
		"name": "AYEVA",
		"latitude": "42-34-25.04 N",
		"longitude": "102-18-55.11 W",
		"state": "NEBRASKA",
		"artcc": "ZDV",
		"type": "RNAV",
		"updated": "07/04/2009"
	},
	{
		"name": "AYNES",
		"latitude": "38-19-25.22 N",
		"longitude": "104-13-15.66 W",
		"state": "COLORADO",
		"artcc": "ZDV",
		"type": "RP",
		"updated": "PUB*VORTAC*071.78/10.00"
	},
	{
		"name": "AYOLE",
		"latitude": "41-8-59.4 N",
		"longitude": "100-43-20.63 W",
		"state": "NEBRASKA",
		"artcc": "ZDV",
		"type": "RNAV",
		"updated": "07/26/2013"
	},
	{
		"name": "AYUKA",
		"latitude": "41-19-50.28 N",
		"longitude": "102-15-25.53 W",
		"state": "NEBRASKA",
		"artcc": "ZDV",
		"type": "RNAV",
		"updated": "09/19/2008"
	},
	{
		"name": "AYULI",
		"latitude": "41-58-20.7 N",
		"longitude": "102-32-19.87 W",
		"state": "NEBRASKA",
		"artcc": "ZDV",
		"type": "RNAV",
		"updated": "11/27/2006"
	},
	{
		"name": "AYXAF",
		"latitude": "38-23-34.18 N",
		"longitude": "107-11-47.38 W",
		"state": "COLORADO",
		"artcc": "ZDV",
		"type": "CN",
		"updated": "06/08/2009"
	},
	{
		"name": "AYXOS",
		"latitude": "40-42-21.74 N",
		"longitude": "101-35-17.88 W",
		"state": "NEBRASKA",
		"artcc": "ZDV",
		"type": "RNAV",
		"updated": "06/13/2008"
	}
]
