	{
		"name": "BAACK",
		"latitude": "40-1-22.25 N",
		"longitude": "104-51-40.36 W",
		"state": "COLORADO",
		"artcc": "ZDV",
		"type": "RNAV",
		"updated": "09/22/2012",
	},
	{
		"name": "BAAND",
		"latitude": "39-29-59.57 N",
		"longitude": "104-6-30.51 W",
		"state": "COLORADO",
		"artcc": "ZDV",
		"type": "RNAV",
		"updated": "09/26/2012",
	},
	{
		"name": "BAAWL",
		"latitude": "39-49-22.32 N",
		"longitude": "104-57-10.44 W",
		"state": "COLORADO",
		"artcc": "ZDV",
		"type": "RP",
		"updated": "BJC*VOR/DME*/10.16",
	},
	{
		"name": "BAAYR",
		"latitude": "40-29-40.49 N",
		"longitude": "104-38-2.96 W",
		"state": "COLORADO",
		"artcc": "ZDV",
		"type": "RNAV",
		"updated": "07/01/2014",
	},
	{
		"name": "BABAA",
		"latitude": "39-57-6.21 N",
		"longitude": "104-48-16.53 W",
		"state": "COLORADO",
		"artcc": "ZDV",
		"type": "RNAV",
		"updated": "09/22/2012",
	},
	{
		"name": "BACBA",
		"latitude": "40-3-21.93 N",
		"longitude": "99-51-24.75 W",
		"state": "NEBRASKA",
		"artcc": "ZDV",
		"type": "RNAV",
		"updated": "08/18/2010",
	},
	{
		"name": "BAFJE",
		"latitude": "42-48-5.54 N",
		"longitude": "103-1-59.52 W",
		"state": "NEBRASKA",
		"artcc": "ZDV",
		"type": "RNAV",
		"updated": "06/29/2011",
	},
	{
		"name": "BAHIR",
		"latitude": "40-32-0.31 N",
		"longitude": "99-9-6.68 W",
		"state": "NEBRASKA",
		"artcc": "ZDV",
		"type": "RNAV",
		"updated": "06/29/2005",
	},
	{
		"name": "BANRE",
		"latitude": "39-33-59.21 N",
		"longitude": "99-9-3.72 W",
		"state": "KANSAS",
		"artcc": "ZDV",
		"type": "RNAV",
		"updated": "03/06/2018",
	},
	{
		"name": "BARAB",
		"latitude": "40-10-43.28 N",
		"longitude": "102-17-58.03 W",
		"state": "COLORADO",
		"artcc": "ZDV",
		"type": "WP",
		"updated": "11/02/1998",
	},
	{
		"name": "BARGR",
		"latitude": "40-53-10.98 N",
		"longitude": "105-4-58.9 W",
		"state": "COLORADO",
		"artcc": "ZDV",
		"type": "RP",
		"updated": "GLL*VOR/DME*300.65/33.33",
	},
	{
		"name": "BARKE",
		"latitude": "42-24-38.69 N",
		"longitude": "99-23-37.37 W",
		"state": "NEBRASKA",
		"artcc": "ZDV",
		"type": "RNAV",
		"updated": "02/10/2010",
	},
	{
		"name": "BARRK",
		"latitude": "39-29-21 N",
		"longitude": "104-30-21.69 W",
		"state": "COLORADO",
		"artcc": "ZDV",
		"type": "RNAV",
		"updated": "09/24/2012",
	},
	{
		"name": "BARZA",
		"latitude": "39-40-8.23 N",
		"longitude": "106-44-5.64 W",
		"state": "COLORADO",
		"artcc": "ZDV",
		"type": "RP",
		"updated": "VAZ*DD*NE CRS/9.52",
	},
	{
		"name": "BASAM",
		"latitude": "39-24-17.36 N",
		"longitude": "107-4-28.97 W",
		"state": "COLORADO",
		"artcc": "ZDV",
		"type": "RP",
		"updated": "RDY*TACAN*305.77/15.28",
	},
	{
		"name": "BASEE",
		"latitude": "39-12-22.16 N",
		"longitude": "105-48-0.12 W",
		"state": "COLORADO",
		"artcc": "ZDV",
		"type": "RP",
		"updated": "DVV*VORTAC*225.27/68.42",
	},
	{
		"name": "BASLT",
		"latitude": "39-28-21.58 N",
		"longitude": "107-3-20.12 W",
		"state": "COLORADO",
		"artcc": "ZDV",
		"type": "RNAV",
		"updated": "09/02/2008",
	},
	{
		"name": "BATTZ",
		"latitude": "38-52-16.39 N",
		"longitude": "108-14-15.29 W",
		"state": "COLORADO",
		"artcc": "ZDV",
		"type": "RP",
		"updated": "MTJ*VOR/DME*312.09",
	},
	{
		"name": "BAYLR",
		"latitude": "39-33-11.99 N",
		"longitude": "105-37-6.04 W",
		"state": "COLORADO",
		"artcc": "ZDV",
		"type": "RP",
		"updated": "DEN*VOR/DME*243.00/47.00",
	},
	{
		"name": "BBOOK",
		"latitude": "39-44-39.67 N",
		"longitude": "104-44-56.83 W",
		"state": "COLORADO",
		"artcc": "ZDV",
		"type": "RNAV",
		"updated": "03/22/2012",
	},
	{
		"name": "BBRWN",
		"latitude": "40-32-50.82 N",
		"longitude": "104-32-44.56 W",
		"state": "COLORADO",
		"artcc": "ZDV",
		"type": "RNAV",
		"updated": "11/22/2012",
	},
	{
		"name": "BCALN",
		"latitude": "39-58-6.83 N",
		"longitude": "104-28-54.82 W",
		"state": "COLORADO",
		"artcc": "ZDV",
		"type": "RNAV",
		"updated": "03/22/2012",
	},
	{
		"name": "BCORP",
		"latitude": "39-12-48.68 N",
		"longitude": "104-28-40.76 W",
		"state": "COLORADO",
		"artcc": "ZDV",
		"type": "RNAV",
		"updated": "11/22/2012",
	},
	{
		"name": "BDEEE",
		"latitude": "40-34-5.02 N",
		"longitude": "106-17-15.23 W",
		"state": "COLORADO",
		"artcc": "ZDV",
		"type": "RNAV",
		"updated": "09/22/2012",
	},
	{
		"name": "BDIVN",
		"latitude": "39-18-51.04 N",
		"longitude": "105-0-12.56 W",
		"state": "COLORADO",
		"artcc": "ZDV",
		"type": "RNAV",
		"updated": "09/22/2012",
	},
	{
		"name": "BDROC",
		"latitude": "38-27-3.28 N",
		"longitude": "108-36-19.86 W",
		"state": "COLORADO",
		"artcc": "ZDV",
		"type": "RP",
		"updated": "JNC*VOR/DME*151.41/37.52",
	},
	{
		"name": "BDUNN",
		"latitude": "40-23-40.23 N",
		"longitude": "104-53-30.32 W",
		"state": "COLORADO",
		"artcc": "ZDV",
		"type": "RNAV",
		"updated": "09/22/2012",
	},
	{
		"name": "BECOL",
		"latitude": "41-18-40.47 N",
		"longitude": "99-24-40.52 W",
		"state": "NEBRASKA",
		"artcc": "ZDV",
		"type": "RNAV",
		"updated": "07/07/2008",
	},
	{
		"name": "BEEAR",
		"latitude": "40-22-30.8 N",
		"longitude": "107-3-20.63 W",
		"state": "COLORADO",
		"artcc": "ZDV",
		"type": "RNAV",
		"updated": "09/04/2015",
	},
	{
		"name": "BEEBS",
		"latitude": "39-54-8.37 N",
		"longitude": "104-40-53.97 W",
		"state": "COLORADO",
		"artcc": "ZDV",
		"type": "RNAV",
		"updated": "09/23/2012",
	},
	{
		"name": "BEEFS",
		"latitude": "43-58-41.09 N",
		"longitude": "102-50-11.43 W",
		"state": "SOUTH DAKOTA",
		"artcc": "ZDV",
		"type": "MR",
		"updated": "RCA*TACAN*122.00/15.00",
	},
	{
		"name": "BEEFY",
		"latitude": "44-11-32.55 N",
		"longitude": "102-45-46.31 W",
		"state": "SOUTH DAKOTA",
		"artcc": "ZDV",
		"type": "RP",
		"updated": "RAP*VORTAC*026.65/16.88",
	},
	{
		"name": "BEEKR",
		"latitude": "39-21-1.42 N",
		"longitude": "102-52-58.4 W",
		"state": "COLORADO",
		"artcc": "ZDV",
		"type": "RNAV",
		"updated": "02/02/2017",
	},
	{
		"name": "BEEKY",
		"latitude": "39-44-41.51 N",
		"longitude": "104-50-9.16 W",
		"state": "COLORADO",
		"artcc": "ZDV",
		"type": "RNAV",
		"updated": "03/22/2012",
	},
	{
		"name": "BEELO",
		"latitude": "39-37-0.31 N",
		"longitude": "107-5-46.32 W",
		"state": "COLORADO",
		"artcc": "ZDV",
		"type": "RNAV",
		"updated": "03/05/2014",
	},
	{
		"name": "BEFNO",
		"latitude": "44-13-49.79 N",
		"longitude": "103-12-37.52 W",
		"state": "SOUTH DAKOTA",
		"artcc": "ZDV",
		"type": "MR",
		"updated": "RCA*TACAN*/7.22",
	},
	{
		"name": "BEIER",
		"latitude": "37-41-6.07 N",
		"longitude": "105-2-26.74 W",
		"state": "COLORADO",
		"artcc": "ZDV",
		"type": "RNAV",
		"updated": "08/26/2013",
	},
	{
		"name": "BEKEE",
		"latitude": "39-30-33.39 N",
		"longitude": "104-38-18.2 W",
		"state": "COLORADO",
		"artcc": "ZDV",
		"type": "MR",
		"updated": "BKF*TACAN*147.97/13.00",
	},
	{
		"name": "BELKE",
		"latitude": "40-1-22.58 N",
		"longitude": "102-0-30.69 W",
		"state": "NEBRASKA",
		"artcc": "ZDV",
		"type": "RP",
		"updated": "MCK*VOR/DME*253.00/66.00",
	},
	{
		"name": "BEMXI",
		"latitude": "41-3-53.29 N",
		"longitude": "100-34-1.85 W",
		"state": "NEBRASKA",
		"artcc": "ZDV",
		"type": "RNAV",
		"updated": "07/26/2013",
	},
	{
		"name": "BENGL",
		"latitude": "39-35-14.94 N",
		"longitude": "104-41-25.34 W",
		"state": "COLORADO",
		"artcc": "ZDV",
		"type": "RP",
		"updated": "OUF*LD*172.51/18.73",
	},
	{
		"name": "BENJU",
		"latitude": "40-25-59.99 N",
		"longitude": "101-32-50.52 W",
		"state": "NEBRASKA",
		"artcc": "ZDV",
		"type": "RNAV",
		"updated": "05/10/2007",
	},
	{
		"name": "BENNE",
		"latitude": "40-51-10.98 N",
		"longitude": "104-52-31.49 W",
		"state": "COLORADO",
		"artcc": "ZDV",
		"type": "RP",
		"updated": "GLL*VOR/DME*312.00",
	},
	{
		"name": "BENNZ",
		"latitude": "41-13-27.8 N",
		"longitude": "102-20-34.57 W",
		"state": "NEBRASKA",
		"artcc": "ZDV",
		"type": "RP",
		"updated": "SNY*VOR/DME*062.00/30.00",
	},
	{
		"name": "BEOND",
		"latitude": "40-17-23.04 N",
		"longitude": "104-57-5.82 W",
		"state": "COLORADO",
		"artcc": "ZDV",
		"type": "RNAV",
		"updated": "09/22/2012",
	},
	{
		"name": "BEQJI",
		"latitude": "38-29-38.92 N",
		"longitude": "107-53-33.35 W",
		"state": "COLORADO",
		"artcc": "ZDV",
		"type": "WP",
		"updated": "11/02/1998",
	},
	{
		"name": "BERNZ",
		"latitude": "39-58-14.7 N",
		"longitude": "104-46-50.18 W",
		"state": "COLORADO",
		"artcc": "ZDV",
		"type": "RNAV",
		"updated": "03/22/2012",
	},
	{
		"name": "BERRS",
		"latitude": "39-49-27.36 N",
		"longitude": "104-54-11.54 W",
		"state": "COLORADO",
		"artcc": "ZDV",
		"type": "RNAV",
		"updated": "11/22/2012",
	},
	{
		"name": "BESAQ",
		"latitude": "37-21-15.94 N",
		"longitude": "105-55-51.69 W",
		"state": "COLORADO",
		"artcc": "ZDV",
		"type": "RP",
		"updated": "ALS*VORTAC*260.31",
	},
	{
		"name": "BETEU",
		"latitude": "36-19-30.44 N",
		"longitude": "110-32-28.62 W",
		"state": "ARIZONA",
		"artcc": "ZDV",
		"type": "RNAV",
		"updated": "05/03/2002",
	},
	{
		"name": "BETME",
		"latitude": "42-38-21.44 N",
		"longitude": "99-38-42.99 W",
		"state": "NEBRASKA",
		"artcc": "ZDV",
		"type": "RNAV",
		"updated": "02/10/2010",
	},
	{
		"name": "BEYAD",
		"latitude": "39-17-40.97 N",
		"longitude": "106-55-37.41 W",
		"state": "COLORADO",
		"artcc": "ZDV",
		"type": "RNAV",
		"updated": "07/13/2009",
	},
	{
		"name": "BEYON",
		"latitude": "38-33-21.37 N",
		"longitude": "106-41-4.17 W",
		"state": "COLORADO",
		"artcc": "ZDV",
		"type": "WP",
		"updated": "07/18/1995",
	},
	{
		"name": "BFFLO",
		"latitude": "44-43-29.34 N",
		"longitude": "102-57-9.73 W",
		"state": "SOUTH DAKOTA",
		"artcc": "ZDV",
		"type": "RP",
		"updated": "RAP*VORTAC*350.25/45.00",
	},
	{
		"name": "BFREE",
		"latitude": "39-29-22.11 N",
		"longitude": "104-41-29.37 W",
		"state": "COLORADO",
		"artcc": "ZDV",
		"type": "RP",
		"updated": "OUF*LD*172.51/24.61",
	},
	{
		"name": "BGONE",
		"latitude": "39-46-6.21 N",
		"longitude": "104-22-32.94 W",
		"state": "COLORADO",
		"artcc": "ZDV",
		"type": "RNAV",
		"updated": "11/22/2012",
	},
	{
		"name": "BHAPY",
		"latitude": "39-26-56.08 N",
		"longitude": "104-43-3.28 W",
		"state": "COLORADO",
		"artcc": "ZDV",
		"type": "RNAV",
		"updated": "03/25/2012",
	},
	{
		"name": "BHIGH",
		"latitude": "39-47-17.15 N",
		"longitude": "104-8-45.34 W",
		"state": "COLORADO",
		"artcc": "ZDV",
		"type": "RNAV",
		"updated": "11/22/2012",
	},
	{
		"name": "BIBPA",
		"latitude": "39-6-49.01 N",
		"longitude": "108-30-19.63 W",
		"state": "COLORADO",
		"artcc": "ZDV",
		"type": "RNAV",
		"updated": "10/07/2003",
	},
	{
		"name": "BICAR",
		"latitude": "41-10-24.68 N",
		"longitude": "103-36-16.61 W",
		"state": "NEBRASKA",
		"artcc": "ZDV",
		"type": "RNAV",
		"updated": "10/17/2011",
	},
	{
		"name": "BIGNE",
		"latitude": "36-56-58.58 N",
		"longitude": "111-27-11.57 W",
		"state": "ARIZONA",
		"artcc": "ZDV",
		"type": "RNAV",
		"updated": "12/03/2007",
	},
	{
		"name": "BINBE",
		"latitude": "39-40-10.74 N",
		"longitude": "104-56-50.55 W",
		"state": "COLORADO",
		"artcc": "ZDV",
		"type": "RP",
		"updated": "FQF*VORTAC*254.46/15.17",
	},
	{
		"name": "BINCA",
		"latitude": "39-48-51.38 N",
		"longitude": "99-52-51.39 W",
		"state": "KANSAS",
		"artcc": "ZDV",
		"type": "RNAV",
		"updated": "08/18/2010",
	},
	{
		"name": "BINKE",
		"latitude": "38-0-25.59 N",
		"longitude": "105-35-33.62 W",
		"state": "COLORADO",
		"artcc": "ZDV",
		"type": "RP",
		"updated": "PUB*VORTAC*245.00",
	},
	{
		"name": "BIQCI",
		"latitude": "42-6-10.46 N",
		"longitude": "104-15-54.24 W",
		"state": "WYOMING",
		"artcc": "ZDV",
		"type": "WP",
		"updated": "11/02/1998",
	},
	{
		"name": "BITAR",
		"latitude": "39-33-20.02 N",
		"longitude": "109-19-12.35 W",
		"state": "UTAH",
		"artcc": "ZDV",
		"type": "RP",
		"updated": "EKR*VOR/DME*230.00",
	},
	{
		"name": "BIYAG",
		"latitude": "42-31-57.68 N",
		"longitude": "100-0-15.84 W",
		"state": "NEBRASKA",
		"artcc": "ZDV",
		"type": "RP",
		"updated": "ANW*VOR/DME*187.64/2.28",
	},
	{
		"name": "BIYAJ",
		"latitude": "38-25-52.45 N",
		"longitude": "106-49-42.55 W",
		"state": "COLORADO",
		"artcc": "ZDV",
		"type": "CN",
		"updated": "08/16/2010",
	},
	{
		"name": "BIZEN",
		"latitude": "39-52-11.34 N",
		"longitude": "105-1-2.49 W",
		"state": "COLORADO",
		"artcc": "ZDV",
		"type": "RP",
		"updated": "BJC*VOR/DME*103.73/6.19",
	},
	{
		"name": "BJETN",
		"latitude": "40-14-31.07 N",
		"longitude": "104-42-30.23 W",
		"state": "COLORADO",
		"artcc": "ZDV",
		"type": "RNAV",
		"updated": "03/16/2012",
	},
	{
		"name": "BKAYY",
		"latitude": "41-2-43.37 N",
		"longitude": "106-14-38.05 W",
		"state": "WYOMING",
		"artcc": "ZDV",
		"type": "RNAV",
		"updated": "09/28/2012",
	},
	{
		"name": "BLATS",
		"latitude": "38-24-58.42 N",
		"longitude": "101-44-59.78 W",
		"state": "KANSAS",
		"artcc": "ZDV",
		"type": "RNAV",
		"updated": "07/08/2015",
	},
	{
		"name": "BLEDS",
		"latitude": "40-18-30.52 N",
		"longitude": "102-1-26.92 W",
		"state": "NEBRASKA",
		"artcc": "ZDV",
		"type": "RNAV",
		"updated": "02/21/2018",
	},
	{
		"name": "BLEEU",
		"latitude": "40-40-6.94 N",
		"longitude": "104-38-34.41 W",
		"state": "COLORADO",
		"artcc": "ZDV",
		"type": "RNAV",
		"updated": "07/01/2014",
	},
	{
		"name": "BLGUM",
		"latitude": "44-57-44 N",
		"longitude": "103-39-56 W",
		"state": "SOUTH DAKOTA",
		"artcc": "ZDV",
		"type": "RNAV",
		"updated": "07/26/2017",
	},
	{
		"name": "BLIPS",
		"latitude": "39-49-32.62 N",
		"longitude": "104-57-48.57 W",
		"state": "COLORADO",
		"artcc": "ZDV",
		"type": "RNAV",
		"updated": "10/08/2014",
	},
	{
		"name": "BLOKE",
		"latitude": "37-25-1.32 N",
		"longitude": "105-31-1.44 W",
		"state": "COLORADO",
		"artcc": "ZDV",
		"type": "RP",
		"updated": "ALS*VORTAC*061.00/14.84",
	},
	{
		"name": "BLOOM",
		"latitude": "37-47-48.97 N",
		"longitude": "104-1-39.58 W",
		"state": "COLORADO",
		"artcc": "ZDV",
		"type": "RP",
		"updated": "PUB*VORTAC*139.30/35.37",
	},
	{
		"name": "BLUED",
		"latitude": "40-45-46.59 N",
		"longitude": "100-40-32.84 W",
		"state": "NEBRASKA",
		"artcc": "ZDV",
		"type": "RNAV",
		"updated": "03/03/2015",
	},
	{
		"name": "BLUKN",
		"latitude": "39-45-17.34 N",
		"longitude": "104-47-51.13 W",
		"state": "COLORADO",
		"artcc": "ZDV",
		"type": "RNAV",
		"updated": "09/23/2012",
	},
	{
		"name": "BNITA",
		"latitude": "40-17-20.22 N",
		"longitude": "104-43-8.73 W",
		"state": "COLORADO",
		"artcc": "ZDV",
		"type": "RNAV",
		"updated": "11/22/2012",
	},
	{
		"name": "BOBBA",
		"latitude": "39-23-41.94 N",
		"longitude": "106-11-10.06 W",
		"state": "COLORADO",
		"artcc": "ZDV",
		"type": "RP",
		"updated": "DEN*VOR/DME*243.00/75.04",
	},
	{
		"name": "BOBSM",
		"latitude": "40-15-23.04 N",
		"longitude": "106-52-45.67 W",
		"state": "COLORADO",
		"artcc": "ZDV",
		"type": "RNAV",
		"updated": "11/17/2014",
	},
	{
		"name": "BODGE",
		"latitude": "38-33-30.57 N",
		"longitude": "107-58-56.17 W",
		"state": "COLORADO",
		"artcc": "ZDV",
		"type": "RNAV",
		"updated": "03/20/2009",
	},
	{
		"name": "BOENG",
		"latitude": "39-39-58.76 N",
		"longitude": "104-41-22.08 W",
		"state": "COLORADO",
		"artcc": "ZDV",
		"type": "RP",
		"updated": "OUF*LD*172.51/14.00",
	},
	{
		"name": "BOGEI",
		"latitude": "39-43-14.08 N",
		"longitude": "104-41-37.14 W",
		"state": "COLORADO",
		"artcc": "ZDV",
		"type": "RNAV",
		"updated": "11/22/2012",
	},
	{
		"name": "BOKKI",
		"latitude": "41-39-54.99 N",
		"longitude": "99-52-17 W",
		"state": "NEBRASKA",
		"artcc": "ZDV",
		"type": "RP",
		"updated": "LBF*VOR/DME*035.65/54.15",
	},
	{
		"name": "BOLVE",
		"latitude": "39-54-53.28 N",
		"longitude": "99-29-38.72 W",
		"state": "KANSAS",
		"artcc": "ZDV",
		"type": "RNAV",
		"updated": "01/12/2016",
	},
	{
		"name": "BONUH",
		"latitude": "38-23-37.55 N",
		"longitude": "104-13-16.3 W",
		"state": "COLORADO",
		"artcc": "ZDV",
		"type": "RNAV",
		"updated": "10/06/2006",
	},
	{
		"name": "BOOBU",
		"latitude": "39-32-0.38 N",
		"longitude": "104-41-27.57 W",
		"state": "COLORADO",
		"artcc": "ZDV",
		"type": "RP",
		"updated": "OUF*LD*172.51/21.97",
	},
	{
		"name": "BOOKY",
		"latitude": "42-17-16.86 N",
		"longitude": "102-53-26.38 W",
		"state": "NEBRASKA",
		"artcc": "ZDV",
		"type": "RP",
		"updated": "BFF*VORTAC*035.00",
	},
	{
		"name": "BOOON",
		"latitude": "39-38-39.84 N",
		"longitude": "104-26-18 W",
		"state": "COLORADO",
		"artcc": "ZDV",
		"type": "RNAV",
		"updated": "09/24/2012",
	},
	{
		"name": "BORDR",
		"latitude": "39-41-49.77 N",
		"longitude": "103-46-2.18 W",
		"state": "COLORADO",
		"artcc": "ZDV",
		"type": "RP",
		"updated": "TXC*VORTAC*258.02",
	},
	{
		"name": "BORUM",
		"latitude": "38-5-30.37 N",
		"longitude": "104-22-10.27 W",
		"state": "COLORADO",
		"artcc": "ZDV",
		"type": "RNAV",
		"updated": "05/07/2013",
	},
	{
		"name": "BOSSS",
		"latitude": "39-21-55.61 N",
		"longitude": "104-35-25.77 W",
		"state": "COLORADO",
		"artcc": "ZDV",
		"type": "RNAV",
		"updated": "09/24/2012",
	},
	{
		"name": "BOUTS",
		"latitude": "39-26-23.87 N",
		"longitude": "106-59-40.2 W",
		"state": "COLORADO",
		"artcc": "ZDV",
		"type": "RP",
		"updated": "RDY*TACAN*322.00/15.00",
	},
	{
		"name": "BOVEE",
		"latitude": "39-18-42.95 N",
		"longitude": "103-48-15.73 W",
		"state": "COLORADO",
		"artcc": "ZDV",
		"type": "MR",
		"updated": "BKF*TACAN*106.00/50.00",
	},
	{
		"name": "BOWEE",
		"latitude": "38-50-4.51 N",
		"longitude": "102-44-50.92 W",
		"state": "COLORADO",
		"artcc": "ZDV",
		"type": "RNAV",
		"updated": "07/15/2014",
	},
	{
		"name": "BOYET",
		"latitude": "39-16-51.71 N",
		"longitude": "106-53-4.64 W",
		"state": "COLORADO",
		"artcc": "ZDV",
		"type": "RNAV",
		"updated": "03/12/2009",
	},
	{
		"name": "BOZTE",
		"latitude": "42-54-37.83 N",
		"longitude": "106-20-4.57 W",
		"state": "WYOMING",
		"artcc": "ZDV",
		"type": "RNAV",
		"updated": "04/14/2009",
	},
	{
		"name": "BPRAN",
		"latitude": "39-41-46.7 N",
		"longitude": "104-38-6.09 W",
		"state": "COLORADO",
		"artcc": "ZDV",
		"type": "RNAV",
		"updated": "03/25/2012",
	},
	{
		"name": "BPUTN",
		"latitude": "39-31-43.91 N",
		"longitude": "105-1-29.74 W",
		"state": "COLORADO",
		"artcc": "ZDV",
		"type": "RNAV",
		"updated": "09/21/2012",
	},
	{
		"name": "BRAZO",
		"latitude": "36-49-15.35 N",
		"longitude": "106-39-6.43 W",
		"state": "NEW MEXICO",
		"artcc": "ZDV",
		"type": "RP",
		"updated": "DRO*VOR/DME*096.34",
	},
	{
		"name": "BREKK",
		"latitude": "39-25-36.93 N",
		"longitude": "104-41-31.95 W",
		"state": "COLORADO",
		"artcc": "ZDV",
		"type": "RNAV",
		"updated": "03/25/2012",
	},
	{
		"name": "BRESH",
		"latitude": "38-18-24.32 N",
		"longitude": "104-7-42.8 W",
		"state": "COLORADO",
		"artcc": "ZDV",
		"type": "RP",
		"updated": "PUB*VORTAC*078.89/14.23",
	},
	{
		"name": "BREWS",
		"latitude": "39-39-16.05 N",
		"longitude": "105-10-50.89 W",
		"state": "COLORADO",
		"artcc": "ZDV",
		"type": "RP",
		"updated": "DEN*VOR/DME*237.68/25.87",
	},
	{
		"name": "BREZE",
		"latitude": "37-20-56 N",
		"longitude": "105-56-5.09 W",
		"state": "COLORADO",
		"artcc": "ZDV",
		"type": "RP",
		"updated": "ALS*VORTAC*256.87",
	},
	{
		"name": "BRICK",
		"latitude": "38-44-59.54 N",
		"longitude": "108-17-21.89 W",
		"state": "COLORADO",
		"artcc": "ZDV",
		"type": "RP",
		"updated": "MTJ*VOR/DME*296.62/23.44",
	},
	{
		"name": "BRKEM",
		"latitude": "39-48-50.92 N",
		"longitude": "104-51-47.63 W",
		"state": "COLORADO",
		"artcc": "ZDV",
		"type": "RNAV",
		"updated": "11/22/2012",
	},
	{
		"name": "BRNWL",
		"latitude": "39-55-18.58 N",
		"longitude": "104-25-21.2 W",
		"state": "COLORADO",
		"artcc": "ZDV",
		"type": "RNAV",
		"updated": "03/22/2012",
	},
	{
		"name": "BROCC",
		"latitude": "40-31-18.62 N",
		"longitude": "106-20-4.99 W",
		"state": "COLORADO",
		"artcc": "ZDV",
		"type": "RP",
		"updated": "CHE*VOR/DME*075.55/44.39",
	},
	{
		"name": "BROWD",
		"latitude": "41-49-7.99 N",
		"longitude": "99-2-56.19 W",
		"state": "NEBRASKA",
		"artcc": "ZDV",
		"type": "RNAV",
		"updated": "03/10/2009",
	},
	{
		"name": "BRRUK",
		"latitude": "41-3-30.99 N",
		"longitude": "102-15-40.36 W",
		"state": "NEBRASKA",
		"artcc": "ZDV",
		"type": "RNAV",
		"updated": "09/24/2012",
	},
	{
		"name": "BRSTO",
		"latitude": "39-54-53.04 N",
		"longitude": "104-12-55.58 W",
		"state": "COLORADO",
		"artcc": "ZDV",
		"type": "RNAV",
		"updated": "11/22/2012",
	},
	{
		"name": "BRTSN",
		"latitude": "39-58-16.08 N",
		"longitude": "104-50-44.44 W",
		"state": "COLORADO",
		"artcc": "ZDV",
		"type": "RNAV",
		"updated": "03/22/2012",
	},
	{
		"name": "BRUIT",
		"latitude": "42-10-33.71 N",
		"longitude": "101-21-13.63 W",
		"state": "NEBRASKA",
		"artcc": "ZDV",
		"type": "RP",
		"updated": "ONL*VORTAC*252.44/120.00",
	},
	{
		"name": "BRUUK",
		"latitude": "38-45-9.55 N",
		"longitude": "107-53-37.09 W",
		"state": "COLORADO",
		"artcc": "ZDV",
		"type": "RP",
		"updated": "MTJ*VOR/DME*349.03/14.76",
	},
	{
		"name": "BRYCC",
		"latitude": "40-44-8.05 N",
		"longitude": "104-23-41.02 W",
		"state": "COLORADO",
		"artcc": "ZDV",
		"type": "RNAV",
		"updated": "11/22/2012",
	},
	{
		"name": "BSAFE",
		"latitude": "40-25-47.07 N",
		"longitude": "105-0-51.52 W",
		"state": "COLORADO",
		"artcc": "ZDV",
		"type": "RNAV",
		"updated": "09/22/2012",
	},
	{
		"name": "BSAYN",
		"latitude": "39-44-21.77 N",
		"longitude": "104-41-19.06 W",
		"state": "COLORADO",
		"artcc": "ZDV",
		"type": "RNAV",
		"updated": "03/25/2012",
	},
	{
		"name": "BSTON",
		"latitude": "39-20-1.63 N",
		"longitude": "104-26-53.93 W",
		"state": "COLORADO",
		"artcc": "ZDV",
		"type": "RNAV",
		"updated": "09/24/2012",
	},
	{
		"name": "BTELN",
		"latitude": "40-25-24.81 N",
		"longitude": "104-23-4.66 W",
		"state": "COLORADO",
		"artcc": "ZDV",
		"type": "RNAV",
		"updated": "11/22/2012",
	},
	{
		"name": "BUBYO",
		"latitude": "38-34-32.2 N",
		"longitude": "106-2-26.76 W",
		"state": "COLORADO",
		"artcc": "ZDV",
		"type": "RNAV",
		"updated": "11/01/2013",
	},
	{
		"name": "BUFFS",
		"latitude": "40-19-57.46 N",
		"longitude": "104-37-33.8 W",
		"state": "COLORADO",
		"artcc": "ZDV",
		"type": "RP",
		"updated": "DCI*LD*169.81/7.59",
	},
	{
		"name": "BUGGG",
		"latitude": "38-39-18.31 N",
		"longitude": "109-29-48.01 W",
		"state": "UTAH",
		"artcc": "ZDV",
		"type": "RNAV",
		"updated": "01/19/2016",
	},
	{
		"name": "BULDG",
		"latitude": "39-37-34.7 N",
		"longitude": "106-18-49.5 W",
		"state": "COLORADO",
		"artcc": "ZDV",
		"type": "RNAV",
		"updated": "11/22/2012",
	},
	{
		"name": "BULIA",
		"latitude": "40-16-1.52 N",
		"longitude": "99-22-42.4 W",
		"state": "NEBRASKA",
		"artcc": "ZDV",
		"type": "RNAV",
		"updated": "01/22/2007",
	},
	{
		"name": "BULLT",
		"latitude": "39-52-42.04 N",
		"longitude": "105-34-27.8 W",
		"state": "COLORADO",
		"artcc": "ZDV",
		"type": "RNAV",
		"updated": "11/22/2012",
	},
	{
		"name": "BULQO",
		"latitude": "38-36-42.95 N",
		"longitude": "104-31-43.17 W",
		"state": "COLORADO",
		"artcc": "ZDV",
		"type": "WP",
		"updated": "11/02/1998",
	},
	{
		"name": "BUMPY",
		"latitude": "38-36-20.48 N",
		"longitude": "105-58-10.69 W",
		"state": "COLORADO",
		"artcc": "ZDV",
		"type": "RNAV",
		"updated": "09/22/2012",
	},
	{
		"name": "BUSTE",
		"latitude": "40-24-38.45 N",
		"longitude": "106-49-12.25 W",
		"state": "COLORADO",
		"artcc": "ZDV",
		"type": "RNAV",
		"updated": "01/14/2009",
	},
	{
		"name": "BUVHO",
		"latitude": "40-30-33.39 N",
		"longitude": "107-22-14.45 W",
		"state": "COLORADO",
		"artcc": "ZDV",
		"type": "RNAV",
		"updated": "04/06/2018",
	},
	{
		"name": "BUVME",
		"latitude": "38-40-40.41 N",
		"longitude": "108-11-12.76 W",
		"state": "COLORADO",
		"artcc": "ZDV",
		"type": "RNAV",
		"updated": "09/21/2015",
	},
	{
		"name": "BUWME",
		"latitude": "43-2-48.46 N",
		"longitude": "106-16-24.95 W",
		"state": "WYOMING",
		"artcc": "ZDV",
		"type": "RNAV",
		"updated": "04/14/2009",
	},
	{
		"name": "BUYYA",
		"latitude": "40-26-25.55 N",
		"longitude": "107-8-48.19 W",
		"state": "COLORADO",
		"artcc": "ZDV",
		"type": "RNAV",
		"updated": "09/04/2015",
	},
	{
		"name": "BUZRO",
		"latitude": "38-5-9.36 N",
		"longitude": "104-37-21.88 W",
		"state": "COLORADO",
		"artcc": "ZDV",
		"type": "RNAV",
		"updated": "05/13/2013",
	},
	{
		"name": "BYEBI",
		"latitude": "39-5-30.54 N",
		"longitude": "104-23-33.16 W",
		"state": "COLORADO",
		"artcc": "ZDV",
		"type": "RNAV",
		"updated": "09/23/2012",
	},
