	{
		"name": "CAAST",
		"latitude": "41-24-10.46 N",
		"longitude": "101-8-35.53 W",
		"state": "NEBRASKA",
		"artcc": "ZDV",
		"type": "RNAV",
		"updated": "07/16/2014",
	},
	{
		"name": "CAAZZ",
		"latitude": "40-3-4.52 N",
		"longitude": "104-39-23.25 W",
		"state": "COLORADO",
		"artcc": "ZDV",
		"type": "RNAV",
		"updated": "11/23/2012",
	},
	{
		"name": "CABAT",
		"latitude": "42-29-46.41 N",
		"longitude": "99-29-15.05 W",
		"state": "NEBRASKA",
		"artcc": "ZDV",
		"type": "RNAV",
		"updated": "02/10/2010",
	},
	{
		"name": "CABAX",
		"latitude": "42-56-39.98 N",
		"longitude": "103-18-42.35 W",
		"state": "NEBRASKA",
		"artcc": "ZDV",
		"type": "RNAV",
		"updated": "06/29/2011",
	},
	{
		"name": "CABER",
		"latitude": "37-23-31.6 N",
		"longitude": "111-39-44.91 W",
		"state": "UTAH",
		"artcc": "ZDV",
		"type": "RP",
		"updated": "BCE*VORTAC*104.99/35.41",
	},
	{
		"name": "CABET",
		"latitude": "39-35-38.96 N",
		"longitude": "102-0-38.7 W",
		"state": "KANSAS",
		"artcc": "ZDV",
		"type": "RP",
		"updated": "GLD*VORTAC*298.00",
	},
	{
		"name": "CABOB",
		"latitude": "38-59-3.29 N",
		"longitude": "105-26-39.66 W",
		"state": "COLORADO",
		"artcc": "ZDV",
		"type": "RNAV",
		"updated": "10/22/2012",
	},
	{
		"name": "CACLA",
		"latitude": "44-32-29.9 N",
		"longitude": "105-35-27.44 W",
		"state": "WYOMING",
		"artcc": "ZDV",
		"type": "RNAV",
		"updated": "07/12/2005",
	},
	{
		"name": "CADKO",
		"latitude": "39-49-50.68 N",
		"longitude": "104-41-15.27 W",
		"state": "COLORADO",
		"artcc": "ZDV",
		"type": "RP",
		"updated": "OUF*LD*172.51/4.15",
	},
	{
		"name": "CADRI",
		"latitude": "36-47-19.27 N",
		"longitude": "111-25-5.81 W",
		"state": "ARIZONA",
		"artcc": "ZDV",
		"type": "RNAV",
		"updated": "12/03/2007",
	},
	{
		"name": "CAGUB",
		"latitude": "42-37-32.5 N",
		"longitude": "102-27-9.42 W",
		"state": "NEBRASKA",
		"artcc": "ZDV",
		"type": "RNAV",
		"updated": "09/26/2002",
	},
	{
		"name": "CAKBI",
		"latitude": "38-37-45.95 N",
		"longitude": "108-14-30.27 W",
		"state": "COLORADO",
		"artcc": "ZDV",
		"type": "RNAV",
		"updated": "09/21/2015",
	},
	{
		"name": "CALRO",
		"latitude": "42-43-1.92 N",
		"longitude": "99-43-53.76 W",
		"state": "NEBRASKA",
		"artcc": "ZDV",
		"type": "RNAV",
		"updated": "02/10/2010",
	},
	{
		"name": "CALVR",
		"latitude": "42-37-2.43 N",
		"longitude": "103-18-18.75 W",
		"state": "NEBRASKA",
		"artcc": "ZDV",
		"type": "RP",
		"updated": "TST*VOR/DME*352.00/3.53",
	},
	{
		"name": "CAMID",
		"latitude": "41-50-0.27 N",
		"longitude": "103-44-58.05 W",
		"state": "NEBRASKA",
		"artcc": "ZDV",
		"type": "RNAV",
		"updated": "10/30/2013",
	},
	{
		"name": "CAMUK",
		"latitude": "44-43-10.21 N",
		"longitude": "104-56-27.36 W",
		"state": "WYOMING",
		"artcc": "ZDV",
		"type": "RNAV",
		"updated": "07/19/2016",
	},
	{
		"name": "CANDU",
		"latitude": "39-41-1.55 N",
		"longitude": "106-38-6.98 W",
		"state": "COLORADO",
		"artcc": "ZDV",
		"type": "RP",
		"updated": "VAZ*DD*NE CRS/14.22",
	},
	{
		"name": "CANED",
		"latitude": "39-53-1.58 N",
		"longitude": "105-3-23.72 W",
		"state": "COLORADO",
		"artcc": "ZDV",
		"type": "RP",
		"updated": "BJC*VOR/DME*103.73/4.19",
	},
	{
		"name": "CAPGA",
		"latitude": "41-56-39.31 N",
		"longitude": "103-41-10.7 W",
		"state": "NEBRASKA",
		"artcc": "ZDV",
		"type": "RP",
		"updated": "RMT*LD*NW CRS/6.74",
	},
	{
		"name": "CAPTJ",
		"latitude": "39-58-8.78 N",
		"longitude": "104-32-49.46 W",
		"state": "COLORADO",
		"artcc": "ZDV",
		"type": "RNAV",
		"updated": "03/22/2012",
	},
	{
		"name": "CAPVA",
		"latitude": "40-36-18.75 N",
		"longitude": "103-44-51.36 W",
		"state": "COLORADO",
		"artcc": "ZDV",
		"type": "RNAV",
		"updated": "11/09/2015",
	},
	{
		"name": "CAREE",
		"latitude": "39-52-9.38 N",
		"longitude": "102-27-24.19 W",
		"state": "COLORADO",
		"artcc": "ZDV",
		"type": "RNAV",
		"updated": "02/21/2018",
	},
	{
		"name": "CARKU",
		"latitude": "39-14-9.96 N",
		"longitude": "108-43-44.96 W",
		"state": "COLORADO",
		"artcc": "ZDV",
		"type": "RNAV",
		"updated": "06/05/2009",
	},
	{
		"name": "CASAN",
		"latitude": "38-22-42.62 N",
		"longitude": "104-59-59.06 W",
		"state": "COLORADO",
		"artcc": "ZDV",
		"type": "RNAV",
		"updated": "01/22/2013",
	},
	{
		"name": "CASCU",
		"latitude": "37-12-23.48 N",
		"longitude": "104-20-3.74 W",
		"state": "COLORADO",
		"artcc": "ZDV",
		"type": "WP",
		"updated": "09/27/1995",
	},
	{
		"name": "CASMI",
		"latitude": "40-8-20.26 N",
		"longitude": "103-34-55.09 W",
		"state": "COLORADO",
		"artcc": "ZDV",
		"type": "RNAV",
		"updated": "01/18/2017",
	},
	{
		"name": "CASRO",
		"latitude": "36-53-34.88 N",
		"longitude": "108-12-8.87 W",
		"state": "NEW MEXICO",
		"artcc": "ZDV",
		"type": "RP",
		"updated": "RSK*VORTAC*316.10/10.00",
	},
	{
		"name": "CATAX",
		"latitude": "39-40-41.84 N",
		"longitude": "101-43-22.26 W",
		"state": "KANSAS",
		"artcc": "ZDV",
		"type": "RNAV",
		"updated": "09/27/2016",
	},
	{
		"name": "CAVET",
		"latitude": "44-6-6.93 N",
		"longitude": "103-3-19.1 W",
		"state": "SOUTH DAKOTA",
		"artcc": "ZDV",
		"type": "MR",
		"updated": "RCA*TACAN*130.00/3.00",
	},
	{
		"name": "CAVUD",
		"latitude": "39-13-50.2 N",
		"longitude": "106-52-20.64 W",
		"state": "COLORADO",
		"artcc": "ZDV",
		"type": "RNAV",
		"updated": "09/02/2008",
	},
	{
		"name": "CAZUU",
		"latitude": "38-49-0.37 N",
		"longitude": "106-59-11.76 W",
		"state": "COLORADO",
		"artcc": "ZDV",
		"type": "RP",
		"updated": "HBU*VOR/DME*352.50/22.00",
	},
	{
		"name": "CCLYD",
		"latitude": "40-17-34.01 N",
		"longitude": "104-33-21.33 W",
		"state": "COLORADO",
		"artcc": "ZDV",
		"type": "RNAV",
		"updated": "11/23/2012",
	},
	{
		"name": "CECYU",
		"latitude": "39-55-10.95 N",
		"longitude": "99-54-43.91 W",
		"state": "KANSAS",
		"artcc": "ZDV",
		"type": "CN",
		"updated": "04/13/2000",
	},
	{
		"name": "CEDIX",
		"latitude": "40-1-35.11 N",
		"longitude": "106-13-30.38 W",
		"state": "COLORADO",
		"artcc": "ZDV",
		"type": "RNAV",
		"updated": "05/16/2017",
	},
	{
		"name": "CEDNO",
		"latitude": "41-23-33.5 N",
		"longitude": "107-39-19.93 W",
		"state": "WYOMING",
		"artcc": "ZDV",
		"type": "RNAV",
		"updated": "08/10/2017",
	},
	{
		"name": "CEDUK",
		"latitude": "40-16-28 N",
		"longitude": "104-22-29.19 W",
		"state": "COLORADO",
		"artcc": "ZDV",
		"type": "RP",
		"updated": "GLL*VOR/DME*136.23/16.00",
	},
	{
		"name": "CEDUR",
		"latitude": "39-47-20.38 N",
		"longitude": "99-53-49.58 W",
		"state": "KANSAS",
		"artcc": "ZDV",
		"type": "CN",
		"updated": "04/13/2000",
	},
	{
		"name": "CEGIX",
		"latitude": "38-40-38.28 N",
		"longitude": "104-41-9.52 W",
		"state": "COLORADO",
		"artcc": "ZDV",
		"type": "RP",
		"updated": "FCS*VOR/DME*079.77",
	},
	{
		"name": "CEGOR",
		"latitude": "40-54-27.32 N",
		"longitude": "106-20-20.27 W",
		"state": "COLORADO",
		"artcc": "ZDV",
		"type": "RNAV",
		"updated": "04/07/2008",
	},
	{
		"name": "CEKRI",
		"latitude": "42-30-30.72 N",
		"longitude": "99-43-32.58 W",
		"state": "NEBRASKA",
		"artcc": "ZDV",
		"type": "RNAV",
		"updated": "04/16/2008",
	},
	{
		"name": "CELAS",
		"latitude": "39-17-55.92 N",
		"longitude": "107-10-41.72 W",
		"state": "COLORADO",
		"artcc": "ZDV",
		"type": "RNAV",
		"updated": "07/13/2009",
	},
	{
		"name": "CELAY",
		"latitude": "36-34-18.95 N",
		"longitude": "111-22-4.96 W",
		"state": "ARIZONA",
		"artcc": "ZDV",
		"type": "RP",
		"updated": "PGA*VOR/DME*156.89/21.86",
	},
	{
		"name": "CELBI",
		"latitude": "39-38-29.55 N",
		"longitude": "104-39-46.04 W",
		"state": "COLORADO",
		"artcc": "ZDV",
		"type": "RP",
		"updated": "AQD*LD*172.53/13.35",
	},
	{
		"name": "CELIA",
		"latitude": "40-49-11.15 N",
		"longitude": "107-46-27.22 W",
		"state": "COLORADO",
		"artcc": "ZDV",
		"type": "RP",
		"updated": "CHE*VOR/DME*296.14/27.96",
	},
	{
		"name": "CELIX",
		"latitude": "42-49-16.25 N",
		"longitude": "106-44-8.02 W",
		"state": "WYOMING",
		"artcc": "ZDV",
		"type": "RNAV",
		"updated": "08/14/2008",
	},
	{
		"name": "CELMI",
		"latitude": "39-36-11.96 N",
		"longitude": "104-31-11.89 W",
		"state": "COLORADO",
		"artcc": "ZDV",
		"type": "RP",
		"updated": "FQF*VORTAC*127.00/7.00",
	},
	{
		"name": "CEMAG",
		"latitude": "42-58-25.16 N",
		"longitude": "106-22-11.39 W",
		"state": "WYOMING",
		"artcc": "ZDV",
		"type": "RNAV",
		"updated": "04/14/2009",
	},
	{
		"name": "CEMAP",
		"latitude": "39-52-54.71 N",
		"longitude": "102-41-0.34 W",
		"state": "COLORADO",
		"artcc": "ZDV",
		"type": "RNAV",
		"updated": "03/19/2018",
	},
	{
		"name": "CEMIP",
		"latitude": "38-43-26.02 N",
		"longitude": "106-5-0.99 W",
		"state": "COLORADO",
		"artcc": "ZDV",
		"type": "RNAV",
		"updated": "07/07/2003",
	},
	{
		"name": "CEMKA",
		"latitude": "38-57-12 N",
		"longitude": "104-42-56.6 W",
		"state": "COLORADO",
		"artcc": "ZDV",
		"type": "RNAV",
		"updated": "03/31/2016",
	},
	{
		"name": "CEMOS",
		"latitude": "37-22-26.95 N",
		"longitude": "109-13-57.22 W",
		"state": "UTAH",
		"artcc": "ZDV",
		"type": "RNAV",
		"updated": "08/16/2011",
	},
	{
		"name": "CENAB",
		"latitude": "42-50-10.48 N",
		"longitude": "102-22-25.19 W",
		"state": "NEBRASKA",
		"artcc": "ZDV",
		"type": "RNAV",
		"updated": "04/15/2008",
	},
	{
		"name": "CENAR",
		"latitude": "39-40-53.35 N",
		"longitude": "104-44-14.79 W",
		"state": "COLORADO",
		"artcc": "ZDV",
		"type": "MR",
		"updated": "BKF*TACAN*147.97/1.70",
	},
	{
		"name": "CENIK",
		"latitude": "39-43-31.5 N",
		"longitude": "104-51-15.06 W",
		"state": "COLORADO",
		"artcc": "ZDV",
		"type": "RNAV",
		"updated": "09/23/2012",
	},
	{
		"name": "CENTN",
		"latitude": "39-38-3.68 N",
		"longitude": "104-51-13.68 W",
		"state": "COLORADO",
		"artcc": "ZDV",
		"type": "RNAV",
		"updated": "06/05/2015",
	},
	{
		"name": "CEPEE",
		"latitude": "39-58-54.34 N",
		"longitude": "104-50-17.93 W",
		"state": "COLORADO",
		"artcc": "ZDV",
		"type": "RNAV",
		"updated": "03/22/2012",
	},
	{
		"name": "CEPMA",
		"latitude": "37-59-56.07 N",
		"longitude": "108-7-25.48 W",
		"state": "COLORADO",
		"artcc": "ZDV",
		"type": "RNAV",
		"updated": "08/18/2015",
	},
	{
		"name": "CEPTI",
		"latitude": "40-43-16.4 N",
		"longitude": "106-18-38.52 W",
		"state": "COLORADO",
		"artcc": "ZDV",
		"type": "RNAV",
		"updated": "04/07/2008",
	},
	{
		"name": "CESBA",
		"latitude": "38-55-33.66 N",
		"longitude": "108-23-10.77 W",
		"state": "COLORADO",
		"artcc": "ZDV",
		"type": "RNAV",
		"updated": "10/23/2003",
	},
	{
		"name": "CESPI",
		"latitude": "43-14-40.64 N",
		"longitude": "106-11-20.63 W",
		"state": "WYOMING",
		"artcc": "ZDV",
		"type": "RP",
		"updated": "DDY*VOR/DME*010.69/10.00",
	},
	{
		"name": "CESTO",
		"latitude": "38-16-47.9 N",
		"longitude": "101-44-57.82 W",
		"state": "KANSAS",
		"artcc": "ZDV",
		"type": "RNAV",
		"updated": "07/08/2015",
	},
	{
		"name": "CESUB",
		"latitude": "41-51-44.93 N",
		"longitude": "103-34-44.42 W",
		"state": "NEBRASKA",
		"artcc": "ZDV",
		"type": "RP",
		"updated": "BFF*LD*125.60/1.83",
	},
	{
		"name": "CETAX",
		"latitude": "39-42-16.64 N",
		"longitude": "99-17-11.23 W",
		"state": "KANSAS",
		"artcc": "ZDV",
		"type": "RNAV",
		"updated": "02/18/2016",
	},
	{
		"name": "CEVUX",
		"latitude": "42-7-47.14 N",
		"longitude": "100-45-0.34 W",
		"state": "NEBRASKA",
		"artcc": "ZDV",
		"type": "RNAV",
		"updated": "05/30/2010",
	},
	{
		"name": "CEWLE",
		"latitude": "40-6-22.78 N",
		"longitude": "102-14-43.57 W",
		"state": "COLORADO",
		"artcc": "ZDV",
		"type": "WP",
		"updated": "11/02/1998",
	},
	{
		"name": "CEXEP",
		"latitude": "37-57-37.52 N",
		"longitude": "107-56-27.78 W",
		"state": "COLORADO",
		"artcc": "ZDV",
		"type": "RP",
		"updated": "TEX*DD*272.90/1.18",
	},
	{
		"name": "CEXIT",
		"latitude": "41-48-6.53 N",
		"longitude": "106-49-14.99 W",
		"state": "WYOMING",
		"artcc": "ZDV",
		"type": "RP",
		"updated": "CKW*VOR/DME*070.12/34.28",
	},
	{
		"name": "CEYAG",
		"latitude": "39-16-21.89 N",
		"longitude": "106-53-33.15 W",
		"state": "COLORADO",
		"artcc": "ZDV",
		"type": "RP",
		"updated": "ASE*LE*330.63/4.04",
	},
	{
		"name": "CEYAL",
		"latitude": "39-40-14.64 N",
		"longitude": "99-49-42.91 W",
		"state": "KANSAS",
		"artcc": "ZDV",
		"type": "RNAV",
		"updated": "08/18/2010",
	},
	{
		"name": "CEYFI",
		"latitude": "42-49-43.83 N",
		"longitude": "106-48-33.34 W",
		"state": "WYOMING",
		"artcc": "ZDV",
		"type": "RNAV",
		"updated": "08/14/2008",
	},
	{
		"name": "CFBBJ",
		"latitude": "42-43-59.32 N",
		"longitude": "103-11-43.58 W",
		"state": "NEBRASKA",
		"artcc": "ZDV",
		"type": "CN",
		"updated": "02/27/2012",
	},
	{
		"name": "CFBQT",
		"latitude": "38-26-36.93 N",
		"longitude": "105-14-51.58 W",
		"state": "COLORADO",
		"artcc": "ZDV",
		"type": "CN",
		"updated": "01/10/2013",
	},
	{
		"name": "CFBQV",
		"latitude": "38-26-32.27 N",
		"longitude": "105-15-1.38 W",
		"state": "COLORADO",
		"artcc": "ZDV",
		"type": "CN",
		"updated": "01/10/2013",
	},
	{
		"name": "CFBQW",
		"latitude": "38-26-37.16 N",
		"longitude": "105-15-12.78 W",
		"state": "COLORADO",
		"artcc": "ZDV",
		"type": "CN",
		"updated": "01/10/2013",
	},
	{
		"name": "CFBQX",
		"latitude": "38-26-45.9 N",
		"longitude": "105-15-15.56 W",
		"state": "COLORADO",
		"artcc": "ZDV",
		"type": "CN",
		"updated": "01/10/2013",
	},
	{
		"name": "CFBWR",
		"latitude": "38-56-40.5 N",
		"longitude": "104-36-14.38 W",
		"state": "COLORADO",
		"artcc": "ZDV",
		"type": "CN",
		"updated": "04/22/2014",
	},
	{
		"name": "CFBWT",
		"latitude": "38-56-21.71 N",
		"longitude": "104-36-30.22 W",
		"state": "COLORADO",
		"artcc": "ZDV",
		"type": "CN",
		"updated": "03/31/2016",
	},
	{
		"name": "CFBWZ",
		"latitude": "38-20-21.02 N",
		"longitude": "104-6-36.24 W",
		"state": "COLORADO",
		"artcc": "ZDV",
		"type": "CN",
		"updated": "08/06/2012",
	},
	{
		"name": "CFBYY",
		"latitude": "38-19-28.53 N",
		"longitude": "107-10-58.89 W",
		"state": "COLORADO",
		"artcc": "ZDV",
		"type": "CN",
		"updated": "08/16/2010",
	},
	{
		"name": "CFCDP",
		"latitude": "38-41-20.53 N",
		"longitude": "104-39-24.06 W",
		"state": "COLORADO",
		"artcc": "ZDV",
		"type": "CN",
		"updated": "03/31/2016",
	},
	{
		"name": "CFCDQ",
		"latitude": "38-40-38 N",
		"longitude": "104-37-36.07 W",
		"state": "COLORADO",
		"artcc": "ZDV",
		"type": "CN",
		"updated": "03/31/2016",
	},
	{
		"name": "CFCDR",
		"latitude": "38-57-11.65 N",
		"longitude": "104-38-3.47 W",
		"state": "COLORADO",
		"artcc": "ZDV",
		"type": "CN",
		"updated": "03/31/2016",
	},
	{
		"name": "CFCDS",
		"latitude": "38-56-52.82 N",
		"longitude": "104-38-18.21 W",
		"state": "COLORADO",
		"artcc": "ZDV",
		"type": "CN",
		"updated": "03/31/2016",
	},
	{
		"name": "CFCFQ",
		"latitude": "44-38-42.16 N",
		"longitude": "105-37-0.89 W",
		"state": "WYOMING",
		"artcc": "ZDV",
		"type": "CN",
		"updated": "08/22/2016",
	},
	{
		"name": "CFCFT",
		"latitude": "37-16-34.54 N",
		"longitude": "107-3-54.5 W",
		"state": "COLORADO",
		"artcc": "ZDV",
		"type": "CN",
		"updated": "04/13/2016",
	},
	{
		"name": "CFDTB",
		"latitude": "39-4-46.28 N",
		"longitude": "102-12-31.72 W",
		"state": "COLORADO",
		"artcc": "ZDV",
		"type": "CN",
		"updated": "12/06/2017",
	},
	{
		"name": "CFDXL",
		"latitude": "38-25-44.72 N",
		"longitude": "106-46-51.79 W",
		"state": "COLORADO",
		"artcc": "ZDV",
		"type": "CN",
		"updated": "08/16/2010",
	},
	{
		"name": "CFFFA",
		"latitude": "38-17-45.49 N",
		"longitude": "104-6-28.93 W",
		"state": "COLORADO",
		"artcc": "ZDV",
		"type": "CN",
		"updated": "08/06/2012",
	},
	{
		"name": "CFFMD",
		"latitude": "37-46-25.83 N",
		"longitude": "106-3-58.29 W",
		"state": "COLORADO",
		"artcc": "ZDV",
		"type": "CN",
		"updated": "02/14/2014",
	},
	{
		"name": "CFFNB",
		"latitude": "39-58-52.83 N",
		"longitude": "104-46-43.59 W",
		"state": "COLORADO",
		"artcc": "ZDV",
		"type": "CN",
		"updated": "03/22/2012",
	},
	{
		"name": "CFFNC",
		"latitude": "39-45-58.44 N",
		"longitude": "104-36-21.99 W",
		"state": "COLORADO",
		"artcc": "ZDV",
		"type": "CN",
		"updated": "03/25/2012",
	},
	{
		"name": "CFFND",
		"latitude": "39-44-57.25 N",
		"longitude": "104-34-19.97 W",
		"state": "COLORADO",
		"artcc": "ZDV",
		"type": "CN",
		"updated": "03/25/2012",
	},
	{
		"name": "CFFNF",
		"latitude": "39-43-57.81 N",
		"longitude": "104-45-4.76 W",
		"state": "COLORADO",
		"artcc": "ZDV",
		"type": "CN",
		"updated": "03/25/2012",
	},
	{
		"name": "CFFNG",
		"latitude": "39-44-13.68 N",
		"longitude": "104-45-4.38 W",
		"state": "COLORADO",
		"artcc": "ZDV",
		"type": "CN",
		"updated": "03/25/2012",
	},
	{
		"name": "CFFNH",
		"latitude": "39-44-20.35 N",
		"longitude": "104-37-59.95 W",
		"state": "COLORADO",
		"artcc": "ZDV",
		"type": "CN",
		"updated": "03/25/2012",
	},
	{
		"name": "CFFNJ",
		"latitude": "39-44-57.26 N",
		"longitude": "104-34-19.98 W",
		"state": "COLORADO",
		"artcc": "ZDV",
		"type": "CN",
		"updated": "09/21/2012",
	},
	{
		"name": "CFFNK",
		"latitude": "39-44-23.26 N",
		"longitude": "104-45-4.12 W",
		"state": "COLORADO",
		"artcc": "ZDV",
		"type": "CN",
		"updated": "03/25/2012",
	},
	{
		"name": "CFFNL",
		"latitude": "39-44-13.7 N",
		"longitude": "104-45-4.35 W",
		"state": "COLORADO",
		"artcc": "ZDV",
		"type": "CN",
		"updated": "03/22/2012",
	},
	{
		"name": "CFFQB",
		"latitude": "40-9-17.41 N",
		"longitude": "104-55-34.58 W",
		"state": "COLORADO",
		"artcc": "ZDV",
		"type": "CN",
		"updated": "01/07/2000",
	},
	{
		"name": "CFFTH",
		"latitude": "39-58-49.22 N",
		"longitude": "104-37-56.3 W",
		"state": "COLORADO",
		"artcc": "ZDV",
		"type": "CN",
		"updated": "03/22/2012",
	},
	{
		"name": "CFFTJ",
		"latitude": "39-58-57.3 N",
		"longitude": "104-34-49.72 W",
		"state": "COLORADO",
		"artcc": "ZDV",
		"type": "CN",
		"updated": "03/22/2012",
	},
	{
		"name": "CFFTK",
		"latitude": "39-47-35.62 N",
		"longitude": "104-50-7.55 W",
		"state": "COLORADO",
		"artcc": "ZDV",
		"type": "CN",
		"updated": "03/22/2012",
	},
	{
		"name": "CFFTL",
		"latitude": "39-55-29.7 N",
		"longitude": "104-50-45.93 W",
		"state": "COLORADO",
		"artcc": "ZDV",
		"type": "CN",
		"updated": "03/22/2012",
	},
	{
		"name": "CFFTM",
		"latitude": "39-53-49.1 N",
		"longitude": "104-50-4.08 W",
		"state": "COLORADO",
		"artcc": "ZDV",
		"type": "CN",
		"updated": "03/22/2012",
	},
	{
		"name": "CFFTN",
		"latitude": "39-50-13.28 N",
		"longitude": "104-50-48.94 W",
		"state": "COLORADO",
		"artcc": "ZDV",
		"type": "CN",
		"updated": "03/22/2012",
	},
	{
		"name": "CFFTR",
		"latitude": "39-55-29.74 N",
		"longitude": "104-50-45.99 W",
		"state": "COLORADO",
		"artcc": "ZDV",
		"type": "CN",
		"updated": "03/22/2012",
	},
	{
		"name": "CFFTS",
		"latitude": "39-53-39.59 N",
		"longitude": "104-29-40.35 W",
		"state": "COLORADO",
		"artcc": "ZDV",
		"type": "CN",
		"updated": "03/22/2012",
	},
	{
		"name": "CFFTT",
		"latitude": "39-55-20.49 N",
		"longitude": "104-28-57.23 W",
		"state": "COLORADO",
		"artcc": "ZDV",
		"type": "CN",
		"updated": "03/22/2012",
	},
	{
		"name": "CFFTV",
		"latitude": "39-47-25.7 N",
		"longitude": "104-27-10.01 W",
		"state": "COLORADO",
		"artcc": "ZDV",
		"type": "CN",
		"updated": "03/22/2012",
	},
	{
		"name": "CFFTW",
		"latitude": "39-49-38.61 N",
		"longitude": "104-30-28.81 W",
		"state": "COLORADO",
		"artcc": "ZDV",
		"type": "CN",
		"updated": "03/22/2012",
	},
	{
		"name": "CFFTX",
		"latitude": "39-47-25.72 N",
		"longitude": "104-27-10.04 W",
		"state": "COLORADO",
		"artcc": "ZDV",
		"type": "CN",
		"updated": "03/22/2012",
	},
	{
		"name": "CFFTZ",
		"latitude": "39-55-20.5 N",
		"longitude": "104-28-57.23 W",
		"state": "COLORADO",
		"artcc": "ZDV",
		"type": "CN",
		"updated": "03/22/2012",
	},
	{
		"name": "CFFVD",
		"latitude": "39-58-57.31 N",
		"longitude": "104-34-49.75 W",
		"state": "COLORADO",
		"artcc": "ZDV",
		"type": "CN",
		"updated": "03/20/2012",
	},
	{
		"name": "CFFVF",
		"latitude": "39-59-0.34 N",
		"longitude": "104-41-45.45 W",
		"state": "COLORADO",
		"artcc": "ZDV",
		"type": "CN",
		"updated": "03/20/2012",
	},
	{
		"name": "CFFVG",
		"latitude": "39-58-52.76 N",
		"longitude": "104-46-43.52 W",
		"state": "COLORADO",
		"artcc": "ZDV",
		"type": "CN",
		"updated": "03/20/2012",
	},
	{
		"name": "CFFVJ",
		"latitude": "39-59-0.77 N",
		"longitude": "104-42-53.32 W",
		"state": "COLORADO",
		"artcc": "ZDV",
		"type": "CN",
		"updated": "03/20/2012",
	},
	{
		"name": "CFFVK",
		"latitude": "39-58-52.75 N",
		"longitude": "104-46-43.5 W",
		"state": "COLORADO",
		"artcc": "ZDV",
		"type": "CN",
		"updated": "03/23/2012",
	},
	{
		"name": "CFFVL",
		"latitude": "39-58-57.8 N",
		"longitude": "104-35-57.53 W",
		"state": "COLORADO",
		"artcc": "ZDV",
		"type": "CN",
		"updated": "03/20/2012",
	},
	{
		"name": "CFFVM",
		"latitude": "39-58-57.29 N",
		"longitude": "104-34-49.74 W",
		"state": "COLORADO",
		"artcc": "ZDV",
		"type": "CN",
		"updated": "03/20/2012",
	},
	{
		"name": "CFFVR",
		"latitude": "41-7-23.2 N",
		"longitude": "104-21-15.33 W",
		"state": "WYOMING",
		"artcc": "ZDV",
		"type": "CN",
		"updated": "06/04/2012",
	},
	{
		"name": "CFHDA",
		"latitude": "40-20-50.39 N",
		"longitude": "106-49-15.1 W",
		"state": "COLORADO",
		"artcc": "ZDV",
		"type": "CN",
		"updated": "11/17/2014",
	},
	{
		"name": "CFHDB",
		"latitude": "40-23-34.34 N",
		"longitude": "106-2-31.84 W",
		"state": "COLORADO",
		"artcc": "ZDV",
		"type": "CN",
		"updated": "11/17/2014",
	},
	{
		"name": "CFHDD",
		"latitude": "40-25-54.07 N",
		"longitude": "107-10-53.46 W",
		"state": "COLORADO",
		"artcc": "ZDV",
		"type": "CN",
		"updated": "11/17/2014",
	},
	{
		"name": "CFHDE",
		"latitude": "40-22-0.47 N",
		"longitude": "107-17-3.06 W",
		"state": "COLORADO",
		"artcc": "ZDV",
		"type": "CN",
		"updated": "11/17/2014",
	},
	{
		"name": "CFHDF",
		"latitude": "40-32-53.25 N",
		"longitude": "107-20-40.13 W",
		"state": "COLORADO",
		"artcc": "ZDV",
		"type": "CN",
		"updated": "11/17/2014",
	},
	{
		"name": "CFHWR",
		"latitude": "38-31-4.83 N",
		"longitude": "106-52-19.98 W",
		"state": "COLORADO",
		"artcc": "ZDV",
		"type": "CN",
		"updated": "08/16/2010",
	},
	{
		"name": "CFJPD",
		"latitude": "44-37-33.9 N",
		"longitude": "103-35-59.22 W",
		"state": "SOUTH DAKOTA",
		"artcc": "ZDV",
		"type": "CN",
		"updated": "12/29/2014",
	},
	{
		"name": "CFLHJ",
		"latitude": "44-4-50.26 N",
		"longitude": "105-28-26.38 W",
		"state": "WYOMING",
		"artcc": "ZDV",
		"type": "CN",
		"updated": "07/25/2005",
	},
	{
		"name": "CFMCH",
		"latitude": "38-16-44.08 N",
		"longitude": "104-50-6.9 W",
		"state": "COLORADO",
		"artcc": "ZDV",
		"type": "CN",
		"updated": "03/31/2016",
	},
	{
		"name": "CFMRT",
		"latitude": "41-2-14.81 N",
		"longitude": "107-28-38.45 W",
		"state": "WYOMING",
		"artcc": "ZDV",
		"type": "CN",
		"updated": "08/10/2017",
	},
	{
		"name": "CFMVZ",
		"latitude": "43-48-56.81 N",
		"longitude": "102-34-23.06 W",
		"state": "SOUTH DAKOTA",
		"artcc": "ZDV",
		"type": "CN",
		"updated": "12/30/2014",
	},
	{
		"name": "CFNRG",
		"latitude": "39-44-55.61 N",
		"longitude": "104-35-31.99 W",
		"state": "COLORADO",
		"artcc": "ZDV",
		"type": "CN",
		"updated": "03/19/2012",
	},
	{
		"name": "CFNRJ",
		"latitude": "39-44-59.33 N",
		"longitude": "104-44-14.11 W",
		"state": "COLORADO",
		"artcc": "ZDV",
		"type": "CN",
		"updated": "03/19/2012",
	},
	{
		"name": "CFNRL",
		"latitude": "39-58-52.81 N",
		"longitude": "104-46-43.57 W",
		"state": "COLORADO",
		"artcc": "ZDV",
		"type": "CN",
		"updated": "03/22/2012",
	},
	{
		"name": "CFNRM",
		"latitude": "39-47-22.82 N",
		"longitude": "104-18-16.63 W",
		"state": "COLORADO",
		"artcc": "ZDV",
		"type": "CN",
		"updated": "03/31/2012",
	},
	{
		"name": "CFNRP",
		"latitude": "39-58-50.48 N",
		"longitude": "104-44-45.39 W",
		"state": "COLORADO",
		"artcc": "ZDV",
		"type": "CN",
		"updated": "03/22/2012",
	},
	{
		"name": "CFPPS",
		"latitude": "39-57-45.85 N",
		"longitude": "104-31-27.38 W",
		"state": "COLORADO",
		"artcc": "ZDV",
		"type": "CN",
		"updated": "08/30/2012",
	},
	{
		"name": "CFPPT",
		"latitude": "39-45-1.1 N",
		"longitude": "104-43-9.96 W",
		"state": "COLORADO",
		"artcc": "ZDV",
		"type": "CN",
		"updated": "03/19/2012",
	},
	{
		"name": "CFPPV",
		"latitude": "39-44-13.68 N",
		"longitude": "104-45-4.39 W",
		"state": "COLORADO",
		"artcc": "ZDV",
		"type": "CN",
		"updated": "09/18/2012",
	},
	{
		"name": "CFPPW",
		"latitude": "39-44-57.25 N",
		"longitude": "104-34-19.98 W",
		"state": "COLORADO",
		"artcc": "ZDV",
		"type": "CN",
		"updated": "03/19/2012",
	},
	{
		"name": "CFPPZ",
		"latitude": "39-58-47.43 N",
		"longitude": "104-37-20.98 W",
		"state": "COLORADO",
		"artcc": "ZDV",
		"type": "CN",
		"updated": "03/22/2012",
	},
	{
		"name": "CFPQB",
		"latitude": "39-33-44.3 N",
		"longitude": "104-31-27.06 W",
		"state": "COLORADO",
		"artcc": "ZDV",
		"type": "CN",
		"updated": "03/31/2012",
	},
	{
		"name": "CFPQC",
		"latitude": "39-58-57.28 N",
		"longitude": "104-34-49.74 W",
		"state": "COLORADO",
		"artcc": "ZDV",
		"type": "CN",
		"updated": "03/22/2012",
	},
	{
		"name": "CFPQD",
		"latitude": "39-58-52.24 N",
		"longitude": "104-45-16.7 W",
		"state": "COLORADO",
		"artcc": "ZDV",
		"type": "CN",
		"updated": "03/22/2012",
	},
	{
		"name": "CFQTG",
		"latitude": "39-36-10.54 N",
		"longitude": "106-55-5.76 W",
		"state": "COLORADO",
		"artcc": "ZDV",
		"type": "CN",
		"updated": "12/15/2017",
	},
	{
		"name": "CFTXS",
		"latitude": "40-28-39.54 N",
		"longitude": "107-11-55.6 W",
		"state": "COLORADO",
		"artcc": "ZDV",
		"type": "CN",
		"updated": "09/04/2015",
	},
	{
		"name": "CFVDG",
		"latitude": "39-54-44.09 N",
		"longitude": "105-8-0.08 W",
		"state": "COLORADO",
		"artcc": "ZDV",
		"type": "CN",
		"updated": "07/05/2017",
	},
	{
		"name": "CFWKM",
		"latitude": "39-49-47.45 N",
		"longitude": "106-55-43.05 W",
		"state": "COLORADO",
		"artcc": "ZDV",
		"type": "CN",
		"updated": "12/15/2017",
	},
	{
		"name": "CFWRX",
		"latitude": "39-37-32.31 N",
		"longitude": "107-2-51 W",
		"state": "COLORADO",
		"artcc": "ZDV",
		"type": "CN",
		"updated": "12/15/2017",
	},
	{
		"name": "CFXVL",
		"latitude": "39-49-2.99 N",
		"longitude": "106-53-41.09 W",
		"state": "COLORADO",
		"artcc": "ZDV",
		"type": "CN",
		"updated": "12/15/2017",
	},
	{
		"name": "CHACO",
		"latitude": "36-26-58.13 N",
		"longitude": "108-16-59.6 W",
		"state": "NEW MEXICO",
		"artcc": "ZDV",
		"type": "RP",
		"updated": "RSK*VORTAC*192.49/20.00",
	},
	{
		"name": "CHAKO",
		"latitude": "41-9-47.7 N",
		"longitude": "103-2-57.77 W",
		"state": "NEBRASKA",
		"artcc": "ZDV",
		"type": "RP",
		"updated": "SNY*VOR/DME*310.01/5.00",
	},
	{
		"name": "CHAMA",
		"latitude": "36-53-14.44 N",
		"longitude": "106-35-36.82 W",
		"state": "NEW MEXICO",
		"artcc": "ZDV",
		"type": "RP",
		"updated": "RSK*VORTAC*069.00/73.00",
	},
	{
		"name": "CHANG",
		"latitude": "44-0-22.54 N",
		"longitude": "105-44-46.1 W",
		"state": "WYOMING",
		"artcc": "ZDV",
		"type": "RP",
		"updated": "CZI*VOR/DME*076.01",
	},
	{
		"name": "CHAPP",
		"latitude": "39-29-22.11 N",
		"longitude": "104-39-52.54 W",
		"state": "COLORADO",
		"artcc": "ZDV",
		"type": "RP",
		"updated": "AQD*LD*172.53/22.46",
	},
	{
		"name": "CHARM",
		"latitude": "38-2-3.62 N",
		"longitude": "104-39-33.62 W",
		"state": "COLORADO",
		"artcc": "ZDV",
		"type": "RP",
		"updated": "PUB*VORTAC*202.00/19.00",
	},
	{
		"name": "CHEBA",
		"latitude": "38-52-46.15 N",
		"longitude": "104-6-22.23 W",
		"state": "COLORADO",
		"artcc": "ZDV",
		"type": "RP",
		"updated": "BRK*VOR/DME*085.80/25.00",
	},
	{
		"name": "CHEMO",
		"latitude": "40-31-14.25 N",
		"longitude": "107-14-50 W",
		"state": "COLORADO",
		"artcc": "ZDV",
		"type": "RNAV",
		"updated": "04/06/2018",
	},
	{
		"name": "CHICI",
		"latitude": "41-23-51.84 N",
		"longitude": "103-10-22.28 W",
		"state": "NEBRASKA",
		"artcc": "ZDV",
		"type": "RNAV",
		"updated": "11/23/2012",
	},
	{
		"name": "CHICN",
		"latitude": "40-11-31.87 N",
		"longitude": "104-30-31.8 W",
		"state": "COLORADO",
		"artcc": "ZDV",
		"type": "RNAV",
		"updated": "11/23/2012",
	},
	{
		"name": "CHIMY",
		"latitude": "40-24-58.57 N",
		"longitude": "107-3-47.34 W",
		"state": "COLORADO",
		"artcc": "ZDV",
		"type": "RP",
		"updated": "CHE*VOR/DME*105.27/12.70",
	},
	{
		"name": "CHOLA",
		"latitude": "39-35-14.26 N",
		"longitude": "104-39-48.36 W",
		"state": "COLORADO",
		"artcc": "ZDV",
		"type": "RP",
		"updated": "AQD*LD*172.53/16.60",
	},
	{
		"name": "CHOMP",
		"latitude": "42-36-23.25 N",
		"longitude": "106-45-30.94 W",
		"state": "WYOMING",
		"artcc": "ZDV",
		"type": "RP",
		"updated": "DDY*VOR/DME*204.35/36.00",
	},
	{
		"name": "CHRES",
		"latitude": "39-28-19.97 N",
		"longitude": "104-35-21.44 W",
		"state": "COLORADO",
		"artcc": "ZDV",
		"type": "MR",
		"updated": "BKF*TACAN*143.73/16.00",
	},
	{
		"name": "CIDKA",
		"latitude": "41-28-59.09 N",
		"longitude": "102-28-11.27 W",
		"state": "NEBRASKA",
		"artcc": "ZDV",
		"type": "RNAV",
		"updated": "09/19/2008",
	},
	{
		"name": "CIDMU",
		"latitude": "39-41-28.28 N",
		"longitude": "104-31-46.64 W",
		"state": "COLORADO",
		"artcc": "ZDV",
		"type": "RNAV",
		"updated": "06/27/2002",
	},
	{
		"name": "CIDUD",
		"latitude": "42-42-11.42 N",
		"longitude": "102-25-4.23 W",
		"state": "NEBRASKA",
		"artcc": "ZDV",
		"type": "RNAV",
		"updated": "07/04/2009",
	},
	{
		"name": "CIDUS",
		"latitude": "40-55-18.36 N",
		"longitude": "101-46-45.32 W",
		"state": "NEBRASKA",
		"artcc": "ZDV",
		"type": "RNAV",
		"updated": "06/13/2008",
	},
	{
		"name": "CIFPE",
		"latitude": "42-54-32.15 N",
		"longitude": "106-26-58.25 W",
		"state": "WYOMING",
		"artcc": "ZDV",
		"type": "WP",
		"updated": "11/02/1998",
	},
	{
		"name": "CIKIM",
		"latitude": "41-15-33.5 N",
		"longitude": "102-9-29.17 W",
		"state": "NEBRASKA",
		"artcc": "ZDV",
		"type": "RNAV",
		"updated": "09/19/2008",
	},
	{
		"name": "CIKNA",
		"latitude": "41-36-7.09 N",
		"longitude": "105-31-32.73 W",
		"state": "WYOMING",
		"artcc": "ZDV",
		"type": "RP",
		"updated": "LAR*VOR/DME*015.00/18.12",
	},
	{
		"name": "CIKNU",
		"latitude": "40-55-59.67 N",
		"longitude": "104-44-52.36 W",
		"state": "COLORADO",
		"artcc": "ZDV",
		"type": "RNAV",
		"updated": "04/13/2018",
	},
	{
		"name": "CIKSI",
		"latitude": "41-59-16.13 N",
		"longitude": "103-56-27.56 W",
		"state": "NEBRASKA",
		"artcc": "ZDV",
		"type": "WP",
		"updated": "11/02/1998",
	},
	{
		"name": "CILBI",
		"latitude": "41-55-9.29 N",
		"longitude": "100-27-46.38 W",
		"state": "NEBRASKA",
		"artcc": "ZDV",
		"type": "RNAV",
		"updated": "05/30/2010",
	},
	{
		"name": "CILDU",
		"latitude": "41-20-57.53 N",
		"longitude": "105-44-46.03 W",
		"state": "WYOMING",
		"artcc": "ZDV",
		"type": "RP",
		"updated": "LAR*VOR/DME*287.20/1.33",
	},
	{
		"name": "CIMUS",
		"latitude": "38-28-17.8 N",
		"longitude": "107-20-31.46 W",
		"state": "COLORADO",
		"artcc": "ZDV",
		"type": "RNAV",
		"updated": "06/08/2009",
	},
	{
		"name": "CIMVA",
		"latitude": "37-48-58.63 N",
		"longitude": "106-2-29.98 W",
		"state": "COLORADO",
		"artcc": "ZDV",
		"type": "CN",
		"updated": "03/10/2003",
	},
	{
		"name": "CINIV",
		"latitude": "40-46-19.83 N",
		"longitude": "100-49-46.37 W",
		"state": "NEBRASKA",
		"artcc": "ZDV",
		"type": "RP",
		"updated": "LBF*VOR/DME*181.77/17.00",
	},
	{
		"name": "CINVI",
		"latitude": "42-41-48.13 N",
		"longitude": "105-7-55.01 W",
		"state": "WYOMING",
		"artcc": "ZDV",
		"type": "RNAV",
		"updated": "06/07/2010",
	},
	{
		"name": "CIPGA",
		"latitude": "40-31-4.6 N",
		"longitude": "102-13-54.18 W",
		"state": "COLORADO",
		"artcc": "ZDV",
		"type": "RNAV",
		"updated": "08/23/2005",
	},
	{
		"name": "CIPKU",
		"latitude": "39-38-59.91 N",
		"longitude": "106-51-42.02 W",
		"state": "COLORADO",
		"artcc": "ZDV",
		"type": "RP",
		"updated": "ESJ*LD*NE CRS/3.54",
	},
	{
		"name": "CIRAB",
		"latitude": "41-22-19.22 N",
		"longitude": "104-49-48.76 W",
		"state": "WYOMING",
		"artcc": "ZDV",
		"type": "RP",
		"updated": "CYS*VORTAC*332.00/10.00",
	},
	{
		"name": "CIRAS",
		"latitude": "39-31-39.07 N",
		"longitude": "107-40-59.65 W",
		"state": "COLORADO",
		"artcc": "ZDV",
		"type": "RP",
		"updated": "RIL*LD*078.46/2.82",
	},
	{
		"name": "CIROS",
		"latitude": "39-29-59.92 N",
		"longitude": "104-49-5.1 W",
		"state": "COLORADO",
		"artcc": "ZDV",
		"type": "RNAV",
		"updated": "11/23/2012",
	},
	{
		"name": "CIRRI",
		"latitude": "39-22-15.64 N",
		"longitude": "107-14-58.02 W",
		"state": "COLORADO",
		"artcc": "ZDV",
		"type": "RP",
		"updated": "11/03/1993",
	},
	{
		"name": "CITAK",
		"latitude": "39-30-35.36 N",
		"longitude": "107-51-8.82 W",
		"state": "COLORADO",
		"artcc": "ZDV",
		"type": "RNAV",
		"updated": "11/08/2010",
	},
	{
		"name": "CITBO",
		"latitude": "42-56-14.55 N",
		"longitude": "100-37-22.26 W",
		"state": "NEBRASKA",
		"artcc": "ZDV",
		"type": "RNAV",
		"updated": "01/22/2015",
	},
	{
		"name": "CITIS",
		"latitude": "36-44-19.28 N",
		"longitude": "108-17-6.51 W",
		"state": "NEW MEXICO",
		"artcc": "ZDV",
		"type": "RP",
		"updated": "RSK*VORTAC*252.35/9.00",
	},
	{
		"name": "CITMU",
		"latitude": "40-24-11.27 N",
		"longitude": "102-31-32.66 W",
		"state": "COLORADO",
		"artcc": "ZDV",
		"type": "RP",
		"updated": "AKO*VOR/DME*050.49/33.50",
	},
	{
		"name": "CIVOS",
		"latitude": "41-8-46.66 N",
		"longitude": "104-40-22.45 W",
		"state": "WYOMING",
		"artcc": "ZDV",
		"type": "RNAV",
		"updated": "07/24/2008",
	},
	{
		"name": "CIYAR",
		"latitude": "41-48-11.69 N",
		"longitude": "103-30-5.48 W",
		"state": "NEBRASKA",
		"artcc": "ZDV",
		"type": "RNAV",
		"updated": "10/29/2007",
	},
	{
		"name": "CLAMR",
		"latitude": "39-12-5.95 N",
		"longitude": "102-20-12.04 W",
		"state": "COLORADO",
		"artcc": "ZDV",
		"type": "RNAV",
		"updated": "11/23/2012",
	},
	{
		"name": "CLEVE",
		"latitude": "39-20-37.08 N",
		"longitude": "103-51-59.13 W",
		"state": "COLORADO",
		"artcc": "ZDV",
		"type": "RP",
		"updated": "DVV*VORTAC*124.99/48.23",
	},
	{
		"name": "CLFFF",
		"latitude": "39-55-20.1 N",
		"longitude": "104-50-20.55 W",
		"state": "COLORADO",
		"artcc": "ZDV",
		"type": "RNAV",
		"updated": "09/22/2012",
	},
	{
		"name": "CLPTN",
		"latitude": "39-17-10.87 N",
		"longitude": "103-41-56.1 W",
		"state": "COLORADO",
		"artcc": "ZDV",
		"type": "RNAV",
		"updated": "09/26/2012",
	},
	{
		"name": "COBIX",
		"latitude": "38-32-37.7 N",
		"longitude": "106-15-46.75 W",
		"state": "COLORADO",
		"artcc": "ZDV",
		"type": "RP",
		"updated": "HBU*VOR/DME*067.22/37.00",
	},
	{
		"name": "COCAK",
		"latitude": "44-40-58.9 N",
		"longitude": "103-49-27.18 W",
		"state": "SOUTH DAKOTA",
		"artcc": "ZDV",
		"type": "RNAV",
		"updated": "06/05/2012",
	},
	{
		"name": "COCAN",
		"latitude": "36-18-45.09 N",
		"longitude": "110-21-7.08 W",
		"state": "ARIZONA",
		"artcc": "ZDV",
		"type": "RP",
		"updated": "TBC*VORTAC*060.00/46.00",
	},
	{
		"name": "COCHU",
		"latitude": "42-31-53.66 N",
		"longitude": "102-24-45.58 W",
		"state": "NEBRASKA",
		"artcc": "ZDV",
		"type": "RNAV",
		"updated": "07/04/2009",
	},
	{
		"name": "CODEN",
		"latitude": "36-44-50.03 N",
		"longitude": "107-58-8.26 W",
		"state": "NEW MEXICO",
		"artcc": "ZDV",
		"type": "RNAV",
		"updated": "09/13/2001",
	},
	{
		"name": "CODRO",
		"latitude": "40-59-56.92 N",
		"longitude": "102-48-15.52 W",
		"state": "COLORADO",
		"artcc": "ZDV",
		"type": "RP",
		"updated": "SNY*VOR/DME*112.73/10.00",
	},
	{
		"name": "COFFE",
		"latitude": "38-30-42.61 N",
		"longitude": "101-6-36.03 W",
		"state": "KANSAS",
		"artcc": "ZDV",
		"type": "RP",
		"updated": "GCK*VORTAC*321.99/39.92",
	},
	{
		"name": "COFMN",
		"latitude": "39-0-42.24 N",
		"longitude": "106-20-51.38 W",
		"state": "COLORADO",
		"artcc": "ZDV",
		"type": "RNAV",
		"updated": "09/22/2012",
	},
	{
		"name": "COGGG",
		"latitude": "39-29-5.75 N",
		"longitude": "104-42-2.9 W",
		"state": "COLORADO",
		"artcc": "ZDV",
		"type": "RP",
		"updated": "DXU*LD*172.51/24.81",
	},
	{
		"name": "COGRI",
		"latitude": "38-18-37.12 N",
		"longitude": "107-7-7.14 W",
		"state": "COLORADO",
		"artcc": "ZDV",
		"type": "RP",
		"updated": "HBU*VOR/DME*189.66/9.28",
	},
	{
		"name": "COKRI",
		"latitude": "37-4-18.22 N",
		"longitude": "107-28-34.42 W",
		"state": "COLORADO",
		"artcc": "ZDV",
		"type": "RP",
		"updated": "DRO*VOR/DME*096.34/14.00",
	},
	{
		"name": "COKRO",
		"latitude": "43-2-32.66 N",
		"longitude": "106-33-26.73 W",
		"state": "WYOMING",
		"artcc": "ZDV",
		"type": "RNAV",
		"updated": "04/14/2009",
	},
	{
		"name": "COLAS",
		"latitude": "39-20-34.99 N",
		"longitude": "105-34-11.22 W",
		"state": "COLORADO",
		"artcc": "ZDV",
		"type": "RP",
		"updated": "DVV*VORTAC*225.27/54.91",
	},
	{
		"name": "COLIV",
		"latitude": "41-19-18.34 N",
		"longitude": "100-41-17 W",
		"state": "NEBRASKA",
		"artcc": "ZDV",
		"type": "RNAV",
		"updated": "07/26/2013",
	},
	{
		"name": "COLLA",
		"latitude": "41-8-3.02 N",
		"longitude": "104-30-16.63 W",
		"state": "WYOMING",
		"artcc": "ZDV",
		"type": "RP",
		"updated": "GLL*VOR/DME*350.32",
	},
	{
		"name": "COLLM",
		"latitude": "38-23-15.67 N",
		"longitude": "105-44-28.34 W",
		"state": "COLORADO",
		"artcc": "ZDV",
		"type": "RNAV",
		"updated": "07/08/2003",
	},
	{
		"name": "COLLN",
		"latitude": "40-21-47.44 N",
		"longitude": "104-58-16.92 W",
		"state": "COLORADO",
		"artcc": "ZDV",
		"type": "RP",
		"updated": "FNL*LO*000.00",
	},
	{
		"name": "COLOD",
		"latitude": "40-18-29.41 N",
		"longitude": "102-14-31.22 W",
		"state": "COLORADO",
		"artcc": "ZDV",
		"type": "RNAV",
		"updated": "02/21/2018",
	},
	{
		"name": "COLSI",
		"latitude": "42-29-11.43 N",
		"longitude": "99-59-42.28 W",
		"state": "NEBRASKA",
		"artcc": "ZDV",
		"type": "RNAV",
		"updated": "04/16/2008",
	},
	{
		"name": "COMFR",
		"latitude": "39-40-31.82 N",
		"longitude": "107-19-45.37 W",
		"state": "COLORADO",
		"artcc": "ZDV",
		"type": "RP",
		"updated": "RIL*VOR/DME*053.89/20.14",
	},
	{
		"name": "COMUR",
		"latitude": "40-6-42.08 N",
		"longitude": "105-9-29.1 W",
		"state": "COLORADO",
		"artcc": "ZDV",
		"type": "RP",
		"updated": "BJC*VOR/DME*344.79/11.94",
	},
	{
		"name": "CONAL",
		"latitude": "39-7-21.32 N",
		"longitude": "103-58-0.83 W",
		"state": "COLORADO",
		"artcc": "ZDV",
		"type": "RP",
		"updated": "HGO*VOR/DME*311.63/24.41",
	},
	{
		"name": "CONHI",
		"latitude": "37-23-52.45 N",
		"longitude": "105-27-55.33 W",
		"state": "COLORADO",
		"artcc": "ZDV",
		"type": "RP",
		"updated": "ALS*VORTAC*067.00/17.00",
	},
	{
		"name": "CONNR",
		"latitude": "39-41-56.63 N",
		"longitude": "105-39-56.8 W",
		"state": "COLORADO",
		"artcc": "ZDV",
		"type": "RP",
		"updated": "DBL*VOR/DME*062.34",
	},
	{
		"name": "CONRY",
		"latitude": "40-21-34.9 N",
		"longitude": "104-58-11.13 W",
		"state": "COLORADO",
		"artcc": "ZDV",
		"type": "RNAV",
		"updated": "06/04/2013",
	},
	{
		"name": "CONSD",
		"latitude": "37-12-28.63 N",
		"longitude": "107-41-59.47 W",
		"state": "COLORADO",
		"artcc": "ZDV",
		"type": "RNAV",
		"updated": "10/06/2016",
	},
	{
		"name": "COORZ",
		"latitude": "39-51-38.1 N",
		"longitude": "105-43-5.6 W",
		"state": "COLORADO",
		"artcc": "ZDV",
		"type": "RNAV",
		"updated": "11/23/2012",
	},
	{
		"name": "COPLA",
		"latitude": "40-49-40.37 N",
		"longitude": "104-5-45.41 W",
		"state": "COLORADO",
		"artcc": "ZDV",
		"type": "RP",
		"updated": "DEN*VOR/DME*014.88/66.17",
	},
	{
		"name": "COQKU",
		"latitude": "38-11-11.21 N",
		"longitude": "107-46-59.77 W",
		"state": "COLORADO",
		"artcc": "ZDV",
		"type": "RNAV",
		"updated": "03/20/2009",
	},
	{
		"name": "CORDE",
		"latitude": "39-46-51.46 N",
		"longitude": "104-41-17.33 W",
		"state": "COLORADO",
		"artcc": "ZDV",
		"type": "RP",
		"updated": "OUF*LD*172.51/7.13",
	},
	{
		"name": "COROT",
		"latitude": "39-40-22.09 N",
		"longitude": "107-53-55.33 W",
		"state": "COLORADO",
		"artcc": "ZDV",
		"type": "RP",
		"updated": "RIL*VOR/DME*306.26/12.00",
	},
	{
		"name": "COSAL",
		"latitude": "38-18-5.96 N",
		"longitude": "104-22-38.14 W",
		"state": "COLORADO",
		"artcc": "ZDV",
		"type": "RP",
		"updated": "PUB*VORTAC*071.78/2.50",
	},
	{
		"name": "COSEB",
		"latitude": "40-51-31.4 N",
		"longitude": "100-13-7.79 W",
		"state": "NEBRASKA",
		"artcc": "ZDV",
		"type": "RNAV",
		"updated": "12/21/2005",
	},
	{
		"name": "COTLA",
		"latitude": "39-0-12.81 N",
		"longitude": "104-34-30.79 W",
		"state": "COLORADO",
		"artcc": "ZDV",
		"type": "RNAV",
		"updated": "08/17/2010",
	},
	{
		"name": "COTOG",
		"latitude": "40-59-37.71 N",
		"longitude": "100-4-39.42 W",
		"state": "NEBRASKA",
		"artcc": "ZDV",
		"type": "RNAV",
		"updated": "12/21/2005",
	},
	{
		"name": "COTTY",
		"latitude": "39-20-3.08 N",
		"longitude": "106-55-50.69 W",
		"state": "COLORADO",
		"artcc": "ZDV",
		"type": "RP",
		"updated": "RDY*TACAN*322.00/8.00",
	},
	{
		"name": "COTYU",
		"latitude": "43-51-44.72 N",
		"longitude": "102-55-24.02 W",
		"state": "SOUTH DAKOTA",
		"artcc": "ZDV",
		"type": "RNAV",
		"updated": "02/02/2010",
	},
	{
		"name": "COVIS",
		"latitude": "39-27-36.76 N",
		"longitude": "108-19-26.08 W",
		"state": "COLORADO",
		"artcc": "ZDV",
		"type": "RNAV",
		"updated": "09/20/2010",
	},
	{
		"name": "COWJY",
		"latitude": "37-35-58.24 N",
		"longitude": "105-38-53.37 W",
		"state": "COLORADO",
		"artcc": "ZDV",
		"type": "CN",
		"updated": "03/10/2003",
	},
	{
		"name": "COWWZ",
		"latitude": "40-22-38.01 N",
		"longitude": "104-23-38.22 W",
		"state": "COLORADO",
		"artcc": "ZDV",
		"type": "RNAV",
		"updated": "07/02/2014",
	},
	{
		"name": "COXIM",
		"latitude": "39-8-50.58 N",
		"longitude": "102-14-26.36 W",
		"state": "COLORADO",
		"artcc": "ZDV",
		"type": "RNAV",
		"updated": "02/27/2006",
	},
	{
		"name": "CPPER",
		"latitude": "39-25-36.59 N",
		"longitude": "104-39-55.22 W",
		"state": "COLORADO",
		"artcc": "ZDV",
		"type": "RNAV",
		"updated": "09/23/2012",
	},
	{
		"name": "CRAGG",
		"latitude": "39-25-8.23 N",
		"longitude": "104-56-38.03 W",
		"state": "COLORADO",
		"artcc": "ZDV",
		"type": "RNAV",
		"updated": "09/22/2012",
	},
	{
		"name": "CRAGR",
		"latitude": "39-49-37.9 N",
		"longitude": "104-54-9.43 W",
		"state": "COLORADO",
		"artcc": "ZDV",
		"type": "RNAV",
		"updated": "11/23/2012",
	},
	{
		"name": "CREDE",
		"latitude": "39-18-47.52 N",
		"longitude": "105-40-8.4 W",
		"state": "COLORADO",
		"artcc": "ZDV",
		"type": "RNAV",
		"updated": "09/22/2012",
	},
	{
		"name": "CREEQ",
		"latitude": "39-48-49.55 N",
		"longitude": "104-40-55.94 W",
		"state": "COLORADO",
		"artcc": "ZDV",
		"type": "RNAV",
		"updated": "08/27/2013",
	},
	{
		"name": "CRETO",
		"latitude": "44-0-16.05 N",
		"longitude": "102-34-31.6 W",
		"state": "SOUTH DAKOTA",
		"artcc": "ZDV",
		"type": "RP",
		"updated": "RAP*VORTAC*072.00/19.00",
	},
	{
		"name": "CREVE",
		"latitude": "41-48-6.87 N",
		"longitude": "103-29-59.18 W",
		"state": "NEBRASKA",
		"artcc": "ZDV",
		"type": "RP",
		"updated": "BFF*VORTAC*174.81",
	},
	{
		"name": "CREWW",
		"latitude": "39-5-1.8 N",
		"longitude": "102-44-6.13 W",
		"state": "COLORADO",
		"artcc": "ZDV",
		"type": "RNAV",
		"updated": "09/06/2012",
	},
	{
		"name": "CRIMS",
		"latitude": "40-59-49.04 N",
		"longitude": "104-31-8.06 W",
		"state": "COLORADO",
		"artcc": "ZDV",
		"type": "RNAV",
		"updated": "04/13/2018",
	},
	{
		"name": "CRONA",
		"latitude": "39-56-46.69 N",
		"longitude": "104-59-17.93 W",
		"state": "COLORADO",
		"artcc": "ZDV",
		"type": "RNAV",
		"updated": "11/23/2012",
	},
	{
		"name": "CROWS",
		"latitude": "39-17-59.6 N",
		"longitude": "107-1-47.49 W",
		"state": "COLORADO",
		"artcc": "ZDV",
		"type": "RP",
		"updated": "DBL*VOR/DME*205.00/10.46",
	},
	{
		"name": "CRRFT",
		"latitude": "44-47-12 N",
		"longitude": "105-30-41 W",
		"state": "WYOMING",
		"artcc": "ZDV",
		"type": "RNAV",
		"updated": "07/26/2017",
	},
	{
		"name": "CRSTE",
		"latitude": "39-14-52.75 N",
		"longitude": "106-7-45.45 W",
		"state": "COLORADO",
		"artcc": "ZDV",
		"type": "RNAV",
		"updated": "07/15/2014",
	},
	{
		"name": "CRUUP",
		"latitude": "39-32-5.28 N",
		"longitude": "104-39-50.6 W",
		"state": "COLORADO",
		"artcc": "ZDV",
		"type": "RP",
		"updated": "AQD*LD*172.53/19.75",
	},
	{
		"name": "CSPAD",
		"latitude": "40-23-0.92 N",
		"longitude": "106-19-7.49 W",
		"state": "COLORADO",
		"artcc": "ZDV",
		"type": "RNAV",
		"updated": "09/22/2012",
	},
	{
		"name": "CTFSH",
		"latitude": "41-10-54.39 N",
		"longitude": "101-51-35.98 W",
		"state": "NEBRASKA",
		"artcc": "ZDV",
		"type": "RNAV",
		"updated": "09/24/2012",
	},
	{
		"name": "CUBAK",
		"latitude": "39-31-0.51 N",
		"longitude": "107-27-17.57 W",
		"state": "COLORADO",
		"artcc": "ZDV",
		"type": "RNAV",
		"updated": "08/12/2008",
	},
	{
		"name": "CUBVU",
		"latitude": "38-44-25.14 N",
		"longitude": "104-30-10.7 W",
		"state": "COLORADO",
		"artcc": "ZDV",
		"type": "RNAV",
		"updated": "03/30/2006",
	},
	{
		"name": "CUCAG",
		"latitude": "41-26-38.18 N",
		"longitude": "105-57-54.94 W",
		"state": "WYOMING",
		"artcc": "ZDV",
		"type": "RNAV",
		"updated": "04/12/2006",
	},
	{
		"name": "CUDNI",
		"latitude": "39-48-49.25 N",
		"longitude": "104-31-27.26 W",
		"state": "COLORADO",
		"artcc": "ZDV",
		"type": "RNAV",
		"updated": "07/16/2008",
	},
	{
		"name": "CUGGA",
		"latitude": "39-19-3.6 N",
		"longitude": "100-52-7.18 W",
		"state": "KANSAS",
		"artcc": "ZDV",
		"type": "RP",
		"updated": "HLC*VORTAC*268.93/30.15",
	},
	{
		"name": "CUKAC",
		"latitude": "38-27-58.58 N",
		"longitude": "105-18-22.53 W",
		"state": "COLORADO",
		"artcc": "ZDV",
		"type": "RNAV",
		"updated": "01/10/2013",
	},
	{
		"name": "CUKOM",
		"latitude": "40-3-4.68 N",
		"longitude": "106-22-32.32 W",
		"state": "COLORADO",
		"artcc": "ZDV",
		"type": "RNAV",
		"updated": "04/01/2014",
	},
	{
		"name": "CULAN",
		"latitude": "41-56-28.18 N",
		"longitude": "100-25-53.24 W",
		"state": "NEBRASKA",
		"artcc": "ZDV",
		"type": "RP",
		"updated": "TDD*VOR/DME*091.59/13.10",
	},
	{
		"name": "CULIP",
		"latitude": "39-16-15.9 N",
		"longitude": "108-34-46.74 W",
		"state": "COLORADO",
		"artcc": "ZDV",
		"type": "RNAV",
		"updated": "07/04/2011",
	},
	{
		"name": "CULIR",
		"latitude": "38-23-35.3 N",
		"longitude": "108-44-53.81 W",
		"state": "COLORADO",
		"artcc": "ZDV",
		"type": "RNAV",
		"updated": "03/14/2007",
	},
	{
		"name": "CULIS",
		"latitude": "42-53-41.05 N",
		"longitude": "105-38-27.01 W",
		"state": "WYOMING",
		"artcc": "ZDV",
		"type": "RNAV",
		"updated": "06/07/2010",
	},
	{
		"name": "CULKI",
		"latitude": "38-32-48.54 N",
		"longitude": "106-52-58.86 W",
		"state": "COLORADO",
		"artcc": "ZDV",
		"type": "RNAV",
		"updated": "08/16/2010",
	},
	{
		"name": "CULTA",
		"latitude": "39-18-55.48 N",
		"longitude": "107-33-11.92 W",
		"state": "COLORADO",
		"artcc": "ZDV",
		"type": "RNAV",
		"updated": "11/08/2010",
	},
	{
		"name": "CUMOR",
		"latitude": "36-54-31.88 N",
		"longitude": "108-1-58.06 W",
		"state": "NEW MEXICO",
		"artcc": "ZDV",
		"type": "RNAV",
		"updated": "07/07/2009",
	},
	{
		"name": "CUNOV",
		"latitude": "38-57-41.82 N",
		"longitude": "108-24-0.12 W",
		"state": "COLORADO",
		"artcc": "ZDV",
		"type": "CN",
		"updated": "07/04/2011",
	},
	{
		"name": "CURDI",
		"latitude": "39-16-59.82 N",
		"longitude": "108-6-53.24 W",
		"state": "COLORADO",
		"artcc": "ZDV",
		"type": "RNAV",
		"updated": "09/20/2010",
	},
	{
		"name": "CUREX",
		"latitude": "42-1-38.15 N",
		"longitude": "103-23-3.72 W",
		"state": "NEBRASKA",
		"artcc": "ZDV",
		"type": "RNAV",
		"updated": "11/02/2007",
	},
	{
		"name": "CUROT",
		"latitude": "39-37-46.03 N",
		"longitude": "107-4-38.69 W",
		"state": "COLORADO",
		"artcc": "ZDV",
		"type": "RNAV",
		"updated": "06/08/2006",
	},
	{
		"name": "CURPI",
		"latitude": "44-3-48.67 N",
		"longitude": "103-0-7.61 W",
		"state": "SOUTH DAKOTA",
		"artcc": "ZDV",
		"type": "MR",
		"updated": "RCA*TACAN*/6.25",
	},
	{
		"name": "CURSE",
		"latitude": "43-42-45.19 N",
		"longitude": "103-4-8.87 W",
		"state": "SOUTH DAKOTA",
		"artcc": "ZDV",
		"type": "RP",
		"updated": "RAP*VORTAC*175.89/16.00",
	},
	{
		"name": "CURVA",
		"latitude": "42-39-43.16 N",
		"longitude": "99-59-52.28 W",
		"state": "NEBRASKA",
		"artcc": "ZDV",
		"type": "RNAV",
		"updated": "06/20/2013",
	},
	{
		"name": "CURYA",
		"latitude": "42-0-58 N",
		"longitude": "102-46-1.51 W",
		"state": "NEBRASKA",
		"artcc": "ZDV",
		"type": "RP",
		"updated": "AIA*VOR/DME*133.82/2.90",
	},
	{
		"name": "CUSED",
		"latitude": "44-10-24.25 N",
		"longitude": "101-49-18.71 W",
		"state": "SOUTH DAKOTA",
		"artcc": "ZDV",
		"type": "RNAV",
		"updated": "12/23/2013",
	},
	{
		"name": "CUSHY",
		"latitude": "41-50-50.28 N",
		"longitude": "103-43-42.56 W",
		"state": "NEBRASKA",
		"artcc": "ZDV",
		"type": "RP",
		"updated": "BFF*VORTAC*242.81/11.40",
	},
	{
		"name": "CUSIP",
		"latitude": "42-33-15.4 N",
		"longitude": "105-4-19.55 W",
		"state": "WYOMING",
		"artcc": "ZDV",
		"type": "RP",
		"updated": "IIP*VOR/DME*124.88/10.00",
	},
	{
		"name": "CUTUL",
		"latitude": "36-44-28 N",
		"longitude": "108-14-20.8 W",
		"state": "NEW MEXICO",
		"artcc": "ZDV",
		"type": "RP",
		"updated": "RSK*VORTAC*252.35/6.78",
	},
	{
		"name": "CUVAS",
		"latitude": "38-30-10.16 N",
		"longitude": "106-36-57.39 W",
		"state": "COLORADO",
		"artcc": "ZDV",
		"type": "RNAV",
		"updated": "08/16/2010",
	},
	{
		"name": "CUXAM",
		"latitude": "37-26-29.35 N",
		"longitude": "105-52-11.12 W",
		"state": "COLORADO",
		"artcc": "ZDV",
		"type": "RNAV",
		"updated": "ALS*VORTAC*321.91/6.11",
	},
