[
	{
		"name": "EARLS",
		"latitude": "37-17-14.47 N",
		"longitude": "104-20-29 W",
		"state": "COLORADO",
		"artcc": "ZDV",
		"type": "RP",
		"updated": "PUB*VORTAC*168.00/60.49"
	},
	{
		"name": "EAZZY",
		"latitude": "39-39-28.33 N",
		"longitude": "106-48-32.62 W",
		"state": "COLORADO",
		"artcc": "ZDV",
		"type": "RNAV",
		"updated": "06/08/2006"
	},
	{
		"name": "EBBIE",
		"latitude": "40-27-22.52 N",
		"longitude": "104-56-28.27 W",
		"state": "COLORADO",
		"artcc": "ZDV",
		"type": "RP",
		"updated": "GLL*VOR/DME*248.00/18.00"
	},
	{
		"name": "EBEBY",
		"latitude": "41-59-1.94 N",
		"longitude": "102-42-50.8 W",
		"state": "NEBRASKA",
		"artcc": "ZDV",
		"type": "RP",
		"updated": "BYE*LD*123.32/6.70"
	},
	{
		"name": "EBEJU",
		"latitude": "38-27-36.99 N",
		"longitude": "106-52-6.36 W",
		"state": "COLORADO",
		"artcc": "ZDV",
		"type": "CN",
		"updated": "06/08/2009"
	},
	{
		"name": "EBICI",
		"latitude": "42-54-26.95 N",
		"longitude": "106-32-59.74 W",
		"state": "WYOMING",
		"artcc": "ZDV",
		"type": "RNAV",
		"updated": "08/14/2008"
	},
	{
		"name": "EBIHE",
		"latitude": "38-22-27.89 N",
		"longitude": "107-52-14.65 W",
		"state": "COLORADO",
		"artcc": "ZDV",
		"type": "RNAV",
		"updated": "03/20/2009"
	},
	{
		"name": "EBIYO",
		"latitude": "43-27-13.95 N",
		"longitude": "106-20-23.28 W",
		"state": "WYOMING",
		"artcc": "ZDV",
		"type": "RP",
		"updated": "DDY*VOR/DME*340.82/21.95"
	},
	{
		"name": "EBSTN",
		"latitude": "40-16-16.07 N",
		"longitude": "106-55-6.41 W",
		"state": "COLORADO",
		"artcc": "ZDV",
		"type": "RNAV",
		"updated": "11/17/2014"
	},
	{
		"name": "EBUWI",
		"latitude": "42-46-32.73 N",
		"longitude": "100-28-17.92 W",
		"state": "NEBRASKA",
		"artcc": "ZDV",
		"type": "RNAV",
		"updated": "04/06/2005"
	},
	{
		"name": "EBZUV",
		"latitude": "41-58-58.43 N",
		"longitude": "100-51-21.7 W",
		"state": "NEBRASKA",
		"artcc": "ZDV",
		"type": "RNAV",
		"updated": "05/30/2010"
	},
	{
		"name": "ECCEL",
		"latitude": "38-46-44.47 N",
		"longitude": "104-41-8.86 W",
		"state": "COLORADO",
		"artcc": "ZDV",
		"type": "WP",
		"updated": "11/02/1998"
	},
	{
		"name": "ECECU",
		"latitude": "41-9-45.35 N",
		"longitude": "105-23-52.88 W",
		"state": "WYOMING",
		"artcc": "ZDV",
		"type": "RP",
		"updated": "LAR*VOR/DME*111.61/18.00"
	},
	{
		"name": "ECEWE",
		"latitude": "38-27-2.8 N",
		"longitude": "106-52-26.24 W",
		"state": "COLORADO",
		"artcc": "ZDV",
		"type": "CN",
		"updated": "06/08/2009"
	},
	{
		"name": "ECHOA",
		"latitude": "40-31-18.5 N",
		"longitude": "106-53-59.94 W",
		"state": "COLORADO",
		"artcc": "ZDV",
		"type": "RP",
		"updated": "CHE*VOR/DME*075.55/18.53"
	},
	{
		"name": "ECNOF",
		"latitude": "38-11-40.94 N",
		"longitude": "108-20-18.44 W",
		"state": "COLORADO",
		"artcc": "ZDV",
		"type": "RP",
		"updated": "ETL*VOR/DME*325.80/10.00"
	},
	{
		"name": "ECOFI",
		"latitude": "42-22-55.81 N",
		"longitude": "100-6-21.19 W",
		"state": "NEBRASKA",
		"artcc": "ZDV",
		"type": "RNAV",
		"updated": "04/16/2008"
	},
	{
		"name": "ECOPO",
		"latitude": "42-42-37.76 N",
		"longitude": "102-51-25.44 W",
		"state": "NEBRASKA",
		"artcc": "ZDV",
		"type": "RNAV",
		"updated": "06/28/2011"
	},
	{
		"name": "ECUDI",
		"latitude": "40-31-33.08 N",
		"longitude": "103-56-23.81 W",
		"state": "COLORADO",
		"artcc": "ZDV",
		"type": "RNAV",
		"updated": "11/09/2015"
	},
	{
		"name": "ECUQO",
		"latitude": "38-27-18.16 N",
		"longitude": "106-52-14.25 W",
		"state": "COLORADO",
		"artcc": "ZDV",
		"type": "CN",
		"updated": "06/08/2009"
	},
	{
		"name": "ECYUS",
		"latitude": "41-14-34.73 N",
		"longitude": "100-28-26.39 W",
		"state": "NEBRASKA",
		"artcc": "ZDV",
		"type": "RP",
		"updated": "LBF*VOR/DME*035.65/17.00"
	},
	{
		"name": "EDEVE",
		"latitude": "38-33-49.2 N",
		"longitude": "108-16-2.74 W",
		"state": "COLORADO",
		"artcc": "ZDV",
		"type": "RNAV",
		"updated": "09/21/2015"
	},
	{
		"name": "EDICI",
		"latitude": "41-7-6.84 N",
		"longitude": "101-45-45.28 W",
		"state": "NEBRASKA",
		"artcc": "ZDV",
		"type": "RP",
		"updated": "SAE*VOR/DME*086.00/0.61"
	},
	{
		"name": "EDIDY",
		"latitude": "42-59-44.1 N",
		"longitude": "106-11-53.08 W",
		"state": "WYOMING",
		"artcc": "ZDV",
		"type": "RNAV",
		"updated": "04/14/2009"
	},
	{
		"name": "EDIFY",
		"latitude": "41-47-55.95 N",
		"longitude": "106-52-17.33 W",
		"state": "WYOMING",
		"artcc": "ZDV",
		"type": "RP",
		"updated": "CKW*VOR/DME*070.12/32.00"
	},
	{
		"name": "EDLES",
		"latitude": "38-40-39.82 N",
		"longitude": "109-56-26.55 W",
		"state": "UTAH",
		"artcc": "ZDV",
		"type": "RP",
		"updated": "HVE*VORTAC*051.12/39.00"
	},
	{
		"name": "EDUKY",
		"latitude": "39-12-2.39 N",
		"longitude": "108-6-27.38 W",
		"state": "COLORADO",
		"artcc": "ZDV",
		"type": "RP",
		"updated": "JNC*VOR/DME*059.97/33.08"
	},
	{
		"name": "EDUQA",
		"latitude": "43-1-3.97 N",
		"longitude": "102-55-23.99 W",
		"state": "SOUTH DAKOTA",
		"artcc": "ZDV",
		"type": "RNAV",
		"updated": "06/28/2011"
	},
	{
		"name": "EEONS",
		"latitude": "40-1-17.62 N",
		"longitude": "103-46-11.04 W",
		"state": "COLORADO",
		"artcc": "ZDV",
		"type": "RP",
		"updated": "DEN*VOR/DME*064.77/43.00"
	},
	{
		"name": "EEZEE",
		"latitude": "40-6-52.57 N",
		"longitude": "104-2-15.52 W",
		"state": "COLORADO",
		"artcc": "ZDV",
		"type": "RNAV",
		"updated": "09/23/2012"
	},
	{
		"name": "EFFEE",
		"latitude": "39-41-28.84 N",
		"longitude": "104-44-19.01 W",
		"state": "COLORADO",
		"artcc": "ZDV",
		"type": "RNAV",
		"updated": "03/19/2012"
	},
	{
		"name": "EFFEX",
		"latitude": "42-19-59.17 N",
		"longitude": "101-20-11.41 W",
		"state": "NEBRASKA",
		"artcc": "ZDV",
		"type": "RP",
		"updated": "ANW*VOR/DME*248.14"
	},
	{
		"name": "EFWOV",
		"latitude": "41-45-51.66 N",
		"longitude": "107-16-33.35 W",
		"state": "WYOMING",
		"artcc": "ZDV",
		"type": "RNAV",
		"updated": "02/09/2015"
	},
	{
		"name": "EGBER",
		"latitude": "41-10-52.2 N",
		"longitude": "104-15-41.64 W",
		"state": "WYOMING",
		"artcc": "ZDV",
		"type": "RP",
		"updated": "GLL*VOR/DME*005.00"
	},
	{
		"name": "EGEYE",
		"latitude": "41-47-50.74 N",
		"longitude": "100-23-47.49 W",
		"state": "NEBRASKA",
		"artcc": "ZDV",
		"type": "RNAV",
		"updated": "05/30/2010"
	},
	{
		"name": "EGFAX",
		"latitude": "40-25-3.92 N",
		"longitude": "107-7-56.81 W",
		"state": "COLORADO",
		"artcc": "ZDV",
		"type": "RP",
		"updated": "CHE*VOR/DME*113.79/10.00"
	},
	{
		"name": "EHFAD",
		"latitude": "42-36-56.12 N",
		"longitude": "102-13-4.17 W",
		"state": "NEBRASKA",
		"artcc": "ZDV",
		"type": "RNAV",
		"updated": "07/04/2009"
	},
	{
		"name": "EHVER",
		"latitude": "39-29-14.05 N",
		"longitude": "102-10-3.39 W",
		"state": "COLORADO",
		"artcc": "ZDV",
		"type": "RP",
		"updated": "GLD*VORTAC*273.24/22.88"
	},
	{
		"name": "EKAME",
		"latitude": "36-38-14.02 N",
		"longitude": "111-23-7.94 W",
		"state": "ARIZONA",
		"artcc": "ZDV",
		"type": "RNAV",
		"updated": "12/03/2007"
	},
	{
		"name": "EKIRE",
		"latitude": "39-3-16 N",
		"longitude": "108-24-55.73 W",
		"state": "COLORADO",
		"artcc": "ZDV",
		"type": "RNAV",
		"updated": "10/07/2003"
	},
	{
		"name": "EKIVE",
		"latitude": "42-40-53.88 N",
		"longitude": "102-22-0.37 W",
		"state": "NEBRASKA",
		"artcc": "ZDV",
		"type": "RNAV",
		"updated": "07/28/2008"
	},
	{
		"name": "EKSUW",
		"latitude": "37-37-23.27 N",
		"longitude": "105-43-23.63 W",
		"state": "COLORADO",
		"artcc": "ZDV",
		"type": "RP",
		"updated": "ALS*VORTAC*002.00/17.00"
	},
	{
		"name": "EKULY",
		"latitude": "37-30-55.28 N",
		"longitude": "105-54-47.68 W",
		"state": "COLORADO",
		"artcc": "ZDV",
		"type": "RP",
		"updated": "ALS*VORTAC*321.91/11.00"
	},
	{
		"name": "ELBIE",
		"latitude": "39-33-3.93 N",
		"longitude": "104-8-15.35 W",
		"state": "COLORADO",
		"artcc": "ZDV",
		"type": "MR",
		"updated": "BKF*TACAN*096.00/30.00"
	},
	{
		"name": "ELCEE",
		"latitude": "40-17-53.43 N",
		"longitude": "104-40-37.56 W",
		"state": "COLORADO",
		"artcc": "ZDV",
		"type": "RNAV",
		"updated": "11/23/2012"
	},
	{
		"name": "ELIJH",
		"latitude": "40-23-8.36 N",
		"longitude": "107-7-48.04 W",
		"state": "COLORADO",
		"artcc": "ZDV",
		"type": "RNAV",
		"updated": "11/17/2014"
	},
	{
		"name": "ELJAY",
		"latitude": "41-13-30.37 N",
		"longitude": "101-13-17.26 W",
		"state": "NEBRASKA",
		"artcc": "ZDV",
		"type": "RP",
		"updated": "GLL*VOR/DME*060.00/157.69"
	},
	{
		"name": "ELKEE",
		"latitude": "40-36-7.72 N",
		"longitude": "105-21-6.41 W",
		"state": "COLORADO",
		"artcc": "ZDV",
		"type": "RP",
		"updated": "DVV*VORTAC*314.00/54.00"
	},
	{
		"name": "ELLZA",
		"latitude": "39-6-52.63 N",
		"longitude": "104-36-57.5 W",
		"state": "COLORADO",
		"artcc": "ZDV",
		"type": "RNAV",
		"updated": "05/07/2013"
	},
	{
		"name": "ELORE",
		"latitude": "39-51-54.73 N",
		"longitude": "105-3-0.71 W",
		"state": "COLORADO",
		"artcc": "ZDV",
		"type": "RP",
		"updated": "GLL*VOR/DME*198.00"
	},
	{
		"name": "ELOSE",
		"latitude": "38-37-23.79 N",
		"longitude": "101-45-2.77 W",
		"state": "KANSAS",
		"artcc": "ZDV",
		"type": "RNAV",
		"updated": "07/08/2015"
	},
	{
		"name": "ELRAP",
		"latitude": "44-36-37.8 N",
		"longitude": "103-38-5.28 W",
		"state": "SOUTH DAKOTA",
		"artcc": "ZDV",
		"type": "RNAV",
		"updated": "05/23/2011"
	},
	{
		"name": "ELREY",
		"latitude": "39-44-33.6 N",
		"longitude": "104-31-6.15 W",
		"state": "COLORADO",
		"artcc": "ZDV",
		"type": "RNAV",
		"updated": "03/22/2012"
	},
	{
		"name": "ELWAY",
		"latitude": "38-24-56.62 N",
		"longitude": "106-20-35.07 W",
		"state": "COLORADO",
		"artcc": "ZDV",
		"type": "RP",
		"updated": "DBL*VOR/DME*145.00/66.57"
	},
	{
		"name": "ELYIJ",
		"latitude": "39-49-48.13 N",
		"longitude": "101-19-28.73 W",
		"state": "KANSAS",
		"artcc": "ZDV",
		"type": "RNAV",
		"updated": "06/14/2010"
	},
	{
		"name": "EMMYS",
		"latitude": "39-53-1.71 N",
		"longitude": "103-44-5.41 W",
		"state": "COLORADO",
		"artcc": "ZDV",
		"type": "RP",
		"updated": "DEN*VOR/DME*076.00/43.00"
	},
	{
		"name": "EMOFE",
		"latitude": "42-38-3.63 N",
		"longitude": "100-0-30.45 W",
		"state": "NEBRASKA",
		"artcc": "ZDV",
		"type": "CN",
		"updated": "06/21/2000"
	},
	{
		"name": "EMOTY",
		"latitude": "41-17-42.33 N",
		"longitude": "105-0-7.49 W",
		"state": "WYOMING",
		"artcc": "ZDV",
		"type": "RNAV",
		"updated": "07/24/2008"
	},
	{
		"name": "ENIDE",
		"latitude": "39-10-39.24 N",
		"longitude": "108-37-19.41 W",
		"state": "COLORADO",
		"artcc": "ZDV",
		"type": "RNAV",
		"updated": "06/05/2009"
	},
	{
		"name": "ENIWU",
		"latitude": "41-1-26.68 N",
		"longitude": "102-24-16.76 W",
		"state": "NEBRASKA",
		"artcc": "ZDV",
		"type": "CN",
		"updated": "06/21/2000"
	},
	{
		"name": "ENOXE",
		"latitude": "40-46-28.34 N",
		"longitude": "99-2-39.05 W",
		"state": "NEBRASKA",
		"artcc": "ZDV",
		"type": "CN",
		"updated": "06/21/2000"
	},
	{
		"name": "ENQIB",
		"latitude": "40-59-18.14 N",
		"longitude": "101-58-16.89 W",
		"state": "NEBRASKA",
		"artcc": "ZDV",
		"type": "RNAV",
		"updated": "06/13/2008"
	},
	{
		"name": "EOLUS",
		"latitude": "39-28-12.04 N",
		"longitude": "105-5-50.33 W",
		"state": "COLORADO",
		"artcc": "ZDV",
		"type": "RNAV",
		"updated": "09/22/2012"
	},
	{
		"name": "EPICC",
		"latitude": "39-23-18.12 N",
		"longitude": "104-38-21.73 W",
		"state": "COLORADO",
		"artcc": "ZDV",
		"type": "RNAV",
		"updated": "03/19/2012"
	},
	{
		"name": "EPIKY",
		"latitude": "41-17-19.85 N",
		"longitude": "107-19-9.03 W",
		"state": "WYOMING",
		"artcc": "ZDV",
		"type": "RNAV",
		"updated": "08/10/2017"
	},
	{
		"name": "EPKEE",
		"latitude": "39-35-34.21 N",
		"longitude": "103-47-58.3 W",
		"state": "COLORADO",
		"artcc": "ZDV",
		"type": "RP",
		"updated": "DEN*VOR/DME*100.00/42.00"
	},
	{
		"name": "EPOTE",
		"latitude": "36-44-40.14 N",
		"longitude": "108-5-36.88 W",
		"state": "NEW MEXICO",
		"artcc": "ZDV",
		"type": "RNAV",
		"updated": "05/16/2010"
	},
	{
		"name": "EPVOH",
		"latitude": "41-6-18.93 N",
		"longitude": "101-51-45.18 W",
		"state": "NEBRASKA",
		"artcc": "ZDV",
		"type": "CN",
		"updated": "06/21/2000"
	},
	{
		"name": "ERAND",
		"latitude": "40-15-11.27 N",
		"longitude": "99-16-16.06 W",
		"state": "NEBRASKA",
		"artcc": "ZDV",
		"type": "RNAV",
		"updated": "01/22/2007"
	},
	{
		"name": "ERUYA",
		"latitude": "42-26-56.59 N",
		"longitude": "99-48-16.62 W",
		"state": "NEBRASKA",
		"artcc": "ZDV",
		"type": "RNAV",
		"updated": "04/16/2008"
	},
	{
		"name": "ERWOM",
		"latitude": "41-7-4.32 N",
		"longitude": "101-39-4.93 W",
		"state": "NEBRASKA",
		"artcc": "ZDV",
		"type": "RNAV",
		"updated": "11/20/2012"
	},
	{
		"name": "ESIFE",
		"latitude": "38-5-20.11 N",
		"longitude": "104-29-46.09 W",
		"state": "COLORADO",
		"artcc": "ZDV",
		"type": "RNAV",
		"updated": "05/07/2013"
	},
	{
		"name": "ESIYO",
		"latitude": "41-12-52.86 N",
		"longitude": "105-32-24.6 W",
		"state": "WYOMING",
		"artcc": "ZDV",
		"type": "RNAV",
		"updated": "04/12/2006"
	},
	{
		"name": "ETHAL",
		"latitude": "39-50-16.73 N",
		"longitude": "104-21-34.61 W",
		"state": "COLORADO",
		"artcc": "ZDV",
		"type": "RP",
		"updated": "FQF*VORTAC*042.68"
	},
	{
		"name": "ETUCI",
		"latitude": "44-26-46.5 N",
		"longitude": "105-34-3.81 W",
		"state": "WYOMING",
		"artcc": "ZDV",
		"type": "RP",
		"updated": "GCC*VOR/DME*341.00/6.00"
	},
	{
		"name": "ETUYE",
		"latitude": "40-10-47.86 N",
		"longitude": "100-32-41.22 W",
		"state": "NEBRASKA",
		"artcc": "ZDV",
		"type": "RP",
		"updated": "MCK*VOR/DME*113.85/2.69"
	},
	{
		"name": "EVANE",
		"latitude": "42-45-49.24 N",
		"longitude": "99-59-58.09 W",
		"state": "NEBRASKA",
		"artcc": "ZDV",
		"type": "RNAV",
		"updated": "04/16/2008"
	},
	{
		"name": "EVENN",
		"latitude": "42-8-38.05 N",
		"longitude": "102-20-58.13 W",
		"state": "NEBRASKA",
		"artcc": "ZDV",
		"type": "RP",
		"updated": "GRN*NDB*181.90"
	},
	{
		"name": "EVENT",
		"latitude": "42-54-35.57 N",
		"longitude": "106-14-12.12 W",
		"state": "WYOMING",
		"artcc": "ZDV",
		"type": "RP",
		"updated": "DDY*VOR/DME*158.70/11.00"
	},
	{
		"name": "EWEBU",
		"latitude": "44-7-20.5 N",
		"longitude": "102-52-13.26 W",
		"state": "SOUTH DAKOTA",
		"artcc": "ZDV",
		"type": "RNAV",
		"updated": "07/26/2013"
	},
	{
		"name": "EWLEP",
		"latitude": "40-45-8.87 N",
		"longitude": "101-29-50.08 W",
		"state": "NEBRASKA",
		"artcc": "ZDV",
		"type": "RNAV",
		"updated": "06/13/2008"
	},
	{
		"name": "EXKES",
		"latitude": "40-57-1.82 N",
		"longitude": "101-48-17.32 W",
		"state": "NEBRASKA",
		"artcc": "ZDV",
		"type": "RNAV",
		"updated": "06/13/2008"
	},
	{
		"name": "EXTAN",
		"latitude": "39-44-35.96 N",
		"longitude": "103-45-26.05 W",
		"state": "COLORADO",
		"artcc": "ZDV",
		"type": "RP",
		"updated": "DEN*VOR/DME*087.38/42.00"
	},
	{
		"name": "EXUMY",
		"latitude": "41-13-22.79 N",
		"longitude": "104-54-25.92 W",
		"state": "WYOMING",
		"artcc": "ZDV",
		"type": "RNAV",
		"updated": "04/17/2018"
	},
	{
		"name": "EXZAR",
		"latitude": "36-43-22.88 N",
		"longitude": "108-16-44.12 W",
		"state": "NEW MEXICO",
		"artcc": "ZDV",
		"type": "RNAV",
		"updated": "07/07/2009"
	},
	{
		"name": "EYUKA",
		"latitude": "41-7-23.02 N",
		"longitude": "104-21-15.35 W",
		"state": "WYOMING",
		"artcc": "ZDV",
		"type": "CN",
		"updated": "01/28/2005"
	},
	{
		"name": "EYULE",
		"latitude": "38-3-19.47 N",
		"longitude": "104-14-8.35 W",
		"state": "COLORADO",
		"artcc": "ZDV",
		"type": "RP",
		"updated": "PUB*VORTAC*139.30/17.00"
	},
	{
		"name": "EYUVA",
		"latitude": "39-28-54.86 N",
		"longitude": "108-11-12.64 W",
		"state": "COLORADO",
		"artcc": "ZDV",
		"type": "CN",
		"updated": "08/18/2008"
	},
	{
		"name": "EYUVU",
		"latitude": "36-18-15.41 N",
		"longitude": "109-33-51.93 W",
		"state": "ARIZONA",
		"artcc": "ZDV",
		"type": "RP",
		"updated": "GUP*VORTAC*312.00/60.00"
	},
	{
		"name": "EYVAG",
		"latitude": "39-14-11.74 N",
		"longitude": "101-9-26.23 W",
		"state": "KANSAS",
		"artcc": "ZDV",
		"type": "RNAV",
		"updated": "07/21/2008"
	},
	{
		"name": "EZBEL",
		"latitude": "39-32-1.93 N",
		"longitude": "104-30-17.05 W",
		"state": "COLORADO",
		"artcc": "ZDV",
		"type": "RNAV",
		"updated": "09/21/2012"
	},
	{
		"name": "EZIFU",
		"latitude": "41-7-3.24 N",
		"longitude": "101-54-45.59 W",
		"state": "NEBRASKA",
		"artcc": "ZDV",
		"type": "RNAV",
		"updated": "11/20/2012"
	},
	{
		"name": "EZKUX",
		"latitude": "41-6-48.67 N",
		"longitude": "101-38-14.39 W",
		"state": "NEBRASKA",
		"artcc": "ZDV",
		"type": "RP",
		"updated": "SAE*VOR/DME*086.00/6.30"
	}
]
