[
	{
		"name": "GABEE",
		"latitude": "40-30-37.47 N",
		"longitude": "99-15-42.52 W",
		"state": "NEBRASKA",
		"artcc": "ZDV",
		"type": "RP",
		"updated": "EAR*VOR*212.35"
	},
	{
		"name": "GADVY",
		"latitude": "38-32-45.65 N",
		"longitude": "106-51-30.27 W",
		"state": "COLORADO",
		"artcc": "ZDV",
		"type": "RNAV",
		"updated": "08/16/2010"
	},
	{
		"name": "GAGPY",
		"latitude": "44-36-16.69 N",
		"longitude": "103-45-59.41 W",
		"state": "SOUTH DAKOTA",
		"artcc": "ZDV",
		"type": "RNAV",
		"updated": "06/05/2012"
	},
	{
		"name": "GAGSY",
		"latitude": "38-39-52.97 N",
		"longitude": "100-53-15.97 W",
		"state": "KANSAS",
		"artcc": "ZDV",
		"type": "RNAV",
		"updated": "08/04/2006"
	},
	{
		"name": "GAMAC",
		"latitude": "41-9-53.93 N",
		"longitude": "103-33-43.08 W",
		"state": "NEBRASKA",
		"artcc": "ZDV",
		"type": "RNAV",
		"updated": "10/14/2011"
	},
	{
		"name": "GANDI",
		"latitude": "44-31-36.58 N",
		"longitude": "103-32-29.71 W",
		"state": "SOUTH DAKOTA",
		"artcc": "ZDV",
		"type": "MR",
		"updated": "RCA*TACAN*313.00/30.00"
	},
	{
		"name": "GAPPY",
		"latitude": "40-17-54.94 N",
		"longitude": "104-38-9.48 W",
		"state": "COLORADO",
		"artcc": "ZDV",
		"type": "RNAV",
		"updated": "03/26/2012"
	},
	{
		"name": "GARBE",
		"latitude": "41-16-48.02 N",
		"longitude": "105-36-50.44 W",
		"state": "WYOMING",
		"artcc": "ZDV",
		"type": "RP",
		"updated": "LAR*VOR/DME*111.61/5.95"
	},
	{
		"name": "GASSS",
		"latitude": "39-52-17.9 N",
		"longitude": "103-54-35.25 W",
		"state": "COLORADO",
		"artcc": "ZDV",
		"type": "RNAV",
		"updated": "11/23/2012"
	},
	{
		"name": "GASTI",
		"latitude": "39-50-23.52 N",
		"longitude": "104-34-33.44 W",
		"state": "COLORADO",
		"artcc": "ZDV",
		"type": "RP",
		"updated": "FQF*VORTAC*002.05"
	},
	{
		"name": "GATTR",
		"latitude": "38-56-58.11 N",
		"longitude": "101-26-51.02 W",
		"state": "KANSAS",
		"artcc": "ZDV",
		"type": "RNAV",
		"updated": "11/23/2012"
	},
	{
		"name": "GAUGE",
		"latitude": "37-17-36.15 N",
		"longitude": "104-17-43.87 W",
		"state": "COLORADO",
		"artcc": "ZDV",
		"type": "RNAV",
		"updated": "07/21/2016"
	},
	{
		"name": "GECEV",
		"latitude": "39-34-25.27 N",
		"longitude": "99-49-34.72 W",
		"state": "KANSAS",
		"artcc": "ZDV",
		"type": "RNAV",
		"updated": "05/07/2013"
	},
	{
		"name": "GEDVE",
		"latitude": "42-46-51.06 N",
		"longitude": "102-59-35.11 W",
		"state": "NEBRASKA",
		"artcc": "ZDV",
		"type": "RNAV",
		"updated": "06/28/2011"
	},
	{
		"name": "GEJYU",
		"latitude": "38-47-17.85 N",
		"longitude": "107-41-7.62 W",
		"state": "COLORADO",
		"artcc": "ZDV",
		"type": "RP",
		"updated": "DBL*VOR/DME*211.67/53.73"
	},
	{
		"name": "GEKTE",
		"latitude": "36-45-6.18 N",
		"longitude": "105-6-21.91 W",
		"state": "NEW MEXICO",
		"artcc": "ZDV",
		"type": "RNAV",
		"updated": "11/01/2001"
	},
	{
		"name": "GEMKY",
		"latitude": "37-13-23.99 N",
		"longitude": "106-18-39.69 W",
		"state": "COLORADO",
		"artcc": "ZDV",
		"type": "RP",
		"updated": "ALS*VORTAC*239.52/24.89"
	},
	{
		"name": "GENEC",
		"latitude": "39-17-28.12 N",
		"longitude": "101-35-42.6 W",
		"state": "KANSAS",
		"artcc": "ZDV",
		"type": "RNAV",
		"updated": "01/04/2011"
	},
	{
		"name": "GEPYE",
		"latitude": "40-49-50.83 N",
		"longitude": "100-23-16.21 W",
		"state": "NEBRASKA",
		"artcc": "ZDV",
		"type": "RNAV",
		"updated": "12/22/2005"
	},
	{
		"name": "GEREY",
		"latitude": "39-34-11.38 N",
		"longitude": "101-30-41.89 W",
		"state": "KANSAS",
		"artcc": "ZDV",
		"type": "RNAV",
		"updated": "01/04/2011"
	},
	{
		"name": "GERON",
		"latitude": "40-3-49.94 N",
		"longitude": "102-59-53.95 W",
		"state": "COLORADO",
		"artcc": "ZDV",
		"type": "RP",
		"updated": "AKO*VOR/DME*110.30/10.00"
	},
	{
		"name": "GERRO",
		"latitude": "37-22-28.41 N",
		"longitude": "109-29-0.5 W",
		"state": "UTAH",
		"artcc": "ZDV",
		"type": "RNAV",
		"updated": "09/19/2002"
	},
	{
		"name": "GESBE",
		"latitude": "41-50-19.14 N",
		"longitude": "103-42-50.71 W",
		"state": "NEBRASKA",
		"artcc": "ZDV",
		"type": "RNAV",
		"updated": "10/29/2007"
	},
	{
		"name": "GIGDE",
		"latitude": "40-57-46.3 N",
		"longitude": "102-48-8.65 W",
		"state": "COLORADO",
		"artcc": "ZDV",
		"type": "RNAV",
		"updated": "11/27/2006"
	},
	{
		"name": "GILYE",
		"latitude": "44-17-50.77 N",
		"longitude": "105-31-43.59 W",
		"state": "WYOMING",
		"artcc": "ZDV",
		"type": "RP",
		"updated": "LLT*LD*160.67/3.80"
	},
	{
		"name": "GINTH",
		"latitude": "39-56-16.09 N",
		"longitude": "104-23-3.91 W",
		"state": "COLORADO",
		"artcc": "ZDV",
		"type": "RNAV",
		"updated": "11/23/2012"
	},
	{
		"name": "GIPEC",
		"latitude": "42-49-41.63 N",
		"longitude": "106-46-29.05 W",
		"state": "WYOMING",
		"artcc": "ZDV",
		"type": "RP",
		"updated": "DDY*VOR/DME*222.48/27.00"
	},
	{
		"name": "GIRTH",
		"latitude": "40-14-54.82 N",
		"longitude": "104-38-11.71 W",
		"state": "COLORADO",
		"artcc": "ZDV",
		"type": "RNAV",
		"updated": "03/26/2012"
	},
	{
		"name": "GISEY",
		"latitude": "40-22-42.98 N",
		"longitude": "103-50-7.86 W",
		"state": "COLORADO",
		"artcc": "ZDV",
		"type": "RNAV",
		"updated": "11/09/2015"
	},
	{
		"name": "GISLE",
		"latitude": "37-31-38.14 N",
		"longitude": "106-2-39.6 W",
		"state": "COLORADO",
		"artcc": "ZDV",
		"type": "RP",
		"updated": "ALS*VORTAC*301.38/15.28"
	},
	{
		"name": "GISTT",
		"latitude": "39-45-57.5 N",
		"longitude": "104-35-1.1 W",
		"state": "COLORADO",
		"artcc": "ZDV",
		"type": "RNAV",
		"updated": "11/23/2012"
	},
	{
		"name": "GIVTE",
		"latitude": "39-50-30.59 N",
		"longitude": "104-52-43.21 W",
		"state": "COLORADO",
		"artcc": "ZDV",
		"type": "RNAV",
		"updated": "08/29/2012"
	},
	{
		"name": "GIYIT",
		"latitude": "42-42-25.02 N",
		"longitude": "100-24-27.2 W",
		"state": "NEBRASKA",
		"artcc": "ZDV",
		"type": "RNAV",
		"updated": "04/06/2005"
	},
	{
		"name": "GIZAB",
		"latitude": "42-51-25.5 N",
		"longitude": "102-40-18.4 W",
		"state": "NEBRASKA",
		"artcc": "ZDV",
		"type": "RNAV",
		"updated": "07/04/2009"
	},
	{
		"name": "GIZQE",
		"latitude": "38-38-54.5 N",
		"longitude": "108-3-25.58 W",
		"state": "COLORADO",
		"artcc": "ZDV",
		"type": "RNAV",
		"updated": "03/20/2009"
	},
	{
		"name": "GLDEN",
		"latitude": "39-23-22.3 N",
		"longitude": "107-4-11.61 W",
		"state": "COLORADO",
		"artcc": "ZDV",
		"type": "RNAV",
		"updated": "09/02/2008"
	},
	{
		"name": "GLEES",
		"latitude": "42-55-6.88 N",
		"longitude": "105-50-9.15 W",
		"state": "WYOMING",
		"artcc": "ZDV",
		"type": "RP",
		"updated": "DDY*VOR/DME*105.87/22.00"
	},
	{
		"name": "GLENO",
		"latitude": "39-20-51.84 N",
		"longitude": "107-22-8.09 W",
		"state": "COLORADO",
		"artcc": "ZDV",
		"type": "RP",
		"updated": "DBL*VOR/DME*244.17/22.73"
	},
	{
		"name": "GLIMR",
		"latitude": "40-50-59.81 N",
		"longitude": "103-38-6.17 W",
		"state": "COLORADO",
		"artcc": "ZDV",
		"type": "RP",
		"updated": "BFF*VORTAC*173.35/63.00"
	},
	{
		"name": "GLITR",
		"latitude": "39-15-34.88 N",
		"longitude": "102-8-8.96 W",
		"state": "COLORADO",
		"artcc": "ZDV",
		"type": "RNAV",
		"updated": "09/06/2012"
	},
	{
		"name": "GLLAS",
		"latitude": "44-33-3 N",
		"longitude": "105-10-28 W",
		"state": "WYOMING",
		"artcc": "ZDV",
		"type": "RNAV",
		"updated": "07/26/2017"
	},
	{
		"name": "GLUGS",
		"latitude": "43-4-46.74 N",
		"longitude": "100-48-53.45 W",
		"state": "SOUTH DAKOTA",
		"artcc": "ZDV",
		"type": "RNAV",
		"updated": "10/31/2017"
	},
	{
		"name": "GNARR",
		"latitude": "40-0-52.35 N",
		"longitude": "102-42-6.85 W",
		"state": "COLORADO",
		"artcc": "ZDV",
		"type": "RNAV",
		"updated": "03/19/2018"
	},
	{
		"name": "GNTRI",
		"latitude": "39-19-19.3 N",
		"longitude": "106-59-23.23 W",
		"state": "COLORADO",
		"artcc": "ZDV",
		"type": "RNAV",
		"updated": "09/03/2008"
	},
	{
		"name": "GOAVS",
		"latitude": "39-49-26.87 N",
		"longitude": "104-31-34.43 W",
		"state": "COLORADO",
		"artcc": "ZDV",
		"type": "RP",
		"updated": "DVV*VORTAC*124.99/6.20"
	},
	{
		"name": "GOCRU",
		"latitude": "42-46-22.25 N",
		"longitude": "102-28-23.52 W",
		"state": "NEBRASKA",
		"artcc": "ZDV",
		"type": "RNAV",
		"updated": "07/05/2009"
	},
	{
		"name": "GODER",
		"latitude": "40-13-47.59 N",
		"longitude": "104-54-35.19 W",
		"state": "COLORADO",
		"artcc": "ZDV",
		"type": "RP",
		"updated": "GLL*VOR/DME*212.00/23.18"
	},
	{
		"name": "GODKE",
		"latitude": "41-28-5.34 N",
		"longitude": "105-52-54.96 W",
		"state": "WYOMING",
		"artcc": "ZDV",
		"type": "RNAV",
		"updated": "04/12/2006"
	},
	{
		"name": "GOERS",
		"latitude": "37-23-3.43 N",
		"longitude": "104-10-54.49 W",
		"state": "COLORADO",
		"artcc": "ZDV",
		"type": "RNAV",
		"updated": "07/21/2016"
	},
	{
		"name": "GOFEN",
		"latitude": "40-31-36.8 N",
		"longitude": "107-21-14.81 W",
		"state": "COLORADO",
		"artcc": "ZDV",
		"type": "RP",
		"updated": "HDN*LD*W CRS/7.81"
	},
	{
		"name": "GOHAR",
		"latitude": "44-20-28.22 N",
		"longitude": "103-18-23.39 W",
		"state": "SOUTH DAKOTA",
		"artcc": "ZDV",
		"type": "MR",
		"updated": "RCA*TACAN*316.00/15.00"
	},
	{
		"name": "GOHLD",
		"latitude": "40-33-12.4 N",
		"longitude": "104-38-13.59 W",
		"state": "COLORADO",
		"artcc": "ZDV",
		"type": "RNAV",
		"updated": "07/02/2014"
	},
	{
		"name": "GOLFN",
		"latitude": "40-11-49.29 N",
		"longitude": "104-38-14.01 W",
		"state": "COLORADO",
		"artcc": "ZDV",
		"type": "RP",
		"updated": "BXP*LD*352.54/19.74"
	},
	{
		"name": "GONEF",
		"latitude": "41-9-5.03 N",
		"longitude": "107-19-57.3 W",
		"state": "WYOMING",
		"artcc": "ZDV",
		"type": "RNAV",
		"updated": "08/10/2017"
	},
	{
		"name": "GORJE",
		"latitude": "38-38-53.48 N",
		"longitude": "105-19-33.96 W",
		"state": "COLORADO",
		"artcc": "ZDV",
		"type": "RP",
		"updated": "FQF*VORTAC*197.00/70.60"
	},
	{
		"name": "GOROC",
		"latitude": "39-45-25 N",
		"longitude": "104-42-53 W",
		"state": "COLORADO",
		"artcc": "ZDV",
		"type": "RNAV",
		"updated": "11/23/2012"
	},
	{
		"name": "GOSIP",
		"latitude": "37-37-14.66 N",
		"longitude": "104-35-50.4 W",
		"state": "COLORADO",
		"artcc": "ZDV",
		"type": "RP",
		"updated": "PUB*VORTAC*183.22/41.14"
	},
	{
		"name": "GOULL",
		"latitude": "40-31-19.74 N",
		"longitude": "106-33-42.63 W",
		"state": "COLORADO",
		"artcc": "ZDV",
		"type": "RP",
		"updated": "CHE*VOR/DME*075.55/34.00"
	},
	{
		"name": "GOVID",
		"latitude": "36-22-19.32 N",
		"longitude": "110-37-35.75 W",
		"state": "ARIZONA",
		"artcc": "ZDV",
		"type": "RNAV",
		"updated": "05/03/2002"
	},
	{
		"name": "GOXEL",
		"latitude": "36-41-32.99 N",
		"longitude": "110-21-21.99 W",
		"state": "ARIZONA",
		"artcc": "ZDV",
		"type": "RNAV",
		"updated": "05/03/2002"
	},
	{
		"name": "GOYEP",
		"latitude": "38-17-8.41 N",
		"longitude": "104-34-13.97 W",
		"state": "COLORADO",
		"artcc": "ZDV",
		"type": "RP",
		"updated": "PUB*VORTAC*257.63/6.69"
	},
	{
		"name": "GRASP",
		"latitude": "39-52-34.9 N",
		"longitude": "104-30-26.34 W",
		"state": "COLORADO",
		"artcc": "ZDV",
		"type": "RP",
		"updated": "FQF*VORTAC*014.18"
	},
	{
		"name": "GREYS",
		"latitude": "40-2-33 N",
		"longitude": "104-50-25.19 W",
		"state": "COLORADO",
		"artcc": "ZDV",
		"type": "RNAV",
		"updated": "09/22/2012"
	},
	{
		"name": "GREYY",
		"latitude": "41-35-32.15 N",
		"longitude": "99-3-19.86 W",
		"state": "NEBRASKA",
		"artcc": "ZDV",
		"type": "WP",
		"updated": "06/11/2013"
	},
	{
		"name": "GRIFS",
		"latitude": "40-5-58.04 N",
		"longitude": "104-38-18.34 W",
		"state": "COLORADO",
		"artcc": "ZDV",
		"type": "RP",
		"updated": "BXP*LD*352.54/13.89"
	},
	{
		"name": "GRIPP",
		"latitude": "38-48-41.97 N",
		"longitude": "106-27-17.27 W",
		"state": "COLORADO",
		"artcc": "ZDV",
		"type": "RP",
		"updated": "DBL*VOR/DME*139.23"
	},
	{
		"name": "GRMON",
		"latitude": "39-36-41.54 N",
		"longitude": "106-58-1.78 W",
		"state": "COLORADO",
		"artcc": "ZDV",
		"type": "RNAV",
		"updated": "12/11/2017"
	},
	{
		"name": "GROVR",
		"latitude": "41-0-32.54 N",
		"longitude": "104-2-55.81 W",
		"state": "WYOMING",
		"artcc": "ZDV",
		"type": "MR",
		"updated": "CYS*VORTAC*097.00/35.00"
	},
	{
		"name": "GRRUB",
		"latitude": "40-14-25.68 N",
		"longitude": "104-16-50.19 W",
		"state": "COLORADO",
		"artcc": "ZDV",
		"type": "RNAV",
		"updated": "09/24/2012"
	},
	{
		"name": "GTMBA",
		"latitude": "40-31-0.47 N",
		"longitude": "107-24-29.13 W",
		"state": "COLORADO",
		"artcc": "ZDV",
		"type": "RNAV",
		"updated": "11/17/2014"
	},
	{
		"name": "GUCVE",
		"latitude": "39-22-42.49 N",
		"longitude": "99-18-13.67 W",
		"state": "KANSAS",
		"artcc": "ZDV",
		"type": "RNAV",
		"updated": "10/29/2013"
	},
	{
		"name": "GUDSE",
		"latitude": "39-52-11.91 N",
		"longitude": "102-14-24.91 W",
		"state": "COLORADO",
		"artcc": "ZDV",
		"type": "RNAV",
		"updated": "02/21/2018"
	},
	{
		"name": "GUDXE",
		"latitude": "40-53-32.77 N",
		"longitude": "99-10-42.25 W",
		"state": "NEBRASKA",
		"artcc": "ZDV",
		"type": "RNAV",
		"updated": "08/09/2012"
	},
	{
		"name": "GUHYY",
		"latitude": "41-2-37.86 N",
		"longitude": "100-41-42.45 W",
		"state": "NEBRASKA",
		"artcc": "ZDV",
		"type": "RNAV",
		"updated": "07/26/2013"
	},
	{
		"name": "GUILT",
		"latitude": "39-2-23.63 N",
		"longitude": "106-40-38.52 W",
		"state": "COLORADO",
		"artcc": "ZDV",
		"type": "RP",
		"updated": "DBL*VOR/DME*145.00/26.00"
	},
	{
		"name": "GURNE",
		"latitude": "38-9-13.2 N",
		"longitude": "102-59-21 W",
		"state": "COLORADO",
		"artcc": "ZDV",
		"type": "RNAV",
		"updated": "11/06/2002"
	},
	{
		"name": "GUSET",
		"latitude": "39-43-18.98 N",
		"longitude": "104-31-27.19 W",
		"state": "COLORADO",
		"artcc": "ZDV",
		"type": "RP",
		"updated": "FQF*VORTAC*055.92"
	},
	{
		"name": "GUVBE",
		"latitude": "36-28-40.34 N",
		"longitude": "108-32-45.3 W",
		"state": "NEW MEXICO",
		"artcc": "ZDV",
		"type": "RP",
		"updated": "RSK*VORTAC*219.24/27.00"
	},
	{
		"name": "GUVYU",
		"latitude": "40-6-21.58 N",
		"longitude": "106-36-46.25 W",
		"state": "COLORADO",
		"artcc": "ZDV",
		"type": "RP",
		"updated": "RLG*VOR/DME*294.35/10.00"
	},
	{
		"name": "GWEDO",
		"latitude": "41-20-50.06 N",
		"longitude": "108-13-26 W",
		"state": "WYOMING",
		"artcc": "ZDV",
		"type": "RNAV",
		"updated": "07/17/2014"
	},
	{
		"name": "GWENS",
		"latitude": "40-9-40.77 N",
		"longitude": "104-38-15.59 W",
		"state": "COLORADO",
		"artcc": "ZDV",
		"type": "RP",
		"updated": "BXP*LD*352.54/17.60"
	}
]
