[
	{
		"name": "JAAAM",
		"latitude": "39-44-54.15 N",
		"longitude": "104-31-26.56 W",
		"state": "COLORADO",
		"artcc": "ZDV",
		"type": "RNAV",
		"updated": "09/24/2012"
	},
	{
		"name": "JAAEF",
		"latitude": "39-41-27.93 N",
		"longitude": "104-43-15.12 W",
		"state": "COLORADO",
		"artcc": "ZDV",
		"type": "RNAV",
		"updated": "03/19/2012"
	},
	{
		"name": "JABAN",
		"latitude": "39-34-14.94 N",
		"longitude": "107-2-5.17 W",
		"state": "COLORADO",
		"artcc": "ZDV",
		"type": "RNAV",
		"updated": "06/08/2006"
	},
	{
		"name": "JABED",
		"latitude": "40-1-43.12 N",
		"longitude": "104-37-54.09 W",
		"state": "COLORADO",
		"artcc": "ZDV",
		"type": "RNAV",
		"updated": "03/22/2012"
	},
	{
		"name": "JABIX",
		"latitude": "40-28-6.08 N",
		"longitude": "107-5-49.96 W",
		"state": "COLORADO",
		"artcc": "ZDV",
		"type": "RP",
		"updated": "CHE*VOR/DME*094.00/10.00"
	},
	{
		"name": "JABNU",
		"latitude": "40-12-34.08 N",
		"longitude": "102-26-52.49 W",
		"state": "COLORADO",
		"artcc": "ZDV",
		"type": "WP",
		"updated": "11/02/1998"
	},
	{
		"name": "JABRO",
		"latitude": "40-1-37.13 N",
		"longitude": "104-45-14.79 W",
		"state": "COLORADO",
		"artcc": "ZDV",
		"type": "RNAV",
		"updated": "03/22/2012"
	},
	{
		"name": "JADEK",
		"latitude": "40-15-19.87 N",
		"longitude": "103-44-55.3 W",
		"state": "COLORADO",
		"artcc": "ZDV",
		"type": "RNAV",
		"updated": "11/09/2015"
	},
	{
		"name": "JADGU",
		"latitude": "37-36-19.86 N",
		"longitude": "105-44-6.75 W",
		"state": "COLORADO",
		"artcc": "ZDV",
		"type": "RNAV",
		"updated": "12/23/2008"
	},
	{
		"name": "JADOB",
		"latitude": "41-36-35.83 N",
		"longitude": "102-31-51.75 W",
		"state": "NEBRASKA",
		"artcc": "ZDV",
		"type": "RP",
		"updated": "BFF*VORTAC*098.44/45.98"
	},
	{
		"name": "JAGGR",
		"latitude": "38-58-29.82 N",
		"longitude": "103-2-24.74 W",
		"state": "COLORADO",
		"artcc": "ZDV",
		"type": "RNAV",
		"updated": "09/26/2012"
	},
	{
		"name": "JAGUS",
		"latitude": "41-50-53.13 N",
		"longitude": "103-41-33.54 W",
		"state": "NEBRASKA",
		"artcc": "ZDV",
		"type": "RNAV",
		"updated": "10/30/2013"
	},
	{
		"name": "JAKUR",
		"latitude": "39-37-44.79 N",
		"longitude": "104-39-46.56 W",
		"state": "COLORADO",
		"artcc": "ZDV",
		"type": "RNAV",
		"updated": "06/27/2002"
	},
	{
		"name": "JALKA",
		"latitude": "38-45-58.78 N",
		"longitude": "105-42-36.61 W",
		"state": "COLORADO",
		"artcc": "ZDV",
		"type": "RNAV",
		"updated": "09/23/2012"
	},
	{
		"name": "JAMSS",
		"latitude": "38-32-5.22 N",
		"longitude": "106-49-17.39 W",
		"state": "COLORADO",
		"artcc": "ZDV",
		"type": "RNAV",
		"updated": "08/16/2010"
	},
	{
		"name": "JANUR",
		"latitude": "41-25-43.79 N",
		"longitude": "101-56-31.58 W",
		"state": "NEBRASKA",
		"artcc": "ZDV",
		"type": "RP",
		"updated": "LBF*VOR/DME*282.24/58.70"
	},
	{
		"name": "JANUT",
		"latitude": "40-48-14.1 N",
		"longitude": "102-27-36.91 W",
		"state": "COLORADO",
		"artcc": "ZDV",
		"type": "RNAV",
		"updated": "08/23/2005"
	},
	{
		"name": "JANVA",
		"latitude": "41-16-58.86 N",
		"longitude": "105-37-54.87 W",
		"state": "WYOMING",
		"artcc": "ZDV",
		"type": "RNAV",
		"updated": "04/12/2006"
	},
	{
		"name": "JAPDI",
		"latitude": "39-50-5.7 N",
		"longitude": "104-54-3.41 W",
		"state": "COLORADO",
		"artcc": "ZDV",
		"type": "RNAV",
		"updated": "03/22/2012"
	},
	{
		"name": "JAPEE",
		"latitude": "40-17-20.34 N",
		"longitude": "104-40-56.1 W",
		"state": "COLORADO",
		"artcc": "ZDV",
		"type": "RNAV",
		"updated": "03/16/2012"
	},
	{
		"name": "JAPET",
		"latitude": "39-58-58.92 N",
		"longitude": "104-38-23.49 W",
		"state": "COLORADO",
		"artcc": "ZDV",
		"type": "RNAV",
		"updated": "03/21/2012"
	},
	{
		"name": "JAPEX",
		"latitude": "40-5-2.07 N",
		"longitude": "104-39-26.91 W",
		"state": "COLORADO",
		"artcc": "ZDV",
		"type": "RP",
		"updated": "ACX*LD*352.53/13.18"
	},
	{
		"name": "JAPGU",
		"latitude": "44-4-21.42 N",
		"longitude": "102-59-30.96 W",
		"state": "SOUTH DAKOTA",
		"artcc": "ZDV",
		"type": "MR",
		"updated": "RCA*TACAN*122.00/6.20"
	},
	{
		"name": "JAPTA",
		"latitude": "40-56-22.31 N",
		"longitude": "99-50-49.82 W",
		"state": "NEBRASKA",
		"artcc": "ZDV",
		"type": "RP",
		"updated": "HCT*VORTAC*048.00/57.10"
	},
	{
		"name": "JARGU",
		"latitude": "39-24-52.94 N",
		"longitude": "106-57-38.05 W",
		"state": "COLORADO",
		"artcc": "ZDV",
		"type": "RP",
		"updated": "DBL*VOR/DME*232.28"
	},
	{
		"name": "JARVE",
		"latitude": "40-22-32.52 N",
		"longitude": "106-45-34.56 W",
		"state": "COLORADO",
		"artcc": "ZDV",
		"type": "RP",
		"updated": "CHE*VOR/DME*096.00/27.00"
	},
	{
		"name": "JASTI",
		"latitude": "44-1-24 N",
		"longitude": "101-26-26 W",
		"state": "SOUTH DAKOTA",
		"artcc": "ZDV",
		"type": "RNAV",
		"updated": "09/22/2014"
	},
	{
		"name": "JATEB",
		"latitude": "42-39-8.47 N",
		"longitude": "106-33-13.79 W",
		"state": "WYOMING",
		"artcc": "ZDV",
		"type": "RP",
		"updated": "DDY*VOR/DME*193.00/29.00"
	},
	{
		"name": "JATKA",
		"latitude": "36-50-33.88 N",
		"longitude": "111-25-48 W",
		"state": "ARIZONA",
		"artcc": "ZDV",
		"type": "RNAV",
		"updated": "12/03/2007"
	},
	{
		"name": "JATOL",
		"latitude": "38-44-55.32 N",
		"longitude": "104-37-14.09 W",
		"state": "COLORADO",
		"artcc": "ZDV",
		"type": "RNAV",
		"updated": "03/31/2016"
	},
	{
		"name": "JAVOB",
		"latitude": "39-10-17.19 N",
		"longitude": "99-43-47.3 W",
		"state": "KANSAS",
		"artcc": "ZDV",
		"type": "RNAV",
		"updated": "12/01/2005"
	},
	{
		"name": "JAXOM",
		"latitude": "41-42-30.25 N",
		"longitude": "103-49-27.81 W",
		"state": "NEBRASKA",
		"artcc": "ZDV",
		"type": "RNAV",
		"updated": "10/30/2013"
	},
	{
		"name": "JAYNE",
		"latitude": "39-41-44.46 N",
		"longitude": "104-36-32.26 W",
		"state": "COLORADO",
		"artcc": "ZDV",
		"type": "RNAV",
		"updated": "03/25/2012"
	},
	{
		"name": "JDIZL",
		"latitude": "40-14-50.23 N",
		"longitude": "104-40-57.85 W",
		"state": "COLORADO",
		"artcc": "ZDV",
		"type": "RNAV",
		"updated": "03/16/2012"
	},
	{
		"name": "JEAPE",
		"latitude": "41-4-2.78 N",
		"longitude": "102-55-45.62 W",
		"state": "NEBRASKA",
		"artcc": "ZDV",
		"type": "RP",
		"updated": "SNY*VOR/DME*112.73/3.00"
	},
	{
		"name": "JEBAV",
		"latitude": "36-44-10.25 N",
		"longitude": "108-14-28.68 W",
		"state": "NEW MEXICO",
		"artcc": "ZDV",
		"type": "RP",
		"updated": "RSK*VORTAC*249.97/6.91"
	},
	{
		"name": "JEEPR",
		"latitude": "40-12-26.13 N",
		"longitude": "104-40-59.53 W",
		"state": "COLORADO",
		"artcc": "ZDV",
		"type": "RP",
		"updated": "LTT*LD*352.51/18.43"
	},
	{
		"name": "JEFEL",
		"latitude": "39-21-50.39 N",
		"longitude": "104-14-36.13 W",
		"state": "COLORADO",
		"artcc": "ZDV",
		"type": "RP",
		"updated": "FQF*VORTAC*127.00/26.26"
	},
	{
		"name": "JEKTI",
		"latitude": "42-3-38.91 N",
		"longitude": "102-32-52.24 W",
		"state": "NEBRASKA",
		"artcc": "ZDV",
		"type": "RNAV",
		"updated": "01/03/2007"
	},
	{
		"name": "JEMGO",
		"latitude": "39-55-2.93 N",
		"longitude": "104-41-45 W",
		"state": "COLORADO",
		"artcc": "ZDV",
		"type": "RNAV",
		"updated": "03/16/2012"
	},
	{
		"name": "JEMKI",
		"latitude": "38-36-39.95 N",
		"longitude": "104-36-38.85 W",
		"state": "COLORADO",
		"artcc": "ZDV",
		"type": "RNAV",
		"updated": "08/17/2010"
	},
	{
		"name": "JEMOX",
		"latitude": "39-23-52.96 N",
		"longitude": "101-44-8.96 W",
		"state": "KANSAS",
		"artcc": "ZDV",
		"type": "RNAV",
		"updated": "01/04/2011"
	},
	{
		"name": "JENNE",
		"latitude": "44-7-4.44 N",
		"longitude": "105-40-48.73 W",
		"state": "WYOMING",
		"artcc": "ZDV",
		"type": "RP",
		"updated": "CZI*VOR/DME*064.50"
	},
	{
		"name": "JENRO",
		"latitude": "38-32-31.27 N",
		"longitude": "106-50-0.28 W",
		"state": "COLORADO",
		"artcc": "ZDV",
		"type": "RNAV",
		"updated": "06/08/2009"
	},
	{
		"name": "JENUK",
		"latitude": "41-23-55.36 N",
		"longitude": "103-10-13.43 W",
		"state": "NEBRASKA",
		"artcc": "ZDV",
		"type": "RP",
		"updated": "SNY*VOR/DME*321.97/20.00"
	},
	{
		"name": "JEPMA",
		"latitude": "39-1-31.4 N",
		"longitude": "104-35-41.28 W",
		"state": "COLORADO",
		"artcc": "ZDV",
		"type": "RNAV",
		"updated": "08/17/2010"
	},
	{
		"name": "JEPNO",
		"latitude": "42-38-38.15 N",
		"longitude": "100-4-26.89 W",
		"state": "NEBRASKA",
		"artcc": "ZDV",
		"type": "RNAV",
		"updated": "04/16/2008"
	},
	{
		"name": "JEPPC",
		"latitude": "39-23-33.92 N",
		"longitude": "104-35-32.85 W",
		"state": "COLORADO",
		"artcc": "ZDV",
		"type": "RNAV",
		"updated": "11/23/2012"
	},
	{
		"name": "JESAR",
		"latitude": "41-17-10.84 N",
		"longitude": "105-19-43.46 W",
		"state": "WYOMING",
		"artcc": "ZDV",
		"type": "RP",
		"updated": "LAR*VOR/DME*085.75/18.00"
	},
	{
		"name": "JESIE",
		"latitude": "40-1-24.72 N",
		"longitude": "106-52-31.52 W",
		"state": "COLORADO",
		"artcc": "ZDV",
		"type": "RP",
		"updated": "SXW*VOR/DME*000.72/24.22"
	},
	{
		"name": "JESIP",
		"latitude": "43-7-36.67 N",
		"longitude": "101-40-37.49 W",
		"state": "SOUTH DAKOTA",
		"artcc": "ZDV",
		"type": "RNAV",
		"updated": "04/21/2016"
	},
	{
		"name": "JESIT",
		"latitude": "40-39-46.19 N",
		"longitude": "100-30-41.97 W",
		"state": "NEBRASKA",
		"artcc": "ZDV",
		"type": "RNAV",
		"updated": "03/03/2015"
	},
	{
		"name": "JESKU",
		"latitude": "40-24-19.14 N",
		"longitude": "107-27-48 W",
		"state": "COLORADO",
		"artcc": "ZDV",
		"type": "RP",
		"updated": "CHE*VOR/DME*212.57/10.00"
	},
	{
		"name": "JESLO",
		"latitude": "38-53-10.16 N",
		"longitude": "104-41-8.19 W",
		"state": "COLORADO",
		"artcc": "ZDV",
		"type": "RNAV",
		"updated": "03/31/2016"
	},
	{
		"name": "JESOB",
		"latitude": "40-1-9.09 N",
		"longitude": "99-20-37.39 W",
		"state": "NEBRASKA",
		"artcc": "ZDV",
		"type": "RNAV",
		"updated": "06/16/2015"
	},
	{
		"name": "JETAG",
		"latitude": "39-33-30.07 N",
		"longitude": "104-33-18.02 W",
		"state": "COLORADO",
		"artcc": "ZDV",
		"type": "RNAV",
		"updated": "11/23/2012"
	},
	{
		"name": "JETRY",
		"latitude": "39-3-3.6 N",
		"longitude": "108-23-30.13 W",
		"state": "COLORADO",
		"artcc": "ZDV",
		"type": "RNAV",
		"updated": "06/05/2009"
	},
	{
		"name": "JETSN",
		"latitude": "39-58-50.83 N",
		"longitude": "104-41-42.36 W",
		"state": "COLORADO",
		"artcc": "ZDV",
		"type": "RP",
		"updated": "DQQ*LD*352.51/4.92"
	},
	{
		"name": "JEWLS",
		"latitude": "38-31-58.39 N",
		"longitude": "103-49-54.69 W",
		"state": "COLORADO",
		"artcc": "ZDV",
		"type": "RP",
		"updated": "BRK*VOR/DME*115.00/45.00"
	},
	{
		"name": "JEXOG",
		"latitude": "38-13-33.34 N",
		"longitude": "108-35-25.78 W",
		"state": "COLORADO",
		"artcc": "ZDV",
		"type": "RNAV",
		"updated": "03/14/2007"
	},
	{
		"name": "JEXON",
		"latitude": "39-31-47.33 N",
		"longitude": "107-34-10.71 W",
		"state": "COLORADO",
		"artcc": "ZDV",
		"type": "RNAV",
		"updated": "11/08/2010"
	},
	{
		"name": "JEXUB",
		"latitude": "40-0-57.46 N",
		"longitude": "106-10-11.33 W",
		"state": "COLORADO",
		"artcc": "ZDV",
		"type": "RNAV",
		"updated": "05/16/2017"
	},
	{
		"name": "JEZZY",
		"latitude": "42-10-43.59 N",
		"longitude": "104-52-15.99 W",
		"state": "WYOMING",
		"artcc": "ZDV",
		"type": "RP",
		"updated": "IIP*VOR/DME*140.00/33.74"
	},
	{
		"name": "JIBIN",
		"latitude": "41-23-25.3 N",
		"longitude": "105-46-35.82 W",
		"state": "WYOMING",
		"artcc": "ZDV",
		"type": "RNAV",
		"updated": "04/12/2006"
	},
	{
		"name": "JIBIS",
		"latitude": "38-54-14.95 N",
		"longitude": "104-42-56.91 W",
		"state": "COLORADO",
		"artcc": "ZDV",
		"type": "RNAV",
		"updated": "08/17/2010"
	},
	{
		"name": "JIDOG",
		"latitude": "39-27-7.8 N",
		"longitude": "104-50-43.38 W",
		"state": "COLORADO",
		"artcc": "ZDV",
		"type": "RP",
		"updated": "APA*LD*169.95/8.09"
	},
	{
		"name": "JIGOM",
		"latitude": "39-31-59.31 N",
		"longitude": "107-23-33.27 W",
		"state": "COLORADO",
		"artcc": "ZDV",
		"type": "RP",
		"updated": "RIL*LD*078.44/16.32"
	},
	{
		"name": "JIKOS",
		"latitude": "40-35-20.33 N",
		"longitude": "101-41-50.84 W",
		"state": "NEBRASKA",
		"artcc": "ZDV",
		"type": "RNAV",
		"updated": "05/10/2007"
	},
	{
		"name": "JIKTA",
		"latitude": "38-17-27.17 N",
		"longitude": "104-20-52.36 W",
		"state": "COLORADO",
		"artcc": "ZDV",
		"type": "RP",
		"updated": "PUB*VORTAC*084.98/3.86"
	},
	{
		"name": "JIKUT",
		"latitude": "41-6-27.46 N",
		"longitude": "102-59-38.1 W",
		"state": "NEBRASKA",
		"artcc": "ZDV",
		"type": "RP",
		"updated": "SNY*VOR/DME*310.01/0.82"
	},
	{
		"name": "JILOD",
		"latitude": "41-26-41.47 N",
		"longitude": "106-49-41.07 W",
		"state": "WYOMING",
		"artcc": "ZDV",
		"type": "RNAV",
		"updated": "09/08/2006"
	},
	{
		"name": "JIMAK",
		"latitude": "40-57-1.09 N",
		"longitude": "99-56-6.21 W",
		"state": "NEBRASKA",
		"artcc": "ZDV",
		"type": "RNAV",
		"updated": "03/23/2007"
	},
	{
		"name": "JIMIG",
		"latitude": "41-11-48.73 N",
		"longitude": "104-52-22.37 W",
		"state": "WYOMING",
		"artcc": "ZDV",
		"type": "RNAV",
		"updated": "04/17/2018"
	},
	{
		"name": "JIMMR",
		"latitude": "38-35-2.33 N",
		"longitude": "105-53-52.1 W",
		"state": "COLORADO",
		"artcc": "ZDV",
		"type": "RNAV",
		"updated": "09/23/2012"
	},
	{
		"name": "JINNY",
		"latitude": "39-11-21.28 N",
		"longitude": "108-38-36.21 W",
		"state": "COLORADO",
		"artcc": "ZDV",
		"type": "RP",
		"updated": "JNC*VOR/DME*026.82"
	},
	{
		"name": "JISIG",
		"latitude": "39-8-9.98 N",
		"longitude": "109-3-35.39 W",
		"state": "COLORADO",
		"artcc": "ZDV",
		"type": "RP",
		"updated": "JNC*VOR/DME*275.26/13.30"
	},
	{
		"name": "JITAM",
		"latitude": "40-2-54 N",
		"longitude": "100-57-59.48 W",
		"state": "NEBRASKA",
		"artcc": "ZDV",
		"type": "RNAV",
		"updated": "06/14/2010"
	},
	{
		"name": "JITKI",
		"latitude": "44-33-4.62 N",
		"longitude": "104-37-41.6 W",
		"state": "WYOMING",
		"artcc": "ZDV",
		"type": "RNAV",
		"updated": "02/12/2014"
	},
	{
		"name": "JITOG",
		"latitude": "42-57-58.34 N",
		"longitude": "102-13-53.89 W",
		"state": "NEBRASKA",
		"artcc": "ZDV",
		"type": "RNAV",
		"updated": "04/15/2008"
	},
	{
		"name": "JITOM",
		"latitude": "40-20-19.9 N",
		"longitude": "100-10-54.59 W",
		"state": "NEBRASKA",
		"artcc": "ZDV",
		"type": "RNAV",
		"updated": "03/21/2016"
	},
	{
		"name": "JIVAM",
		"latitude": "42-11-35.47 N",
		"longitude": "103-0-8.38 W",
		"state": "NEBRASKA",
		"artcc": "ZDV",
		"type": "RNAV",
		"updated": "11/27/2006"
	},
	{
		"name": "JLONG",
		"latitude": "41-26-26.48 N",
		"longitude": "106-58-51.18 W",
		"state": "WYOMING",
		"artcc": "ZDV",
		"type": "RNAV",
		"updated": "09/28/2012"
	},
	{
		"name": "JNETT",
		"latitude": "39-21-8.32 N",
		"longitude": "106-28-46.49 W",
		"state": "COLORADO",
		"artcc": "ZDV",
		"type": "RP",
		"updated": "DBL*VOR/DME*092.99/20.00"
	},
	{
		"name": "JNKBX",
		"latitude": "39-58-59.38 N",
		"longitude": "104-39-31.28 W",
		"state": "COLORADO",
		"artcc": "ZDV",
		"type": "RNAV",
		"updated": "03/21/2012"
	},
	{
		"name": "JOBOB",
		"latitude": "40-9-41.94 N",
		"longitude": "104-41-1.45 W",
		"state": "COLORADO",
		"artcc": "ZDV",
		"type": "RP",
		"updated": "LTT*LD*352.51/15.69"
	},
	{
		"name": "JODUG",
		"latitude": "40-7-31.55 N",
		"longitude": "107-58-10.98 W",
		"state": "COLORADO",
		"artcc": "ZDV",
		"type": "RNAV",
		"updated": "07/31/2003"
	},
	{
		"name": "JODUM",
		"latitude": "38-37-34.75 N",
		"longitude": "104-35-26.5 W",
		"state": "COLORADO",
		"artcc": "ZDV",
		"type": "RNAV",
		"updated": "08/17/2010"
	},
	{
		"name": "JOGEL",
		"latitude": "37-27-59.32 N",
		"longitude": "104-21-24.77 W",
		"state": "COLORADO",
		"artcc": "ZDV",
		"type": "RP",
		"updated": "PUB*VORTAC*168.00/49.73"
	},
	{
		"name": "JOLUP",
		"latitude": "38-21-35.91 N",
		"longitude": "104-29-40.83 W",
		"state": "COLORADO",
		"artcc": "ZDV",
		"type": "RP",
		"updated": "PUB*VORTAC*314.00/5.00"
	},
	{
		"name": "JOMAG",
		"latitude": "40-2-59.84 N",
		"longitude": "104-39-28.42 W",
		"state": "COLORADO",
		"artcc": "ZDV",
		"type": "RP",
		"updated": "ACX*LD*352.53/11.14"
	},
	{
		"name": "JONEM",
		"latitude": "40-35-12.76 N",
		"longitude": "100-23-15.8 W",
		"state": "NEBRASKA",
		"artcc": "ZDV",
		"type": "RNAV",
		"updated": "03/03/2015"
	},
	{
		"name": "JONOL",
		"latitude": "39-4-20.68 N",
		"longitude": "104-39-23.62 W",
		"state": "COLORADO",
		"artcc": "ZDV",
		"type": "RNAV",
		"updated": "04/01/2016"
	},
	{
		"name": "JOODE",
		"latitude": "37-10-57.45 N",
		"longitude": "107-39-30.3 W",
		"state": "COLORADO",
		"artcc": "ZDV",
		"type": "RNAV",
		"updated": "10/06/2016"
	},
	{
		"name": "JOPLN",
		"latitude": "37-24-37.63 N",
		"longitude": "104-11-3.71 W",
		"state": "COLORADO",
		"artcc": "ZDV",
		"type": "RNAV",
		"updated": "11/23/2012"
	},
	{
		"name": "JOPUG",
		"latitude": "41-14-55.5 N",
		"longitude": "105-45-37.02 W",
		"state": "WYOMING",
		"artcc": "ZDV",
		"type": "RNAV",
		"updated": "07/01/2011"
	},
	{
		"name": "JORAL",
		"latitude": "40-39-47.48 N",
		"longitude": "103-17-2.25 W",
		"state": "COLORADO",
		"artcc": "ZDV",
		"type": "RNAV",
		"updated": "08/13/2012"
	},
	{
		"name": "JOREV",
		"latitude": "38-30-51.6 N",
		"longitude": "107-1-22.87 W",
		"state": "COLORADO",
		"artcc": "ZDV",
		"type": "RP",
		"updated": "HBU*VOR/DME*357.97"
	},
	{
		"name": "JORNO",
		"latitude": "44-28-30.85 N",
		"longitude": "102-58-21.9 W",
		"state": "SOUTH DAKOTA",
		"artcc": "ZDV",
		"type": "RP",
		"updated": "RAP*VORTAC*350.25/30.00"
	},
	{
		"name": "JOSAN",
		"latitude": "39-17-1.58 N",
		"longitude": "106-53-52.08 W",
		"state": "COLORADO",
		"artcc": "ZDV",
		"type": "RNAV",
		"updated": "01/30/2002"
	},
	{
		"name": "JOSAT",
		"latitude": "37-8-20.54 N",
		"longitude": "104-29-15.49 W",
		"state": "COLORADO",
		"artcc": "ZDV",
		"type": "RNAV",
		"updated": "11/01/2013"
	},
	{
		"name": "JOSEE",
		"latitude": "39-59-44.44 N",
		"longitude": "104-39-30.74 W",
		"state": "COLORADO",
		"artcc": "ZDV",
		"type": "RP",
		"updated": "ACX*LD*352.53/7.89"
	},
	{
		"name": "JOSPA",
		"latitude": "39-30-11.23 N",
		"longitude": "107-53-18.09 W",
		"state": "COLORADO",
		"artcc": "ZDV",
		"type": "RNAV",
		"updated": "11/08/2010"
	},
	{
		"name": "JOULE",
		"latitude": "39-56-35.01 N",
		"longitude": "104-39-33.02 W",
		"state": "COLORADO",
		"artcc": "ZDV",
		"type": "RP",
		"updated": "ACX*LD*352.53/4.73"
	},
	{
		"name": "JOWEE",
		"latitude": "38-39-34 N",
		"longitude": "104-32-24 W",
		"state": "COLORADO",
		"artcc": "ZDV",
		"type": "RNAV",
		"updated": "03/14/2011"
	},
	{
		"name": "JOXED",
		"latitude": "36-45-18.89 N",
		"longitude": "110-7-14.39 W",
		"state": "ARIZONA",
		"artcc": "ZDV",
		"type": "RNAV",
		"updated": "01/04/2012"
	},
	{
		"name": "JPAGE",
		"latitude": "39-28-43.71 N",
		"longitude": "104-18-8.87 W",
		"state": "COLORADO",
		"artcc": "ZDV",
		"type": "RNAV",
		"updated": "09/24/2012"
	},
	{
		"name": "JPBAG",
		"latitude": "39-52-34.16 N",
		"longitude": "104-28-59.65 W",
		"state": "COLORADO",
		"artcc": "ZDV",
		"type": "RNAV",
		"updated": "03/22/2012"
	},
	{
		"name": "JPRKS",
		"latitude": "39-50-19.81 N",
		"longitude": "104-27-7.42 W",
		"state": "COLORADO",
		"artcc": "ZDV",
		"type": "RNAV",
		"updated": "03/22/2012"
	},
	{
		"name": "JSSCA",
		"latitude": "43-50-19.14 N",
		"longitude": "102-41-49 W",
		"state": "SOUTH DAKOTA",
		"artcc": "ZDV",
		"type": "RNAV",
		"updated": "07/17/2012"
	},
	{
		"name": "JUBEP",
		"latitude": "37-3-10.69 N",
		"longitude": "107-50-51.45 W",
		"state": "COLORADO",
		"artcc": "ZDV",
		"type": "RP",
		"updated": "DRO*VOR/DME*204.08/7.63"
	},
	{
		"name": "JUBOS",
		"latitude": "40-3-53.45 N",
		"longitude": "102-57-57.52 W",
		"state": "COLORADO",
		"artcc": "ZDV",
		"type": "RNAV",
		"updated": "01/18/2017"
	},
	{
		"name": "JUDII",
		"latitude": "40-36-29.93 N",
		"longitude": "107-29-25.7 W",
		"state": "COLORADO",
		"artcc": "ZDV",
		"type": "RP",
		"updated": "CHE*VOR/DME*288.00/10.00"
	},
	{
		"name": "JUDNI",
		"latitude": "40-42-27.72 N",
		"longitude": "103-18-7.72 W",
		"state": "COLORADO",
		"artcc": "ZDV",
		"type": "RNAV",
		"updated": "08/13/2012"
	},
	{
		"name": "JUDOL",
		"latitude": "37-57-39.74 N",
		"longitude": "101-45-23.72 W",
		"state": "KANSAS",
		"artcc": "ZDV",
		"type": "RNAV",
		"updated": "07/22/2010"
	},
	{
		"name": "JUGIP",
		"latitude": "44-10-57.75 N",
		"longitude": "105-30-40.94 W",
		"state": "WYOMING",
		"artcc": "ZDV",
		"type": "RP",
		"updated": "GCC*VOR/DME*163.03/10.00"
	},
	{
		"name": "JUKEX",
		"latitude": "37-44-35.91 N",
		"longitude": "104-12-7.42 W",
		"state": "COLORADO",
		"artcc": "ZDV",
		"type": "RP",
		"updated": "LAA*VOR/DME*237.74/76.83"
	},
	{
		"name": "JULAB",
		"latitude": "41-2-40.57 N",
		"longitude": "107-27-54.42 W",
		"state": "WYOMING",
		"artcc": "ZDV",
		"type": "RNAV",
		"updated": "08/10/2017"
	},
	{
		"name": "JULPA",
		"latitude": "38-5-47.45 N",
		"longitude": "101-43-37.96 W",
		"state": "KANSAS",
		"artcc": "ZDV",
		"type": "RNAV",
		"updated": "07/22/2010"
	},
	{
		"name": "JUMKO",
		"latitude": "43-5-20.22 N",
		"longitude": "106-44-37.6 W",
		"state": "WYOMING",
		"artcc": "ZDV",
		"type": "RP",
		"updated": "DDY*VOR/DME*257.84/20.52"
	},
	{
		"name": "JUMRO",
		"latitude": "42-56-15.04 N",
		"longitude": "106-25-2.14 W",
		"state": "WYOMING",
		"artcc": "ZDV",
		"type": "RNAV",
		"updated": "04/14/2009"
	},
	{
		"name": "JUNAD",
		"latitude": "41-14-35.36 N",
		"longitude": "103-7-45.38 W",
		"state": "NEBRASKA",
		"artcc": "ZDV",
		"type": "RP",
		"updated": "SNY*VOR/DME*310.01/11.00"
	},
	{
		"name": "JUNER",
		"latitude": "37-22-3.6 N",
		"longitude": "103-43-21.6 W",
		"state": "COLORADO",
		"artcc": "ZDV",
		"type": "RNAV",
		"updated": "11/06/2002"
	},
	{
		"name": "JUNGU",
		"latitude": "39-43-56.41 N",
		"longitude": "101-1-33.99 W",
		"state": "KANSAS",
		"artcc": "ZDV",
		"type": "RNAV",
		"updated": "06/14/2010"
	},
	{
		"name": "JUNSI",
		"latitude": "44-44-37.18 N",
		"longitude": "103-52-45.47 W",
		"state": "SOUTH DAKOTA",
		"artcc": "ZDV",
		"type": "RNAV",
		"updated": "05/23/2011"
	},
	{
		"name": "JUNUM",
		"latitude": "41-57-50.41 N",
		"longitude": "103-11-29.3 W",
		"state": "NEBRASKA",
		"artcc": "ZDV",
		"type": "RP",
		"updated": "BFF*VORTAC*059.06/13.67"
	},
	{
		"name": "JUPOB",
		"latitude": "39-13-50.39 N",
		"longitude": "99-53-37.45 W",
		"state": "KANSAS",
		"artcc": "ZDV",
		"type": "RNAV",
		"updated": "11/03/2015"
	},
	{
		"name": "JURIN",
		"latitude": "41-42-9.95 N",
		"longitude": "99-12-31.55 W",
		"state": "NEBRASKA",
		"artcc": "ZDV",
		"type": "RNAV",
		"updated": "03/16/2009"
	},
	{
		"name": "JUTOB",
		"latitude": "39-31-45.84 N",
		"longitude": "107-35-26.5 W",
		"state": "COLORADO",
		"artcc": "ZDV",
		"type": "RNAV",
		"updated": "11/08/2010"
	},
	{
		"name": "JUVEB",
		"latitude": "42-29-43.07 N",
		"longitude": "103-11-1.78 W",
		"state": "NEBRASKA",
		"artcc": "ZDV",
		"type": "RNAV",
		"updated": "12/14/2015"
	},
	{
		"name": "JUZAN",
		"latitude": "42-57-52.12 N",
		"longitude": "102-24-35.84 W",
		"state": "NEBRASKA",
		"artcc": "ZDV",
		"type": "RNAV",
		"updated": "04/16/2008"
	},
	{
		"name": "JYMBO",
		"latitude": "43-18-24.64 N",
		"longitude": "106-40-55.78 W",
		"state": "WYOMING",
		"artcc": "ZDV",
		"type": "RNAV",
		"updated": "11/07/2013"
	}
]
