[
	{
		"name": "KAASE",
		"latitude": "40-22-2.25 N",
		"longitude": "99-21-22.6 W",
		"state": "NEBRASKA",
		"artcc": "ZDV",
		"type": "RNAV",
		"updated": "01/22/2007"
	},
	{
		"name": "KAASH",
		"latitude": "40-24-14.54 N",
		"longitude": "104-31-12.13 W",
		"state": "COLORADO",
		"artcc": "ZDV",
		"type": "RNAV",
		"updated": "07/02/2014"
	},
	{
		"name": "KABFU",
		"latitude": "38-39-49.28 N",
		"longitude": "100-59-38.96 W",
		"state": "KANSAS",
		"artcc": "ZDV",
		"type": "RNAV",
		"updated": "08/04/2006"
	},
	{
		"name": "KABPE",
		"latitude": "37-31-12.28 N",
		"longitude": "105-48-6.56 W",
		"state": "COLORADO",
		"artcc": "ZDV",
		"type": "RNAV",
		"updated": "12/23/2008"
	},
	{
		"name": "KACTI",
		"latitude": "42-20-31 N",
		"longitude": "104-17-16.87 W",
		"state": "WYOMING",
		"artcc": "ZDV",
		"type": "RP",
		"updated": "BFF*VORTAC*294.00/44.91"
	},
	{
		"name": "KAGHU",
		"latitude": "38-52-38.86 N",
		"longitude": "104-42-56.97 W",
		"state": "COLORADO",
		"artcc": "ZDV",
		"type": "RNAV",
		"updated": "04/01/2016"
	},
	{
		"name": "KAILE",
		"latitude": "40-15-48.35 N",
		"longitude": "104-46-6.37 W",
		"state": "COLORADO",
		"artcc": "ZDV",
		"type": "RNAV",
		"updated": "09/22/2012"
	},
	{
		"name": "KAINN",
		"latitude": "39-29-44.5 N",
		"longitude": "107-56-23.43 W",
		"state": "COLORADO",
		"artcc": "ZDV",
		"type": "RNAV",
		"updated": "11/08/2010"
	},
	{
		"name": "KALHR",
		"latitude": "39-32-0.49 N",
		"longitude": "104-42-0.9 W",
		"state": "COLORADO",
		"artcc": "ZDV",
		"type": "RP",
		"updated": "DXU*LD*172.51/21.90"
	},
	{
		"name": "KALME",
		"latitude": "39-41-4.21 N",
		"longitude": "104-48-42.04 W",
		"state": "COLORADO",
		"artcc": "ZDV",
		"type": "RNAV",
		"updated": "09/22/2012"
	},
	{
		"name": "KAMAT",
		"latitude": "40-20-59.63 N",
		"longitude": "106-44-52.14 W",
		"state": "COLORADO",
		"artcc": "ZDV",
		"type": "RP",
		"updated": "11/03/1993"
	},
	{
		"name": "KANDO",
		"latitude": "39-48-46.34 N",
		"longitude": "103-44-46.37 W",
		"state": "COLORADO",
		"artcc": "ZDV",
		"type": "RP",
		"updated": "TXC*VORTAC*273.78"
	},
	{
		"name": "KANON",
		"latitude": "38-23-45.25 N",
		"longitude": "105-59-30.56 W",
		"state": "COLORADO",
		"artcc": "ZDV",
		"type": "RP",
		"updated": "PUB*VORTAC*267.21/74.00"
	},
	{
		"name": "KARAS",
		"latitude": "44-16-22.88 N",
		"longitude": "104-18-49.64 W",
		"state": "WYOMING",
		"artcc": "ZDV",
		"type": "RP",
		"updated": "RAP*VORTAC*275.03/59.00"
	},
	{
		"name": "KAREC",
		"latitude": "39-10-8.55 N",
		"longitude": "108-36-23.35 W",
		"state": "COLORADO",
		"artcc": "ZDV",
		"type": "RNAV",
		"updated": "07/05/2011"
	},
	{
		"name": "KARNS",
		"latitude": "41-21-44.33 N",
		"longitude": "99-34-16.27 W",
		"state": "NEBRASKA",
		"artcc": "ZDV",
		"type": "RP",
		"updated": "CUZ*VOR/DME*135.86/9.03"
	},
	{
		"name": "KARVE",
		"latitude": "39-23-15.68 N",
		"longitude": "104-41-46.55 W",
		"state": "COLORADO",
		"artcc": "ZDV",
		"type": "RNAV",
		"updated": "03/19/2012"
	},
	{
		"name": "KASEC",
		"latitude": "40-13-11.55 N",
		"longitude": "103-28-35.81 W",
		"state": "COLORADO",
		"artcc": "ZDV",
		"type": "RNAV",
		"updated": "11/09/2015"
	},
	{
		"name": "KATLN",
		"latitude": "40-56-38.63 N",
		"longitude": "101-23-34.51 W",
		"state": "NEBRASKA",
		"artcc": "ZDV",
		"type": "RP",
		"updated": "LBF*VOR/DME*247.14/30.00"
	},
	{
		"name": "KATTT",
		"latitude": "39-16-49.95 N",
		"longitude": "104-30-27.55 W",
		"state": "COLORADO",
		"artcc": "ZDV",
		"type": "MR",
		"updated": "BKF*TACAN*147.97/28.00"
	},
	{
		"name": "KAYGG",
		"latitude": "39-54-36.8 N",
		"longitude": "104-8-44.77 W",
		"state": "COLORADO",
		"artcc": "ZDV",
		"type": "RNAV",
		"updated": "11/23/2012"
	},
	{
		"name": "KAYOO",
		"latitude": "40-5-43.42 N",
		"longitude": "104-45-15.09 W",
		"state": "COLORADO",
		"artcc": "ZDV",
		"type": "RNAV",
		"updated": "11/23/2012"
	},
	{
		"name": "KD36Q",
		"latitude": "36-0-0 N",
		"longitude": "110-0-0 W",
		"state": "ARIZONA",
		"artcc": "ZDV",
		"type": "NRS",
		"updated": "04/06/2004"
	},
	{
		"name": "KD39Q",
		"latitude": "36-30-0 N",
		"longitude": "110-0-0 W",
		"state": "ARIZONA",
		"artcc": "ZDV",
		"type": "NRS",
		"updated": "04/06/2004"
	},
	{
		"name": "KD39S",
		"latitude": "36-30-0 N",
		"longitude": "108-0-0 W",
		"state": "NEW MEXICO",
		"artcc": "ZDV",
		"type": "NRS",
		"updated": "04/06/2004"
	},
	{
		"name": "KD42Q",
		"latitude": "37-0-0 N",
		"longitude": "110-0-0 W",
		"state": "UTAH",
		"artcc": "ZDV",
		"type": "NRS",
		"updated": "04/06/2004"
	},
	{
		"name": "KD42S",
		"latitude": "37-0-0 N",
		"longitude": "108-0-0 W",
		"state": "COLORADO",
		"artcc": "ZDV",
		"type": "NRS",
		"updated": "04/06/2004"
	},
	{
		"name": "KD42U",
		"latitude": "37-0-0 N",
		"longitude": "106-0-0 W",
		"state": "COLORADO",
		"artcc": "ZDV",
		"type": "NRS",
		"updated": "04/06/2004"
	},
	{
		"name": "KD45Q",
		"latitude": "37-30-0 N",
		"longitude": "110-0-0 W",
		"state": "UTAH",
		"artcc": "ZDV",
		"type": "NRS",
		"updated": "04/06/2004"
	},
	{
		"name": "KD45S",
		"latitude": "37-30-0 N",
		"longitude": "108-0-0 W",
		"state": "COLORADO",
		"artcc": "ZDV",
		"type": "NRS",
		"updated": "04/06/2004"
	},
	{
		"name": "KD45U",
		"latitude": "37-30-0 N",
		"longitude": "106-0-0 W",
		"state": "COLORADO",
		"artcc": "ZDV",
		"type": "NRS",
		"updated": "04/06/2004"
	},
	{
		"name": "KD45W",
		"latitude": "37-30-0 N",
		"longitude": "104-0-0 W",
		"state": "COLORADO",
		"artcc": "ZDV",
		"type": "NRS",
		"updated": "04/06/2004"
	},
	{
		"name": "KD48Q",
		"latitude": "38-0-0 N",
		"longitude": "110-0-0 W",
		"state": "UTAH",
		"artcc": "ZDV",
		"type": "NRS",
		"updated": "04/06/2004"
	},
	{
		"name": "KD48S",
		"latitude": "38-0-0 N",
		"longitude": "108-0-0 W",
		"state": "COLORADO",
		"artcc": "ZDV",
		"type": "NRS",
		"updated": "04/06/2004"
	},
	{
		"name": "KD48U",
		"latitude": "38-0-0 N",
		"longitude": "106-0-0 W",
		"state": "COLORADO",
		"artcc": "ZDV",
		"type": "NRS",
		"updated": "04/06/2004"
	},
	{
		"name": "KD48W",
		"latitude": "38-0-0 N",
		"longitude": "104-0-0 W",
		"state": "COLORADO",
		"artcc": "ZDV",
		"type": "NRS",
		"updated": "04/06/2004"
	},
	{
		"name": "KD48Y",
		"latitude": "38-0-0 N",
		"longitude": "102-0-0 W",
		"state": "KANSAS",
		"artcc": "ZDV",
		"type": "NRS",
		"updated": "04/06/2004"
	},
	{
		"name": "KD51S",
		"latitude": "38-30-0 N",
		"longitude": "108-0-0 W",
		"state": "COLORADO",
		"artcc": "ZDV",
		"type": "NRS",
		"updated": "04/06/2004"
	},
	{
		"name": "KD51U",
		"latitude": "38-30-0 N",
		"longitude": "106-0-0 W",
		"state": "COLORADO",
		"artcc": "ZDV",
		"type": "NRS",
		"updated": "04/06/2004"
	},
	{
		"name": "KD51W",
		"latitude": "38-30-0 N",
		"longitude": "104-0-0 W",
		"state": "COLORADO",
		"artcc": "ZDV",
		"type": "NRS",
		"updated": "04/06/2004"
	},
	{
		"name": "KD51Y",
		"latitude": "38-30-0 N",
		"longitude": "102-0-0 W",
		"state": "KANSAS",
		"artcc": "ZDV",
		"type": "NRS",
		"updated": "04/06/2004"
	},
	{
		"name": "KD54A",
		"latitude": "39-0-0 N",
		"longitude": "100-0-0 W",
		"state": "KANSAS",
		"artcc": "ZDV",
		"type": "NRS",
		"updated": "04/06/2004"
	},
	{
		"name": "KD54S",
		"latitude": "39-0-0 N",
		"longitude": "108-0-0 W",
		"state": "COLORADO",
		"artcc": "ZDV",
		"type": "NRS",
		"updated": "04/06/2004"
	},
	{
		"name": "KD54U",
		"latitude": "39-0-0 N",
		"longitude": "106-0-0 W",
		"state": "COLORADO",
		"artcc": "ZDV",
		"type": "NRS",
		"updated": "04/06/2004"
	},
	{
		"name": "KD54W",
		"latitude": "39-0-0 N",
		"longitude": "104-0-0 W",
		"state": "COLORADO",
		"artcc": "ZDV",
		"type": "NRS",
		"updated": "04/06/2004"
	},
	{
		"name": "KD54Y",
		"latitude": "39-0-0 N",
		"longitude": "102-0-0 W",
		"state": "KANSAS",
		"artcc": "ZDV",
		"type": "NRS",
		"updated": "04/06/2004"
	},
	{
		"name": "KD57A",
		"latitude": "39-30-0 N",
		"longitude": "100-0-0 W",
		"state": "KANSAS",
		"artcc": "ZDV",
		"type": "NRS",
		"updated": "04/06/2004"
	},
	{
		"name": "KD57Q",
		"latitude": "39-30-0 N",
		"longitude": "110-0-0 W",
		"state": "UTAH",
		"artcc": "ZDV",
		"type": "NRS",
		"updated": "04/06/2004"
	},
	{
		"name": "KD57S",
		"latitude": "39-30-0 N",
		"longitude": "108-0-0 W",
		"state": "COLORADO",
		"artcc": "ZDV",
		"type": "NRS",
		"updated": "04/06/2004"
	},
	{
		"name": "KD57U",
		"latitude": "39-30-0 N",
		"longitude": "106-0-0 W",
		"state": "COLORADO",
		"artcc": "ZDV",
		"type": "NRS",
		"updated": "04/06/2004"
	},
	{
		"name": "KD57W",
		"latitude": "39-30-0 N",
		"longitude": "104-0-0 W",
		"state": "COLORADO",
		"artcc": "ZDV",
		"type": "NRS",
		"updated": "04/06/2004"
	},
	{
		"name": "KD57Y",
		"latitude": "39-30-0 N",
		"longitude": "102-0-0 W",
		"state": "KANSAS",
		"artcc": "ZDV",
		"type": "NRS",
		"updated": "04/06/2004"
	},
	{
		"name": "KD60A",
		"latitude": "40-0-0 N",
		"longitude": "100-0-0 W",
		"state": "KANSAS",
		"artcc": "ZDV",
		"type": "NRS",
		"updated": "04/06/2004"
	},
	{
		"name": "KD60S",
		"latitude": "40-0-0 N",
		"longitude": "108-0-0 W",
		"state": "COLORADO",
		"artcc": "ZDV",
		"type": "NRS",
		"updated": "04/06/2004"
	},
	{
		"name": "KD60U",
		"latitude": "40-0-0 N",
		"longitude": "106-0-0 W",
		"state": "COLORADO",
		"artcc": "ZDV",
		"type": "NRS",
		"updated": "04/06/2004"
	},
	{
		"name": "KD60W",
		"latitude": "40-0-0 N",
		"longitude": "104-0-0 W",
		"state": "COLORADO",
		"artcc": "ZDV",
		"type": "NRS",
		"updated": "04/06/2004"
	},
	{
		"name": "KD60Y",
		"latitude": "40-0-0 N",
		"longitude": "102-0-0 W",
		"state": "KANSAS",
		"artcc": "ZDV",
		"type": "NRS",
		"updated": "04/06/2004"
	},
	{
		"name": "KD63A",
		"latitude": "40-30-0 N",
		"longitude": "100-0-0 W",
		"state": "NEBRASKA",
		"artcc": "ZDV",
		"type": "NRS",
		"updated": "04/06/2004"
	},
	{
		"name": "KD63S",
		"latitude": "40-30-0 N",
		"longitude": "108-0-0 W",
		"state": "COLORADO",
		"artcc": "ZDV",
		"type": "NRS",
		"updated": "04/06/2004"
	},
	{
		"name": "KD63U",
		"latitude": "40-30-0 N",
		"longitude": "106-0-0 W",
		"state": "COLORADO",
		"artcc": "ZDV",
		"type": "NRS",
		"updated": "04/06/2004"
	},
	{
		"name": "KD63W",
		"latitude": "40-30-0 N",
		"longitude": "104-0-0 W",
		"state": "COLORADO",
		"artcc": "ZDV",
		"type": "NRS",
		"updated": "04/06/2004"
	},
	{
		"name": "KD63Y",
		"latitude": "40-30-0 N",
		"longitude": "102-0-0 W",
		"state": "NEBRASKA",
		"artcc": "ZDV",
		"type": "NRS",
		"updated": "04/06/2004"
	},
	{
		"name": "KD66A",
		"latitude": "41-0-0 N",
		"longitude": "100-0-0 W",
		"state": "NEBRASKA",
		"artcc": "ZDV",
		"type": "NRS",
		"updated": "04/06/2004"
	},
	{
		"name": "KD66S",
		"latitude": "41-0-0 N",
		"longitude": "108-0-0 W",
		"state": "COLORADO",
		"artcc": "ZDV",
		"type": "NRS",
		"updated": "04/06/2004"
	},
	{
		"name": "KD66U",
		"latitude": "41-0-0 N",
		"longitude": "106-0-0 W",
		"state": "WYOMING",
		"artcc": "ZDV",
		"type": "NRS",
		"updated": "04/06/2004"
	},
	{
		"name": "KD66W",
		"latitude": "41-0-0 N",
		"longitude": "104-0-0 W",
		"state": "COLORADO",
		"artcc": "ZDV",
		"type": "NRS",
		"updated": "04/06/2004"
	},
	{
		"name": "KD66Y",
		"latitude": "41-0-0 N",
		"longitude": "102-0-0 W",
		"state": "NEBRASKA",
		"artcc": "ZDV",
		"type": "NRS",
		"updated": "04/06/2004"
	},
	{
		"name": "KD69A",
		"latitude": "41-30-0 N",
		"longitude": "100-0-0 W",
		"state": "NEBRASKA",
		"artcc": "ZDV",
		"type": "NRS",
		"updated": "04/06/2004"
	},
	{
		"name": "KD69S",
		"latitude": "41-30-0 N",
		"longitude": "108-0-0 W",
		"state": "WYOMING",
		"artcc": "ZDV",
		"type": "NRS",
		"updated": "04/06/2004"
	},
	{
		"name": "KD69U",
		"latitude": "41-30-0 N",
		"longitude": "106-0-0 W",
		"state": "WYOMING",
		"artcc": "ZDV",
		"type": "NRS",
		"updated": "04/06/2004"
	},
	{
		"name": "KD69W",
		"latitude": "41-30-0 N",
		"longitude": "104-0-0 W",
		"state": "NEBRASKA",
		"artcc": "ZDV",
		"type": "NRS",
		"updated": "04/06/2004"
	},
	{
		"name": "KD69Y",
		"latitude": "41-30-0 N",
		"longitude": "102-0-0 W",
		"state": "NEBRASKA",
		"artcc": "ZDV",
		"type": "NRS",
		"updated": "04/06/2004"
	},
	{
		"name": "KD72A",
		"latitude": "42-0-0 N",
		"longitude": "100-0-0 W",
		"state": "NEBRASKA",
		"artcc": "ZDV",
		"type": "NRS",
		"updated": "04/06/2004"
	},
	{
		"name": "KD72U",
		"latitude": "42-0-0 N",
		"longitude": "106-0-0 W",
		"state": "WYOMING",
		"artcc": "ZDV",
		"type": "NRS",
		"updated": "04/06/2004"
	},
	{
		"name": "KD72W",
		"latitude": "42-0-0 N",
		"longitude": "104-0-0 W",
		"state": "NEBRASKA",
		"artcc": "ZDV",
		"type": "NRS",
		"updated": "04/06/2004"
	},
	{
		"name": "KD72Y",
		"latitude": "42-0-0 N",
		"longitude": "102-0-0 W",
		"state": "NEBRASKA",
		"artcc": "ZDV",
		"type": "NRS",
		"updated": "04/06/2004"
	},
	{
		"name": "KD75A",
		"latitude": "42-30-0 N",
		"longitude": "100-0-0 W",
		"state": "NEBRASKA",
		"artcc": "ZDV",
		"type": "NRS",
		"updated": "04/06/2004"
	},
	{
		"name": "KD75U",
		"latitude": "42-30-0 N",
		"longitude": "106-0-0 W",
		"state": "WYOMING",
		"artcc": "ZDV",
		"type": "NRS",
		"updated": "04/06/2004"
	},
	{
		"name": "KD75W",
		"latitude": "42-30-0 N",
		"longitude": "104-0-0 W",
		"state": "NEBRASKA",
		"artcc": "ZDV",
		"type": "NRS",
		"updated": "04/06/2004"
	},
	{
		"name": "KD75Y",
		"latitude": "42-30-0 N",
		"longitude": "102-0-0 W",
		"state": "NEBRASKA",
		"artcc": "ZDV",
		"type": "NRS",
		"updated": "04/06/2004"
	},
	{
		"name": "KD78A",
		"latitude": "43-0-0 N",
		"longitude": "100-0-0 W",
		"state": "SOUTH DAKOTA",
		"artcc": "ZDV",
		"type": "NRS",
		"updated": "04/06/2004"
	},
	{
		"name": "KD78U",
		"latitude": "43-0-0 N",
		"longitude": "106-0-0 W",
		"state": "WYOMING",
		"artcc": "ZDV",
		"type": "NRS",
		"updated": "04/06/2004"
	},
	{
		"name": "KD78W",
		"latitude": "43-0-0 N",
		"longitude": "104-0-0 W",
		"state": "NEBRASKA",
		"artcc": "ZDV",
		"type": "NRS",
		"updated": "04/06/2004"
	},
	{
		"name": "KD78Y",
		"latitude": "43-0-0 N",
		"longitude": "102-0-0 W",
		"state": "SOUTH DAKOTA",
		"artcc": "ZDV",
		"type": "NRS",
		"updated": "04/06/2004"
	},
	{
		"name": "KD81U",
		"latitude": "43-30-0 N",
		"longitude": "106-0-0 W",
		"state": "WYOMING",
		"artcc": "ZDV",
		"type": "NRS",
		"updated": "04/06/2004"
	},
	{
		"name": "KD81W",
		"latitude": "43-30-0 N",
		"longitude": "104-0-0 W",
		"state": "SOUTH DAKOTA",
		"artcc": "ZDV",
		"type": "NRS",
		"updated": "04/06/2004"
	},
	{
		"name": "KD81Y",
		"latitude": "43-30-0 N",
		"longitude": "102-0-0 W",
		"state": "SOUTH DAKOTA",
		"artcc": "ZDV",
		"type": "NRS",
		"updated": "04/06/2004"
	},
	{
		"name": "KD84U",
		"latitude": "44-0-0 N",
		"longitude": "106-0-0 W",
		"state": "WYOMING",
		"artcc": "ZDV",
		"type": "NRS",
		"updated": "04/06/2004"
	},
	{
		"name": "KD84W",
		"latitude": "44-0-0 N",
		"longitude": "104-0-0 W",
		"state": "SOUTH DAKOTA",
		"artcc": "ZDV",
		"type": "NRS",
		"updated": "04/06/2004"
	},
	{
		"name": "KD84Y",
		"latitude": "44-0-0 N",
		"longitude": "102-0-0 W",
		"state": "SOUTH DAKOTA",
		"artcc": "ZDV",
		"type": "NRS",
		"updated": "04/06/2004"
	},
	{
		"name": "KD87U",
		"latitude": "44-30-0 N",
		"longitude": "106-0-0 W",
		"state": "WYOMING",
		"artcc": "ZDV",
		"type": "NRS",
		"updated": "04/06/2004"
	},
	{
		"name": "KD87W",
		"latitude": "44-30-0 N",
		"longitude": "104-0-0 W",
		"state": "SOUTH DAKOTA",
		"artcc": "ZDV",
		"type": "NRS",
		"updated": "04/06/2004"
	},
	{
		"name": "KD87Y",
		"latitude": "44-30-0 N",
		"longitude": "102-0-0 W",
		"state": "SOUTH DAKOTA",
		"artcc": "ZDV",
		"type": "NRS",
		"updated": "04/06/2004"
	},
	{
		"name": "KD90U",
		"latitude": "45-0-0 N",
		"longitude": "106-0-0 W",
		"state": "MONTANA",
		"artcc": "ZDV",
		"type": "NRS",
		"updated": "04/06/2004"
	},
	{
		"name": "KD90W",
		"latitude": "45-0-0 N",
		"longitude": "104-0-0 W",
		"state": "SOUTH DAKOTA",
		"artcc": "ZDV",
		"type": "NRS",
		"updated": "04/06/2004"
	},
	{
		"name": "KEBLR",
		"latitude": "38-51-45.57 N",
		"longitude": "106-40-11.81 W",
		"state": "COLORADO",
		"artcc": "ZDV",
		"type": "RNAV",
		"updated": "09/22/2012"
	},
	{
		"name": "KEBYE",
		"latitude": "37-3-48.71 N",
		"longitude": "108-47-18.49 W",
		"state": "COLORADO",
		"artcc": "ZDV",
		"type": "RNAV",
		"updated": "07/06/2011"
	},
	{
		"name": "KEDPE",
		"latitude": "42-18-45.41 N",
		"longitude": "104-45-56.84 W",
		"state": "WYOMING",
		"artcc": "ZDV",
		"type": "RNAV",
		"updated": "04/25/2012"
	},
	{
		"name": "KEEZR",
		"latitude": "38-27-52.06 N",
		"longitude": "107-14-10.14 W",
		"state": "COLORADO",
		"artcc": "ZDV",
		"type": "RP",
		"updated": "HBU*VOR/DME*260.62/9.28"
	},
	{
		"name": "KEKXU",
		"latitude": "39-14-7.65 N",
		"longitude": "100-56-34.02 W",
		"state": "KANSAS",
		"artcc": "ZDV",
		"type": "RNAV",
		"updated": "07/21/2008"
	},
	{
		"name": "KELYG",
		"latitude": "39-50-21.16 N",
		"longitude": "104-29-43.19 W",
		"state": "COLORADO",
		"artcc": "ZDV",
		"type": "RNAV",
		"updated": "03/22/2012"
	},
	{
		"name": "KEMJO",
		"latitude": "42-58-46.16 N",
		"longitude": "102-26-7.69 W",
		"state": "NEBRASKA",
		"artcc": "ZDV",
		"type": "RNAV",
		"updated": "04/16/2008"
	},
	{
		"name": "KEOTA",
		"latitude": "43-44-14.54 N",
		"longitude": "102-50-31 W",
		"state": "SOUTH DAKOTA",
		"artcc": "ZDV",
		"type": "RNAV",
		"updated": "06/29/2012"
	},
	{
		"name": "KESSE",
		"latitude": "41-5-26.32 N",
		"longitude": "102-32-31.93 W",
		"state": "NEBRASKA",
		"artcc": "ZDV",
		"type": "RP",
		"updated": "SNY*VOR/DME*077.89/20.00"
	},
	{
		"name": "KETDE",
		"latitude": "40-54-0.36 N",
		"longitude": "100-1-22.21 W",
		"state": "NEBRASKA",
		"artcc": "ZDV",
		"type": "RNAV",
		"updated": "03/23/2007"
	},
	{
		"name": "KETEC",
		"latitude": "40-0-53.15 N",
		"longitude": "100-28-19.85 W",
		"state": "NEBRASKA",
		"artcc": "ZDV",
		"type": "RNAV",
		"updated": "07/12/2005"
	},
	{
		"name": "KETNE",
		"latitude": "38-24-8.9 N",
		"longitude": "107-18-22.7 W",
		"state": "COLORADO",
		"artcc": "ZDV",
		"type": "RNAV",
		"updated": "06/08/2009"
	},
	{
		"name": "KETTH",
		"latitude": "39-50-3.85 N",
		"longitude": "106-53-35.91 W",
		"state": "COLORADO",
		"artcc": "ZDV",
		"type": "RNAV",
		"updated": "12/11/2017"
	},
	{
		"name": "KEVYE",
		"latitude": "40-38-13.12 N",
		"longitude": "99-11-0 W",
		"state": "NEBRASKA",
		"artcc": "ZDV",
		"type": "RNAV",
		"updated": "01/22/2007"
	},
	{
		"name": "KHEDA",
		"latitude": "41-3-40.97 N",
		"longitude": "107-43-18.14 W",
		"state": "WYOMING",
		"artcc": "ZDV",
		"type": "RNAV",
		"updated": "08/10/2017"
	},
	{
		"name": "KIBEY",
		"latitude": "39-17-48.55 N",
		"longitude": "106-57-29.19 W",
		"state": "COLORADO",
		"artcc": "ZDV",
		"type": "RNAV",
		"updated": "07/13/2009"
	},
	{
		"name": "KICER",
		"latitude": "39-22-48 N",
		"longitude": "106-56-38.09 W",
		"state": "COLORADO",
		"artcc": "ZDV",
		"type": "RP",
		"updated": "ASE*LE*327.63/10.90"
	},
	{
		"name": "KIDNG",
		"latitude": "39-48-37.67 N",
		"longitude": "104-23-39.58 W",
		"state": "COLORADO",
		"artcc": "ZDV",
		"type": "RNAV",
		"updated": "11/23/2012"
	},
	{
		"name": "KIISS",
		"latitude": "38-11-36.34 N",
		"longitude": "101-26-36.25 W",
		"state": "KANSAS",
		"artcc": "ZDV",
		"type": "RNAV",
		"updated": "07/17/2014"
	},
	{
		"name": "KIKME",
		"latitude": "40-1-58.09 N",
		"longitude": "104-41-6.84 W",
		"state": "COLORADO",
		"artcc": "ZDV",
		"type": "RP",
		"updated": "LTT*LD*352.51/7.97"
	},
	{
		"name": "KILEA",
		"latitude": "42-42-24.77 N",
		"longitude": "100-42-2.84 W",
		"state": "NEBRASKA",
		"artcc": "ZDV",
		"type": "RNAV",
		"updated": "01/22/2015"
	},
	{
		"name": "KILRE",
		"latitude": "40-50-25.28 N",
		"longitude": "99-49-33.81 W",
		"state": "NEBRASKA",
		"artcc": "ZDV",
		"type": "RNAV",
		"updated": "07/29/2004"
	},
	{
		"name": "KIMBL",
		"latitude": "39-48-26.45 N",
		"longitude": "106-36-0.93 W",
		"state": "COLORADO",
		"artcc": "ZDV",
		"type": "RP",
		"updated": "RLG*VOR/DME*197.94/13.79"
	},
	{
		"name": "KIMMR",
		"latitude": "39-13-45.24 N",
		"longitude": "109-57-30.1 W",
		"state": "UTAH",
		"artcc": "ZDV",
		"type": "RNAV",
		"updated": "03/23/2018"
	},
	{
		"name": "KINGO",
		"latitude": "37-55-26.61 N",
		"longitude": "103-36-32.42 W",
		"state": "COLORADO",
		"artcc": "ZDV",
		"type": "RP",
		"updated": "LAA*VOR/DME*237.74/46.63"
	},
	{
		"name": "KIPEY",
		"latitude": "40-23-6.04 N",
		"longitude": "100-12-36.42 W",
		"state": "NEBRASKA",
		"artcc": "ZDV",
		"type": "RNAV",
		"updated": "03/25/2016"
	},
	{
		"name": "KIPPR",
		"latitude": "40-20-58.32 N",
		"longitude": "104-33-47.99 W",
		"state": "COLORADO",
		"artcc": "ZDV",
		"type": "RNAV",
		"updated": "09/24/2012"
	},
	{
		"name": "KIPPY",
		"latitude": "39-4-12.83 N",
		"longitude": "103-29-50.19 W",
		"state": "COLORADO",
		"artcc": "ZDV",
		"type": "RP",
		"updated": "DVV*VORTAC*124.99/72.00"
	},
	{
		"name": "KIQER",
		"latitude": "39-55-10.59 N",
		"longitude": "103-4-21.39 W",
		"state": "COLORADO",
		"artcc": "ZDV",
		"type": "RNAV",
		"updated": "01/18/2017"
	},
	{
		"name": "KIRLE",
		"latitude": "39-45-39.55 N",
		"longitude": "107-5-52.98 W",
		"state": "COLORADO",
		"artcc": "ZDV",
		"type": "RP",
		"updated": "DBL*VOR/DME*322.00/21.47"
	},
	{
		"name": "KIVSE",
		"latitude": "42-55-45.97 N",
		"longitude": "106-25-40.25 W",
		"state": "WYOMING",
		"artcc": "ZDV",
		"type": "RNAV",
		"updated": "08/14/2008"
	},
	{
		"name": "KKIMM",
		"latitude": "40-18-14.7 N",
		"longitude": "104-30-0.94 W",
		"state": "COLORADO",
		"artcc": "ZDV",
		"type": "RNAV",
		"updated": "11/23/2012"
	},
	{
		"name": "KLASH",
		"latitude": "41-34-23.54 N",
		"longitude": "106-44-58.51 W",
		"state": "WYOMING",
		"artcc": "ZDV",
		"type": "RP",
		"updated": "CKW*VOR/DME*091.02/39.00"
	},
	{
		"name": "KLENX",
		"latitude": "41-25-31.12 N",
		"longitude": "105-51-16.97 W",
		"state": "WYOMING",
		"artcc": "ZDV",
		"type": "RP",
		"updated": "LAR*VOR/DME*297.00/8.00"
	},
	{
		"name": "KLING",
		"latitude": "40-20-20.61 N",
		"longitude": "104-40-55.82 W",
		"state": "COLORADO",
		"artcc": "ZDV",
		"type": "RNAV",
		"updated": "03/26/2012"
	},
	{
		"name": "KMBEL",
		"latitude": "39-48-32.93 N",
		"longitude": "104-19-54.44 W",
		"state": "COLORADO",
		"artcc": "ZDV",
		"type": "RNAV",
		"updated": "11/23/2012"
	},
	{
		"name": "KNNOX",
		"latitude": "40-29-30.79 N",
		"longitude": "107-17-25.26 W",
		"state": "COLORADO",
		"artcc": "ZDV",
		"type": "RNAV",
		"updated": "11/17/2014"
	},
	{
		"name": "KNOSA",
		"latitude": "38-29-56.1 N",
		"longitude": "106-16-1.64 W",
		"state": "COLORADO",
		"artcc": "ZDV",
		"type": "RNAV",
		"updated": "09/22/2012"
	},
	{
		"name": "KNOXE",
		"latitude": "40-17-33.02 N",
		"longitude": "102-15-32.89 W",
		"state": "COLORADO",
		"artcc": "ZDV",
		"type": "WP",
		"updated": "11/02/1998"
	},
	{
		"name": "KNOXS",
		"latitude": "42-43-11.35 N",
		"longitude": "106-41-55.79 W",
		"state": "WYOMING",
		"artcc": "ZDV",
		"type": "RP",
		"updated": "DDY*VOR/DME*/29.00"
	},
	{
		"name": "KOALT",
		"latitude": "41-9-12.8 N",
		"longitude": "104-46-37.6 W",
		"state": "WYOMING",
		"artcc": "ZDV",
		"type": "RP",
		"updated": "CYS*VORTAC*170.16"
	},
	{
		"name": "KOBSE",
		"latitude": "41-56-59.38 N",
		"longitude": "103-20-34.69 W",
		"state": "NEBRASKA",
		"artcc": "ZDV",
		"type": "RNAV",
		"updated": "10/29/2007"
	},
	{
		"name": "KOCYE",
		"latitude": "44-21-50.5 N",
		"longitude": "104-43-44.44 W",
		"state": "WYOMING",
		"artcc": "ZDV",
		"type": "RP",
		"updated": "RAP*VORTAC*275.03/77.70"
	},
	{
		"name": "KODEE",
		"latitude": "41-41-8.61 N",
		"longitude": "99-6-11.53 W",
		"state": "NEBRASKA",
		"artcc": "ZDV",
		"type": "RNAV",
		"updated": "06/11/2013"
	},
	{
		"name": "KODYS",
		"latitude": "36-44-35.23 N",
		"longitude": "108-9-12.43 W",
		"state": "NEW MEXICO",
		"artcc": "ZDV",
		"type": "RNAV",
		"updated": "05/16/2010"
	},
	{
		"name": "KOGTE",
		"latitude": "41-10-45.98 N",
		"longitude": "105-29-34.65 W",
		"state": "WYOMING",
		"artcc": "ZDV",
		"type": "RNAV",
		"updated": "04/12/2006"
	},
	{
		"name": "KOHOE",
		"latitude": "40-15-47.07 N",
		"longitude": "103-32-7.29 W",
		"state": "COLORADO",
		"artcc": "ZDV",
		"type": "RNAV",
		"updated": "09/23/2012"
	},
	{
		"name": "KOKOO",
		"latitude": "40-15-8.61 N",
		"longitude": "104-24-13.53 W",
		"state": "COLORADO",
		"artcc": "ZDV",
		"type": "RNAV",
		"updated": "09/24/2012"
	},
	{
		"name": "KOORN",
		"latitude": "38-12-4.14 N",
		"longitude": "102-38-9.79 W",
		"state": "COLORADO",
		"artcc": "ZDV",
		"type": "RNAV",
		"updated": "09/24/2012"
	},
	{
		"name": "KOWTO",
		"latitude": "37-54-41.83 N",
		"longitude": "102-58-5.95 W",
		"state": "COLORADO",
		"artcc": "ZDV",
		"type": "RP",
		"updated": "LAA*VOR/DME*205.96/21.67"
	},
	{
		"name": "KRLNA",
		"latitude": "40-36-2.77 N",
		"longitude": "104-59-26.52 W",
		"state": "COLORADO",
		"artcc": "ZDV",
		"type": "RNAV",
		"updated": "11/23/2012"
	},
	{
		"name": "KROHL",
		"latitude": "39-37-6.98 N",
		"longitude": "104-35-37.35 W",
		"state": "COLORADO",
		"artcc": "ZDV",
		"type": "RNAV",
		"updated": "02/03/2017"
	},
	{
		"name": "KROMM",
		"latitude": "40-47-5.01 N",
		"longitude": "104-38-23.22 W",
		"state": "COLORADO",
		"artcc": "ZDV",
		"type": "RP",
		"updated": "GLL*VOR/DME*333.79/17.30"
	},
	{
		"name": "KROWZ",
		"latitude": "37-18-58.29 N",
		"longitude": "105-57-36.21 W",
		"state": "COLORADO",
		"artcc": "ZDV",
		"type": "RP",
		"updated": "ALS*VORTAC*241.10"
	},
	{
		"name": "KUBRE",
		"latitude": "40-52-38.69 N",
		"longitude": "103-11-1.25 W",
		"state": "COLORADO",
		"artcc": "ZDV",
		"type": "RNAV",
		"updated": "08/13/2012"
	},
	{
		"name": "KUDGE",
		"latitude": "44-14-10.1 N",
		"longitude": "103-11-59.45 W",
		"state": "SOUTH DAKOTA",
		"artcc": "ZDV",
		"type": "MR",
		"updated": "RCA*TACAN*316.00/7.20"
	},
	{
		"name": "KUGLN",
		"latitude": "39-41-29.53 N",
		"longitude": "104-45-8.24 W",
		"state": "COLORADO",
		"artcc": "ZDV",
		"type": "RNAV",
		"updated": "03/25/2012"
	},
	{
		"name": "KUKMY",
		"latitude": "40-17-4.76 N",
		"longitude": "103-28-33.86 W",
		"state": "COLORADO",
		"artcc": "ZDV",
		"type": "RNAV",
		"updated": "01/18/2017"
	},
	{
		"name": "KURIQ",
		"latitude": "39-13-10.77 N",
		"longitude": "102-16-28.65 W",
		"state": "COLORADO",
		"artcc": "ZDV",
		"type": "RP",
		"updated": "GLD*VORTAC*237.79"
	},
	{
		"name": "KURSE",
		"latitude": "42-4-29.66 N",
		"longitude": "105-9-36.16 W",
		"state": "WYOMING",
		"artcc": "ZDV",
		"type": "RNAV",
		"updated": "11/06/2002"
	},
	{
		"name": "KUSAC",
		"latitude": "38-41-20.73 N",
		"longitude": "104-42-57.78 W",
		"state": "COLORADO",
		"artcc": "ZDV",
		"type": "RNAV",
		"updated": "04/01/2016"
	},
	{
		"name": "KUSKY",
		"latitude": "37-50-46.59 N",
		"longitude": "102-37-53.99 W",
		"state": "COLORADO",
		"artcc": "ZDV",
		"type": "RNAV",
		"updated": "02/16/2006"
	},
	{
		"name": "KUTRE",
		"latitude": "42-23-22.26 N",
		"longitude": "99-53-0.12 W",
		"state": "NEBRASKA",
		"artcc": "ZDV",
		"type": "RNAV",
		"updated": "04/16/2008"
	},
	{
		"name": "KUURT",
		"latitude": "40-5-49.86 N",
		"longitude": "104-41-4.15 W",
		"state": "COLORADO",
		"artcc": "ZDV",
		"type": "RP",
		"updated": "LTT*LD*352.51/11.83"
	},
	{
		"name": "KUVSE",
		"latitude": "36-53-34.94 N",
		"longitude": "107-46-12.66 W",
		"state": "NEW MEXICO",
		"artcc": "ZDV",
		"type": "RNAV",
		"updated": "11/19/2002"
	},
	{
		"name": "KUVZU",
		"latitude": "42-8-18.86 N",
		"longitude": "104-21-58.62 W",
		"state": "WYOMING",
		"artcc": "ZDV",
		"type": "WP",
		"updated": "11/02/1998"
	},
	{
		"name": "KUYEL",
		"latitude": "40-57-33.68 N",
		"longitude": "101-36-43.71 W",
		"state": "NEBRASKA",
		"artcc": "ZDV",
		"type": "RNAV",
		"updated": "11/20/2012"
	},
	{
		"name": "KVERN",
		"latitude": "39-52-29.49 N",
		"longitude": "104-20-40.9 W",
		"state": "COLORADO",
		"artcc": "ZDV",
		"type": "RNAV",
		"updated": "12/01/2015"
	},
	{
		"name": "KWIKK",
		"latitude": "40-25-9.87 N",
		"longitude": "104-35-33.56 W",
		"state": "COLORADO",
		"artcc": "ZDV",
		"type": "RNAV",
		"updated": "07/03/2014"
	},
	{
		"name": "KYACK",
		"latitude": "39-19-25.66 N",
		"longitude": "106-55-1.03 W",
		"state": "COLORADO",
		"artcc": "ZDV",
		"type": "RP",
		"updated": "ASE*LE*330.63/7.30"
	}
]
