[
	{
		"name": "LAAAK",
		"latitude": "40-1-42.87 N",
		"longitude": "104-37-18.82 W",
		"state": "COLORADO",
		"artcc": "ZDV",
		"type": "RNAV",
		"updated": "03/22/2012"
	},
	{
		"name": "LACID",
		"latitude": "39-33-40.88 N",
		"longitude": "107-17-21.35 W",
		"state": "COLORADO",
		"artcc": "ZDV",
		"type": "RNAV",
		"updated": "09/20/2010"
	},
	{
		"name": "LADDA",
		"latitude": "39-52-13.52 N",
		"longitude": "104-33-25.23 W",
		"state": "COLORADO",
		"artcc": "ZDV",
		"type": "RNAV",
		"updated": "09/23/2012"
	},
	{
		"name": "LAGIY",
		"latitude": "44-7-23.34 N",
		"longitude": "103-38-50.26 W",
		"state": "SOUTH DAKOTA",
		"artcc": "ZDV",
		"type": "RNAV",
		"updated": "05/23/2011"
	},
	{
		"name": "LAGOZ",
		"latitude": "41-14-40.9 N",
		"longitude": "103-21-28.25 W",
		"state": "NEBRASKA",
		"artcc": "ZDV",
		"type": "RNAV",
		"updated": "10/17/2011"
	},
	{
		"name": "LAGPE",
		"latitude": "42-40-27.52 N",
		"longitude": "106-45-36.72 W",
		"state": "WYOMING",
		"artcc": "ZDV",
		"type": "CN",
		"updated": "02/09/2012"
	},
	{
		"name": "LAMAR",
		"latitude": "38-34-5.4 N",
		"longitude": "103-23-32.27 W",
		"state": "COLORADO",
		"artcc": "ZDV",
		"type": "RP",
		"updated": "LAA*VOR/DME*292.00/40.00"
	},
	{
		"name": "LAMZY",
		"latitude": "37-57-32.66 N",
		"longitude": "102-42-51.56 W",
		"state": "COLORADO",
		"artcc": "ZDV",
		"type": "RNAV",
		"updated": "02/16/2006"
	},
	{
		"name": "LANDR",
		"latitude": "40-21-27.26 N",
		"longitude": "104-0-10.67 W",
		"state": "COLORADO",
		"artcc": "ZDV",
		"type": "RP",
		"updated": "DVV*VORTAC*037.66/39.85"
	},
	{
		"name": "LARKS",
		"latitude": "39-15-26.63 N",
		"longitude": "105-18-18.58 W",
		"state": "COLORADO",
		"artcc": "ZDV",
		"type": "RP",
		"updated": "BRK*VOR/DME*293.08"
	},
	{
		"name": "LARVE",
		"latitude": "39-2-52.69 N",
		"longitude": "109-56-35.63 W",
		"state": "UTAH",
		"artcc": "ZDV",
		"type": "RNAV",
		"updated": "11/06/2002"
	},
	{
		"name": "LASCH",
		"latitude": "39-26-34.82 N",
		"longitude": "106-19-52.2 W",
		"state": "COLORADO",
		"artcc": "ZDV",
		"type": "RNAV",
		"updated": "02/09/2018"
	},
	{
		"name": "LASEC",
		"latitude": "39-38-53.18 N",
		"longitude": "99-55-56.79 W",
		"state": "KANSAS",
		"artcc": "ZDV",
		"type": "RNAV",
		"updated": "08/18/2010"
	},
	{
		"name": "LASGE",
		"latitude": "36-41-53.24 N",
		"longitude": "108-20-38.62 W",
		"state": "NEW MEXICO",
		"artcc": "ZDV",
		"type": "RNAV",
		"updated": "04/04/2005"
	},
	{
		"name": "LASSS",
		"latitude": "39-54-39.55 N",
		"longitude": "104-25-53.19 W",
		"state": "COLORADO",
		"artcc": "ZDV",
		"type": "RNAV",
		"updated": "11/23/2012"
	},
	{
		"name": "LASTE",
		"latitude": "39-38-47.19 N",
		"longitude": "104-43-2.07 W",
		"state": "COLORADO",
		"artcc": "ZDV",
		"type": "MR",
		"updated": "BKF*TACAN*147.97/4.00"
	},
	{
		"name": "LASXE",
		"latitude": "40-34-3.82 N",
		"longitude": "105-3-59.68 W",
		"state": "COLORADO",
		"artcc": "ZDV",
		"type": "RNAV",
		"updated": "03/20/2009"
	},
	{
		"name": "LAWNG",
		"latitude": "39-50-12.12 N",
		"longitude": "104-53-32.61 W",
		"state": "COLORADO",
		"artcc": "ZDV",
		"type": "RNAV",
		"updated": "10/08/2014"
	},
	{
		"name": "LAWSN",
		"latitude": "39-31-4.07 N",
		"longitude": "106-28-34.51 W",
		"state": "COLORADO",
		"artcc": "ZDV",
		"type": "RP",
		"updated": "DBL*VOR/DME*064.27/20.00"
	},
	{
		"name": "LAXLY",
		"latitude": "38-51-26.79 N",
		"longitude": "104-42-57.06 W",
		"state": "COLORADO",
		"artcc": "ZDV",
		"type": "RNAV",
		"updated": "04/01/2016"
	},
	{
		"name": "LAYCE",
		"latitude": "40-3-42.33 N",
		"longitude": "103-51-33.61 W",
		"state": "COLORADO",
		"artcc": "ZDV",
		"type": "RNAV",
		"updated": "11/09/2015"
	},
	{
		"name": "LAYLA",
		"latitude": "38-32-0.83 N",
		"longitude": "103-37-16.34 W",
		"state": "COLORADO",
		"artcc": "ZDV",
		"type": "RNAV",
		"updated": "09/23/2012"
	},
	{
		"name": "LAZON",
		"latitude": "38-4-11.48 N",
		"longitude": "107-15-5.39 W",
		"state": "COLORADO",
		"artcc": "ZDV",
		"type": "RP",
		"updated": "HBU*VOR/DME*190.00/25.00"
	},
	{
		"name": "LBASN",
		"latitude": "39-29-20.35 N",
		"longitude": "105-18-13.09 W",
		"state": "COLORADO",
		"artcc": "ZDV",
		"type": "RNAV",
		"updated": "09/22/2012"
	},
	{
		"name": "LDORA",
		"latitude": "39-21-36.64 N",
		"longitude": "104-47-18.04 W",
		"state": "COLORADO",
		"artcc": "ZDV",
		"type": "RNAV",
		"updated": "09/22/2012"
	},
	{
		"name": "LEARR",
		"latitude": "39-22-58.95 N",
		"longitude": "104-30-39.67 W",
		"state": "COLORADO",
		"artcc": "ZDV",
		"type": "RNAV",
		"updated": "11/23/2012"
	},
	{
		"name": "LEBME",
		"latitude": "40-3-0.14 N",
		"longitude": "107-53-14.13 W",
		"state": "COLORADO",
		"artcc": "ZDV",
		"type": "RNAV",
		"updated": "07/31/2003"
	},
	{
		"name": "LECET",
		"latitude": "39-30-54.14 N",
		"longitude": "104-50-53.81 W",
		"state": "COLORADO",
		"artcc": "ZDV",
		"type": "RP",
		"updated": "APA*LD*169.95/4.31"
	},
	{
		"name": "LEDSE",
		"latitude": "42-0-58.56 N",
		"longitude": "103-46-52.08 W",
		"state": "NEBRASKA",
		"artcc": "ZDV",
		"type": "RP",
		"updated": "RMT*LD*NW CRS/12.79"
	},
	{
		"name": "LEDVE",
		"latitude": "37-27-36.31 N",
		"longitude": "108-40-43.6 W",
		"state": "COLORADO",
		"artcc": "ZDV",
		"type": "RP",
		"updated": "CEZ*VOR/DME*293.00/7.00"
	},
	{
		"name": "LEERI",
		"latitude": "38-41-35 N",
		"longitude": "104-10-5 W",
		"state": "COLORADO",
		"artcc": "ZDV",
		"type": "RNAV",
		"updated": "01/05/2005"
	},
	{
		"name": "LEETS",
		"latitude": "39-58-49.05 N",
		"longitude": "104-41-9.03 W",
		"state": "COLORADO",
		"artcc": "ZDV",
		"type": "RP",
		"updated": "LTT*LD*352.51/4.82"
	},
	{
		"name": "LEGIC",
		"latitude": "40-32-35.51 N",
		"longitude": "99-19-1.93 W",
		"state": "NEBRASKA",
		"artcc": "ZDV",
		"type": "RNAV",
		"updated": "01/22/2007"
	},
	{
		"name": "LENNN",
		"latitude": "39-43-15.02 N",
		"longitude": "104-55-43.7 W",
		"state": "COLORADO",
		"artcc": "ZDV",
		"type": "RNAV",
		"updated": "11/23/2012"
	},
	{
		"name": "LESIY",
		"latitude": "42-46-29.22 N",
		"longitude": "100-5-39.32 W",
		"state": "NEBRASKA",
		"artcc": "ZDV",
		"type": "RNAV",
		"updated": "04/16/2008"
	},
	{
		"name": "LEWOY",
		"latitude": "40-31-51.14 N",
		"longitude": "103-13-48.22 W",
		"state": "COLORADO",
		"artcc": "ZDV",
		"type": "RNAV",
		"updated": "04/13/2012"
	},
	{
		"name": "LIBEL",
		"latitude": "40-30-44.54 N",
		"longitude": "105-6-10.03 W",
		"state": "COLORADO",
		"artcc": "ZDV",
		"type": "RP",
		"updated": "GLL*VOR/DME*258.34/25.17"
	},
	{
		"name": "LIBIE",
		"latitude": "40-36-4.47 N",
		"longitude": "103-40-14.27 W",
		"state": "COLORADO",
		"artcc": "ZDV",
		"type": "RP",
		"updated": "BFF*VORTAC*173.34/78.00"
	},
	{
		"name": "LIBNE",
		"latitude": "38-55-5.49 N",
		"longitude": "100-46-6.42 W",
		"state": "KANSAS",
		"artcc": "ZDV",
		"type": "RNAV",
		"updated": "06/08/2006"
	},
	{
		"name": "LIDIC",
		"latitude": "40-19-17.79 N",
		"longitude": "100-6-59.62 W",
		"state": "NEBRASKA",
		"artcc": "ZDV",
		"type": "RP",
		"updated": "MCK*VOR/DME*064.00/23.05"
	},
	{
		"name": "LIFTT",
		"latitude": "39-27-10.73 N",
		"longitude": "106-58-44.12 W",
		"state": "COLORADO",
		"artcc": "ZDV",
		"type": "RP",
		"updated": "DBL*VOR/DME*269.82/4.00"
	},
	{
		"name": "LILXO",
		"latitude": "39-32-17.41 N",
		"longitude": "107-3-16.44 W",
		"state": "COLORADO",
		"artcc": "ZDV",
		"type": "RP",
		"updated": "SXW*VOR/DME*196.28/6.22"
	},
	{
		"name": "LIMEX",
		"latitude": "39-41-46.55 N",
		"longitude": "103-55-54.5 W",
		"state": "COLORADO",
		"artcc": "ZDV",
		"type": "RP",
		"updated": "GLL*VOR/DME*136.22/56.24"
	},
	{
		"name": "LIMGE",
		"latitude": "41-4-42.01 N",
		"longitude": "100-41-39.3 W",
		"state": "NEBRASKA",
		"artcc": "ZDV",
		"type": "RNAV",
		"updated": "07/26/2013"
	},
	{
		"name": "LINDZ",
		"latitude": "39-23-19.55 N",
		"longitude": "107-9-28.5 W",
		"state": "COLORADO",
		"artcc": "ZDV",
		"type": "RP",
		"updated": "SXW*VOR/DME*196.28"
	},
	{
		"name": "LINGR",
		"latitude": "39-56-32.99 N",
		"longitude": "104-54-4.57 W",
		"state": "COLORADO",
		"artcc": "ZDV",
		"type": "RNAV",
		"updated": "06/20/2013"
	},
	{
		"name": "LINTE",
		"latitude": "40-1-36.92 N",
		"longitude": "104-44-43.46 W",
		"state": "COLORADO",
		"artcc": "ZDV",
		"type": "RNAV",
		"updated": "03/22/2012"
	},
	{
		"name": "LIPKE",
		"latitude": "40-15-24.11 N",
		"longitude": "104-29-41.84 W",
		"state": "COLORADO",
		"artcc": "ZDV",
		"type": "RNAV",
		"updated": "09/24/2012"
	},
	{
		"name": "LIPPS",
		"latitude": "39-52-45.9 N",
		"longitude": "104-59-13.17 W",
		"state": "COLORADO",
		"artcc": "ZDV",
		"type": "RP",
		"updated": "FQF*VORTAC*292.95"
	},
	{
		"name": "LIRCI",
		"latitude": "41-19-51.59 N",
		"longitude": "105-41-47.41 W",
		"state": "WYOMING",
		"artcc": "ZDV",
		"type": "RNAV",
		"updated": "04/12/2006"
	},
	{
		"name": "LITER",
		"latitude": "41-30-42.22 N",
		"longitude": "104-27-14.16 W",
		"state": "WYOMING",
		"artcc": "ZDV",
		"type": "RP",
		"updated": "SNY*VOR/DME*278.00"
	},
	{
		"name": "LLADN",
		"latitude": "44-32-32.35 N",
		"longitude": "104-36-13.24 W",
		"state": "WYOMING",
		"artcc": "ZDV",
		"type": "RNAV",
		"updated": "02/12/2014"
	},
	{
		"name": "LNCER",
		"latitude": "44-52-44 N",
		"longitude": "105-58-9 W",
		"state": "WYOMING",
		"artcc": "ZDV",
		"type": "RNAV",
		"updated": "07/17/2015"
	},
	{
		"name": "LOADD",
		"latitude": "39-24-36.51 N",
		"longitude": "104-35-17.4 W",
		"state": "COLORADO",
		"artcc": "ZDV",
		"type": "RNAV",
		"updated": "11/23/2012"
	},
	{
		"name": "LOCAT",
		"latitude": "39-31-8.53 N",
		"longitude": "107-32-29.3 W",
		"state": "COLORADO",
		"artcc": "ZDV",
		"type": "RP",
		"updated": "RIL*LD*E CRS/9.30"
	},
	{
		"name": "LOCKD",
		"latitude": "39-18-24.16 N",
		"longitude": "104-46-44.55 W",
		"state": "COLORADO",
		"artcc": "ZDV",
		"type": "RNAV",
		"updated": "11/23/2012"
	},
	{
		"name": "LODHY",
		"latitude": "43-19-23.24 N",
		"longitude": "103-24-51.29 W",
		"state": "SOUTH DAKOTA",
		"artcc": "ZDV",
		"type": "RNAV",
		"updated": "04/04/2012"
	},
	{
		"name": "LODOE",
		"latitude": "40-4-59.71 N",
		"longitude": "104-56-34.81 W",
		"state": "COLORADO",
		"artcc": "ZDV",
		"type": "RNAV",
		"updated": "11/23/2012"
	},
	{
		"name": "LOGBY",
		"latitude": "37-39-10.01 N",
		"longitude": "105-57-43.85 W",
		"state": "COLORADO",
		"artcc": "ZDV",
		"type": "RNAV",
		"updated": "07/31/2017"
	},
	{
		"name": "LOGIY",
		"latitude": "39-22-28.3 N",
		"longitude": "101-2-55.76 W",
		"state": "KANSAS",
		"artcc": "ZDV",
		"type": "RNAV",
		"updated": "07/21/2008"
	},
	{
		"name": "LOHII",
		"latitude": "39-48-1.99 N",
		"longitude": "104-54-9.09 W",
		"state": "COLORADO",
		"artcc": "ZDV",
		"type": "RNAV",
		"updated": "06/20/2013"
	},
	{
		"name": "LOLME",
		"latitude": "38-9-55.34 N",
		"longitude": "102-40-12.52 W",
		"state": "COLORADO",
		"artcc": "ZDV",
		"type": "RNAV",
		"updated": "04/22/2003"
	},
	{
		"name": "LOMMA",
		"latitude": "39-16-50.94 N",
		"longitude": "108-48-40.36 W",
		"state": "COLORADO",
		"artcc": "ZDV",
		"type": "RP",
		"updated": "JNC*VOR/DME*341.25/13.29"
	},
	{
		"name": "LONGS",
		"latitude": "39-43-46.71 N",
		"longitude": "104-50-28.58 W",
		"state": "COLORADO",
		"artcc": "ZDV",
		"type": "RNAV",
		"updated": "09/22/2012"
	},
	{
		"name": "LOOLU",
		"latitude": "39-52-43.4 N",
		"longitude": "104-50-47.54 W",
		"state": "COLORADO",
		"artcc": "ZDV",
		"type": "RNAV",
		"updated": "03/22/2012"
	},
	{
		"name": "LOOOK",
		"latitude": "39-38-18.95 N",
		"longitude": "104-55-52.83 W",
		"state": "COLORADO",
		"artcc": "ZDV",
		"type": "RNAV",
		"updated": "09/22/2012"
	},
	{
		"name": "LOOVE",
		"latitude": "39-50-17.73 N",
		"longitude": "106-39-46.43 W",
		"state": "COLORADO",
		"artcc": "ZDV",
		"type": "RNAV",
		"updated": "12/11/2017"
	},
	{
		"name": "LOPEC",
		"latitude": "38-5-33.58 N",
		"longitude": "106-51-33.22 W",
		"state": "COLORADO",
		"artcc": "ZDV",
		"type": "RP",
		"updated": "RSK*VORTAC*021.96/100.00"
	},
	{
		"name": "LORIN",
		"latitude": "40-31-16.27 N",
		"longitude": "107-5-10.86 W",
		"state": "COLORADO",
		"artcc": "ZDV",
		"type": "RP",
		"updated": "CHE*VOR/DME*075.55/10.00"
	},
	{
		"name": "LORYI",
		"latitude": "41-5-28.74 N",
		"longitude": "104-44-4.76 W",
		"state": "WYOMING",
		"artcc": "ZDV",
		"type": "RNAV",
		"updated": "04/17/2018"
	},
	{
		"name": "LOVIY",
		"latitude": "38-6-25.72 N",
		"longitude": "102-40-57.53 W",
		"state": "COLORADO",
		"artcc": "ZDV",
		"type": "RNAV",
		"updated": "02/16/2006"
	},
	{
		"name": "LOWRE",
		"latitude": "39-41-19.79 N",
		"longitude": "104-51-22.76 W",
		"state": "COLORADO",
		"artcc": "ZDV",
		"type": "RNAV",
		"updated": "09/23/2012"
	},
	{
		"name": "LOYYD",
		"latitude": "39-9-41.25 N",
		"longitude": "107-24-13.19 W",
		"state": "COLORADO",
		"artcc": "ZDV",
		"type": "RNAV",
		"updated": "08/29/2016"
	},
	{
		"name": "LOZUL",
		"latitude": "38-48-19.52 N",
		"longitude": "106-6-14.98 W",
		"state": "COLORADO",
		"artcc": "ZDV",
		"type": "RP",
		"updated": "HBU*VOR/DME*050.00/48.82"
	},
	{
		"name": "LPORT",
		"latitude": "40-34-56.15 N",
		"longitude": "104-57-7.44 W",
		"state": "COLORADO",
		"artcc": "ZDV",
		"type": "RP",
		"updated": "GLL*VOR/DME*271.57"
	},
	{
		"name": "LRAIN",
		"latitude": "36-31-4.19 N",
		"longitude": "110-35-11.95 W",
		"state": "ARIZONA",
		"artcc": "ZDV",
		"type": "RP",
		"updated": "TBC*VORTAC*039.14/40.75"
	},
	{
		"name": "LSKMO",
		"latitude": "39-38-28.31 N",
		"longitude": "106-55-35.18 W",
		"state": "COLORADO",
		"artcc": "ZDV",
		"type": "RNAV",
		"updated": "12/11/2017"
	},
	{
		"name": "LUCII",
		"latitude": "40-18-26.82 N",
		"longitude": "102-27-35.5 W",
		"state": "COLORADO",
		"artcc": "ZDV",
		"type": "RNAV",
		"updated": "02/21/2018"
	},
	{
		"name": "LUDYE",
		"latitude": "40-22-51.62 N",
		"longitude": "106-58-53.28 W",
		"state": "COLORADO",
		"artcc": "ZDV",
		"type": "RP",
		"updated": "CHE*VOR/DME*105.27/17.00"
	},
	{
		"name": "LUFSE",
		"latitude": "39-12-49.58 N",
		"longitude": "104-23-3.64 W",
		"state": "COLORADO",
		"artcc": "ZDV",
		"type": "RP",
		"updated": "PUB*VORTAC*354.19/55.16"
	},
	{
		"name": "LUISS",
		"latitude": "38-13-10.47 N",
		"longitude": "106-14-21.87 W",
		"state": "COLORADO",
		"artcc": "ZDV",
		"type": "RP",
		"updated": "ALS*VORTAC*326.00/55.93"
	},
	{
		"name": "LUNTT",
		"latitude": "44-15-21 N",
		"longitude": "105-5-52 W",
		"state": "WYOMING",
		"artcc": "ZDV",
		"type": "RNAV",
		"updated": "07/26/2017"
	},
	{
		"name": "LUPTN",
		"latitude": "39-59-50.43 N",
		"longitude": "103-55-21.77 W",
		"state": "COLORADO",
		"artcc": "ZDV",
		"type": "RNAV",
		"updated": "11/23/2012"
	},
	{
		"name": "LURIY",
		"latitude": "42-4-59.83 N",
		"longitude": "102-51-2.27 W",
		"state": "NEBRASKA",
		"artcc": "ZDV",
		"type": "RNAV",
		"updated": "11/27/2006"
	},
	{
		"name": "LUWEE",
		"latitude": "39-55-7.39 N",
		"longitude": "104-41-11.6 W",
		"state": "COLORADO",
		"artcc": "ZDV",
		"type": "RP",
		"updated": "LTT*LD*352.51/1.13"
	},
	{
		"name": "LUXXE",
		"latitude": "41-16-4.49 N",
		"longitude": "99-30-20.53 W",
		"state": "NEBRASKA",
		"artcc": "ZDV",
		"type": "RNAV",
		"updated": "07/08/2008"
	},
	{
		"name": "LUYEL",
		"latitude": "37-45-49.35 N",
		"longitude": "105-48-3.43 W",
		"state": "COLORADO",
		"artcc": "ZDV",
		"type": "RNAV",
		"updated": "06/07/2006"
	},
	{
		"name": "LYMPS",
		"latitude": "41-24-59.33 N",
		"longitude": "106-3-33.93 W",
		"state": "WYOMING",
		"artcc": "ZDV",
		"type": "RP",
		"updated": "LAR*VOR/DME*273.26/16.00"
	},
	{
		"name": "LYNKN",
		"latitude": "39-2-40.14 N",
		"longitude": "103-11-10.79 W",
		"state": "COLORADO",
		"artcc": "ZDV",
		"type": "RNAV",
		"updated": "09/26/2012"
	},
	{
		"name": "LYSSA",
		"latitude": "37-6-58.8 N",
		"longitude": "105-50-39.47 W",
		"state": "COLORADO",
		"artcc": "ZDV",
		"type": "RP",
		"updated": "ALS*VORTAC*172.65/14.02"
	},
	{
		"name": "LYZZA",
		"latitude": "38-23-24.48 N",
		"longitude": "107-54-46.05 W",
		"state": "COLORADO",
		"artcc": "ZDV",
		"type": "RP",
		"updated": "MTJ*VOR/DME*173.22/7.00"
	},
	{
		"name": "LYZZY",
		"latitude": "39-38-51.53 N",
		"longitude": "104-42-47.95 W",
		"state": "COLORADO",
		"artcc": "ZDV",
		"type": "MR",
		"updated": "BKF*TACAN*/4.01"
	}
]
