	{
		"name": "MABKY",
		"latitude": "40-21-13.19 N",
		"longitude": "106-49-25.83 W",
		"state": "COLORADO",
		"artcc": "ZDV",
		"type": "RNAV",
		"updated": "01/14/2009",
	},
	{
		"name": "MACKS",
		"latitude": "39-21-15.21 N",
		"longitude": "108-56-46.97 W",
		"state": "COLORADO",
		"artcc": "ZDV",
		"type": "RP",
		"updated": "JNC*VOR/DME*322.95/19.06",
	},
	{
		"name": "MACOW",
		"latitude": "38-2-53.31 N",
		"longitude": "103-31-41.98 W",
		"state": "COLORADO",
		"artcc": "ZDV",
		"type": "CN",
		"updated": "12/21/1999",
	},
	{
		"name": "MACUV",
		"latitude": "44-2-59.59 N",
		"longitude": "101-36-22.33 W",
		"state": "SOUTH DAKOTA",
		"artcc": "ZDV",
		"type": "RP",
		"updated": "PHP*VOR/DME*089.27/2.56",
	},
	{
		"name": "MAFMU",
		"latitude": "39-15-23.2 N",
		"longitude": "106-52-32.41 W",
		"state": "COLORADO",
		"artcc": "ZDV",
		"type": "RP",
		"updated": "DBL*VOR/DME*163.38/11.00",
	},
	{
		"name": "MAFNU",
		"latitude": "37-15-58.89 N",
		"longitude": "104-19-45.06 W",
		"state": "COLORADO",
		"artcc": "ZDV",
		"type": "CN",
		"updated": "12/21/1999",
	},
	{
		"name": "MAGBV",
		"latitude": "41-48-15.41 N",
		"longitude": "107-10-52.58 W",
		"state": "WYOMING",
		"artcc": "ZDV",
		"type": "CN",
		"updated": "05/09/2003",
	},
	{
		"name": "MAGIH",
		"latitude": "40-1-0.18 N",
		"longitude": "105-2-52.83 W",
		"state": "COLORADO",
		"artcc": "ZDV",
		"type": "CN",
		"updated": "01/07/2000",
	},
	{
		"name": "MAGRY",
		"latitude": "40-27-14.52 N",
		"longitude": "99-19-43.19 W",
		"state": "NEBRASKA",
		"artcc": "ZDV",
		"type": "RP",
		"updated": "EAR*VOR*212.35",
	},
	{
		"name": "MAIMS",
		"latitude": "42-59-52.2 N",
		"longitude": "100-24-36.8 W",
		"state": "SOUTH DAKOTA",
		"artcc": "ZDV",
		"type": "RNAV",
		"updated": "01/22/2015",
	},
	{
		"name": "MAMUE",
		"latitude": "42-51-36.85 N",
		"longitude": "106-31-6.21 W",
		"state": "WYOMING",
		"artcc": "ZDV",
		"type": "RP",
		"updated": "DDY*VOR/DME*/17.45",
	},
	{
		"name": "MANCA",
		"latitude": "37-16-27.62 N",
		"longitude": "108-15-10.31 W",
		"state": "COLORADO",
		"artcc": "ZDV",
		"type": "RP",
		"updated": "RSK*VORTAC*332.83/32.37",
	},
	{
		"name": "MANND",
		"latitude": "39-58-30.33 N",
		"longitude": "105-0-38.18 W",
		"state": "COLORADO",
		"artcc": "ZDV",
		"type": "MR",
		"updated": "BKF*TACAN*315.45/20.00",
	},
	{
		"name": "MANUL",
		"latitude": "36-47-16.32 N",
		"longitude": "107-21-19.46 W",
		"state": "NEW MEXICO",
		"artcc": "ZDV",
		"type": "RP",
		"updated": "RSK*VORTAC*072.00",
	},
	{
		"name": "MAPLN",
		"latitude": "37-25-46.26 N",
		"longitude": "105-51-51.78 W",
		"state": "COLORADO",
		"artcc": "ZDV",
		"type": "RP",
		"updated": "ALS*VORTAC*321.14/5.35",
	},
	{
		"name": "MAPPP",
		"latitude": "40-26-54.98 N",
		"longitude": "105-0-9.1 W",
		"state": "COLORADO",
		"artcc": "ZDV",
		"type": "RP",
		"updated": "GLL*VOR/DME*248.00/20.85",
	},
	{
		"name": "MAPRB",
		"latitude": "38-32-4.87 N",
		"longitude": "106-56-4.76 W",
		"state": "COLORADO",
		"artcc": "ZDV",
		"type": "CN",
		"updated": "03/10/2003",
	},
	{
		"name": "MAPRN",
		"latitude": "40-3-2.16 N",
		"longitude": "106-22-24.29 W",
		"state": "COLORADO",
		"artcc": "ZDV",
		"type": "RP",
		"updated": "RLG*VOR/DME*033.94/4.29",
	},
	{
		"name": "MAPSB",
		"latitude": "40-9-33.16 N",
		"longitude": "105-9-45.63 W",
		"state": "COLORADO",
		"artcc": "ZDV",
		"type": "CN",
		"updated": "03/10/2003",
	},
	{
		"name": "MAPSN",
		"latitude": "39-32-25.34 N",
		"longitude": "107-44-4.25 W",
		"state": "COLORADO",
		"artcc": "ZDV",
		"type": "RP",
		"updated": "RIL*VOR/DME*306.26/1.00",
	},
	{
		"name": "MAPSY",
		"latitude": "37-58-57.73 N",
		"longitude": "108-1-30.2 W",
		"state": "COLORADO",
		"artcc": "ZDV",
		"type": "RP",
		"updated": "ETL*VOR/DME*095.23/11.60",
	},
	{
		"name": "MARKE",
		"latitude": "37-3-21.23 N",
		"longitude": "108-3-52.88 W",
		"state": "COLORADO",
		"artcc": "ZDV",
		"type": "RP",
		"updated": "RSK*VORTAC*351.10/18.50",
	},
	{
		"name": "MARKL",
		"latitude": "41-21-24.28 N",
		"longitude": "104-39-56.23 W",
		"state": "WYOMING",
		"artcc": "ZDV",
		"type": "RP",
		"updated": "CYS*VORTAC*016.00/10.00",
	},
	{
		"name": "MARSS",
		"latitude": "42-27-48.92 N",
		"longitude": "100-36-15.32 W",
		"state": "NEBRASKA",
		"artcc": "ZDV",
		"type": "RP",
		"updated": "ANW*VOR/DME*248.14/27.99",
	},
	{
		"name": "MARYJ",
		"latitude": "43-8-37.14 N",
		"longitude": "103-30-40.82 W",
		"state": "SOUTH DAKOTA",
		"artcc": "ZDV",
		"type": "RP",
		"updated": "TST*VOR/DME*333.00/36.17",
	},
	{
		"name": "MARZH",
		"latitude": "42-56-10.17 N",
		"longitude": "101-58-22.42 W",
		"state": "NEBRASKA",
		"artcc": "ZDV",
		"type": "RNAV",
		"updated": "07/28/2008",
	},
	{
		"name": "MASBI",
		"latitude": "39-21-50.94 N",
		"longitude": "107-3-59.17 W",
		"state": "COLORADO",
		"artcc": "ZDV",
		"type": "RP",
		"updated": "11/03/1993",
	},
	{
		"name": "MASHD",
		"latitude": "39-12-55.83 N",
		"longitude": "104-33-49.3 W",
		"state": "COLORADO",
		"artcc": "ZDV",
		"type": "RNAV",
		"updated": "05/07/2013",
	},
	{
		"name": "MASSA",
		"latitude": "37-14-58.2 N",
		"longitude": "105-49-40.35 W",
		"state": "COLORADO",
		"artcc": "ZDV",
		"type": "RP",
		"updated": "ALS*VORTAC*172.65/6.00",
	},
	{
		"name": "MCJEF",
		"latitude": "40-5-11.67 N",
		"longitude": "102-0-20.47 W",
		"state": "NEBRASKA",
		"artcc": "ZDV",
		"type": "RP",
		"updated": "GLD*VORTAC*329.00",
	},
	{
		"name": "MCMUL",
		"latitude": "39-44-17.08 N",
		"longitude": "104-48-36.99 W",
		"state": "COLORADO",
		"artcc": "ZDV",
		"type": "RNAV",
		"updated": "03/25/2012",
	},
	{
		"name": "MEBNE",
		"latitude": "38-31-15.92 N",
		"longitude": "106-59-38.28 W",
		"state": "COLORADO",
		"artcc": "ZDV",
		"type": "RP",
		"updated": "HBU*VOR/DME*013.57",
	},
	{
		"name": "MEDAG",
		"latitude": "36-35-53.65 N",
		"longitude": "110-11-6.74 W",
		"state": "ARIZONA",
		"artcc": "ZDV",
		"type": "RNAV",
		"updated": "05/03/2002",
	},
	{
		"name": "MEILE",
		"latitude": "41-41-17.3 N",
		"longitude": "103-21-6.42 W",
		"state": "NEBRASKA",
		"artcc": "ZDV",
		"type": "RP",
		"updated": "BFF*VORTAC*141.64/13.67",
	},
	{
		"name": "MEKWY",
		"latitude": "40-40-2.02 N",
		"longitude": "107-32-4.14 W",
		"state": "COLORADO",
		"artcc": "ZDV",
		"type": "RP",
		"updated": "CHE*VOR/DME*296.13/13.71",
	},
	{
		"name": "MELVL",
		"latitude": "39-48-50.09 N",
		"longitude": "107-7-54.19 W",
		"state": "COLORADO",
		"artcc": "ZDV",
		"type": "RP",
		"updated": "DBL*VOR/DME*322.00/25.00",
	},
	{
		"name": "MELVN",
		"latitude": "40-6-22.33 N",
		"longitude": "105-2-43.71 W",
		"state": "COLORADO",
		"artcc": "ZDV",
		"type": "RNAV",
		"updated": "10/25/2013",
	},
	{
		"name": "MERKL",
		"latitude": "39-35-15.05 N",
		"longitude": "104-41-58.67 W",
		"state": "COLORADO",
		"artcc": "ZDV",
		"type": "RP",
		"updated": "DXU*LD*172.51/18.66",
	},
	{
		"name": "MERTZ",
		"latitude": "38-17-1.63 N",
		"longitude": "104-38-49.19 W",
		"state": "COLORADO",
		"artcc": "ZDV",
		"type": "RNAV",
		"updated": "09/02/2012",
	},
	{
		"name": "MERYN",
		"latitude": "40-2-0.23 N",
		"longitude": "104-41-40.16 W",
		"state": "COLORADO",
		"artcc": "ZDV",
		"type": "RP",
		"updated": "DQQ*LD*352.51/8.07",
	},
	{
		"name": "MESME",
		"latitude": "39-31-8.89 N",
		"longitude": "104-40-2.63 W",
		"state": "COLORADO",
		"artcc": "ZDV",
		"type": "RNAV",
		"updated": "07/15/2008",
	},
	{
		"name": "METVY",
		"latitude": "38-19-28.41 N",
		"longitude": "106-46-59.86 W",
		"state": "COLORADO",
		"artcc": "ZDV",
		"type": "RNAV",
		"updated": "08/16/2010",
	},
	{
		"name": "MEXIE",
		"latitude": "43-57-17.18 N",
		"longitude": "102-52-2.86 W",
		"state": "SOUTH DAKOTA",
		"artcc": "ZDV",
		"type": "MR",
		"updated": "RCA*TACAN*/15.00",
	},
	{
		"name": "MEYRS",
		"latitude": "38-28-46.77 N",
		"longitude": "107-27-45.93 W",
		"state": "COLORADO",
		"artcc": "ZDV",
		"type": "RP",
		"updated": "HBU*VOR/DME*260.86/20.00",
	},
	{
		"name": "MIDAY",
		"latitude": "38-34-16.16 N",
		"longitude": "104-42-58.24 W",
		"state": "COLORADO",
		"artcc": "ZDV",
		"type": "RP",
		"updated": "PUB*VORTAC*312.93/21.41",
	},
	{
		"name": "MIDGE",
		"latitude": "44-26-57.87 N",
		"longitude": "105-50-53.8 W",
		"state": "WYOMING",
		"artcc": "ZDV",
		"type": "RP",
		"updated": "CZI*VOR/DME*030.01",
	},
	{
		"name": "MIDTN",
		"latitude": "40-29-25.44 N",
		"longitude": "107-20-29.7 W",
		"state": "COLORADO",
		"artcc": "ZDV",
		"type": "RNAV",
		"updated": "11/17/2014",
	},
	{
		"name": "MILKY",
		"latitude": "41-24-18.43 N",
		"longitude": "105-8-39.97 W",
		"state": "WYOMING",
		"artcc": "ZDV",
		"type": "RP",
		"updated": "LAR*VOR/DME*067.00",
	},
	{
		"name": "MILLA",
		"latitude": "39-17-44.08 N",
		"longitude": "107-37-52.48 W",
		"state": "COLORADO",
		"artcc": "ZDV",
		"type": "RP",
		"updated": "JNC*VOR/DME*060.00/56.00",
	},
	{
		"name": "MIPAE",
		"latitude": "40-45-19.72 N",
		"longitude": "106-16-24.37 W",
		"state": "COLORADO",
		"artcc": "ZDV",
		"type": "RNAV",
		"updated": "04/07/2008",
	},
	{
		"name": "MIRXE",
		"latitude": "38-55-52.18 N",
		"longitude": "108-24-46.98 W",
		"state": "COLORADO",
		"artcc": "ZDV",
		"type": "RP",
		"updated": "JNC*VOR/DME*098.32/19.35",
	},
	{
		"name": "MISSY",
		"latitude": "36-29-56.44 N",
		"longitude": "107-54-25.56 W",
		"state": "NEW MEXICO",
		"artcc": "ZDV",
		"type": "RP",
		"updated": "RSK*VORTAC*134.15/17.58",
	},
	{
		"name": "MIWSY",
		"latitude": "42-19-14.84 N",
		"longitude": "104-14-58.01 W",
		"state": "WYOMING",
		"artcc": "ZDV",
		"type": "WP",
		"updated": "11/02/1998",
	},
	{
		"name": "MIXTU",
		"latitude": "39-25-43.87 N",
		"longitude": "102-22-24.09 W",
		"state": "COLORADO",
		"artcc": "ZDV",
		"type": "RNAV",
		"updated": "12/06/2017",
	},
	{
		"name": "MLHOS",
		"latitude": "39-43-36.54 N",
		"longitude": "104-23-47.24 W",
		"state": "COLORADO",
		"artcc": "ZDV",
		"type": "RNAV",
		"updated": "11/23/2012",
	},
	{
		"name": "MMESA",
		"latitude": "39-45-53.28 N",
		"longitude": "103-55-43.5 W",
		"state": "COLORADO",
		"artcc": "ZDV",
		"type": "RNAV",
		"updated": "11/23/2012",
	},
	{
		"name": "MNNOW",
		"latitude": "40-47-10.65 N",
		"longitude": "100-39-31 W",
		"state": "NEBRASKA",
		"artcc": "ZDV",
		"type": "RNAV",
		"updated": "09/25/2012",
	},
	{
		"name": "MOBDE",
		"latitude": "39-15-17.09 N",
		"longitude": "106-55-48.13 W",
		"state": "COLORADO",
		"artcc": "ZDV",
		"type": "RNAV",
		"updated": "07/13/2009",
	},
	{
		"name": "MOBNE",
		"latitude": "44-22-37.28 N",
		"longitude": "103-17-8.29 W",
		"state": "SOUTH DAKOTA",
		"artcc": "ZDV",
		"type": "RNAV",
		"updated": "05/09/2011",
	},
	{
		"name": "MOCTU",
		"latitude": "41-11-54.33 N",
		"longitude": "104-33-9.84 W",
		"state": "WYOMING",
		"artcc": "ZDV",
		"type": "RP",
		"updated": "CYS*VORTAC*081.24/10.00",
	},
	{
		"name": "MOGAL",
		"latitude": "39-7-31.49 N",
		"longitude": "104-41-6.63 W",
		"state": "COLORADO",
		"artcc": "ZDV",
		"type": "RP",
		"updated": "BRK*VOR/DME*339.45/11.11",
	},
	{
		"name": "MOGLS",
		"latitude": "39-39-57.98 N",
		"longitude": "104-57-53.15 W",
		"state": "COLORADO",
		"artcc": "ZDV",
		"type": "RNAV",
		"updated": "09/22/2012",
	},
	{
		"name": "MOIST",
		"latitude": "41-39-30.4 N",
		"longitude": "105-7-17.51 W",
		"state": "WYOMING",
		"artcc": "ZDV",
		"type": "RP",
		"updated": "MBW*VOR/DME*092.00",
	},
	{
		"name": "MOKME",
		"latitude": "40-3-38.56 N",
		"longitude": "104-9-13.68 W",
		"state": "COLORADO",
		"artcc": "ZDV",
		"type": "RNAV",
		"updated": "09/23/2012",
	},
	{
		"name": "MOLSN",
		"latitude": "39-53-25.34 N",
		"longitude": "105-28-13.62 W",
		"state": "COLORADO",
		"artcc": "ZDV",
		"type": "RNAV",
		"updated": "11/23/2012",
	},
	{
		"name": "MOLTN",
		"latitude": "40-44-47.37 N",
		"longitude": "105-41-49.16 W",
		"state": "COLORADO",
		"artcc": "ZDV",
		"type": "RNAV",
		"updated": "09/22/2012",
	},
	{
		"name": "MONRK",
		"latitude": "38-4-8.8 N",
		"longitude": "106-16-19.9 W",
		"state": "COLORADO",
		"artcc": "ZDV",
		"type": "RNAV",
		"updated": "09/22/2012",
	},
	{
		"name": "MORYU",
		"latitude": "39-2-59.42 N",
		"longitude": "106-16-18.01 W",
		"state": "COLORADO",
		"artcc": "ZDV",
		"type": "RNAV",
		"updated": "02/09/2018",
	},
	{
		"name": "MOTLY",
		"latitude": "44-45-50.43 N",
		"longitude": "102-25-43.24 W",
		"state": "SOUTH DAKOTA",
		"artcc": "ZDV",
		"type": "RNAV",
		"updated": "03/08/2011",
	},
	{
		"name": "MOYWO",
		"latitude": "38-34-29.54 N",
		"longitude": "108-10-21.62 W",
		"state": "COLORADO",
		"artcc": "ZDV",
		"type": "RNAV",
		"updated": "03/20/2009",
	},
	{
		"name": "MOZCA",
		"latitude": "40-29-33.5 N",
		"longitude": "107-32-56.41 W",
		"state": "COLORADO",
		"artcc": "ZDV",
		"type": "RNAV",
		"updated": "04/06/2018",
	},
	{
		"name": "MRENE",
		"latitude": "40-0-26.83 N",
		"longitude": "103-51-32.37 W",
		"state": "COLORADO",
		"artcc": "ZDV",
		"type": "RNAV",
		"updated": "12/28/2012",
	},
	{
		"name": "MRKKO",
		"latitude": "37-16-51.53 N",
		"longitude": "106-5-6.6 W",
		"state": "COLORADO",
		"artcc": "ZDV",
		"type": "RP",
		"updated": "ALS*VORTAC*239.52/13.54",
	},
	{
		"name": "MRKUS",
		"latitude": "39-17-44.72 N",
		"longitude": "104-28-2.98 W",
		"state": "COLORADO",
		"artcc": "ZDV",
		"type": "MR",
		"updated": "BKF*TACAN*143.71/28.00",
	},
	{
		"name": "MRRAY",
		"latitude": "40-43-37.82 N",
		"longitude": "101-1-13.8 W",
		"state": "NEBRASKA",
		"artcc": "ZDV",
		"type": "RNAV",
		"updated": "09/25/2012",
	},
	{
		"name": "MSIMS",
		"latitude": "39-44-54.72 N",
		"longitude": "104-30-6.2 W",
		"state": "COLORADO",
		"artcc": "ZDV",
		"type": "RNAV",
		"updated": "03/25/2012",
	},
	{
		"name": "MTSUI",
		"latitude": "39-36-2.7 N",
		"longitude": "105-29-21.44 W",
		"state": "COLORADO",
		"artcc": "ZDV",
		"type": "RNAV",
		"updated": "11/23/2012",
	},
	{
		"name": "MUDDY",
		"latitude": "43-54-1.81 N",
		"longitude": "102-57-48.99 W",
		"state": "SOUTH DAKOTA",
		"artcc": "ZDV",
		"type": "RP",
		"updated": "RAP*VORTAC*141.98/5.00",
	},
	{
		"name": "MUGBE",
		"latitude": "39-54-37.37 N",
		"longitude": "104-54-8.28 W",
		"state": "COLORADO",
		"artcc": "ZDV",
		"type": "RNAV",
		"updated": "11/23/2012",
	},
	{
		"name": "MULIE",
		"latitude": "44-0-17.87 N",
		"longitude": "102-53-44.99 W",
		"state": "SOUTH DAKOTA",
		"artcc": "ZDV",
		"type": "MR",
		"updated": "RCA*TACAN*119.00/12.00",
	},
	{
		"name": "MULLI",
		"latitude": "42-10-26.4 N",
		"longitude": "104-40-3.72 W",
		"state": "WYOMING",
		"artcc": "ZDV",
		"type": "RNAV",
		"updated": "04/25/2012",
	},
	{
		"name": "MULTI",
		"latitude": "42-48-40.17 N",
		"longitude": "106-12-53.27 W",
		"state": "WYOMING",
		"artcc": "ZDV",
		"type": "RP",
		"updated": "DDY*VOR/DME*158.70/17.00",
	},
	{
		"name": "MURFE",
		"latitude": "39-8-17.41 N",
		"longitude": "105-29-28.01 W",
		"state": "COLORADO",
		"artcc": "ZDV",
		"type": "RP",
		"updated": "BRK*VOR/DME*278.42/41.74",
	},
	{
		"name": "MURME",
		"latitude": "36-43-4.88 N",
		"longitude": "108-26-57.67 W",
		"state": "NEW MEXICO",
		"artcc": "ZDV",
		"type": "RP",
		"updated": "RSK*VORTAC*249.97/17.00",
	},
	{
		"name": "MUSOE",
		"latitude": "39-36-30.04 N",
		"longitude": "104-41-43.1 W",
		"state": "COLORADO",
		"artcc": "ZDV",
		"type": "MR",
		"updated": "BKF*TACAN*147.97/6.50",
	},
	{
		"name": "MUYDO",
		"latitude": "40-56-37.72 N",
		"longitude": "100-41-51.56 W",
		"state": "NEBRASKA",
		"artcc": "ZDV",
		"type": "RNAV",
		"updated": "07/26/2013",
	},
	{
		"name": "MYALE",
		"latitude": "39-50-16.16 N",
		"longitude": "105-0-44.94 W",
		"state": "COLORADO",
		"artcc": "ZDV",
		"type": "RNAV",
		"updated": "11/23/2012",
	},
