	{
		"name": "NAARA",
		"latitude": "37-7-42.89 N",
		"longitude": "107-42-35.98 W",
		"state": "COLORADO",
		"artcc": "ZDV",
		"type": "RNAV",
		"updated": "10/06/2016",
	},
	{
		"name": "NACIK",
		"latitude": "40-25-43.62 N",
		"longitude": "102-27-25.67 W",
		"state": "COLORADO",
		"artcc": "ZDV",
		"type": "RP",
		"updated": "AKO*VOR/DME*050.49/37.00",
	},
	{
		"name": "NADGE",
		"latitude": "42-46-23.87 N",
		"longitude": "105-19-39.78 W",
		"state": "WYOMING",
		"artcc": "ZDV",
		"type": "RNAV",
		"updated": "06/17/2010",
	},
	{
		"name": "NADIN",
		"latitude": "38-29-52.4 N",
		"longitude": "108-17-35.01 W",
		"state": "COLORADO",
		"artcc": "ZDV",
		"type": "RP",
		"updated": "MTJ*VOR/DME*256.54/18.55",
	},
	{
		"name": "NALDY",
		"latitude": "39-24-34.5 N",
		"longitude": "107-2-59.97 W",
		"state": "COLORADO",
		"artcc": "ZDV",
		"type": "RNAV",
		"updated": "08/04/2012",
	},
	{
		"name": "NAMDE",
		"latitude": "38-25-12.77 N",
		"longitude": "105-44-2.66 W",
		"state": "COLORADO",
		"artcc": "ZDV",
		"type": "RNAV",
		"updated": "01/30/2008",
	},
	{
		"name": "NARLE",
		"latitude": "39-25-35.43 N",
		"longitude": "104-51-30.34 W",
		"state": "COLORADO",
		"artcc": "ZDV",
		"type": "RNAV",
		"updated": "09/22/2012",
	},
	{
		"name": "NARLY",
		"latitude": "42-14-7.24 N",
		"longitude": "99-12-39.46 W",
		"state": "NEBRASKA",
		"artcc": "ZDV",
		"type": "RP",
		"updated": "ONL*VORTAC*229.00/27.25",
	},
	{
		"name": "NARNE",
		"latitude": "38-14-47.16 N",
		"longitude": "102-26-52.64 W",
		"state": "COLORADO",
		"artcc": "ZDV",
		"type": "RP",
		"updated": "LAA*VOR/DME*063.29/11.71",
	},
	{
		"name": "NASOE",
		"latitude": "42-51-23.12 N",
		"longitude": "106-31-24.17 W",
		"state": "WYOMING",
		"artcc": "ZDV",
		"type": "RNAV",
		"updated": "04/14/2009",
	},
	{
		"name": "NATGE",
		"latitude": "37-20-29.84 N",
		"longitude": "108-35-6.63 W",
		"state": "COLORADO",
		"artcc": "ZDV",
		"type": "RNAV",
		"updated": "01/16/2003",
	},
	{
		"name": "NATLL",
		"latitude": "39-14-37.64 N",
		"longitude": "108-30-4.79 W",
		"state": "COLORADO",
		"artcc": "ZDV",
		"type": "RNAV",
		"updated": "07/05/2011",
	},
	{
		"name": "NATTI",
		"latitude": "41-30-48.32 N",
		"longitude": "106-29-1.16 W",
		"state": "WYOMING",
		"artcc": "ZDV",
		"type": "RP",
		"updated": "LAR*VOR/DME*273.26/36.00",
	},
	{
		"name": "NAXOS",
		"latitude": "40-39-48.81 N",
		"longitude": "105-6-41.03 W",
		"state": "COLORADO",
		"artcc": "ZDV",
		"type": "RNAV",
		"updated": "03/20/2009",
	},
	{
		"name": "NAYBO",
		"latitude": "39-38-7.67 N",
		"longitude": "107-21-54.56 W",
		"state": "COLORADO",
		"artcc": "ZDV",
		"type": "RP",
		"updated": "RLG*VOR/DME*229.00/48.00",
	},
	{
		"name": "NEBUE",
		"latitude": "39-31-45.18 N",
		"longitude": "107-36-1.19 W",
		"state": "COLORADO",
		"artcc": "ZDV",
		"type": "RNAV",
		"updated": "11/08/2010",
	},
	{
		"name": "NEDAE",
		"latitude": "41-17-15.94 N",
		"longitude": "107-40-43.76 W",
		"state": "WYOMING",
		"artcc": "ZDV",
		"type": "RP",
		"updated": "CKW*VOR/DME*173.87/28.40",
	},
	{
		"name": "NEFFS",
		"latitude": "40-28-21.13 N",
		"longitude": "104-48-34.93 W",
		"state": "COLORADO",
		"artcc": "ZDV",
		"type": "RP",
		"updated": "GLL*VOR/DME*248.00/11.90",
	},
	{
		"name": "NEPRY",
		"latitude": "39-38-42.95 N",
		"longitude": "106-53-35.12 W",
		"state": "COLORADO",
		"artcc": "ZDV",
		"type": "WP",
		"updated": "11/02/1998",
	},
	{
		"name": "NERRI",
		"latitude": "38-40-45.84 N",
		"longitude": "109-53-3.81 W",
		"state": "UTAH",
		"artcc": "ZDV",
		"type": "RNAV",
		"updated": "02/11/2004",
	},
	{
		"name": "NERYI",
		"latitude": "38-39-56.31 N",
		"longitude": "100-46-52.97 W",
		"state": "KANSAS",
		"artcc": "ZDV",
		"type": "RNAV",
		"updated": "08/04/2006",
	},
	{
		"name": "NESPE",
		"latitude": "40-30-22.45 N",
		"longitude": "107-14-19.78 W",
		"state": "COLORADO",
		"artcc": "ZDV",
		"type": "RNAV",
		"updated": "09/04/2015",
	},
	{
		"name": "NEWCA",
		"latitude": "39-34-24.83 N",
		"longitude": "107-31-4.69 W",
		"state": "COLORADO",
		"artcc": "ZDV",
		"type": "RP",
		"updated": "RLG*VOR/DME*229.00/56.00",
	},
	{
		"name": "NEWLN",
		"latitude": "40-5-48.4 N",
		"longitude": "104-41-37.51 W",
		"state": "COLORADO",
		"artcc": "ZDV",
		"type": "RP",
		"updated": "DQQ*LD*352.51/11.87",
	},
	{
		"name": "NEYIP",
		"latitude": "37-32-49.95 N",
		"longitude": "102-37-8.67 W",
		"state": "COLORADO",
		"artcc": "ZDV",
		"type": "RNAV",
		"updated": "10/02/2007",
	},
	{
		"name": "NIDLY",
		"latitude": "39-32-12.99 N",
		"longitude": "104-43-37.75 W",
		"state": "COLORADO",
		"artcc": "ZDV",
		"type": "RNAV",
		"updated": "09/21/2012",
	},
	{
		"name": "NIFER",
		"latitude": "44-18-39.88 N",
		"longitude": "103-8-30.4 W",
		"state": "SOUTH DAKOTA",
		"artcc": "ZDV",
		"type": "RNAV",
		"updated": "05/23/2011",
	},
	{
		"name": "NIIXX",
		"latitude": "39-6-58.17 N",
		"longitude": "103-55-2.64 W",
		"state": "COLORADO",
		"artcc": "ZDV",
		"type": "RNAV",
		"updated": "09/25/2012",
	},
	{
		"name": "NIKTE",
		"latitude": "38-20-38.54 N",
		"longitude": "107-12-6.33 W",
		"state": "COLORADO",
		"artcc": "ZDV",
		"type": "RNAV",
		"updated": "06/08/2009",
	},
	{
		"name": "NITEE",
		"latitude": "41-52-20.55 N",
		"longitude": "103-18-6.02 W",
		"state": "NEBRASKA",
		"artcc": "ZDV",
		"type": "RNAV",
		"updated": "10/29/2007",
	},
	{
		"name": "NIWOT",
		"latitude": "40-15-26 N",
		"longitude": "104-59-40.61 W",
		"state": "COLORADO",
		"artcc": "ZDV",
		"type": "RP",
		"updated": "GLL*VOR/DME*221.00/25.07",
	},
	{
		"name": "NKATA",
		"latitude": "40-2-51.54 N",
		"longitude": "104-43-56.53 W",
		"state": "COLORADO",
		"artcc": "ZDV",
		"type": "RNAV",
		"updated": "11/23/2012",
	},
	{
		"name": "NLSEN",
		"latitude": "40-34-52.72 N",
		"longitude": "107-59-54.83 W",
		"state": "COLORADO",
		"artcc": "ZDV",
		"type": "RNAV",
		"updated": "03/14/2011",
	},
	{
		"name": "NMBSS",
		"latitude": "39-46-42.49 N",
		"longitude": "104-54-59.23 W",
		"state": "COLORADO",
		"artcc": "ZDV",
		"type": "RNAV",
		"updated": "11/23/2012",
	},
	{
		"name": "NOCOL",
		"latitude": "40-29-1.09 N",
		"longitude": "104-53-56.46 W",
		"state": "COLORADO",
		"artcc": "ZDV",
		"type": "RNAV",
		"updated": "07/03/2014",
	},
	{
		"name": "NOEEE",
		"latitude": "39-47-43.17 N",
		"longitude": "104-38-31.77 W",
		"state": "COLORADO",
		"artcc": "ZDV",
		"type": "RP",
		"updated": "DPP*LD*172.54/4.35",
	},
	{
		"name": "NOKXI",
		"latitude": "39-4-47.59 N",
		"longitude": "108-26-38.86 W",
		"state": "COLORADO",
		"artcc": "ZDV",
		"type": "RNAV",
		"updated": "02/09/2018",
	},
	{
		"name": "NOLCI",
		"latitude": "40-34-37.83 N",
		"longitude": "102-29-1.5 W",
		"state": "COLORADO",
		"artcc": "ZDV",
		"type": "RNAV",
		"updated": "08/23/2005",
	},
	{
		"name": "NOMLE",
		"latitude": "44-16-30.77 N",
		"longitude": "103-3-49.76 W",
		"state": "SOUTH DAKOTA",
		"artcc": "ZDV",
		"type": "RNAV",
		"updated": "05/09/2011",
	},
	{
		"name": "NOPTE",
		"latitude": "42-51-39.44 N",
		"longitude": "106-31-2.82 W",
		"state": "WYOMING",
		"artcc": "ZDV",
		"type": "RNAV",
		"updated": "08/14/2008",
	},
	{
		"name": "NOSIE",
		"latitude": "44-22-33.55 N",
		"longitude": "103-38-17.16 W",
		"state": "SOUTH DAKOTA",
		"artcc": "ZDV",
		"type": "RNAV",
		"updated": "03/24/2015",
	},
	{
		"name": "NOVAA",
		"latitude": "40-38-54.54 N",
		"longitude": "104-26-38.62 W",
		"state": "COLORADO",
		"artcc": "ZDV",
		"type": "RP",
		"updated": "GLL*VOR/DME*016.84/10.00",
	},
	{
		"name": "NOVJO",
		"latitude": "39-46-6.35 N",
		"longitude": "107-48-38.33 W",
		"state": "COLORADO",
		"artcc": "ZDV",
		"type": "RP",
		"updated": "RIL*VOR/DME*333.69/15.00",
	},
	{
		"name": "NSPYR",
		"latitude": "39-45-44.07 N",
		"longitude": "104-57-12.18 W",
		"state": "COLORADO",
		"artcc": "ZDV",
		"type": "RNAV",
		"updated": "10/08/2014",
	},
	{
		"name": "NTOOO",
		"latitude": "40-4-34.93 N",
		"longitude": "105-10-47.61 W",
		"state": "COLORADO",
		"artcc": "ZDV",
		"type": "RNAV",
		"updated": "07/05/2017",
	},
	{
		"name": "NUBSE",
		"latitude": "39-2-7.27 N",
		"longitude": "104-41-11.47 W",
		"state": "COLORADO",
		"artcc": "ZDV",
		"type": "RNAV",
		"updated": "04/22/2014",
	},
	{
		"name": "NUCIR",
		"latitude": "44-39-33.25 N",
		"longitude": "104-34-11.28 W",
		"state": "WYOMING",
		"artcc": "ZDV",
		"type": "RNAV",
		"updated": "02/12/2014",
	},
	{
		"name": "NUGGS",
		"latitude": "39-56-55.57 N",
		"longitude": "104-36-38.33 W",
		"state": "COLORADO",
		"artcc": "ZDV",
		"type": "RNAV",
		"updated": "11/23/2012",
	},
	{
		"name": "NULIY",
		"latitude": "44-4-2.91 N",
		"longitude": "103-0-46.91 W",
		"state": "SOUTH DAKOTA",
		"artcc": "ZDV",
		"type": "RNAV",
		"updated": "07/26/2013",
	},
	{
		"name": "NUNNS",
		"latitude": "40-41-38.83 N",
		"longitude": "104-48-55.49 W",
		"state": "COLORADO",
		"artcc": "ZDV",
		"type": "WP",
		"updated": "GLL*VOR/DME*300.65/16.55",
	},
	{
		"name": "NUNYI",
		"latitude": "42-8-0.14 N",
		"longitude": "103-4-49.38 W",
		"state": "NEBRASKA",
		"artcc": "ZDV",
		"type": "RNAV",
		"updated": "11/27/2006",
	},
	{
		"name": "NUPCI",
		"latitude": "39-31-53.67 N",
		"longitude": "107-28-43.05 W",
		"state": "COLORADO",
		"artcc": "ZDV",
		"type": "RNAV",
		"updated": "09/22/2010",
	},
	{
		"name": "NUPOE",
		"latitude": "40-28-36.64 N",
		"longitude": "107-40-56.62 W",
		"state": "COLORADO",
		"artcc": "ZDV",
		"type": "RP",
		"updated": "CHE*VOR/DME*247.59/17.47",
	},
	{
		"name": "NUTVE",
		"latitude": "38-40-35.41 N",
		"longitude": "104-31-44.29 W",
		"state": "COLORADO",
		"artcc": "ZDV",
		"type": "RNAV",
		"updated": "08/17/2010",
	},
	{
		"name": "NUVOE",
		"latitude": "40-16-32.92 N",
		"longitude": "100-8-35.71 W",
		"state": "NEBRASKA",
		"artcc": "ZDV",
		"type": "RNAV",
		"updated": "03/21/2016",
	},
	{
		"name": "NUWZO",
		"latitude": "38-22-6.07 N",
		"longitude": "107-0-22.23 W",
		"state": "COLORADO",
		"artcc": "ZDV",
		"type": "RNAV",
		"updated": "08/16/2010",
	},
	{
		"name": "NUXRO",
		"latitude": "41-52-14.37 N",
		"longitude": "100-20-35.67 W",
		"state": "NEBRASKA",
		"artcc": "ZDV",
		"type": "RNAV",
		"updated": "06/14/2013",
	},
