	{
		"name": "OATHE",
		"latitude": "38-50-59.03 N",
		"longitude": "101-47-39.33 W",
		"state": "KANSAS",
		"artcc": "ZDV",
		"type": "RP",
		"updated": "HYS*VORTAC*260.85/118.00",
	},
	{
		"name": "OBARS",
		"latitude": "39-55-15.39 N",
		"longitude": "105-12-21.02 W",
		"state": "COLORADO",
		"artcc": "ZDV",
		"type": "RNAV",
		"updated": "11/23/2012",
	},
	{
		"name": "OBOZU",
		"latitude": "38-15-57.01 N",
		"longitude": "102-38-54.59 W",
		"state": "COLORADO",
		"artcc": "ZDV",
		"type": "RNAV",
		"updated": "09/17/2010",
	},
	{
		"name": "OBTUE",
		"latitude": "40-26-45 N",
		"longitude": "107-6-45.18 W",
		"state": "COLORADO",
		"artcc": "ZDV",
		"type": "RNAV",
		"updated": "08/14/2008",
	},
	{
		"name": "OBURE",
		"latitude": "44-15-59.16 N",
		"longitude": "105-31-15.29 W",
		"state": "WYOMING",
		"artcc": "ZDV",
		"type": "RNAV",
		"updated": "07/12/2005",
	},
	{
		"name": "OCEGA",
		"latitude": "44-36-34.19 N",
		"longitude": "104-35-48.29 W",
		"state": "WYOMING",
		"artcc": "ZDV",
		"type": "RNAV",
		"updated": "02/12/2014",
	},
	{
		"name": "OCETE",
		"latitude": "41-10-17.62 N",
		"longitude": "105-42-14.35 W",
		"state": "WYOMING",
		"artcc": "ZDV",
		"type": "RP",
		"updated": "LAR*VOR/DME*161.60/10.00",
	},
	{
		"name": "OCSAF",
		"latitude": "38-54-58.27 N",
		"longitude": "104-41-8.1 W",
		"state": "COLORADO",
		"artcc": "ZDV",
		"type": "WP",
		"updated": "11/02/1998",
	},
	{
		"name": "ODAME",
		"latitude": "39-41-43.19 N",
		"longitude": "104-35-39.86 W",
		"state": "COLORADO",
		"artcc": "ZDV",
		"type": "RNAV",
		"updated": "03/19/2012",
	},
	{
		"name": "ODDLL",
		"latitude": "44-2-51 N",
		"longitude": "104-15-21 W",
		"state": "WYOMING",
		"artcc": "ZDV",
		"type": "RNAV",
		"updated": "07/26/2017",
	},
	{
		"name": "ODECA",
		"latitude": "44-35-6.33 N",
		"longitude": "105-36-7.36 W",
		"state": "WYOMING",
		"artcc": "ZDV",
		"type": "RP",
		"updated": "GCC*VOR/DME*341.00/14.46",
	},
	{
		"name": "ODLAE",
		"latitude": "36-47-23.81 N",
		"longitude": "108-6-11.25 W",
		"state": "NEW MEXICO",
		"artcc": "ZDV",
		"type": "RNAV",
		"updated": "07/07/2009",
	},
	{
		"name": "ODROE",
		"latitude": "37-9-20.38 N",
		"longitude": "108-45-43.55 W",
		"state": "COLORADO",
		"artcc": "ZDV",
		"type": "RP",
		"updated": "CEZ*VOR/DME*200.42/17.00",
	},
	{
		"name": "ODURE",
		"latitude": "38-4-29.6 N",
		"longitude": "102-26-49.77 W",
		"state": "COLORADO",
		"artcc": "ZDV",
		"type": "RNAV",
		"updated": "08/14/2003",
	},
	{
		"name": "OFNIP",
		"latitude": "38-36-43.87 N",
		"longitude": "104-41-9.8 W",
		"state": "COLORADO",
		"artcc": "ZDV",
		"type": "WP",
		"updated": "11/02/1998",
	},
	{
		"name": "OFOCI",
		"latitude": "41-47-19.21 N",
		"longitude": "103-24-54.81 W",
		"state": "NEBRASKA",
		"artcc": "ZDV",
		"type": "RP",
		"updated": "BFF*VORTAC*141.64/7.00",
	},
	{
		"name": "OFOWY",
		"latitude": "42-0-31.84 N",
		"longitude": "103-27-10.68 W",
		"state": "NEBRASKA",
		"artcc": "ZDV",
		"type": "RP",
		"updated": "BFF*VORTAC*357.70/7.00",
	},
	{
		"name": "OFVEX",
		"latitude": "39-37-21.36 N",
		"longitude": "101-9-16.17 W",
		"state": "KANSAS",
		"artcc": "ZDV",
		"type": "RNAV",
		"updated": "07/21/2008",
	},
	{
		"name": "OGEZO",
		"latitude": "41-7-43.59 N",
		"longitude": "100-38-5.46 W",
		"state": "NEBRASKA",
		"artcc": "ZDV",
		"type": "RP",
		"updated": "LBF*VOR/DME*035.65/7.00",
	},
	{
		"name": "OGFAJ",
		"latitude": "41-5-40.89 N",
		"longitude": "100-53-20.01 W",
		"state": "NEBRASKA",
		"artcc": "ZDV",
		"type": "RP",
		"updated": "LBF*VOR/DME*282.25/7.00",
	},
	{
		"name": "OGHAL",
		"latitude": "38-29-58.69 N",
		"longitude": "104-38-19.58 W",
		"state": "COLORADO",
		"artcc": "ZDV",
		"type": "RNAV",
		"updated": "05/07/2013",
	},
	{
		"name": "OGJUN",
		"latitude": "40-56-45.49 N",
		"longitude": "103-7-16 W",
		"state": "COLORADO",
		"artcc": "ZDV",
		"type": "RP",
		"updated": "SNY*VOR/DME*201.81/11.00",
	},
	{
		"name": "OGLIE",
		"latitude": "40-16-27.63 N",
		"longitude": "102-19-24.24 W",
		"state": "COLORADO",
		"artcc": "ZDV",
		"type": "RP",
		"updated": "AKO*VOR/DME*066.47/40.00",
	},
	{
		"name": "OGUTE",
		"latitude": "39-37-0.36 N",
		"longitude": "98-54-25.58 W",
		"state": "KANSAS",
		"artcc": "ZDV",
		"type": "RNAV",
		"updated": "08/04/2017",
	},
	{
		"name": "OHAGY",
		"latitude": "38-30-19.82 N",
		"longitude": "104-23-2.78 W",
		"state": "COLORADO",
		"artcc": "ZDV",
		"type": "RNAV",
		"updated": "05/07/2013",
	},
	{
		"name": "OHAYY",
		"latitude": "38-47-37.75 N",
		"longitude": "104-42-57.34 W",
		"state": "COLORADO",
		"artcc": "ZDV",
		"type": "WP",
		"updated": "11/02/1998",
	},
	{
		"name": "OHWEL",
		"latitude": "39-41-41.44 N",
		"longitude": "104-34-27.99 W",
		"state": "COLORADO",
		"artcc": "ZDV",
		"type": "RNAV",
		"updated": "03/25/2012",
	},
	{
		"name": "OILLY",
		"latitude": "42-47-14.67 N",
		"longitude": "106-51-5.24 W",
		"state": "WYOMING",
		"artcc": "ZDV",
		"type": "RP",
		"updated": "BOY*VOR/DME*106.00",
	},
	{
		"name": "OJIGU",
		"latitude": "43-2-47.2 N",
		"longitude": "103-2-5.21 W",
		"state": "SOUTH DAKOTA",
		"artcc": "ZDV",
		"type": "RNAV",
		"updated": "07/25/2005",
	},
	{
		"name": "OKALE",
		"latitude": "37-28-25.9 N",
		"longitude": "108-26-16.48 W",
		"state": "COLORADO",
		"artcc": "ZDV",
		"type": "RNAV",
		"updated": "09/27/2006",
	},
	{
		"name": "OKDEE",
		"latitude": "38-17-0.97 N",
		"longitude": "104-39-15.25 W",
		"state": "COLORADO",
		"artcc": "ZDV",
		"type": "RP",
		"updated": "PUB*VORTAC*258.63/10.64",
	},
	{
		"name": "OKEFA",
		"latitude": "39-0-26.93 N",
		"longitude": "104-35-30.48 W",
		"state": "COLORADO",
		"artcc": "ZDV",
		"type": "RNAV",
		"updated": "04/01/2016",
	},
	{
		"name": "OLAPE",
		"latitude": "39-2-55.03 N",
		"longitude": "104-29-4.44 W",
		"state": "COLORADO",
		"artcc": "ZDV",
		"type": "RNAV",
		"updated": "04/18/2014",
	},
	{
		"name": "OLDDD",
		"latitude": "39-46-0.62 N",
		"longitude": "104-8-49.64 W",
		"state": "COLORADO",
		"artcc": "ZDV",
		"type": "RNAV",
		"updated": "11/23/2012",
	},
	{
		"name": "OLDIF",
		"latitude": "38-34-14.05 N",
		"longitude": "107-58-18.6 W",
		"state": "COLORADO",
		"artcc": "ZDV",
		"type": "RNAV",
		"updated": "03/20/2009",
	},
	{
		"name": "OLGOE",
		"latitude": "39-20-35.4 N",
		"longitude": "101-39-48.72 W",
		"state": "KANSAS",
		"artcc": "ZDV",
		"type": "RNAV",
		"updated": "01/04/2011",
	},
	{
		"name": "OLILE",
		"latitude": "39-5-31.15 N",
		"longitude": "108-41-49.26 W",
		"state": "COLORADO",
		"artcc": "ZDV",
		"type": "RNAV",
		"updated": "07/05/2011",
	},
	{
		"name": "OLOBE",
		"latitude": "40-16-50.62 N",
		"longitude": "102-16-33.11 W",
		"state": "COLORADO",
		"artcc": "ZDV",
		"type": "WP",
		"updated": "11/02/1998",
	},
	{
		"name": "OLOWI",
		"latitude": "39-15-39.63 N",
		"longitude": "106-19-32.22 W",
		"state": "COLORADO",
		"artcc": "ZDV",
		"type": "RNAV",
		"updated": "02/21/2008",
	},
	{
		"name": "OMAGE",
		"latitude": "41-5-37.88 N",
		"longitude": "102-58-40.2 W",
		"state": "NEBRASKA",
		"artcc": "ZDV",
		"type": "RP",
		"updated": "SNY*VOR/DME*112.73/0.29",
	},
	{
		"name": "OMBIE",
		"latitude": "41-22-47.36 N",
		"longitude": "103-58-37.68 W",
		"state": "NEBRASKA",
		"artcc": "ZDV",
		"type": "RP",
		"updated": "SNY*VOR/DME*278.00/48.10",
	},
	{
		"name": "OMESE",
		"latitude": "40-57-59.86 N",
		"longitude": "100-23-20.18 W",
		"state": "NEBRASKA",
		"artcc": "ZDV",
		"type": "RP",
		"updated": "LBF*VOR/DME*095.71/17.00",
	},
	{
		"name": "OMJIY",
		"latitude": "39-31-28.47 N",
		"longitude": "107-49-23.67 W",
		"state": "COLORADO",
		"artcc": "ZDV",
		"type": "RNAV",
		"updated": "11/08/2010",
	},
	{
		"name": "OMPOE",
		"latitude": "37-41-24.9 N",
		"longitude": "104-31-18.34 W",
		"state": "COLORADO",
		"artcc": "ZDV",
		"type": "RNAV",
		"updated": "08/26/2013",
	},
	{
		"name": "ONCAP",
		"latitude": "39-18-54.17 N",
		"longitude": "106-54-45.94 W",
		"state": "COLORADO",
		"artcc": "ZDV",
		"type": "RNAV",
		"updated": "08/04/2012",
	},
	{
		"name": "ONECI",
		"latitude": "44-12-16.56 N",
		"longitude": "106-30-5.36 W",
		"state": "WYOMING",
		"artcc": "ZDV",
		"type": "RP",
		"updated": "CZI*VOR/DME*334.00/12.62",
	},
	{
		"name": "ONGIE",
		"latitude": "39-39-55.07 N",
		"longitude": "105-0-29.62 W",
		"state": "COLORADO",
		"artcc": "ZDV",
		"type": "RNAV",
		"updated": "06/27/2002",
	},
	{
		"name": "ONIYU",
		"latitude": "38-28-42.23 N",
		"longitude": "107-10-36.97 W",
		"state": "COLORADO",
		"artcc": "ZDV",
		"type": "RP",
		"updated": "HBU*VOR/DME*269.72",
	},
	{
		"name": "ONKEE",
		"latitude": "42-45-9.56 N",
		"longitude": "105-19-24.9 W",
		"state": "WYOMING",
		"artcc": "ZDV",
		"type": "RP",
		"updated": "IIP*VOR/DME*304.88/6.30",
	},
	{
		"name": "ONKIE",
		"latitude": "38-35-41.23 N",
		"longitude": "104-30-27.37 W",
		"state": "COLORADO",
		"artcc": "ZDV",
		"type": "RNAV",
		"updated": "04/01/2016",
	},
	{
		"name": "ONLOE",
		"latitude": "39-38-24.55 N",
		"longitude": "106-56-9.96 W",
		"state": "COLORADO",
		"artcc": "ZDV",
		"type": "RNAV",
		"updated": "06/08/2006",
	},
	{
		"name": "ONNNN",
		"latitude": "39-15-31.54 N",
		"longitude": "104-51-47.41 W",
		"state": "COLORADO",
		"artcc": "ZDV",
		"type": "RNAV",
		"updated": "11/23/2012",
	},
	{
		"name": "OPNEE",
		"latitude": "42-58-57.21 N",
		"longitude": "106-22-55.25 W",
		"state": "WYOMING",
		"artcc": "ZDV",
		"type": "RP",
		"updated": "DDY*VOR/DME*203.45/7.96",
	},
	{
		"name": "OPOGE",
		"latitude": "44-7-30.5 N",
		"longitude": "103-4-43.4 W",
		"state": "SOUTH DAKOTA",
		"artcc": "ZDV",
		"type": "MR",
		"updated": "RCA*TACAN*/1.30",
	},
	{
		"name": "OPPEE",
		"latitude": "41-27-33.07 N",
		"longitude": "106-14-42.09 W",
		"state": "WYOMING",
		"artcc": "ZDV",
		"type": "RNAV",
		"updated": "09/22/2012",
	},
	{
		"name": "OPREE",
		"latitude": "39-50-9.15 N",
		"longitude": "104-31-20.74 W",
		"state": "COLORADO",
		"artcc": "ZDV",
		"type": "RNAV",
		"updated": "09/25/2012",
	},
	{
		"name": "OPSHN",
		"latitude": "38-8-45 N",
		"longitude": "104-39-4.07 W",
		"state": "COLORADO",
		"artcc": "ZDV",
		"type": "RP",
		"updated": "PUB*VORTAC*221.75/13.75",
	},
	{
		"name": "OPUXE",
		"latitude": "40-4-37.74 N",
		"longitude": "100-24-0.61 W",
		"state": "NEBRASKA",
		"artcc": "ZDV",
		"type": "RNAV",
		"updated": "07/12/2005",
	},
	{
		"name": "OQTUM",
		"latitude": "42-59-55.83 N",
		"longitude": "102-2-51.76 W",
		"state": "SOUTH DAKOTA",
		"artcc": "ZDV",
		"type": "RNAV",
		"updated": "07/28/2008",
	},
	{
		"name": "OQWIK",
		"latitude": "44-22-5.18 N",
		"longitude": "103-15-58.09 W",
		"state": "SOUTH DAKOTA",
		"artcc": "ZDV",
		"type": "RNAV",
		"updated": "02/11/2013",
	},
	{
		"name": "OREME",
		"latitude": "38-12-39.29 N",
		"longitude": "101-48-34.52 W",
		"state": "KANSAS",
		"artcc": "ZDV",
		"type": "RNAV",
		"updated": "07/22/2010",
	},
	{
		"name": "ORION",
		"latitude": "39-2-53.53 N",
		"longitude": "100-43-47.12 W",
		"state": "KANSAS",
		"artcc": "ZDV",
		"type": "RP",
		"updated": "GLD*VORTAC*102.10/49.29",
	},
	{
		"name": "ORNTH",
		"latitude": "39-49-17.91 N",
		"longitude": "106-56-5.55 W",
		"state": "COLORADO",
		"artcc": "ZDV",
		"type": "RP",
		"updated": "SXW*VOR/DME*000.72/11.81",
	},
	{
		"name": "ORWAY",
		"latitude": "38-16-32.08 N",
		"longitude": "104-3-20.14 W",
		"state": "COLORADO",
		"artcc": "ZDV",
		"type": "RP",
		"updated": "PUB*VORTAC*085.51/17.70",
	},
	{
		"name": "OSBIE",
		"latitude": "38-30-58.26 N",
		"longitude": "100-53-8 W",
		"state": "KANSAS",
		"artcc": "ZDV",
		"type": "RNAV",
		"updated": "08/04/2006",
	},
	{
		"name": "OSDUE",
		"latitude": "38-29-49.09 N",
		"longitude": "107-5-51.07 W",
		"state": "COLORADO",
		"artcc": "ZDV",
		"type": "RP",
		"updated": "HBU*VOR/DME*300.66",
	},
	{
		"name": "OSKAE",
		"latitude": "38-34-18.82 N",
		"longitude": "106-6-44.13 W",
		"state": "COLORADO",
		"artcc": "ZDV",
		"type": "RNAV",
		"updated": "01/30/2008",
	},
	{
		"name": "OSLEE",
		"latitude": "39-17-21.85 N",
		"longitude": "106-54-17.54 W",
		"state": "COLORADO",
		"artcc": "ZDV",
		"type": "RNAV",
		"updated": "09/03/2008",
	},
	{
		"name": "OSLUW",
		"latitude": "43-25-0.26 N",
		"longitude": "103-21-48.1 W",
		"state": "SOUTH DAKOTA",
		"artcc": "ZDV",
		"type": "RNAV",
		"updated": "04/04/2012",
	},
	{
		"name": "OTASE",
		"latitude": "40-0-12.2 N",
		"longitude": "106-6-12.69 W",
		"state": "COLORADO",
		"artcc": "ZDV",
		"type": "RNAV",
		"updated": "05/16/2017",
	},
	{
		"name": "OTINS",
		"latitude": "36-34-57.72 N",
		"longitude": "107-50-11.32 W",
		"state": "NEW MEXICO",
		"artcc": "ZDV",
		"type": "RP",
		"updated": "RSK*VORTAC*114.00/16.00",
	},
	{
		"name": "OTIYO",
		"latitude": "39-33-5.41 N",
		"longitude": "107-35-30.75 W",
		"state": "COLORADO",
		"artcc": "ZDV",
		"type": "RNAV",
		"updated": "11/08/2010",
	},
	{
		"name": "OTUYE",
		"latitude": "39-19-55.28 N",
		"longitude": "108-0-39.02 W",
		"state": "COLORADO",
		"artcc": "ZDV",
		"type": "CN",
		"updated": "09/20/2010",
	},
	{
		"name": "OUNCE",
		"latitude": "39-53-57.91 N",
		"longitude": "102-28-5.16 W",
		"state": "COLORADO",
		"artcc": "ZDV",
		"type": "RNAV",
		"updated": "03/19/2018",
	},
	{
		"name": "OURAY",
		"latitude": "38-14-9.82 N",
		"longitude": "106-35-35.49 W",
		"state": "COLORADO",
		"artcc": "ZDV",
		"type": "RNAV",
		"updated": "07/16/2014",
	},
	{
		"name": "OUUTT",
		"latitude": "39-34-28.37 N",
		"longitude": "107-2-11.48 W",
		"state": "COLORADO",
		"artcc": "ZDV",
		"type": "RNAV",
		"updated": "03/05/2014",
	},
	{
		"name": "OVOWY",
		"latitude": "37-17-21.92 N",
		"longitude": "108-38-35.2 W",
		"state": "COLORADO",
		"artcc": "ZDV",
		"type": "RNAV",
		"updated": "02/17/2006",
	},
	{
		"name": "OVPUE",
		"latitude": "36-39-18.37 N",
		"longitude": "108-27-22.74 W",
		"state": "NEW MEXICO",
		"artcc": "ZDV",
		"type": "RNAV",
		"updated": "04/04/2005",
	},
	{
		"name": "OVVAL",
		"latitude": "40-15-8.91 N",
		"longitude": "104-41-35.11 W",
		"state": "COLORADO",
		"artcc": "ZDV",
		"type": "RNAV",
		"updated": "03/26/2012",
	},
	{
		"name": "OWEBY",
		"latitude": "40-7-49.54 N",
		"longitude": "103-7-2.25 W",
		"state": "COLORADO",
		"artcc": "ZDV",
		"type": "RNAV",
		"updated": "01/18/2017",
	},
	{
		"name": "OWKUR",
		"latitude": "39-20-5.51 N",
		"longitude": "102-19-44.08 W",
		"state": "COLORADO",
		"artcc": "ZDV",
		"type": "RNAV",
		"updated": "12/06/2017",
	},
	{
		"name": "OWNER",
		"latitude": "39-52-41.8 N",
		"longitude": "104-46-13.94 W",
		"state": "COLORADO",
		"artcc": "ZDV",
		"type": "RP",
		"updated": "FQF*VORTAC*317.53",
	},
	{
		"name": "OXGUD",
		"latitude": "40-46-44.78 N",
		"longitude": "101-30-11.67 W",
		"state": "NEBRASKA",
		"artcc": "ZDV",
		"type": "WP",
		"updated": "11/02/1998",
	},
	{
		"name": "OYALI",
		"latitude": "39-26-41.94 N",
		"longitude": "107-25-38.67 W",
		"state": "COLORADO",
		"artcc": "ZDV",
		"type": "CN",
		"updated": "09/20/2010",
	},
	{
		"name": "OYOGO",
		"latitude": "39-26-6.73 N",
		"longitude": "99-18-8.2 W",
		"state": "KANSAS",
		"artcc": "ZDV",
		"type": "RNAV",
		"updated": "10/29/2013",
	},
	{
		"name": "OYUSE",
		"latitude": "41-2-26.04 N",
		"longitude": "101-41-21.46 W",
		"state": "NEBRASKA",
		"artcc": "ZDV",
		"type": "RNAV",
		"updated": "11/20/2012",
	},
	{
		"name": "OYYER",
		"latitude": "39-36-48.56 N",
		"longitude": "107-17-59.08 W",
		"state": "COLORADO",
		"artcc": "ZDV",
		"type": "RP",
		"updated": "RIL*VOR/DME*065.18/20.14",
	},
	{
		"name": "OZWEQ",
		"latitude": "39-55-55.14 N",
		"longitude": "106-38-19.86 W",
		"state": "COLORADO",
		"artcc": "ZDV",
		"type": "RNAV",
		"updated": "04/01/2014",
	},
	{
		"name": "OZZZY",
		"latitude": "38-52-5 N",
		"longitude": "104-1-21 W",
		"state": "COLORADO",
		"artcc": "ZDV",
		"type": "RNAV",
		"updated": "09/06/2012",
	},
