	{
		"name": "PAAAS",
		"latitude": "39-22-54.63 N",
		"longitude": "104-39-29.43 W",
		"state": "COLORADO",
		"artcc": "ZDV",
		"type": "RNAV",
		"updated": "03/25/2012",
	},
	{
		"name": "PABNE",
		"latitude": "39-44-34.49 N",
		"longitude": "100-32-28.08 W",
		"state": "KANSAS",
		"artcc": "ZDV",
		"type": "RNAV",
		"updated": "09/09/2015",
	},
	{
		"name": "PACES",
		"latitude": "39-9-57 N",
		"longitude": "108-16-43.61 W",
		"state": "COLORADO",
		"artcc": "ZDV",
		"type": "RP",
		"updated": "JNC*VOR/DME*059.97/24.83",
	},
	{
		"name": "PACEY",
		"latitude": "39-55-38.3 N",
		"longitude": "100-32-21.02 W",
		"state": "KANSAS",
		"artcc": "ZDV",
		"type": "RNAV",
		"updated": "09/09/2015",
	},
	{
		"name": "PACHE",
		"latitude": "40-46-31.24 N",
		"longitude": "104-32-3.48 W",
		"state": "COLORADO",
		"artcc": "ZDV",
		"type": "RP",
		"updated": "GLL*VOR/DME*350.00/16.30",
	},
	{
		"name": "PACTO",
		"latitude": "44-3-46.46 N",
		"longitude": "103-23-5.87 W",
		"state": "SOUTH DAKOTA",
		"artcc": "ZDV",
		"type": "RP",
		"updated": "RAP*VORTAC*275.03/16.95",
	},
	{
		"name": "PAGRE",
		"latitude": "38-39-37.2 N",
		"longitude": "108-8-43.02 W",
		"state": "COLORADO",
		"artcc": "ZDV",
		"type": "RP",
		"updated": "MTJ*VOR/DME*296.63/14.80",
	},
	{
		"name": "PAGSY",
		"latitude": "37-2-58.21 N",
		"longitude": "111-28-29.9 W",
		"state": "UTAH",
		"artcc": "ZDV",
		"type": "RNAV",
		"updated": "12/03/2007",
	},
	{
		"name": "PAKIE",
		"latitude": "36-52-8.06 N",
		"longitude": "108-28-22.42 W",
		"state": "NEW MEXICO",
		"artcc": "ZDV",
		"type": "RNAV",
		"updated": "09/13/2001",
	},
	{
		"name": "PAKPE",
		"latitude": "39-1-27.45 N",
		"longitude": "108-20-35.85 W",
		"state": "COLORADO",
		"artcc": "ZDV",
		"type": "RNAV",
		"updated": "07/05/2011",
	},
	{
		"name": "PAMUE",
		"latitude": "37-25-35.31 N",
		"longitude": "108-29-26.75 W",
		"state": "COLORADO",
		"artcc": "ZDV",
		"type": "RNAV",
		"updated": "02/17/2006",
	},
	{
		"name": "PANBE",
		"latitude": "41-4-4.58 N",
		"longitude": "100-34-22.42 W",
		"state": "NEBRASKA",
		"artcc": "ZDV",
		"type": "RP",
		"updated": "LBF*VOR/DME*070.64",
	},
	{
		"name": "PANCO",
		"latitude": "40-1-36.2 N",
		"longitude": "104-42-51.52 W",
		"state": "COLORADO",
		"artcc": "ZDV",
		"type": "RNAV",
		"updated": "03/21/2012",
	},
	{
		"name": "PANGE",
		"latitude": "40-28-32.14 N",
		"longitude": "100-15-56.76 W",
		"state": "NEBRASKA",
		"artcc": "ZDV",
		"type": "RNAV",
		"updated": "03/21/2016",
	},
	{
		"name": "PANTS",
		"latitude": "40-16-23.5 N",
		"longitude": "100-41-20.36 W",
		"state": "NEBRASKA",
		"artcc": "ZDV",
		"type": "RP",
		"updated": "MCK*LD*NW CRS/6.59",
	},
	{
		"name": "PANZA",
		"latitude": "38-53-42.15 N",
		"longitude": "107-35-3.7 W",
		"state": "COLORADO",
		"artcc": "ZDV",
		"type": "RP",
		"updated": "RLG*VOR/DME*205.00/85.00",
	},
	{
		"name": "PAPPA",
		"latitude": "38-29-33.78 N",
		"longitude": "106-28-44.65 W",
		"state": "COLORADO",
		"artcc": "ZDV",
		"type": "RP",
		"updated": "RSK*VORTAC*021.96/129.93",
	},
	{
		"name": "PARLI",
		"latitude": "38-34-45.24 N",
		"longitude": "106-50-34.27 W",
		"state": "COLORADO",
		"artcc": "ZDV",
		"type": "RP",
		"updated": "HBU*VOR/DME*036.52/12.00",
	},
	{
		"name": "PAROX",
		"latitude": "38-28-59.99 N",
		"longitude": "108-51-25.59 W",
		"state": "COLORADO",
		"artcc": "ZDV",
		"type": "RP",
		"updated": "MTJ*VOR/DME*256.54",
	},
	{
		"name": "PATNE",
		"latitude": "40-19-39.54 N",
		"longitude": "102-44-44.82 W",
		"state": "COLORADO",
		"artcc": "ZDV",
		"type": "RNAV",
		"updated": "03/19/2018",
	},
	{
		"name": "PATUC",
		"latitude": "39-13-38.34 N",
		"longitude": "108-24-40.76 W",
		"state": "COLORADO",
		"artcc": "ZDV",
		"type": "RP",
		"updated": "JNC*VOR/DME*045.41/20.44",
	},
	{
		"name": "PAYDD",
		"latitude": "39-24-5.76 N",
		"longitude": "105-4-43.74 W",
		"state": "COLORADO",
		"artcc": "ZDV",
		"type": "RP",
		"updated": "BJC*VOR/DME*163.78",
	},
	{
		"name": "PAYOG",
		"latitude": "40-1-42.23 N",
		"longitude": "104-35-55.39 W",
		"state": "COLORADO",
		"artcc": "ZDV",
		"type": "RNAV",
		"updated": "09/26/2012",
	},
	{
		"name": "PCKNS",
		"latitude": "39-58-42.52 N",
		"longitude": "105-32-49.58 W",
		"state": "COLORADO",
		"artcc": "ZDV",
		"type": "RNAV",
		"updated": "11/23/2012",
	},
	{
		"name": "PECRU",
		"latitude": "40-43-29.05 N",
		"longitude": "99-42-42.89 W",
		"state": "NEBRASKA",
		"artcc": "ZDV",
		"type": "RNAV",
		"updated": "03/23/2007",
	},
	{
		"name": "PEEDE",
		"latitude": "39-34-56.07 N",
		"longitude": "104-11-32.22 W",
		"state": "COLORADO",
		"artcc": "ZDV",
		"type": "RP",
		"updated": "DVV*VORTAC*124.99/27.40",
	},
	{
		"name": "PEEKK",
		"latitude": "39-8-19.46 N",
		"longitude": "105-27-26.34 W",
		"state": "COLORADO",
		"artcc": "ZDV",
		"type": "RNAV",
		"updated": "09/22/2012",
	},
	{
		"name": "PEEWE",
		"latitude": "36-58-8.69 N",
		"longitude": "111-36-40.81 W",
		"state": "ARIZONA",
		"artcc": "ZDV",
		"type": "RNAV",
		"updated": "01/20/2016",
	},
	{
		"name": "PEGIC",
		"latitude": "42-15-10.6 N",
		"longitude": "102-55-26.85 W",
		"state": "NEBRASKA",
		"artcc": "ZDV",
		"type": "RNAV",
		"updated": "11/27/2006",
	},
	{
		"name": "PELDY",
		"latitude": "36-50-19.8 N",
		"longitude": "107-46-4.2 W",
		"state": "NEW MEXICO",
		"artcc": "ZDV",
		"type": "RP",
		"updated": "RSK*VORTAC*057.14/16.85",
	},
	{
		"name": "PENEY",
		"latitude": "39-58-15.92 N",
		"longitude": "105-51-30.49 W",
		"state": "COLORADO",
		"artcc": "ZDV",
		"type": "RP",
		"updated": "RLG*VOR/DME*079.83/27.00",
	},
	{
		"name": "PENGE",
		"latitude": "39-43-19.65 N",
		"longitude": "104-45-59.54 W",
		"state": "COLORADO",
		"artcc": "ZDV",
		"type": "MR",
		"updated": "BKF*TACAN*315.45/1.10",
	},
	{
		"name": "PEPRS",
		"latitude": "44-26-6.51 N",
		"longitude": "105-3-37.54 W",
		"state": "WYOMING",
		"artcc": "ZDV",
		"type": "RNAV",
		"updated": "02/12/2014",
	},
	{
		"name": "PERDY",
		"latitude": "40-18-49.69 N",
		"longitude": "99-21-8.05 W",
		"state": "NEBRASKA",
		"artcc": "ZDV",
		"type": "RNAV",
		"updated": "06/16/2015",
	},
	{
		"name": "PETEY",
		"latitude": "38-41-39.54 N",
		"longitude": "104-42-57.76 W",
		"state": "COLORADO",
		"artcc": "ZDV",
		"type": "RP",
		"updated": "COS*LO*000.00",
	},
	{
		"name": "PETOY",
		"latitude": "39-55-41.8 N",
		"longitude": "108-0-54.38 W",
		"state": "COLORADO",
		"artcc": "ZDV",
		"type": "RNAV",
		"updated": "08/07/2012",
	},
	{
		"name": "PETYO",
		"latitude": "42-39-34.76 N",
		"longitude": "103-30-8.37 W",
		"state": "NEBRASKA",
		"artcc": "ZDV",
		"type": "RNAV",
		"updated": "02/27/2012",
	},
	{
		"name": "PEXSA",
		"latitude": "40-26-38.38 N",
		"longitude": "106-49-4.3 W",
		"state": "COLORADO",
		"artcc": "ZDV",
		"type": "RNAV",
		"updated": "01/14/2009",
	},
	{
		"name": "PEYCO",
		"latitude": "42-3-21.84 N",
		"longitude": "104-51-10.35 W",
		"state": "WYOMING",
		"artcc": "ZDV",
		"type": "RNAV",
		"updated": "09/05/2007",
	},
	{
		"name": "PHLAT",
		"latitude": "39-58-17.72 N",
		"longitude": "104-31-19.21 W",
		"state": "COLORADO",
		"artcc": "ZDV",
		"type": "RP",
		"updated": "GLL*VOR/DME*164.43",
	},
	{
		"name": "PHPPS",
		"latitude": "39-17-49.25 N",
		"longitude": "106-56-10.15 W",
		"state": "COLORADO",
		"artcc": "ZDV",
		"type": "RNAV",
		"updated": "09/03/2008",
	},
	{
		"name": "PICIN",
		"latitude": "40-19-50.24 N",
		"longitude": "106-59-35.91 W",
		"state": "COLORADO",
		"artcc": "ZDV",
		"type": "RNAV",
		"updated": "09/04/2015",
	},
	{
		"name": "PIDLE",
		"latitude": "39-43-34.36 N",
		"longitude": "104-9-7.55 W",
		"state": "COLORADO",
		"artcc": "ZDV",
		"type": "RNAV",
		"updated": "11/23/2012",
	},
	{
		"name": "PIEDD",
		"latitude": "38-39-43 N",
		"longitude": "104-19-44.34 W",
		"state": "COLORADO",
		"artcc": "ZDV",
		"type": "RNAV",
		"updated": "11/23/2012",
	},
	{
		"name": "PIEKE",
		"latitude": "40-25-30.63 N",
		"longitude": "102-41-24.22 W",
		"state": "COLORADO",
		"artcc": "ZDV",
		"type": "RNAV",
		"updated": "09/23/2012",
	},
	{
		"name": "PIETY",
		"latitude": "41-10-5.03 N",
		"longitude": "104-2-52.82 W",
		"state": "WYOMING",
		"artcc": "ZDV",
		"type": "RP",
		"updated": "GLL*VOR/DME*016.84/45.99",
	},
	{
		"name": "PIGSE",
		"latitude": "38-26-46.55 N",
		"longitude": "109-58-46.37 W",
		"state": "UTAH",
		"artcc": "ZDV",
		"type": "RP",
		"updated": "HVE*VORTAC*071.80/34.00",
	},
	{
		"name": "PINDE",
		"latitude": "42-20-31.65 N",
		"longitude": "107-1-38.08 W",
		"state": "WYOMING",
		"artcc": "ZDV",
		"type": "RP",
		"updated": "CKW*VOR/DME*020.00",
	},
	{
		"name": "PIPIT",
		"latitude": "42-54-18.14 N",
		"longitude": "106-42-22.94 W",
		"state": "WYOMING",
		"artcc": "ZDV",
		"type": "RP",
		"updated": "DDY*VOR/DME*227.70",
	},
	{
		"name": "PIPUE",
		"latitude": "40-24-20.82 N",
		"longitude": "102-8-33.8 W",
		"state": "COLORADO",
		"artcc": "ZDV",
		"type": "RNAV",
		"updated": "08/23/2005",
	},
	{
		"name": "PIROC",
		"latitude": "39-31-15.25 N",
		"longitude": "107-50-36.08 W",
		"state": "COLORADO",
		"artcc": "ZDV",
		"type": "RNAV",
		"updated": "11/08/2010",
	},
	{
		"name": "PITKN",
		"latitude": "39-22-4.84 N",
		"longitude": "107-7-5.5 W",
		"state": "COLORADO",
		"artcc": "ZDV",
		"type": "RNAV",
		"updated": "07/13/2009",
	},
	{
		"name": "PITMN",
		"latitude": "39-6-2.68 N",
		"longitude": "107-18-31 W",
		"state": "COLORADO",
		"artcc": "ZDV",
		"type": "RP",
		"updated": "DBL*VOR/DME*211.67/28.00",
	},
	{
		"name": "PIYCI",
		"latitude": "38-56-2.77 N",
		"longitude": "100-39-49.05 W",
		"state": "KANSAS",
		"artcc": "ZDV",
		"type": "RNAV",
		"updated": "06/08/2006",
	},
	{
		"name": "PLAAT",
		"latitude": "44-59-48 N",
		"longitude": "104-31-0 W",
		"state": "WYOMING",
		"artcc": "ZDV",
		"type": "RNAV",
		"updated": "04/17/2002",
	},
	{
		"name": "PLAAY",
		"latitude": "39-53-31.56 N",
		"longitude": "104-52-3.66 W",
		"state": "COLORADO",
		"artcc": "ZDV",
		"type": "RNAV",
		"updated": "10/08/2014",
	},
	{
		"name": "PLACR",
		"latitude": "38-3-28.86 N",
		"longitude": "108-6-1.05 W",
		"state": "COLORADO",
		"artcc": "ZDV",
		"type": "RP",
		"updated": "MTJ*VOR/DME*187.52/28.50",
	},
	{
		"name": "PLATA",
		"latitude": "36-59-27.51 N",
		"longitude": "108-16-22.32 W",
		"state": "NEW MEXICO",
		"artcc": "ZDV",
		"type": "RP",
		"updated": "RSK*VORTAC*316.10/16.78",
	},
	{
		"name": "PLATO",
		"latitude": "38-30-13.11 N",
		"longitude": "107-4-8.1 W",
		"state": "COLORADO",
		"artcc": "ZDV",
		"type": "RP",
		"updated": "HBU*VOR/DME*322.00",
	},
	{
		"name": "PNBAL",
		"latitude": "39-25-8.62 N",
		"longitude": "104-26-38.82 W",
		"state": "COLORADO",
		"artcc": "ZDV",
		"type": "RNAV",
		"updated": "09/25/2012",
	},
	{
		"name": "POGTE",
		"latitude": "41-22-49.5 N",
		"longitude": "104-35-37.2 W",
		"state": "WYOMING",
		"artcc": "ZDV",
		"type": "RP",
		"updated": "CYS*VORTAC*025.52/13.00",
	},
	{
		"name": "POKSY",
		"latitude": "42-37-17.78 N",
		"longitude": "105-0-46.01 W",
		"state": "WYOMING",
		"artcc": "ZDV",
		"type": "RP",
		"updated": "IIP*VOR/DME*097.00/10.00",
	},
	{
		"name": "POLDE",
		"latitude": "42-31-43.78 N",
		"longitude": "105-7-13.45 W",
		"state": "WYOMING",
		"artcc": "ZDV",
		"type": "RP",
		"updated": "IIP*VOR/DME*140.00/10.00",
	},
	{
		"name": "POMEE",
		"latitude": "36-44-50.94 N",
		"longitude": "107-57-16.4 W",
		"state": "NEW MEXICO",
		"artcc": "ZDV",
		"type": "RP",
		"updated": "FMN*LD*E CRS/13.80",
	},
	{
		"name": "PONTO",
		"latitude": "36-44-11.36 N",
		"longitude": "108-19-35.48 W",
		"state": "NEW MEXICO",
		"artcc": "ZDV",
		"type": "RP",
		"updated": "RSK*VORTAC*252.35/11.00",
	},
	{
		"name": "POSLY",
		"latitude": "38-32-34.85 N",
		"longitude": "106-53-58.02 W",
		"state": "COLORADO",
		"artcc": "ZDV",
		"type": "RNAV",
		"updated": "06/08/2009",
	},
	{
		"name": "POVOH",
		"latitude": "41-26-41.29 N",
		"longitude": "105-20-54.71 W",
		"state": "WYOMING",
		"artcc": "ZDV",
		"type": "RP",
		"updated": "LAR*VOR/DME*055.00/18.00",
	},
	{
		"name": "POWDR",
		"latitude": "39-23-42.79 N",
		"longitude": "105-28-53.67 W",
		"state": "COLORADO",
		"artcc": "ZDV",
		"type": "RP",
		"updated": "DVV*VORTAC*225.27/49.75",
	},
	{
		"name": "POWES",
		"latitude": "38-13-22.28 N",
		"longitude": "107-10-1.58 W",
		"state": "COLORADO",
		"artcc": "ZDV",
		"type": "RP",
		"updated": "HBU*VOR/DME*189.66/15.00",
	},
	{
		"name": "POWRS",
		"latitude": "39-41-43.51 N",
		"longitude": "106-38-35.99 W",
		"state": "COLORADO",
		"artcc": "ZDV",
		"type": "WP",
		"updated": "11/02/1998",
	},
	{
		"name": "PRAGG",
		"latitude": "38-54-59.02 N",
		"longitude": "103-17-29.42 W",
		"state": "COLORADO",
		"artcc": "ZDV",
		"type": "RP",
		"updated": "DVV*VORTAC*124.99/85.33",
	},
	{
		"name": "PREYS",
		"latitude": "37-19-30.36 N",
		"longitude": "104-15-21.18 W",
		"state": "COLORADO",
		"artcc": "ZDV",
		"type": "RNAV",
		"updated": "07/21/2016",
	},
	{
		"name": "PRIDE",
		"latitude": "44-34-42.24 N",
		"longitude": "103-36-2.42 W",
		"state": "SOUTH DAKOTA",
		"artcc": "ZDV",
		"type": "MR",
		"updated": "RCA*TACAN*313.00/34.00",
	},
	{
		"name": "PROCD",
		"latitude": "39-53-37.15 N",
		"longitude": "104-25-22.76 W",
		"state": "COLORADO",
		"artcc": "ZDV",
		"type": "RNAV",
		"updated": "03/22/2012",
	},
	{
		"name": "PRONG",
		"latitude": "40-4-33.33 N",
		"longitude": "104-48-31.69 W",
		"state": "COLORADO",
		"artcc": "ZDV",
		"type": "RP",
		"updated": "GLL*VOR/DME*191.68",
	},
	{
		"name": "PUBXO",
		"latitude": "38-23-39.37 N",
		"longitude": "104-30-26.7 W",
		"state": "COLORADO",
		"artcc": "ZDV",
		"type": "RNAV",
		"updated": "05/07/2013",
	},
	{
		"name": "PUCIG",
		"latitude": "41-58-16.97 N",
		"longitude": "100-37-41.64 W",
		"state": "NEBRASKA",
		"artcc": "ZDV",
		"type": "RP",
		"updated": "TDD*VOR/DME*089.60/4.11",
	},
	{
		"name": "PUCIP",
		"latitude": "41-29-30.13 N",
		"longitude": "105-48-22.71 W",
		"state": "WYOMING",
		"artcc": "ZDV",
		"type": "RP",
		"updated": "LAR*VOR/DME*323.36/10.00",
	},
	{
		"name": "PUCUB",
		"latitude": "38-11-50.1 N",
		"longitude": "104-30-0.46 W",
		"state": "COLORADO",
		"artcc": "ZDV",
		"type": "RNAV",
		"updated": "05/07/2013",
	},
	{
		"name": "PUFFR",
		"latitude": "40-30-25.2 N",
		"longitude": "102-14-56.82 W",
		"state": "COLORADO",
		"artcc": "ZDV",
		"type": "RNAV",
		"updated": "07/16/2014",
	},
	{
		"name": "PUKFA",
		"latitude": "42-22-59.52 N",
		"longitude": "99-59-36.42 W",
		"state": "NEBRASKA",
		"artcc": "ZDV",
		"type": "RNAV",
		"updated": "04/16/2008",
	},
	{
		"name": "PULVE",
		"latitude": "44-3-56.29 N",
		"longitude": "104-29-53.02 W",
		"state": "WYOMING",
		"artcc": "ZDV",
		"type": "RNAV",
		"updated": "09/22/2011",
	},
	{
		"name": "PUMKE",
		"latitude": "39-24-40.91 N",
		"longitude": "101-35-46.8 W",
		"state": "KANSAS",
		"artcc": "ZDV",
		"type": "RNAV",
		"updated": "01/04/2011",
	},
	{
		"name": "PUMNI",
		"latitude": "39-21-2.22 N",
		"longitude": "107-6-11.59 W",
		"state": "COLORADO",
		"artcc": "ZDV",
		"type": "RP",
		"updated": "DBL*VOR/DME*229.33/11.06",
	},
	{
		"name": "PUMPS",
		"latitude": "36-13-6.74 N",
		"longitude": "107-41-35.64 W",
		"state": "NEW MEXICO",
		"artcc": "ZDV",
		"type": "RP",
		"updated": "RSK*VORTAC*134.15/37.32",
	},
	{
		"name": "PUQHO",
		"latitude": "40-29-0.63 N",
		"longitude": "107-38-44.02 W",
		"state": "COLORADO",
		"artcc": "ZDV",
		"type": "RNAV",
		"updated": "04/06/2018",
	},
	{
		"name": "PUREE",
		"latitude": "41-48-10.66 N",
		"longitude": "103-52-4.92 W",
		"state": "NEBRASKA",
		"artcc": "ZDV",
		"type": "RNAV",
		"updated": "10/29/2007",
	},
	{
		"name": "PURRL",
		"latitude": "39-27-44.44 N",
		"longitude": "104-35-16.99 W",
		"state": "COLORADO",
		"artcc": "ZDV",
		"type": "RNAV",
		"updated": "09/25/2012",
	},
	{
		"name": "PUVOY",
		"latitude": "39-31-32.25 N",
		"longitude": "107-46-38.47 W",
		"state": "COLORADO",
		"artcc": "ZDV",
		"type": "RNAV",
		"updated": "11/08/2010",
	},
	{
		"name": "PYNON",
		"latitude": "38-30-32.36 N",
		"longitude": "104-38-35.33 W",
		"state": "COLORADO",
		"artcc": "ZDV",
		"type": "RP",
		"updated": "PUB*VORTAC*314.00/16.35",
	},
	{
		"name": "PYPER",
		"latitude": "38-3-46.17 N",
		"longitude": "103-41-10.33 W",
		"state": "COLORADO",
		"artcc": "ZDV",
		"type": "RNAV",
		"updated": "11/23/2012",
	},
	{
		"name": "PYYPP",
		"latitude": "39-57-17 N",
		"longitude": "105-10-23.02 W",
		"state": "COLORADO",
		"artcc": "ZDV",
		"type": "RNAV",
		"updated": "07/05/2017",
	},
