	{
		"name": "RABET",
		"latitude": "40-15-40.34 N",
		"longitude": "106-23-20.51 W",
		"state": "COLORADO",
		"artcc": "ZDV",
		"type": "RP",
		"updated": "CHE*VOR/DME*096.00/44.00",
	},
	{
		"name": "RACCO",
		"latitude": "39-41-35.77 N",
		"longitude": "99-43-28.79 W",
		"state": "KANSAS",
		"artcc": "ZDV",
		"type": "RNAV",
		"updated": "08/18/2010",
	},
	{
		"name": "RACER",
		"latitude": "40-6-29.17 N",
		"longitude": "108-52-58.43 W",
		"state": "COLORADO",
		"artcc": "ZDV",
		"type": "RP",
		"updated": "JNC*VOR/DME*341.22",
	},
	{
		"name": "RADIO",
		"latitude": "37-41-22.36 N",
		"longitude": "104-22-34.49 W",
		"state": "COLORADO",
		"artcc": "ZDV",
		"type": "RP",
		"updated": "PUB*VORTAC*168.00/36.33",
	},
	{
		"name": "RAFTR",
		"latitude": "39-18-12.49 N",
		"longitude": "106-54-26.01 W",
		"state": "COLORADO",
		"artcc": "ZDV",
		"type": "RP",
		"updated": "ASE*LE*330.63/6.00",
	},
	{
		"name": "RALFF",
		"latitude": "42-52-24.33 N",
		"longitude": "101-53-53.63 W",
		"state": "NEBRASKA",
		"artcc": "ZDV",
		"type": "RNAV",
		"updated": "07/28/2008",
	},
	{
		"name": "RALFI",
		"latitude": "39-58-14.9 N",
		"longitude": "105-12-1.12 W",
		"state": "COLORADO",
		"artcc": "ZDV",
		"type": "RNAV",
		"updated": "11/23/2012",
	},
	{
		"name": "RALPE",
		"latitude": "39-36-41.94 N",
		"longitude": "106-58-32.76 W",
		"state": "COLORADO",
		"artcc": "ZDV",
		"type": "RNAV",
		"updated": "06/08/2006",
	},
	{
		"name": "RAMMS",
		"latitude": "40-29-36.78 N",
		"longitude": "105-14-19.72 W",
		"state": "COLORADO",
		"artcc": "ZDV",
		"type": "RP",
		"updated": "LAR*VOR/DME*142.42/55.17",
	},
	{
		"name": "RANKE",
		"latitude": "41-52-54.29 N",
		"longitude": "103-54-16.2 W",
		"state": "NEBRASKA",
		"artcc": "ZDV",
		"type": "RNAV",
		"updated": "10/29/2007",
	},
	{
		"name": "RANPE",
		"latitude": "39-5-49.95 N",
		"longitude": "99-53-35.72 W",
		"state": "KANSAS",
		"artcc": "ZDV",
		"type": "RNAV",
		"updated": "11/03/2015",
	},
	{
		"name": "RAPDS",
		"latitude": "39-59-6.84 N",
		"longitude": "105-19-29.38 W",
		"state": "COLORADO",
		"artcc": "ZDV",
		"type": "RNAV",
		"updated": "11/23/2012",
	},
	{
		"name": "RASCO",
		"latitude": "37-10-16.25 N",
		"longitude": "111-30-5.58 W",
		"state": "UTAH",
		"artcc": "ZDV",
		"type": "RNAV",
		"updated": "12/03/2007",
	},
	{
		"name": "RASPS",
		"latitude": "39-51-50.08 N",
		"longitude": "102-53-55.13 W",
		"state": "COLORADO",
		"artcc": "ZDV",
		"type": "RNAV",
		"updated": "03/19/2018",
	},
	{
		"name": "RAWAH",
		"latitude": "38-38-15.31 N",
		"longitude": "106-5-37.05 W",
		"state": "COLORADO",
		"artcc": "ZDV",
		"type": "RNAV",
		"updated": "09/22/2012",
	},
	{
		"name": "RAYDR",
		"latitude": "39-38-51.15 N",
		"longitude": "104-35-10.81 W",
		"state": "COLORADO",
		"artcc": "ZDV",
		"type": "RNAV",
		"updated": "11/23/2012",
	},
	{
		"name": "RAYME",
		"latitude": "40-33-42.85 N",
		"longitude": "103-46-59.72 W",
		"state": "COLORADO",
		"artcc": "ZDV",
		"type": "RP",
		"updated": "SNY*VOR/DME*215.92/48.55",
	},
	{
		"name": "RAYMN",
		"latitude": "39-19-9.82 N",
		"longitude": "108-34-18.54 W",
		"state": "COLORADO",
		"artcc": "ZDV",
		"type": "RP",
		"updated": "JNC*VOR/DME*018.40/18.67",
	},
	{
		"name": "RAZED",
		"latitude": "39-28-23.98 N",
		"longitude": "101-43-21.79 W",
		"state": "KANSAS",
		"artcc": "ZDV",
		"type": "RNAV",
		"updated": "09/27/2016",
	},
	{
		"name": "REAGN",
		"latitude": "44-28-0.57 N",
		"longitude": "103-28-57.76 W",
		"state": "SOUTH DAKOTA",
		"artcc": "ZDV",
		"type": "RNAV",
		"updated": "02/11/2013",
	},
	{
		"name": "RECRD",
		"latitude": "39-24-40.63 N",
		"longitude": "104-16-7.21 W",
		"state": "COLORADO",
		"artcc": "ZDV",
		"type": "RNAV",
		"updated": "09/25/2012",
	},
	{
		"name": "REDHI",
		"latitude": "38-11-39.04 N",
		"longitude": "104-12-14.76 W",
		"state": "COLORADO",
		"artcc": "ZDV",
		"type": "RNAV",
		"updated": "06/08/2006",
	},
	{
		"name": "REEFF",
		"latitude": "38-57-34.28 N",
		"longitude": "104-29-5.82 W",
		"state": "COLORADO",
		"artcc": "ZDV",
		"type": "RNAV",
		"updated": "08/17/2010",
	},
	{
		"name": "REMAE",
		"latitude": "37-30-57.96 N",
		"longitude": "108-31-52 W",
		"state": "COLORADO",
		"artcc": "ZDV",
		"type": "RNAV",
		"updated": "02/17/2006",
	},
	{
		"name": "RENAE",
		"latitude": "40-25-14.07 N",
		"longitude": "108-54-37.01 W",
		"state": "COLORADO",
		"artcc": "ZDV",
		"type": "RP",
		"updated": "JNC*VOR/DME*341.00",
	},
	{
		"name": "RENRE",
		"latitude": "41-14-26.72 N",
		"longitude": "104-59-24.85 W",
		"state": "WYOMING",
		"artcc": "ZDV",
		"type": "RP",
		"updated": "CYS*VORTAC*267.37/10.00",
	},
	{
		"name": "RESER",
		"latitude": "36-54-49.21 N",
		"longitude": "107-29-25.97 W",
		"state": "NEW MEXICO",
		"artcc": "ZDV",
		"type": "RP",
		"updated": "RSK*VORTAC*057.14/30.93",
	},
	{
		"name": "REVME",
		"latitude": "40-34-30.32 N",
		"longitude": "107-29-55.82 W",
		"state": "COLORADO",
		"artcc": "ZDV",
		"type": "RP",
		"updated": "HDN*LD*283.72/15.03",
	},
	{
		"name": "REVNE",
		"latitude": "39-33-14.15 N",
		"longitude": "107-20-35.31 W",
		"state": "COLORADO",
		"artcc": "ZDV",
		"type": "RNAV",
		"updated": "09/20/2010",
	},
	{
		"name": "RGINA",
		"latitude": "36-27-46.8 N",
		"longitude": "107-17-45.74 W",
		"state": "NEW MEXICO",
		"artcc": "ZDV",
		"type": "RP",
		"updated": "RSK*VORTAC*099.55/42.39",
	},
	{
		"name": "RHILY",
		"latitude": "44-14-20.13 N",
		"longitude": "103-9-9.86 W",
		"state": "SOUTH DAKOTA",
		"artcc": "ZDV",
		"type": "RP",
		"updated": "RAP*VORTAC*326.00/16.90",
	},
	{
		"name": "RHONE",
		"latitude": "39-10-40.09 N",
		"longitude": "108-37-20.95 W",
		"state": "COLORADO",
		"artcc": "ZDV",
		"type": "RP",
		"updated": "JNC*VOR/DME*033.20",
	},
	{
		"name": "RHYSS",
		"latitude": "36-12-19.11 N",
		"longitude": "110-52-16.23 W",
		"state": "ARIZONA",
		"artcc": "ZDV",
		"type": "RP",
		"updated": "TBC*VORTAC*060.31/20.00",
	},
	{
		"name": "RIBOY",
		"latitude": "44-29-4.81 N",
		"longitude": "103-31-19.32 W",
		"state": "SOUTH DAKOTA",
		"artcc": "ZDV",
		"type": "RNAV",
		"updated": "02/11/2013",
	},
	{
		"name": "RICAS",
		"latitude": "39-39-39.75 N",
		"longitude": "106-47-16.35 W",
		"state": "COLORADO",
		"artcc": "ZDV",
		"type": "RP",
		"updated": "VAZ*DD*NE CRS/7.02",
	},
	{
		"name": "RICCO",
		"latitude": "43-48-29.14 N",
		"longitude": "107-2-30.21 W",
		"state": "WYOMING",
		"artcc": "ZDV",
		"type": "RNAV",
		"updated": "03/17/2011",
	},
	{
		"name": "RIDJE",
		"latitude": "40-31-5.43 N",
		"longitude": "105-38-17.28 W",
		"state": "COLORADO",
		"artcc": "ZDV",
		"type": "RP",
		"updated": "LAR*VOR/DME*161.59/49.29",
	},
	{
		"name": "RIFMN",
		"latitude": "39-26-52.45 N",
		"longitude": "109-45-47.01 W",
		"state": "UTAH",
		"artcc": "ZDV",
		"type": "RP",
		"updated": "JNC*VOR/DME*282.54/50.87",
	},
	{
		"name": "RIFPU",
		"latitude": "39-31-34.04 N",
		"longitude": "107-45-3.66 W",
		"state": "COLORADO",
		"artcc": "ZDV",
		"type": "RNAV",
		"updated": "11/08/2010",
	},
	{
		"name": "RIKKK",
		"latitude": "40-47-4.36 N",
		"longitude": "104-51-0.71 W",
		"state": "COLORADO",
		"artcc": "ZDV",
		"type": "RNAV",
		"updated": "11/23/2012",
	},
	{
		"name": "RIKOC",
		"latitude": "39-14-46.2 N",
		"longitude": "106-52-47.39 W",
		"state": "COLORADO",
		"artcc": "ZDV",
		"type": "RP",
		"updated": "ASE*LE*330.63/2.34",
	},
	{
		"name": "RINDE",
		"latitude": "38-4-28.04 N",
		"longitude": "102-34-25.81 W",
		"state": "COLORADO",
		"artcc": "ZDV",
		"type": "RNAV",
		"updated": "04/22/2003",
	},
	{
		"name": "RINKR",
		"latitude": "40-11-57.47 N",
		"longitude": "104-49-34.69 W",
		"state": "COLORADO",
		"artcc": "ZDV",
		"type": "RNAV",
		"updated": "11/23/2012",
	},
	{
		"name": "RISHO",
		"latitude": "39-36-45.37 N",
		"longitude": "98-58-22.95 W",
		"state": "KANSAS",
		"artcc": "ZDV",
		"type": "RP",
		"updated": "TKO*VORTAC*240.84/35.00",
	},
	{
		"name": "RIVGE",
		"latitude": "36-44-57.53 N",
		"longitude": "108-32-31.1 W",
		"state": "NEW MEXICO",
		"artcc": "ZDV",
		"type": "RNAV",
		"updated": "11/19/2002",
	},
	{
		"name": "RIYNO",
		"latitude": "39-16-39.37 N",
		"longitude": "107-43-27.79 W",
		"state": "COLORADO",
		"artcc": "ZDV",
		"type": "RP",
		"updated": "JNC*VOR/DME*059.97/51.53",
	},
	{
		"name": "RIYOP",
		"latitude": "41-5-36.82 N",
		"longitude": "102-44-25.99 W",
		"state": "NEBRASKA",
		"artcc": "ZDV",
		"type": "RP",
		"updated": "SNY*VOR/DME*077.89/11.00",
	},
	{
		"name": "RIZAL",
		"latitude": "37-1-13.87 N",
		"longitude": "108-10-41.98 W",
		"state": "COLORADO",
		"artcc": "ZDV",
		"type": "RP",
		"updated": "RSK*VORTAC*332.83/16.75",
	},
	{
		"name": "RKYMT",
		"latitude": "39-24-10.25 N",
		"longitude": "104-49-44.94 W",
		"state": "COLORADO",
		"artcc": "ZDV",
		"type": "RNAV",
		"updated": "11/23/2012",
	},
	{
		"name": "RNGLE",
		"latitude": "38-23-11.78 N",
		"longitude": "106-57-57.66 W",
		"state": "COLORADO",
		"artcc": "ZDV",
		"type": "RNAV",
		"updated": "06/08/2009",
	},
	{
		"name": "RNOLD",
		"latitude": "39-39-19.92 N",
		"longitude": "104-41-55.86 W",
		"state": "COLORADO",
		"artcc": "ZDV",
		"type": "RP",
		"updated": "DXU*LD*172.51/14.59",
	},
	{
		"name": "ROBIT",
		"latitude": "44-33-1.78 N",
		"longitude": "104-9-0.61 W",
		"state": "WYOMING",
		"artcc": "ZDV",
		"type": "RNAV",
		"updated": "08/03/2011",
	},
	{
		"name": "ROBVY",
		"latitude": "38-46-58.61 N",
		"longitude": "106-6-24.26 W",
		"state": "COLORADO",
		"artcc": "ZDV",
		"type": "RNAV",
		"updated": "11/01/2013",
	},
	{
		"name": "ROCCK",
		"latitude": "38-56-40.92 N",
		"longitude": "104-41-7.81 W",
		"state": "COLORADO",
		"artcc": "ZDV",
		"type": "RP",
		"updated": "BRK*VOR/DME*262.29",
	},
	{
		"name": "ROCCS",
		"latitude": "39-25-23.36 N",
		"longitude": "104-31-6.25 W",
		"state": "COLORADO",
		"artcc": "ZDV",
		"type": "RNAV",
		"updated": "09/25/2012",
	},
	{
		"name": "ROCNO",
		"latitude": "44-10-44.4 N",
		"longitude": "103-53-35.78 W",
		"state": "SOUTH DAKOTA",
		"artcc": "ZDV",
		"type": "RP",
		"updated": "RAP*VORTAC*275.03/40.00",
	},
	{
		"name": "RODDS",
		"latitude": "37-12-17.67 N",
		"longitude": "106-2-45.59 W",
		"state": "COLORADO",
		"artcc": "ZDV",
		"type": "RP",
		"updated": "ALS*VORTAC*219.00/14.02",
	},
	{
		"name": "RODDY",
		"latitude": "38-21-30.45 N",
		"longitude": "105-22-44.56 W",
		"state": "COLORADO",
		"artcc": "ZDV",
		"type": "RP",
		"updated": "PUB*VORTAC*267.20/45.00",
	},
	{
		"name": "RODIE",
		"latitude": "42-59-48.78 N",
		"longitude": "103-25-42.51 W",
		"state": "NEBRASKA",
		"artcc": "ZDV",
		"type": "RNAV",
		"updated": "11/06/2002",
	},
	{
		"name": "ROKXX",
		"latitude": "39-58-52.71 N",
		"longitude": "104-58-29.92 W",
		"state": "COLORADO",
		"artcc": "ZDV",
		"type": "RNAV",
		"updated": "10/08/2014",
	},
	{
		"name": "ROLAE",
		"latitude": "39-47-15.93 N",
		"longitude": "104-49-46.72 W",
		"state": "COLORADO",
		"artcc": "ZDV",
		"type": "MR",
		"updated": "BKF*TACAN*315.45/6.00",
	},
	{
		"name": "ROLFS",
		"latitude": "43-10-40.96 N",
		"longitude": "100-50-21.79 W",
		"state": "SOUTH DAKOTA",
		"artcc": "ZDV",
		"type": "RNAV",
		"updated": "11/01/2017",
	},
	{
		"name": "ROLQE",
		"latitude": "37-12-32.16 N",
		"longitude": "108-43-3.38 W",
		"state": "COLORADO",
		"artcc": "ZDV",
		"type": "RNAV",
		"updated": "01/16/2003",
	},
	{
		"name": "ROMBE",
		"latitude": "39-52-5.09 N",
		"longitude": "104-54-25.48 W",
		"state": "COLORADO",
		"artcc": "ZDV",
		"type": "MR",
		"updated": "BKF*TACAN*315.45/12.00",
	},
	{
		"name": "ROMLY",
		"latitude": "38-29-23.75 N",
		"longitude": "106-43-30.39 W",
		"state": "COLORADO",
		"artcc": "ZDV",
		"type": "RP",
		"updated": "HBU*VOR/DME*067.22/15.00",
	},
	{
		"name": "RONBE",
		"latitude": "38-51-50.17 N",
		"longitude": "105-56-47.7 W",
		"state": "COLORADO",
		"artcc": "ZDV",
		"type": "RP",
		"updated": "HBU*VOR/DME*050.00/57.00",
	},
	{
		"name": "RONNN",
		"latitude": "39-55-30.88 N",
		"longitude": "104-54-22.03 W",
		"state": "COLORADO",
		"artcc": "ZDV",
		"type": "RNAV",
		"updated": "03/22/2012",
	},
	{
		"name": "ROOLL",
		"latitude": "36-27-37.93 N",
		"longitude": "111-28-54.98 W",
		"state": "ARIZONA",
		"artcc": "ZDV",
		"type": "RNAV",
		"updated": "01/22/2016",
	},
	{
		"name": "ROOOL",
		"latitude": "40-4-35.69 N",
		"longitude": "104-31-1.62 W",
		"state": "COLORADO",
		"artcc": "ZDV",
		"type": "RNAV",
		"updated": "09/25/2012",
	},
	{
		"name": "ROTOR",
		"latitude": "42-2-51.4 N",
		"longitude": "103-23-40.61 W",
		"state": "NEBRASKA",
		"artcc": "ZDV",
		"type": "RP",
		"updated": "BFF*VORTAC*010.00/10.00",
	},
	{
		"name": "ROUGH",
		"latitude": "36-26-47.4 N",
		"longitude": "109-41-6.1 W",
		"state": "ARIZONA",
		"artcc": "ZDV",
		"type": "RP",
		"updated": "RSK*VORTAC*243.19/78.74",
	},
	{
		"name": "ROVEE",
		"latitude": "42-54-34.51 N",
		"longitude": "106-24-11.6 W",
		"state": "WYOMING",
		"artcc": "ZDV",
		"type": "RNAV",
		"updated": "08/14/2008",
	},
	{
		"name": "ROYYL",
		"latitude": "39-55-3.47 N",
		"longitude": "104-24-10.37 W",
		"state": "COLORADO",
		"artcc": "ZDV",
		"type": "RNAV",
		"updated": "11/23/2012",
	},
	{
		"name": "ROZEL",
		"latitude": "40-17-59.81 N",
		"longitude": "100-43-43.17 W",
		"state": "NEBRASKA",
		"artcc": "ZDV",
		"type": "WP",
		"updated": "HCT*VORTAC*124.90/12.90",
	},
	{
		"name": "RRIVR",
		"latitude": "39-43-9.57 N",
		"longitude": "106-40-15.7 W",
		"state": "COLORADO",
		"artcc": "ZDV",
		"type": "RP",
		"updated": "DBL*VOR/DME*019.65/19.73",
	},
	{
		"name": "RROSE",
		"latitude": "39-33-50.85 N",
		"longitude": "107-4-8.2 W",
		"state": "COLORADO",
		"artcc": "ZDV",
		"type": "RNAV",
		"updated": "12/11/2017",
	},
	{
		"name": "RSDXF",
		"latitude": "40-15-37.58 N",
		"longitude": "104-55-25.65 W",
		"state": "COLORADO",
		"artcc": "ZDV",
		"type": "CN",
		"updated": "11/29/2011",
	},
	{
		"name": "RUGTE",
		"latitude": "41-57-47.74 N",
		"longitude": "99-14-44.6 W",
		"state": "NEBRASKA",
		"artcc": "ZDV",
		"type": "RNAV",
		"updated": "06/11/2013",
	},
	{
		"name": "RULER",
		"latitude": "43-52-59.86 N",
		"longitude": "103-22-33.88 W",
		"state": "SOUTH DAKOTA",
		"artcc": "ZDV",
		"type": "RP",
		"updated": "RAP*VORTAC*237.69/16.72",
	},
	{
		"name": "RUPYO",
		"latitude": "38-54-7.87 N",
		"longitude": "100-52-23.62 W",
		"state": "KANSAS",
		"artcc": "ZDV",
		"type": "RNAV",
		"updated": "06/08/2006",
	},
	{
		"name": "RUSOC",
		"latitude": "39-35-23.14 N",
		"longitude": "107-47-44.3 W",
		"state": "COLORADO",
		"artcc": "ZDV",
		"type": "RP",
		"updated": "RIL*VOR/DME*306.26/5.10",
	},
	{
		"name": "RUUSH",
		"latitude": "44-17-46 N",
		"longitude": "102-49-52.38 W",
		"state": "SOUTH DAKOTA",
		"artcc": "ZDV",
		"type": "MR",
		"updated": "RCA*TACAN*043.00/15.00",
	},
	{
		"name": "RUVAE",
		"latitude": "39-12-15.95 N",
		"longitude": "106-55-31.96 W",
		"state": "COLORADO",
		"artcc": "ZDV",
		"type": "RNAV",
		"updated": "09/03/2008",
	},
	{
		"name": "RYLIE",
		"latitude": "38-20-14.32 N",
		"longitude": "101-49-38.92 W",
		"state": "KANSAS",
		"artcc": "ZDV",
		"type": "RP",
		"updated": "GCK*VORTAC*285.00/57.90",
	},
