[
	{
		"name": "SACOP",
		"latitude": "41-57-27.99 N",
		"longitude": "103-51-38.73 W",
		"state": "NEBRASKA",
		"artcc": "ZDV",
		"type": "RNAV",
		"updated": "10/29/2007"
	},
	{
		"name": "SAGUW",
		"latitude": "38-13-10.44 N",
		"longitude": "106-14-21.78 W",
		"state": "COLORADO",
		"artcc": "ZDV",
		"type": "WP",
		"updated": "07/18/1995"
	},
	{
		"name": "SAILS",
		"latitude": "40-35-5.84 N",
		"longitude": "99-10-23.39 W",
		"state": "NEBRASKA",
		"artcc": "ZDV",
		"type": "RP",
		"updated": "EAR*VOR*212.35"
	},
	{
		"name": "SAKAY",
		"latitude": "41-10-3.34 N",
		"longitude": "103-4-23.63 W",
		"state": "NEBRASKA",
		"artcc": "ZDV",
		"type": "RNAV",
		"updated": "06/13/2008"
	},
	{
		"name": "SAKIC",
		"latitude": "40-9-42.17 N",
		"longitude": "104-41-34.79 W",
		"state": "COLORADO",
		"artcc": "ZDV",
		"type": "RP",
		"updated": "DQQ*LD*352.51/15.76"
	},
	{
		"name": "SALDE",
		"latitude": "42-31-13.7 N",
		"longitude": "99-54-11.14 W",
		"state": "NEBRASKA",
		"artcc": "ZDV",
		"type": "RNAV",
		"updated": "04/16/2008"
	},
	{
		"name": "SALON",
		"latitude": "43-19-36.28 N",
		"longitude": "105-26-55.55 W",
		"state": "WYOMING",
		"artcc": "ZDV",
		"type": "RP",
		"updated": "DDY*VOR/DME*056.44/39.00"
	},
	{
		"name": "SARAH",
		"latitude": "39-50-32.41 N",
		"longitude": "104-59-14.59 W",
		"state": "COLORADO",
		"artcc": "ZDV",
		"type": "RP",
		"updated": "FQF*VORTAC*287.41"
	},
	{
		"name": "SASPE",
		"latitude": "37-31-35.61 N",
		"longitude": "106-2-35.17 W",
		"state": "COLORADO",
		"artcc": "ZDV",
		"type": "RNAV",
		"updated": "07/31/2017"
	},
	{
		"name": "SAWOM",
		"latitude": "39-27-16.13 N",
		"longitude": "108-1-7.19 W",
		"state": "COLORADO",
		"artcc": "ZDV",
		"type": "RNAV",
		"updated": "08/12/2008"
	},
	{
		"name": "SAYGE",
		"latitude": "40-12-2.15 N",
		"longitude": "103-51-4.99 W",
		"state": "COLORADO",
		"artcc": "ZDV",
		"type": "RP",
		"updated": "FQF*VORTAC*038.00/46.88"
	},
	{
		"name": "SAYYO",
		"latitude": "39-14-38.05 N",
		"longitude": "106-52-43.49 W",
		"state": "COLORADO",
		"artcc": "ZDV",
		"type": "RNAV",
		"updated": "09/03/2008"
	},
	{
		"name": "SBURG",
		"latitude": "40-16-30.61 N",
		"longitude": "106-53-37.47 W",
		"state": "COLORADO",
		"artcc": "ZDV",
		"type": "RP",
		"updated": "CHE*VOR/DME*113.79/23.89"
	},
	{
		"name": "SCOLD",
		"latitude": "43-42-20.3 N",
		"longitude": "102-33-41.54 W",
		"state": "SOUTH DAKOTA",
		"artcc": "ZDV",
		"type": "MR",
		"updated": "RCA*TACAN*129.80/35.00"
	},
	{
		"name": "SCRUB",
		"latitude": "38-5-27.77 N",
		"longitude": "107-56-50.32 W",
		"state": "COLORADO",
		"artcc": "ZDV",
		"type": "RP",
		"updated": "ETL*VOR/DME*066.24"
	},
	{
		"name": "SEDAL",
		"latitude": "44-7-30.23 N",
		"longitude": "103-4-43.37 W",
		"state": "SOUTH DAKOTA",
		"artcc": "ZDV",
		"type": "MR",
		"updated": "RCA*TACAN*119.00/1.30"
	},
	{
		"name": "SEDGY",
		"latitude": "39-59-51.03 N",
		"longitude": "106-3-31.04 W",
		"state": "COLORADO",
		"artcc": "ZDV",
		"type": "RNAV",
		"updated": "05/16/2017"
	},
	{
		"name": "SEDUZ",
		"latitude": "37-19-33.38 N",
		"longitude": "109-22-25.82 W",
		"state": "UTAH",
		"artcc": "ZDV",
		"type": "WP",
		"updated": "11/02/1998"
	},
	{
		"name": "SEEYU",
		"latitude": "40-14-33.76 N",
		"longitude": "104-41-31.39 W",
		"state": "COLORADO",
		"artcc": "ZDV",
		"type": "RNAV",
		"updated": "03/16/2012"
	},
	{
		"name": "SEKAL",
		"latitude": "36-16-41.34 N",
		"longitude": "110-27-21.85 W",
		"state": "ARIZONA",
		"artcc": "ZDV",
		"type": "RNAV",
		"updated": "05/03/2002"
	},
	{
		"name": "SELLS",
		"latitude": "38-49-41.07 N",
		"longitude": "103-10-25.48 W",
		"state": "COLORADO",
		"artcc": "ZDV",
		"type": "RP",
		"updated": "GCK*VORTAC*285.00/127.73"
	},
	{
		"name": "SELYO",
		"latitude": "40-56-28.57 N",
		"longitude": "99-4-58.39 W",
		"state": "NEBRASKA",
		"artcc": "ZDV",
		"type": "RNAV",
		"updated": "06/29/2005"
	},
	{
		"name": "SENSE",
		"latitude": "41-14-47.98 N",
		"longitude": "105-2-1.06 W",
		"state": "WYOMING",
		"artcc": "ZDV",
		"type": "RP",
		"updated": "GLL*VOR/DME*321.00"
	},
	{
		"name": "SEQRY",
		"latitude": "39-31-37.53 N",
		"longitude": "107-42-17.35 W",
		"state": "COLORADO",
		"artcc": "ZDV",
		"type": "RNAV",
		"updated": "11/08/2010"
	},
	{
		"name": "SEVGE",
		"latitude": "38-4-25.16 N",
		"longitude": "102-44-39.09 W",
		"state": "COLORADO",
		"artcc": "ZDV",
		"type": "RNAV",
		"updated": "07/18/2012"
	},
	{
		"name": "SEYOT",
		"latitude": "41-52-11.77 N",
		"longitude": "99-11-51.52 W",
		"state": "NEBRASKA",
		"artcc": "ZDV",
		"type": "RNAV",
		"updated": "06/11/2013"
	},
	{
		"name": "SHAFT",
		"latitude": "39-50-11.02 N",
		"longitude": "104-47-52.95 W",
		"state": "COLORADO",
		"artcc": "ZDV",
		"type": "RP",
		"updated": "DVV*VORTAC*238.52"
	},
	{
		"name": "SHATZ",
		"latitude": "40-5-58.57 N",
		"longitude": "104-58-30.1 W",
		"state": "COLORADO",
		"artcc": "ZDV",
		"type": "RP",
		"updated": "BJC*VOR/DME*023.00/13.50"
	},
	{
		"name": "SHAYK",
		"latitude": "39-32-43.98 N",
		"longitude": "101-24-34.3 W",
		"state": "KANSAS",
		"artcc": "ZDV",
		"type": "RNAV",
		"updated": "11/24/2012"
	},
	{
		"name": "SHEIE",
		"latitude": "40-10-56.96 N",
		"longitude": "104-47-42.52 W",
		"state": "COLORADO",
		"artcc": "ZDV",
		"type": "RNAV",
		"updated": "11/24/2012"
	},
	{
		"name": "SHEND",
		"latitude": "39-54-26.87 N",
		"longitude": "99-20-25.81 W",
		"state": "KANSAS",
		"artcc": "ZDV",
		"type": "RNAV",
		"updated": "06/24/2015"
	},
	{
		"name": "SHERN",
		"latitude": "37-43-22.65 N",
		"longitude": "105-59-45.63 W",
		"state": "COLORADO",
		"artcc": "ZDV",
		"type": "RNAV",
		"updated": "08/23/2017"
	},
	{
		"name": "SHHRI",
		"latitude": "40-21-19.47 N",
		"longitude": "107-6-56.41 W",
		"state": "COLORADO",
		"artcc": "ZDV",
		"type": "RNAV",
		"updated": "11/17/2014"
	},
	{
		"name": "SHICK",
		"latitude": "40-18-57.02 N",
		"longitude": "104-51-26.35 W",
		"state": "COLORADO",
		"artcc": "ZDV",
		"type": "RNAV",
		"updated": "11/24/2012"
	},
	{
		"name": "SHLTE",
		"latitude": "39-53-50.45 N",
		"longitude": "104-54-22.91 W",
		"state": "COLORADO",
		"artcc": "ZDV",
		"type": "RNAV",
		"updated": "03/22/2012"
	},
	{
		"name": "SHMRT",
		"latitude": "40-26-27.13 N",
		"longitude": "104-41-40.26 W",
		"state": "COLORADO",
		"artcc": "ZDV",
		"type": "RNAV",
		"updated": "07/03/2014"
	},
	{
		"name": "SHOBO",
		"latitude": "39-58-19.97 N",
		"longitude": "104-9-11.53 W",
		"state": "COLORADO",
		"artcc": "ZDV",
		"type": "RNAV",
		"updated": "11/24/2012"
	},
	{
		"name": "SHOOP",
		"latitude": "40-52-54.61 N",
		"longitude": "104-16-1.51 W",
		"state": "COLORADO",
		"artcc": "ZDV",
		"type": "RP",
		"updated": "GLL*VOR/DME*016.84/26.15"
	},
	{
		"name": "SHRED",
		"latitude": "40-12-26.13 N",
		"longitude": "104-41-32.88 W",
		"state": "COLORADO",
		"artcc": "ZDV",
		"type": "RP",
		"updated": "DQQ*LD*352.51/18.49"
	},
	{
		"name": "SHROM",
		"latitude": "40-14-20.25 N",
		"longitude": "104-42-33.05 W",
		"state": "COLORADO",
		"artcc": "ZDV",
		"type": "RNAV",
		"updated": "03/16/2012"
	},
	{
		"name": "SHRYL",
		"latitude": "39-32-4.43 N",
		"longitude": "107-18-43.91 W",
		"state": "COLORADO",
		"artcc": "ZDV",
		"type": "RNAV",
		"updated": "05/29/2015"
	},
	{
		"name": "SHUGR",
		"latitude": "39-17-40.05 N",
		"longitude": "101-35-58.26 W",
		"state": "KANSAS",
		"artcc": "ZDV",
		"type": "RP",
		"updated": "GLD*LD*125.37/7.12"
	},
	{
		"name": "SIGHT",
		"latitude": "39-34-45.47 N",
		"longitude": "104-42-10.17 W",
		"state": "COLORADO",
		"artcc": "ZDV",
		"type": "RNAV",
		"updated": "11/24/2012"
	},
	{
		"name": "SIGNE",
		"latitude": "39-30-3.23 N",
		"longitude": "104-55-19.22 W",
		"state": "COLORADO",
		"artcc": "ZDV",
		"type": "RP",
		"updated": "BJC*VOR/DME*146.80/26.67"
	},
	{
		"name": "SIGSE",
		"latitude": "41-10-5.69 N",
		"longitude": "104-59-13.4 W",
		"state": "WYOMING",
		"artcc": "ZDV",
		"type": "RNAV",
		"updated": "07/24/2008"
	},
	{
		"name": "SIJVI",
		"latitude": "40-23-49.31 N",
		"longitude": "101-23-0.11 W",
		"state": "NEBRASKA",
		"artcc": "ZDV",
		"type": "RP",
		"updated": "HCT*VORTAC*249.93/21.34"
	},
	{
		"name": "SINSY",
		"latitude": "38-47-1.94 N",
		"longitude": "108-42-26.76 W",
		"state": "COLORADO",
		"artcc": "ZDV",
		"type": "RP",
		"updated": "JNC*VOR/DME*151.41/17.00"
	},
	{
		"name": "SISEE",
		"latitude": "40-13-17.74 N",
		"longitude": "104-29-44.67 W",
		"state": "COLORADO",
		"artcc": "ZDV",
		"type": "RNAV",
		"updated": "09/26/2012"
	},
	{
		"name": "SITWO",
		"latitude": "39-28-59.86 N",
		"longitude": "106-57-56.46 W",
		"state": "COLORADO",
		"artcc": "ZDV",
		"type": "RNAV",
		"updated": "08/04/2012"
	},
	{
		"name": "SIXGN",
		"latitude": "38-32-21.68 N",
		"longitude": "106-54-54.91 W",
		"state": "COLORADO",
		"artcc": "ZDV",
		"type": "WP",
		"updated": "07/18/1995"
	},
	{
		"name": "SIYDO",
		"latitude": "39-37-5.42 N",
		"longitude": "107-17-32.29 W",
		"state": "COLORADO",
		"artcc": "ZDV",
		"type": "RNAV",
		"updated": "09/20/2010"
	},
	{
		"name": "SIYOP",
		"latitude": "39-31-33.38 N",
		"longitude": "107-45-34.9 W",
		"state": "COLORADO",
		"artcc": "ZDV",
		"type": "RNAV",
		"updated": "11/08/2010"
	},
	{
		"name": "SKARF",
		"latitude": "40-23-46.82 N",
		"longitude": "105-41-4.41 W",
		"state": "COLORADO",
		"artcc": "ZDV",
		"type": "RNAV",
		"updated": "09/22/2012"
	},
	{
		"name": "SKEED",
		"latitude": "39-17-28.04 N",
		"longitude": "105-39-26.45 W",
		"state": "COLORADO",
		"artcc": "ZDV",
		"type": "RP",
		"updated": "DVV*VORTAC*225.27/60.04"
	},
	{
		"name": "SKIER",
		"latitude": "39-14-25.74 N",
		"longitude": "106-55-27.25 W",
		"state": "COLORADO",
		"artcc": "ZDV",
		"type": "RP",
		"updated": "DBL*VOR/DME*174.59/12.00"
	},
	{
		"name": "SKIMJ",
		"latitude": "40-17-33.89 N",
		"longitude": "104-41-29.29 W",
		"state": "COLORADO",
		"artcc": "ZDV",
		"type": "RNAV",
		"updated": "03/16/2012"
	},
	{
		"name": "SKIPI",
		"latitude": "39-47-30.84 N",
		"longitude": "104-26-3.2 W",
		"state": "COLORADO",
		"artcc": "ZDV",
		"type": "RP",
		"updated": "FTG*LD*083.17/6.49"
	},
	{
		"name": "SKIPT",
		"latitude": "38-32-49.08 N",
		"longitude": "106-47-29.64 W",
		"state": "COLORADO",
		"artcc": "ZDV",
		"type": "RP",
		"updated": "HBU*VOR/DME*050.00/13.00"
	},
	{
		"name": "SKKII",
		"latitude": "39-20-14.98 N",
		"longitude": "104-52-41.7 W",
		"state": "COLORADO",
		"artcc": "ZDV",
		"type": "RNAV",
		"updated": "09/22/2012"
	},
	{
		"name": "SKOTI",
		"latitude": "38-25-13.61 N",
		"longitude": "106-25-41.14 W",
		"state": "COLORADO",
		"artcc": "ZDV",
		"type": "RP",
		"updated": "HBU*VOR/DME*079.58/28.90"
	},
	{
		"name": "SLMON",
		"latitude": "40-14-32.54 N",
		"longitude": "103-38-26.68 W",
		"state": "COLORADO",
		"artcc": "ZDV",
		"type": "RNAV",
		"updated": "09/23/2012"
	},
	{
		"name": "SLOLM",
		"latitude": "39-17-48.53 N",
		"longitude": "107-37-39.9 W",
		"state": "COLORADO",
		"artcc": "ZDV",
		"type": "RP",
		"updated": "RIL*VOR/DME*152.86/14.52"
	},
	{
		"name": "SLOPE",
		"latitude": "39-47-41.3 N",
		"longitude": "104-47-51.5 W",
		"state": "COLORADO",
		"artcc": "ZDV",
		"type": "RP",
		"updated": "DVV*VORTAC*225.27/10.00"
	},
	{
		"name": "SLURP",
		"latitude": "38-41-44.17 N",
		"longitude": "104-41-9.33 W",
		"state": "COLORADO",
		"artcc": "ZDV",
		"type": "WP",
		"updated": "11/02/1998"
	},
	{
		"name": "SMPSN",
		"latitude": "39-40-38.43 N",
		"longitude": "104-6-37.98 W",
		"state": "COLORADO",
		"artcc": "ZDV",
		"type": "RNAV",
		"updated": "11/24/2012"
	},
	{
		"name": "SMTHR",
		"latitude": "39-42-2.14 N",
		"longitude": "104-16-49.26 W",
		"state": "COLORADO",
		"artcc": "ZDV",
		"type": "RNAV",
		"updated": "11/24/2012"
	},
	{
		"name": "SNAKY",
		"latitude": "41-11-45.63 N",
		"longitude": "108-22-26.34 W",
		"state": "WYOMING",
		"artcc": "ZDV",
		"type": "RP",
		"updated": "OCS*VOR/DME*116.01/37.38"
	},
	{
		"name": "SNIPR",
		"latitude": "39-52-34.18 N",
		"longitude": "103-50-42.42 W",
		"state": "COLORADO",
		"artcc": "ZDV",
		"type": "RNAV",
		"updated": "11/24/2012"
	},
	{
		"name": "SNNDD",
		"latitude": "40-26-7.32 N",
		"longitude": "107-8-13.32 W",
		"state": "COLORADO",
		"artcc": "ZDV",
		"type": "RNAV",
		"updated": "11/17/2014"
	},
	{
		"name": "SOCKY",
		"latitude": "39-32-12.58 N",
		"longitude": "107-10-37.94 W",
		"state": "COLORADO",
		"artcc": "ZDV",
		"type": "RP",
		"updated": "RIL*LD*078.46/26.32"
	},
	{
		"name": "SODNE",
		"latitude": "39-47-30.19 N",
		"longitude": "104-25-24.52 W",
		"state": "COLORADO",
		"artcc": "ZDV",
		"type": "RNAV",
		"updated": "09/07/2012"
	},
	{
		"name": "SOGKO",
		"latitude": "38-59-51.83 N",
		"longitude": "104-33-32.86 W",
		"state": "COLORADO",
		"artcc": "ZDV",
		"type": "RNAV",
		"updated": "04/01/2016"
	},
	{
		"name": "SOKCO",
		"latitude": "40-53-58.27 N",
		"longitude": "100-2-27.84 W",
		"state": "NEBRASKA",
		"artcc": "ZDV",
		"type": "RNAV",
		"updated": "04/15/2008"
	},
	{
		"name": "SOKHA",
		"latitude": "41-5-1.93 N",
		"longitude": "102-9-5.41 W",
		"state": "NEBRASKA",
		"artcc": "ZDV",
		"type": "RP",
		"updated": "SNY*VOR/DME*077.89/37.73"
	},
	{
		"name": "SOLAR",
		"latitude": "39-8-47.92 N",
		"longitude": "105-3-32.82 W",
		"state": "COLORADO",
		"artcc": "ZDV",
		"type": "RP",
		"updated": "DEN*VOR/DME*197.00/44.00"
	},
	{
		"name": "SOLLO",
		"latitude": "40-33-2.98 N",
		"longitude": "104-51-21.64 W",
		"state": "COLORADO",
		"artcc": "ZDV",
		"type": "RNAV",
		"updated": "11/24/2012"
	},
	{
		"name": "SONGE",
		"latitude": "36-44-39.04 N",
		"longitude": "108-6-21.24 W",
		"state": "NEW MEXICO",
		"artcc": "ZDV",
		"type": "RP",
		"updated": "FMN*LD*E CRS/6.50"
	},
	{
		"name": "SOPHI",
		"latitude": "44-33-9.32 N",
		"longitude": "103-52-58.62 W",
		"state": "SOUTH DAKOTA",
		"artcc": "ZDV",
		"type": "WP",
		"updated": "05/23/2011"
	},
	{
		"name": "SOSCO",
		"latitude": "44-21-24.47 N",
		"longitude": "105-32-44.53 W",
		"state": "WYOMING",
		"artcc": "ZDV",
		"type": "RP",
		"updated": "GCC*VOR/DME*341.00/0.55"
	},
	{
		"name": "SOSEE",
		"latitude": "38-29-18.71 N",
		"longitude": "105-54-14.83 W",
		"state": "COLORADO",
		"artcc": "ZDV",
		"type": "RNAV",
		"updated": "01/30/2008"
	},
	{
		"name": "SOVDE",
		"latitude": "36-59-26.78 N",
		"longitude": "107-32-24.37 W",
		"state": "COLORADO",
		"artcc": "ZDV",
		"type": "RP",
		"updated": "DRO*VOR/DME*120.00/14.00"
	},
	{
		"name": "SOYAR",
		"latitude": "40-53-49.38 N",
		"longitude": "105-58-15.38 W",
		"state": "COLORADO",
		"artcc": "ZDV",
		"type": "RNAV",
		"updated": "09/22/2012"
	},
	{
		"name": "SPADA",
		"latitude": "38-50-34.9 N",
		"longitude": "108-26-23.59 W",
		"state": "COLORADO",
		"artcc": "ZDV",
		"type": "RP",
		"updated": "JNC*VOR/DME*113.07/21.00"
	},
	{
		"name": "SPAZZ",
		"latitude": "39-2-39.07 N",
		"longitude": "104-44-12.98 W",
		"state": "COLORADO",
		"artcc": "ZDV",
		"type": "RNAV",
		"updated": "12/05/2012"
	},
	{
		"name": "SPIDE",
		"latitude": "42-49-34.32 N",
		"longitude": "106-33-46.13 W",
		"state": "WYOMING",
		"artcc": "ZDV",
		"type": "RP",
		"updated": "DDY*VOR/DME*/20.26"
	},
	{
		"name": "SPONS",
		"latitude": "42-10-0.69 N",
		"longitude": "103-24-45.94 W",
		"state": "NEBRASKA",
		"artcc": "ZDV",
		"type": "RP",
		"updated": "BFF*VORTAC*357.70/16.65"
	},
	{
		"name": "SPRIT",
		"latitude": "40-27-46.52 N",
		"longitude": "99-31-49.71 W",
		"state": "NEBRASKA",
		"artcc": "ZDV",
		"type": "RP",
		"updated": "TKO*VORTAC*294.36"
	},
	{
		"name": "SPYCE",
		"latitude": "39-58-16.57 N",
		"longitude": "104-22-54.52 W",
		"state": "COLORADO",
		"artcc": "ZDV",
		"type": "RNAV",
		"updated": "11/24/2012"
	},
	{
		"name": "SQUAT",
		"latitude": "39-18-38.24 N",
		"longitude": "108-13-21.5 W",
		"state": "COLORADO",
		"artcc": "ZDV",
		"type": "RP",
		"updated": "JNC*VOR/DME*045.31/30.55"
	},
	{
		"name": "STAAM",
		"latitude": "39-58-55.54 N",
		"longitude": "104-31-16.01 W",
		"state": "COLORADO",
		"artcc": "ZDV",
		"type": "RNAV",
		"updated": "03/22/2012"
	},
	{
		"name": "STAKR",
		"latitude": "39-7-57.29 N",
		"longitude": "104-27-32.38 W",
		"state": "COLORADO",
		"artcc": "ZDV",
		"type": "RNAV",
		"updated": "11/24/2012"
	},
	{
		"name": "STAMY",
		"latitude": "39-2-32.07 N",
		"longitude": "105-3-43.82 W",
		"state": "COLORADO",
		"artcc": "ZDV",
		"type": "RP",
		"updated": "BRK*VOR/DME*273.42/20.89"
	},
	{
		"name": "STANO",
		"latitude": "38-19-20.32 N",
		"longitude": "104-49-49.29 W",
		"state": "COLORADO",
		"artcc": "ZDV",
		"type": "RP",
		"updated": "PUB*VORTAC*267.20/19.01"
	},
	{
		"name": "STAPH",
		"latitude": "42-55-50.58 N",
		"longitude": "100-28-39.1 W",
		"state": "NEBRASKA",
		"artcc": "ZDV",
		"type": "RNAV",
		"updated": "01/22/2015"
	},
	{
		"name": "STAPP",
		"latitude": "39-36-2.38 N",
		"longitude": "104-50-54.51 W",
		"state": "COLORADO",
		"artcc": "ZDV",
		"type": "RNAV",
		"updated": "01/22/2016"
	},
	{
		"name": "STARP",
		"latitude": "40-8-28.18 N",
		"longitude": "102-14-28.81 W",
		"state": "COLORADO",
		"artcc": "ZDV",
		"type": "RNAV",
		"updated": "02/21/2018"
	},
	{
		"name": "STAXX",
		"latitude": "37-58-48.29 N",
		"longitude": "104-10-29.43 W",
		"state": "COLORADO",
		"artcc": "ZDV",
		"type": "RP",
		"updated": "PUB*VORTAC*139.30/22.36"
	},
	{
		"name": "STIPE",
		"latitude": "39-52-29.78 N",
		"longitude": "100-32-23.03 W",
		"state": "KANSAS",
		"artcc": "ZDV",
		"type": "RNAV",
		"updated": "09/09/2015"
	},
	{
		"name": "STRIM",
		"latitude": "40-29-21.98 N",
		"longitude": "107-50-26.97 W",
		"state": "COLORADO",
		"artcc": "ZDV",
		"type": "RP",
		"updated": "CHE*VOR/DME*251.89/24.60"
	},
	{
		"name": "STURG",
		"latitude": "44-38-18.94 N",
		"longitude": "103-43-2.94 W",
		"state": "SOUTH DAKOTA",
		"artcc": "ZDV",
		"type": "MR",
		"updated": "RCA*TACAN*310.74/40.00"
	},
	{
		"name": "STVLR",
		"latitude": "39-1-20 N",
		"longitude": "102-34-30 W",
		"state": "COLORADO",
		"artcc": "ZDV",
		"type": "RNAV",
		"updated": "02/03/2017"
	},
	{
		"name": "SUFBA",
		"latitude": "40-39-52.41 N",
		"longitude": "99-6-21.79 W",
		"state": "NEBRASKA",
		"artcc": "ZDV",
		"type": "RNAV",
		"updated": "07/07/2009"
	},
	{
		"name": "SULIW",
		"latitude": "40-15-57.13 N",
		"longitude": "100-21-27.6 W",
		"state": "NEBRASKA",
		"artcc": "ZDV",
		"type": "RNAV",
		"updated": "10/04/2000"
	},
	{
		"name": "SUNKE",
		"latitude": "39-50-27.94 N",
		"longitude": "104-45-1.64 W",
		"state": "COLORADO",
		"artcc": "ZDV",
		"type": "RP",
		"updated": "DZG*LD*262.48/3.25"
	},
	{
		"name": "SUSHE",
		"latitude": "40-55-33.35 N",
		"longitude": "103-30-26.65 W",
		"state": "COLORADO",
		"artcc": "ZDV",
		"type": "RNAV",
		"updated": "09/25/2012"
	},
	{
		"name": "SUUPR",
		"latitude": "39-23-21.73 N",
		"longitude": "104-34-38.07 W",
		"state": "COLORADO",
		"artcc": "ZDV",
		"type": "RNAV",
		"updated": "11/24/2012"
	},
	{
		"name": "SWAYN",
		"latitude": "40-16-49.26 N",
		"longitude": "104-53-10.11 W",
		"state": "COLORADO",
		"artcc": "ZDV",
		"type": "RNAV",
		"updated": "09/25/2012"
	},
	{
		"name": "SWILL",
		"latitude": "37-11-56.7 N",
		"longitude": "107-57-0.54 W",
		"state": "COLORADO",
		"artcc": "ZDV",
		"type": "RP",
		"updated": "RSK*VORTAC*001.00"
	},
	{
		"name": "SWWAT",
		"latitude": "40-28-53.05 N",
		"longitude": "107-13-5.89 W",
		"state": "COLORADO",
		"artcc": "ZDV",
		"type": "RNAV",
		"updated": "12/05/2014"
	},
	{
		"name": "SWYCH",
		"latitude": "40-42-19.21 N",
		"longitude": "104-49-44.99 W",
		"state": "COLORADO",
		"artcc": "ZDV",
		"type": "RNAV",
		"updated": "11/24/2012"
	},
	{
		"name": "SYLIS",
		"latitude": "40-20-43.14 N",
		"longitude": "102-31-44.61 W",
		"state": "COLORADO",
		"artcc": "ZDV",
		"type": "RNAV",
		"updated": "03/19/2018"
	},
	{
		"name": "SYLVR",
		"latitude": "40-17-33.32 N",
		"longitude": "103-42-38.31 W",
		"state": "COLORADO",
		"artcc": "ZDV",
		"type": "RP",
		"updated": "SNY*VOR/DME*201.80/58.54"
	}
]
