	{
		"name": "TABLE",
		"latitude": "41-15-10.51 N",
		"longitude": "100-46-52.21 W",
		"state": "NEBRASKA",
		"artcc": "ZDV",
		"type": "RP",
		"updated": "OBH*VORTAC*259.96/110.00",
	},
	{
		"name": "TACUD",
		"latitude": "39-57-43.53 N",
		"longitude": "104-31-27.38 W",
		"state": "COLORADO",
		"artcc": "ZDV",
		"type": "RNAV",
		"updated": "07/16/2008",
	},
	{
		"name": "TACUK",
		"latitude": "40-29-27.24 N",
		"longitude": "107-14-37.53 W",
		"state": "COLORADO",
		"artcc": "ZDV",
		"type": "RP",
		"updated": "CHE*VOR/DME*108.00/3.30",
	},
	{
		"name": "TADUY",
		"latitude": "39-6-12.72 N",
		"longitude": "108-44-7.07 W",
		"state": "COLORADO",
		"artcc": "ZDV",
		"type": "RNAV",
		"updated": "07/05/2011",
	},
	{
		"name": "TAGKO",
		"latitude": "40-18-52.71 N",
		"longitude": "104-43-51.96 W",
		"state": "COLORADO",
		"artcc": "ZDV",
		"type": "RNAV",
		"updated": "11/24/2012",
	},
	{
		"name": "TAHIB",
		"latitude": "37-3-14.98 N",
		"longitude": "108-47-43.93 W",
		"state": "COLORADO",
		"artcc": "ZDV",
		"type": "RNAV",
		"updated": "10/10/2014",
	},
	{
		"name": "TAIIL",
		"latitude": "39-38-16.75 N",
		"longitude": "104-24-1.83 W",
		"state": "COLORADO",
		"artcc": "ZDV",
		"type": "RNAV",
		"updated": "11/24/2012",
	},
	{
		"name": "TAILR",
		"latitude": "39-50-29.74 N",
		"longitude": "104-50-5.93 W",
		"state": "COLORADO",
		"artcc": "ZDV",
		"type": "RP",
		"updated": "FQF*VORTAC*301.59",
	},
	{
		"name": "TAKSE",
		"latitude": "39-2-42.31 N",
		"longitude": "104-32-26.56 W",
		"state": "COLORADO",
		"artcc": "ZDV",
		"type": "WP",
		"updated": "11/02/1998",
	},
	{
		"name": "TALJE",
		"latitude": "39-34-0.04 N",
		"longitude": "107-29-59.93 W",
		"state": "COLORADO",
		"artcc": "ZDV",
		"type": "RNAV",
		"updated": "07/25/2000",
	},
	{
		"name": "TANRE",
		"latitude": "37-20-21.77 N",
		"longitude": "108-18-50.64 W",
		"state": "COLORADO",
		"artcc": "ZDV",
		"type": "RNAV",
		"updated": "02/17/2006",
	},
	{
		"name": "TANZU",
		"latitude": "37-14-35.04 N",
		"longitude": "109-30-44.37 W",
		"state": "UTAH",
		"artcc": "ZDV",
		"type": "WP",
		"updated": "11/02/1998",
	},
	{
		"name": "TARGS",
		"latitude": "44-23-16.24 N",
		"longitude": "103-8-6.62 W",
		"state": "SOUTH DAKOTA",
		"artcc": "ZDV",
		"type": "MR",
		"updated": "RCA*TACAN*343.50/15.00",
	},
	{
		"name": "TARIE",
		"latitude": "40-20-17.48 N",
		"longitude": "104-37-30.69 W",
		"state": "COLORADO",
		"artcc": "ZDV",
		"type": "RNAV",
		"updated": "03/16/2012",
	},
	{
		"name": "TATCO",
		"latitude": "43-53-23.07 N",
		"longitude": "102-47-18.52 W",
		"state": "SOUTH DAKOTA",
		"artcc": "ZDV",
		"type": "RP",
		"updated": "RAP*VORTAC*105.00/11.00",
	},
	{
		"name": "TATKE",
		"latitude": "37-2-57.21 N",
		"longitude": "104-44-14.43 W",
		"state": "COLORADO",
		"artcc": "ZDV",
		"type": "RP",
		"updated": "CIM*VORTAC*357.95/34.05",
	},
	{
		"name": "TATTR",
		"latitude": "40-32-44.91 N",
		"longitude": "102-0-33.63 W",
		"state": "NEBRASKA",
		"artcc": "ZDV",
		"type": "RP",
		"updated": "HCT*VORTAC*265.67/50.00",
	},
	{
		"name": "TAULB",
		"latitude": "40-27-46.72 N",
		"longitude": "107-9-48.55 W",
		"state": "COLORADO",
		"artcc": "ZDV",
		"type": "RNAV",
		"updated": "11/17/2014",
	},
	{
		"name": "TAVRN",
		"latitude": "39-46-53.35 N",
		"longitude": "105-16-24.44 W",
		"state": "COLORADO",
		"artcc": "ZDV",
		"type": "RNAV",
		"updated": "11/24/2012",
	},
	{
		"name": "TAYLR",
		"latitude": "38-47-36.18 N",
		"longitude": "106-44-2.52 W",
		"state": "COLORADO",
		"artcc": "ZDV",
		"type": "RP",
		"updated": "HBU*VOR/DME*021.01/25.00",
	},
	{
		"name": "TAYOT",
		"latitude": "41-58-53.62 N",
		"longitude": "103-52-48.47 W",
		"state": "NEBRASKA",
		"artcc": "ZDV",
		"type": "RNAV",
		"updated": "11/29/2012",
	},
	{
		"name": "TEBIE",
		"latitude": "36-44-19.81 N",
		"longitude": "108-20-0.16 W",
		"state": "NEW MEXICO",
		"artcc": "ZDV",
		"type": "RNAV",
		"updated": "04/04/2005",
	},
	{
		"name": "TECOB",
		"latitude": "40-10-29.06 N",
		"longitude": "102-14-29.29 W",
		"state": "COLORADO",
		"artcc": "ZDV",
		"type": "RNAV",
		"updated": "02/21/2018",
	},
	{
		"name": "TEDUE",
		"latitude": "40-32-5.67 N",
		"longitude": "107-22-41.49 W",
		"state": "COLORADO",
		"artcc": "ZDV",
		"type": "RNAV",
		"updated": "09/04/2015",
	},
	{
		"name": "TEEBO",
		"latitude": "39-43-12.65 N",
		"longitude": "105-33-38.9 W",
		"state": "COLORADO",
		"artcc": "ZDV",
		"type": "RNAV",
		"updated": "11/24/2012",
	},
	{
		"name": "TEHEV",
		"latitude": "38-33-52.01 N",
		"longitude": "105-24-2.19 W",
		"state": "COLORADO",
		"artcc": "ZDV",
		"type": "RP",
		"updated": "PUB*VORTAC*281.78",
	},
	{
		"name": "TEHHY",
		"latitude": "42-29-2.78 N",
		"longitude": "99-59-42.16 W",
		"state": "NEBRASKA",
		"artcc": "ZDV",
		"type": "WP",
		"updated": "11/02/1998",
	},
	{
		"name": "TEHRU",
		"latitude": "39-14-33.38 N",
		"longitude": "106-43-15.21 W",
		"state": "COLORADO",
		"artcc": "ZDV",
		"type": "RP",
		"updated": "DBL*VOR/DME*133.50",
	},
	{
		"name": "TEKAE",
		"latitude": "38-2-54.94 N",
		"longitude": "103-11-33.32 W",
		"state": "COLORADO",
		"artcc": "ZDV",
		"type": "RP",
		"updated": "LAA*VOR/DME*237.74/25.52",
	},
	{
		"name": "TEKGU",
		"latitude": "39-28-19.37 N",
		"longitude": "108-7-19.86 W",
		"state": "COLORADO",
		"artcc": "ZDV",
		"type": "RP",
		"updated": "RIL*VOR/DME*249.90/19.00",
	},
	{
		"name": "TEKMY",
		"latitude": "39-58-34.12 N",
		"longitude": "102-21-12.32 W",
		"state": "COLORADO",
		"artcc": "ZDV",
		"type": "RP",
		"updated": "DEN*VOR/DME*076.00/107.00",
	},
	{
		"name": "TELCU",
		"latitude": "41-36-20.24 N",
		"longitude": "106-53-42.18 W",
		"state": "WYOMING",
		"artcc": "ZDV",
		"type": "RNAV",
		"updated": "09/11/2006",
	},
	{
		"name": "TELLR",
		"latitude": "39-26-6.07 N",
		"longitude": "104-45-44.12 W",
		"state": "COLORADO",
		"artcc": "ZDV",
		"type": "RNAV",
		"updated": "09/22/2012",
	},
	{
		"name": "TELSE",
		"latitude": "39-1-0.31 N",
		"longitude": "108-21-29.89 W",
		"state": "COLORADO",
		"artcc": "ZDV",
		"type": "RNAV",
		"updated": "10/07/2003",
	},
	{
		"name": "TELSY",
		"latitude": "40-44-54.54 N",
		"longitude": "102-16-46.96 W",
		"state": "COLORADO",
		"artcc": "ZDV",
		"type": "WP",
		"updated": "11/02/1998",
	},
	{
		"name": "TEPTY",
		"latitude": "40-38-36.1 N",
		"longitude": "99-37-54.74 W",
		"state": "NEBRASKA",
		"artcc": "ZDV",
		"type": "RNAV",
		"updated": "03/23/2007",
	},
	{
		"name": "TEROE",
		"latitude": "39-31-10.98 N",
		"longitude": "107-50-3.99 W",
		"state": "COLORADO",
		"artcc": "ZDV",
		"type": "RNAV",
		"updated": "11/08/2010",
	},
	{
		"name": "TERRO",
		"latitude": "38-53-27.94 N",
		"longitude": "105-52-23.04 W",
		"state": "COLORADO",
		"artcc": "ZDV",
		"type": "RP",
		"updated": "DBL*VOR/DME*112.26",
	},
	{
		"name": "TESKY",
		"latitude": "38-31-20.85 N",
		"longitude": "106-26-52.49 W",
		"state": "COLORADO",
		"artcc": "ZDV",
		"type": "RNAV",
		"updated": "08/16/2010",
	},
	{
		"name": "TESSY",
		"latitude": "39-29-46.32 N",
		"longitude": "108-49-47.36 W",
		"state": "COLORADO",
		"artcc": "ZDV",
		"type": "RP",
		"updated": "JNC*VOR/DME*341.22/26.23",
	},
	{
		"name": "TETOY",
		"latitude": "39-26-1.71 N",
		"longitude": "101-46-58.9 W",
		"state": "KANSAS",
		"artcc": "ZDV",
		"type": "RNAV",
		"updated": "11/18/2015",
	},
	{
		"name": "TEVRE",
		"latitude": "40-28-32.28 N",
		"longitude": "107-43-40.17 W",
		"state": "COLORADO",
		"artcc": "ZDV",
		"type": "RNAV",
		"updated": "04/06/2018",
	},
	{
		"name": "TEXCO",
		"latitude": "38-58-16.53 N",
		"longitude": "104-30-57.64 W",
		"state": "COLORADO",
		"artcc": "ZDV",
		"type": "RNAV",
		"updated": "08/17/2010",
	},
	{
		"name": "THHEE",
		"latitude": "39-47-21.43 N",
		"longitude": "106-40-34.42 W",
		"state": "COLORADO",
		"artcc": "ZDV",
		"type": "RNAV",
		"updated": "12/11/2017",
	},
	{
		"name": "THOAR",
		"latitude": "39-39-10.21 N",
		"longitude": "104-1-54.71 W",
		"state": "COLORADO",
		"artcc": "ZDV",
		"type": "RNAV",
		"updated": "02/03/2017",
	},
	{
		"name": "THRUU",
		"latitude": "39-24-9.61 N",
		"longitude": "105-18-32.18 W",
		"state": "COLORADO",
		"artcc": "ZDV",
		"type": "RNAV",
		"updated": "09/25/2012",
	},
	{
		"name": "TIGHT",
		"latitude": "39-52-28.24 N",
		"longitude": "104-24-12.7 W",
		"state": "COLORADO",
		"artcc": "ZDV",
		"type": "RNAV",
		"updated": "11/24/2012",
	},
	{
		"name": "TIKET",
		"latitude": "39-23-14.38 N",
		"longitude": "106-56-50.64 W",
		"state": "COLORADO",
		"artcc": "ZDV",
		"type": "RP",
		"updated": "ASE*LE*330.63/11.33",
	},
	{
		"name": "TIKLR",
		"latitude": "39-37-34.3 N",
		"longitude": "104-54-21.73 W",
		"state": "COLORADO",
		"artcc": "ZDV",
		"type": "RNAV",
		"updated": "11/24/2012",
	},
	{
		"name": "TILLI",
		"latitude": "40-14-2.3 N",
		"longitude": "106-49-30.1 W",
		"state": "COLORADO",
		"artcc": "ZDV",
		"type": "RP",
		"updated": "CHE*VOR/DME*113.78/27.90",
	},
	{
		"name": "TIPOC",
		"latitude": "38-31-57.33 N",
		"longitude": "106-48-29.54 W",
		"state": "COLORADO",
		"artcc": "ZDV",
		"type": "RNAV",
		"updated": "06/08/2009",
	},
	{
		"name": "TIRUE",
		"latitude": "41-41-16.73 N",
		"longitude": "99-2-4.65 W",
		"state": "NEBRASKA",
		"artcc": "ZDV",
		"type": "RNAV",
		"updated": "03/16/2009",
	},
	{
		"name": "TLRID",
		"latitude": "39-32-42.4 N",
		"longitude": "105-11-47.93 W",
		"state": "COLORADO",
		"artcc": "ZDV",
		"type": "RNAV",
		"updated": "09/25/2012",
	},
	{
		"name": "TOADD",
		"latitude": "36-17-45.6 N",
		"longitude": "111-30-37.21 W",
		"state": "ARIZONA",
		"artcc": "ZDV",
		"type": "RNAV",
		"updated": "01/20/2016",
	},
	{
		"name": "TOBPU",
		"latitude": "39-31-55.77 N",
		"longitude": "107-26-47.09 W",
		"state": "COLORADO",
		"artcc": "ZDV",
		"type": "RNAV",
		"updated": "11/08/2010",
	},
	{
		"name": "TOCUT",
		"latitude": "37-27-56.79 N",
		"longitude": "105-57-54.57 W",
		"state": "COLORADO",
		"artcc": "ZDV",
		"type": "RP",
		"updated": "ALS*VORTAC*301.38/10.00",
	},
	{
		"name": "TODDE",
		"latitude": "38-15-7.57 N",
		"longitude": "103-36-59.43 W",
		"state": "COLORADO",
		"artcc": "ZDV",
		"type": "RP",
		"updated": "PUB*VORTAC*085.51/38.49",
	},
	{
		"name": "TODVE",
		"latitude": "41-10-41.66 N",
		"longitude": "105-8-3.59 W",
		"state": "WYOMING",
		"artcc": "ZDV",
		"type": "RNAV",
		"updated": "07/24/2008",
	},
	{
		"name": "TOJAM",
		"latitude": "40-3-27.12 N",
		"longitude": "107-39-58.1 W",
		"state": "COLORADO",
		"artcc": "ZDV",
		"type": "RP",
		"updated": "CHE*VOR/DME*197.00/32.31",
	},
	{
		"name": "TOKKU",
		"latitude": "40-41-32.75 N",
		"longitude": "99-47-28.1 W",
		"state": "NEBRASKA",
		"artcc": "ZDV",
		"type": "RP",
		"updated": "LBF*VOR/DME*104.83",
	},
	{
		"name": "TOMSN",
		"latitude": "40-21-24.27 N",
		"longitude": "105-26-13.05 W",
		"state": "COLORADO",
		"artcc": "ZDV",
		"type": "RP",
		"updated": "GLL*VOR/DME*245.00",
	},
	{
		"name": "TONAE",
		"latitude": "39-24-6.42 N",
		"longitude": "108-5-33.45 W",
		"state": "COLORADO",
		"artcc": "ZDV",
		"type": "RNAV",
		"updated": "08/13/2008",
	},
	{
		"name": "TOOKE",
		"latitude": "44-0-27.8 N",
		"longitude": "105-28-39.09 W",
		"state": "WYOMING",
		"artcc": "ZDV",
		"type": "RP",
		"updated": "CZI*VOR/DME*076.00",
	},
	{
		"name": "TORLE",
		"latitude": "41-49-45.37 N",
		"longitude": "99-10-36.27 W",
		"state": "NEBRASKA",
		"artcc": "ZDV",
		"type": "RNAV",
		"updated": "06/11/2013",
	},
	{
		"name": "TOSOE",
		"latitude": "42-39-18.94 N",
		"longitude": "100-15-6.75 W",
		"state": "NEBRASKA",
		"artcc": "ZDV",
		"type": "RNAV",
		"updated": "04/16/2008",
	},
	{
		"name": "TOTTT",
		"latitude": "40-15-49.64 N",
		"longitude": "105-3-14.68 W",
		"state": "COLORADO",
		"artcc": "ZDV",
		"type": "RNAV",
		"updated": "09/25/2012",
	},
	{
		"name": "TRAIN",
		"latitude": "39-18-17.93 N",
		"longitude": "104-33-27.62 W",
		"state": "COLORADO",
		"artcc": "ZDV",
		"type": "RNAV",
		"updated": "05/07/2013",
	},
	{
		"name": "TRPEL",
		"latitude": "37-58-50.48 N",
		"longitude": "104-53-45.68 W",
		"state": "COLORADO",
		"artcc": "ZDV",
		"type": "RP",
		"updated": "PUB*VORTAC*221.75/29.00",
	},
	{
		"name": "TRTTL",
		"latitude": "44-18-1.43 N",
		"longitude": "104-44-22.04 W",
		"state": "WYOMING",
		"artcc": "ZDV",
		"type": "RNAV",
		"updated": "02/15/2012",
	},
	{
		"name": "TRUEL",
		"latitude": "39-41-16.29 N",
		"longitude": "107-17-53.69 W",
		"state": "COLORADO",
		"artcc": "ZDV",
		"type": "RP",
		"updated": "DBL*VOR/DME*296.63/23.93",
	},
	{
		"name": "TRUMA",
		"latitude": "41-38-21.85 N",
		"longitude": "107-2-52.27 W",
		"state": "WYOMING",
		"artcc": "ZDV",
		"type": "RP",
		"updated": "CKW*VOR/DME*091.02/25.00",
	},
	{
		"name": "TRUNK",
		"latitude": "40-20-22.49 N",
		"longitude": "100-47-14.69 W",
		"state": "NEBRASKA",
		"artcc": "ZDV",
		"type": "RP",
		"updated": "MCK*LD*NW CRS/12.61",
	},
	{
		"name": "TRYAL",
		"latitude": "42-52-18.41 N",
		"longitude": "103-18-47.24 W",
		"state": "NEBRASKA",
		"artcc": "ZDV",
		"type": "RNAV",
		"updated": "11/06/2002",
	},
	{
		"name": "TSHNR",
		"latitude": "40-21-21.13 N",
		"longitude": "104-44-51.74 W",
		"state": "COLORADO",
		"artcc": "ZDV",
		"type": "RNAV",
		"updated": "09/25/2012",
	},
	{
		"name": "TUCFY",
		"latitude": "39-10-24.69 N",
		"longitude": "102-15-10.6 W",
		"state": "COLORADO",
		"artcc": "ZDV",
		"type": "RP",
		"updated": "GLD*VORTAC*231.98",
	},
	{
		"name": "TUCKK",
		"latitude": "39-6-28.59 N",
		"longitude": "106-8-7.04 W",
		"state": "COLORADO",
		"artcc": "ZDV",
		"type": "RNAV",
		"updated": "09/25/2012",
	},
	{
		"name": "TUGGL",
		"latitude": "39-43-56.54 N",
		"longitude": "104-41-52.68 W",
		"state": "COLORADO",
		"artcc": "ZDV",
		"type": "RNAV",
		"updated": "03/25/2012",
	},
	{
		"name": "TUKWY",
		"latitude": "41-7-3.88 N",
		"longitude": "101-29-17.12 W",
		"state": "NEBRASKA",
		"artcc": "ZDV",
		"type": "RNAV",
		"updated": "11/20/2012",
	},
	{
		"name": "TULLL",
		"latitude": "38-19-39 N",
		"longitude": "102-52-54 W",
		"state": "COLORADO",
		"artcc": "ZDV",
		"type": "RNAV",
		"updated": "09/06/2012",
	},
	{
		"name": "TUMBL",
		"latitude": "40-25-51.32 N",
		"longitude": "103-35-14.66 W",
		"state": "COLORADO",
		"artcc": "ZDV",
		"type": "RP",
		"updated": "SNY*VOR/DME*201.81/48.51",
	},
	{
		"name": "TUNEE",
		"latitude": "37-32-13.05 N",
		"longitude": "104-16-43.77 W",
		"state": "COLORADO",
		"artcc": "ZDV",
		"type": "RNAV",
		"updated": "07/21/2016",
	},
	{
		"name": "TUNNN",
		"latitude": "39-47-46.58 N",
		"longitude": "105-12-15.49 W",
		"state": "COLORADO",
		"artcc": "ZDV",
		"type": "RNAV",
		"updated": "11/24/2012",
	},
	{
		"name": "TUNTE",
		"latitude": "38-49-24.81 N",
		"longitude": "104-41-8.61 W",
		"state": "COLORADO",
		"artcc": "ZDV",
		"type": "RP",
		"updated": "LPI*LD*N CRS/2.85",
	},
	{
		"name": "TURBN",
		"latitude": "40-3-21.45 N",
		"longitude": "104-22-44.14 W",
		"state": "COLORADO",
		"artcc": "ZDV",
		"type": "RNAV",
		"updated": "11/24/2012",
	},
	{
		"name": "TURLY",
		"latitude": "36-45-59.52 N",
		"longitude": "107-46-4.22 W",
		"state": "NEW MEXICO",
		"artcc": "ZDV",
		"type": "RP",
		"updated": "RSK*VORTAC*072.00/16.00",
	},
	{
		"name": "TUSKK",
		"latitude": "40-20-10.67 N",
		"longitude": "106-40-55.77 W",
		"state": "COLORADO",
		"artcc": "ZDV",
		"type": "RNAV",
		"updated": "07/06/2011",
	},
	{
		"name": "TUSPE",
		"latitude": "39-25-35.56 N",
		"longitude": "107-17-46.22 W",
		"state": "COLORADO",
		"artcc": "ZDV",
		"type": "RNAV",
		"updated": "09/20/2010",
	},
	{
		"name": "TUTGE",
		"latitude": "44-9-52.97 N",
		"longitude": "103-7-39.32 W",
		"state": "SOUTH DAKOTA",
		"artcc": "ZDV",
		"type": "MR",
		"updated": "RCA*TACAN*316.00/1.90",
	},
	{
		"name": "TUTTY",
		"latitude": "44-44-44.85 N",
		"longitude": "104-39-30.36 W",
		"state": "WYOMING",
		"artcc": "ZDV",
		"type": "RNAV",
		"updated": "07/19/2016",
	},
	{
		"name": "TUULO",
		"latitude": "39-40-41.3 N",
		"longitude": "105-16-26.95 W",
		"state": "COLORADO",
		"artcc": "ZDV",
		"type": "RNAV",
		"updated": "11/24/2012",
	},
	{
		"name": "TUYPI",
		"latitude": "37-59-37.18 N",
		"longitude": "105-35-50.15 W",
		"state": "COLORADO",
		"artcc": "ZDV",
		"type": "RP",
		"updated": "ALS*VORTAC*002.00/40.00",
	},
	{
		"name": "TUYUY",
		"latitude": "38-14-33.57 N",
		"longitude": "108-34-3.43 W",
		"state": "COLORADO",
		"artcc": "ZDV",
		"type": "RNAV",
		"updated": "03/14/2007",
	},
	{
		"name": "TUZDO",
		"latitude": "37-49-57.29 N",
		"longitude": "105-39-7.88 W",
		"state": "COLORADO",
		"artcc": "ZDV",
		"type": "RP",
		"updated": "ALS*VORTAC*002.00/30.00",
	},
	{
		"name": "TWEDT",
		"latitude": "39-50-31.18 N",
		"longitude": "104-8-48.39 W",
		"state": "COLORADO",
		"artcc": "ZDV",
		"type": "RNAV",
		"updated": "11/24/2012",
	},
	{
		"name": "TWNSN",
		"latitude": "39-24-56.02 N",
		"longitude": "104-21-38.69 W",
		"state": "COLORADO",
		"artcc": "ZDV",
		"type": "RNAV",
		"updated": "10/16/2012",
	},
	{
		"name": "TWWIN",
		"latitude": "39-43-40.9 N",
		"longitude": "104-21-32.89 W",
		"state": "COLORADO",
		"artcc": "ZDV",
		"type": "RNAV",
		"updated": "11/24/2012",
	},
