	{
		"name": "UBAYU",
		"latitude": "42-3-26.89 N",
		"longitude": "102-56-46.33 W",
		"state": "NEBRASKA",
		"artcc": "ZDV",
		"type": "RNAV",
		"updated": "01/03/2007",
	},
	{
		"name": "UBBUF",
		"latitude": "37-4-0.59 N",
		"longitude": "105-56-37.46 W",
		"state": "COLORADO",
		"artcc": "ZDV",
		"type": "RP",
		"updated": "ALS*VORTAC*187.00/18.00",
	},
	{
		"name": "UBODE",
		"latitude": "42-5-2.31 N",
		"longitude": "104-36-15.33 W",
		"state": "WYOMING",
		"artcc": "ZDV",
		"type": "RNAV",
		"updated": "04/23/2012",
	},
	{
		"name": "UCEPO",
		"latitude": "37-5-8.76 N",
		"longitude": "107-48-59.21 W",
		"state": "COLORADO",
		"artcc": "ZDV",
		"type": "RNAV",
		"updated": "10/27/2008",
	},
	{
		"name": "UCHOZ",
		"latitude": "42-57-1.34 N",
		"longitude": "102-50-57.01 W",
		"state": "NEBRASKA",
		"artcc": "ZDV",
		"type": "RNAV",
		"updated": "07/25/2005",
	},
	{
		"name": "UCIGA",
		"latitude": "41-15-47.08 N",
		"longitude": "107-28-8.96 W",
		"state": "WYOMING",
		"artcc": "ZDV",
		"type": "RNAV",
		"updated": "08/10/2017",
	},
	{
		"name": "UCISE",
		"latitude": "39-16-7.18 N",
		"longitude": "106-52-57.22 W",
		"state": "COLORADO",
		"artcc": "ZDV",
		"type": "RNAV",
		"updated": "09/03/2008",
	},
	{
		"name": "UCUTI",
		"latitude": "40-29-18.73 N",
		"longitude": "102-16-39.24 W",
		"state": "COLORADO",
		"artcc": "ZDV",
		"type": "WP",
		"updated": "11/02/1998",
	},
	{
		"name": "UDEGE",
		"latitude": "41-28-15.93 N",
		"longitude": "99-3-6.95 W",
		"state": "NEBRASKA",
		"artcc": "ZDV",
		"type": "RNAV",
		"updated": "08/21/2015",
	},
	{
		"name": "UFVOD",
		"latitude": "42-3-22.83 N",
		"longitude": "100-48-11.24 W",
		"state": "NEBRASKA",
		"artcc": "ZDV",
		"type": "RNAV",
		"updated": "05/30/2010",
	},
	{
		"name": "UGEYU",
		"latitude": "38-26-41.08 N",
		"longitude": "107-53-32.65 W",
		"state": "COLORADO",
		"artcc": "ZDV",
		"type": "RNAV",
		"updated": "03/20/2009",
	},
	{
		"name": "UHIKI",
		"latitude": "38-40-26 N",
		"longitude": "106-5-29 W",
		"state": "COLORADO",
		"artcc": "ZDV",
		"type": "RNAV",
		"updated": "08/04/2014",
	},
	{
		"name": "UJOPO",
		"latitude": "40-48-10.26 N",
		"longitude": "99-5-0.04 W",
		"state": "NEBRASKA",
		"artcc": "ZDV",
		"type": "RNAV",
		"updated": "08/09/2012",
	},
	{
		"name": "UJYOY",
		"latitude": "37-35-3.01 N",
		"longitude": "105-36-58.36 W",
		"state": "COLORADO",
		"artcc": "ZDV",
		"type": "RP",
		"updated": "ALS*VORTAC*021.00/17.00",
	},
	{
		"name": "UKDAW",
		"latitude": "39-30-59.56 N",
		"longitude": "101-2-51.28 W",
		"state": "KANSAS",
		"artcc": "ZDV",
		"type": "RNAV",
		"updated": "08/26/2008",
	},
	{
		"name": "UNCEE",
		"latitude": "40-27-9.88 N",
		"longitude": "104-45-3.99 W",
		"state": "COLORADO",
		"artcc": "ZDV",
		"type": "RNAV",
		"updated": "07/03/2014",
	},
	{
		"name": "UNLAP",
		"latitude": "37-13-15.22 N",
		"longitude": "108-2-46.33 W",
		"state": "COLORADO",
		"artcc": "ZDV",
		"type": "RP",
		"updated": "RSK*VORTAC*351.10/28.43",
	},
	{
		"name": "UPZIV",
		"latitude": "38-29-22.03 N",
		"longitude": "105-16-5.37 W",
		"state": "COLORADO",
		"artcc": "ZDV",
		"type": "RNAV",
		"updated": "01/10/2013",
	},
	{
		"name": "USDEQ",
		"latitude": "39-47-38.17 N",
		"longitude": "104-31-27.25 W",
		"state": "COLORADO",
		"artcc": "ZDV",
		"type": "RP",
		"updated": "FZR*LD*351.99/0.34",
	},
	{
		"name": "USETY",
		"latitude": "43-0-14.12 N",
		"longitude": "101-33-52.51 W",
		"state": "SOUTH DAKOTA",
		"artcc": "ZDV",
		"type": "RNAV",
		"updated": "05/03/2016",
	},
	{
		"name": "USOPE",
		"latitude": "40-39-26.89 N",
		"longitude": "99-24-9.97 W",
		"state": "NEBRASKA",
		"artcc": "ZDV",
		"type": "RNAV",
		"updated": "01/22/2007",
	},
	{
		"name": "UTUCA",
		"latitude": "41-13-59.52 N",
		"longitude": "102-51-22.66 W",
		"state": "NEBRASKA",
		"artcc": "ZDV",
		"type": "RP",
		"updated": "SNY*VOR/DME*022.00/10.00",
	},
	{
		"name": "UVTUH",
		"latitude": "39-49-20.15 N",
		"longitude": "106-56-5.03 W",
		"state": "COLORADO",
		"artcc": "ZDV",
		"type": "RP",
		"updated": "SXW*VOR/DME*000.72/11.85",
	},
	{
		"name": "UXAYU",
		"latitude": "36-11-32.78 N",
		"longitude": "109-33-44.41 W",
		"state": "ARIZONA",
		"artcc": "ZDV",
		"type": "RNAV",
		"updated": "12/07/2011",
	},
	{
		"name": "UYICA",
		"latitude": "39-53-24.37 N",
		"longitude": "99-54-31.28 W",
		"state": "KANSAS",
		"artcc": "ZDV",
		"type": "RNAV",
		"updated": "08/18/2010",
	},
	{
		"name": "UYICI",
		"latitude": "39-25-10.99 N",
		"longitude": "107-35-47.05 W",
		"state": "COLORADO",
		"artcc": "ZDV",
		"type": "CN",
		"updated": "11/08/2010",
	},
	{
		"name": "UYOGI",
		"latitude": "40-42-52.38 N",
		"longitude": "101-40-53.08 W",
		"state": "NEBRASKA",
		"artcc": "ZDV",
		"type": "RP",
		"updated": "LBF*VOR/DME*234.08/47.00",
	},
	{
		"name": "UYOTU",
		"latitude": "39-13-25.99 N",
		"longitude": "108-36-24.6 W",
		"state": "COLORADO",
		"artcc": "ZDV",
		"type": "CN",
		"updated": "07/05/2011",
	},
	{
		"name": "UYPOF",
		"latitude": "39-13-37.29 N",
		"longitude": "108-36-29.85 W",
		"state": "COLORADO",
		"artcc": "ZDV",
		"type": "CN",
		"updated": "07/05/2011",
	},
	{
		"name": "UYRAG",
		"latitude": "40-31-19.82 N",
		"longitude": "106-34-21.79 W",
		"state": "COLORADO",
		"artcc": "ZDV",
		"type": "RP",
		"updated": "CHE*VOR/DME*075.55/33.50",
	},
	{
		"name": "UYRIG",
		"latitude": "39-32-4.85 N",
		"longitude": "107-15-44.42 W",
		"state": "COLORADO",
		"artcc": "ZDV",
		"type": "RNAV",
		"updated": "04/16/2009",
	},
	{
		"name": "UYUXI",
		"latitude": "39-9-9.49 N",
		"longitude": "108-40-8.71 W",
		"state": "COLORADO",
		"artcc": "ZDV",
		"type": "CN",
		"updated": "07/05/2011",
	},
	{
		"name": "UZIGO",
		"latitude": "39-14-57.16 N",
		"longitude": "102-17-18.71 W",
		"state": "COLORADO",
		"artcc": "ZDV",
		"type": "WP",
		"updated": "11/02/1998",
	},
