[
	{
		"name": "VAIIL",
		"latitude": "39-27-26.76 N",
		"longitude": "104-41-27.11 W",
		"state": "COLORADO",
		"artcc": "ZDV",
		"type": "RNAV",
		"updated": "03/25/2012"
	},
	{
		"name": "VAILE",
		"latitude": "39-40-22.54 N",
		"longitude": "106-42-29.65 W",
		"state": "COLORADO",
		"artcc": "ZDV",
		"type": "RP",
		"updated": "RLG*VOR/DME*197.94/23.27"
	},
	{
		"name": "VAPUC",
		"latitude": "40-26-12.95 N",
		"longitude": "102-15-27.37 W",
		"state": "COLORADO",
		"artcc": "ZDV",
		"type": "RNAV",
		"updated": "08/23/2005"
	},
	{
		"name": "VAREQ",
		"latitude": "40-35-38.74 N",
		"longitude": "107-7-57.13 W",
		"state": "COLORADO",
		"artcc": "ZDV",
		"type": "RNAV",
		"updated": "04/06/2018"
	},
	{
		"name": "VAYUP",
		"latitude": "40-2-0.4 N",
		"longitude": "99-57-40.71 W",
		"state": "NEBRASKA",
		"artcc": "ZDV",
		"type": "RNAV",
		"updated": "08/18/2010"
	},
	{
		"name": "VCTRE",
		"latitude": "39-37-55.42 N",
		"longitude": "103-53-42.73 W",
		"state": "COLORADO",
		"artcc": "ZDV",
		"type": "RNAV",
		"updated": "11/24/2012"
	},
	{
		"name": "VEBAW",
		"latitude": "42-45-14.64 N",
		"longitude": "100-18-51.41 W",
		"state": "NEBRASKA",
		"artcc": "ZDV",
		"type": "RNAV",
		"updated": "04/06/2005"
	},
	{
		"name": "VEBBU",
		"latitude": "39-46-17.58 N",
		"longitude": "99-21-8.6 W",
		"state": "KANSAS",
		"artcc": "ZDV",
		"type": "RNAV",
		"updated": "01/12/2016"
	},
	{
		"name": "VEDUY",
		"latitude": "38-2-50.97 N",
		"longitude": "101-44-16.27 W",
		"state": "KANSAS",
		"artcc": "ZDV",
		"type": "RNAV",
		"updated": "07/22/2010"
	},
	{
		"name": "VEKCU",
		"latitude": "43-57-49.73 N",
		"longitude": "103-16-49.83 W",
		"state": "SOUTH DAKOTA",
		"artcc": "ZDV",
		"type": "RNAV",
		"updated": "07/26/2013"
	},
	{
		"name": "VELAA",
		"latitude": "40-16-42.41 N",
		"longitude": "104-26-6.43 W",
		"state": "COLORADO",
		"artcc": "ZDV",
		"type": "RNAV",
		"updated": "11/24/2012"
	},
	{
		"name": "VEPBU",
		"latitude": "37-16-6.73 N",
		"longitude": "107-3-56.81 W",
		"state": "COLORADO",
		"artcc": "ZDV",
		"type": "RNAV",
		"updated": "04/13/2016"
	},
	{
		"name": "VEPUY",
		"latitude": "37-4-8.63 N",
		"longitude": "106-0-19.69 W",
		"state": "COLORADO",
		"artcc": "ZDV",
		"type": "RNAV",
		"updated": "12/23/2008"
	},
	{
		"name": "VEYNE",
		"latitude": "42-0-29.19 N",
		"longitude": "100-40-58.68 W",
		"state": "NEBRASKA",
		"artcc": "ZDV",
		"type": "RNAV",
		"updated": "05/30/2010"
	},
	{
		"name": "VIBPU",
		"latitude": "39-44-8 N",
		"longitude": "104-31-27.2 W",
		"state": "COLORADO",
		"artcc": "ZDV",
		"type": "RNAV",
		"updated": "07/16/2008"
	},
	{
		"name": "VIDEE",
		"latitude": "41-20-12.74 N",
		"longitude": "104-32-20.46 W",
		"state": "WYOMING",
		"artcc": "ZDV",
		"type": "RP",
		"updated": "GLL*VOR/DME*347.73/49.95"
	},
	{
		"name": "VIGIL",
		"latitude": "37-56-3.37 N",
		"longitude": "104-31-10.43 W",
		"state": "COLORADO",
		"artcc": "ZDV",
		"type": "RP",
		"updated": "PUB*VORTAC*183.22/21.99"
	},
	{
		"name": "VIMPY",
		"latitude": "38-36-10.09 N",
		"longitude": "105-23-14.24 W",
		"state": "COLORADO",
		"artcc": "ZDV",
		"type": "CN",
		"updated": "12/04/2014"
	},
	{
		"name": "VIVFE",
		"latitude": "40-23-9.4 N",
		"longitude": "100-30-32.07 W",
		"state": "NEBRASKA",
		"artcc": "ZDV",
		"type": "RNAV",
		"updated": "10/03/2000"
	},
	{
		"name": "VIZQE",
		"latitude": "40-18-2.28 N",
		"longitude": "101-33-18.67 W",
		"state": "NEBRASKA",
		"artcc": "ZDV",
		"type": "RNAV",
		"updated": "05/10/2007"
	},
	{
		"name": "VKING",
		"latitude": "44-27-40 N",
		"longitude": "103-19-25 W",
		"state": "SOUTH DAKOTA",
		"artcc": "ZDV",
		"type": "RNAV",
		"updated": "09/23/2015"
	},
	{
		"name": "VOAXA",
		"latitude": "39-47-18.42 N",
		"longitude": "106-31-57.67 W",
		"state": "COLORADO",
		"artcc": "ZDV",
		"type": "RP",
		"updated": "RLG*VOR/DME*184.00/13.50"
	},
	{
		"name": "VOFWE",
		"latitude": "39-20-19.27 N",
		"longitude": "101-2-56.9 W",
		"state": "KANSAS",
		"artcc": "ZDV",
		"type": "RNAV",
		"updated": "07/21/2008"
	},
	{
		"name": "VOGFA",
		"latitude": "39-53-0.62 N",
		"longitude": "105-4-4.59 W",
		"state": "COLORADO",
		"artcc": "ZDV",
		"type": "RNAV",
		"updated": "10/12/2011"
	},
	{
		"name": "VOGIE",
		"latitude": "41-13-47.44 N",
		"longitude": "107-19-45.81 W",
		"state": "WYOMING",
		"artcc": "ZDV",
		"type": "RNAV",
		"updated": "08/10/2017"
	},
	{
		"name": "VOGXY",
		"latitude": "40-39-34.35 N",
		"longitude": "101-40-45.22 W",
		"state": "NEBRASKA",
		"artcc": "ZDV",
		"type": "RNAV",
		"updated": "06/13/2008"
	},
	{
		"name": "VONNN",
		"latitude": "39-44-51.26 N",
		"longitude": "105-26-2.41 W",
		"state": "COLORADO",
		"artcc": "ZDV",
		"type": "RNAV",
		"updated": "04/18/2017"
	},
	{
		"name": "VOPUZ",
		"latitude": "41-4-54.28 N",
		"longitude": "101-47-19.97 W",
		"state": "NEBRASKA",
		"artcc": "ZDV",
		"type": "RNAV",
		"updated": "06/13/2008"
	},
	{
		"name": "VPBEN",
		"latitude": "39-44-17 N",
		"longitude": "104-26-0 W",
		"state": "COLORADO",
		"artcc": "ZDV",
		"type": "VFR",
		"updated": "06/09/2004"
	},
	{
		"name": "VPFTG",
		"latitude": "39-44-21 N",
		"longitude": "104-32-45 W",
		"state": "COLORADO",
		"artcc": "ZDV",
		"type": "VFR",
		"updated": "06/09/2004"
	},
	{
		"name": "VPNIC",
		"latitude": "39-58-53.98 N",
		"longitude": "104-59-16.29 W",
		"state": "COLORADO",
		"artcc": "ZDV",
		"type": "VFR",
		"updated": "03/20/2009"
	},
	{
		"name": "VRAIN",
		"latitude": "38-24-5.28 N",
		"longitude": "106-5-7.4 W",
		"state": "COLORADO",
		"artcc": "ZDV",
		"type": "RNAV",
		"updated": "07/16/2014"
	},
	{
		"name": "VRYHI",
		"latitude": "39-23-32.58 N",
		"longitude": "105-10-19.93 W",
		"state": "COLORADO",
		"artcc": "ZDV",
		"type": "RNAV",
		"updated": "09/25/2012"
	},
	{
		"name": "VUBCU",
		"latitude": "39-47-22.11 N",
		"longitude": "104-17-36.94 W",
		"state": "COLORADO",
		"artcc": "ZDV",
		"type": "RNAV",
		"updated": "07/16/2008"
	},
	{
		"name": "VUGGI",
		"latitude": "43-5-18.04 N",
		"longitude": "101-38-30.41 W",
		"state": "SOUTH DAKOTA",
		"artcc": "ZDV",
		"type": "RNAV",
		"updated": "05/02/2016"
	},
	{
		"name": "VUNOW",
		"latitude": "39-10-40.53 N",
		"longitude": "106-18-26.21 W",
		"state": "COLORADO",
		"artcc": "ZDV",
		"type": "RNAV",
		"updated": "02/21/2008"
	},
	{
		"name": "VUXOH",
		"latitude": "39-11-24.98 N",
		"longitude": "108-38-42.98 W",
		"state": "COLORADO",
		"artcc": "ZDV",
		"type": "RNAV",
		"updated": "07/05/2011"
	}
]
