[
	{
		"name": "XBEEE",
		"latitude": "39-17-47.21 N",
		"longitude": "104-50-18.72 W",
		"state": "COLORADO",
		"artcc": "ZDV",
		"type": "RNAV",
		"updated": "06/05/2015"
	},
	{
		"name": "XBGIN",
		"latitude": "39-9-21.15 N",
		"longitude": "104-40-52.18 W",
		"state": "COLORADO",
		"artcc": "ZDV",
		"type": "RNAV",
		"updated": "09/23/2012"
	},
	{
		"name": "XBOXX",
		"latitude": "39-11-26.37 N",
		"longitude": "105-3-25.66 W",
		"state": "COLORADO",
		"artcc": "ZDV",
		"type": "RNAV",
		"updated": "09/23/2012"
	},
	{
		"name": "XEPWY",
		"latitude": "44-1-47.11 N",
		"longitude": "103-6-38.37 W",
		"state": "SOUTH DAKOTA",
		"artcc": "ZDV",
		"type": "RNAV",
		"updated": "07/26/2013"
	},
	{
		"name": "XFROM",
		"latitude": "39-13-19.01 N",
		"longitude": "104-40-6.57 W",
		"state": "COLORADO",
		"artcc": "ZDV",
		"type": "RNAV",
		"updated": "09/23/2012"
	},
	{
		"name": "XJOIN",
		"latitude": "39-10-19.53 N",
		"longitude": "104-56-31.31 W",
		"state": "COLORADO",
		"artcc": "ZDV",
		"type": "RNAV",
		"updated": "09/23/2012"
	},
	{
		"name": "XLENT",
		"latitude": "39-10-15.8 N",
		"longitude": "104-44-45.48 W",
		"state": "COLORADO",
		"artcc": "ZDV",
		"type": "RNAV",
		"updated": "09/23/2012"
	},
	{
		"name": "XMAAK",
		"latitude": "39-29-17.43 N",
		"longitude": "105-1-35.28 W",
		"state": "COLORADO",
		"artcc": "ZDV",
		"type": "RNAV",
		"updated": "09/24/2012"
	},
	{
		"name": "XOGSY",
		"latitude": "37-24-14.04 N",
		"longitude": "105-53-31.6 W",
		"state": "COLORADO",
		"artcc": "ZDV",
		"type": "RP",
		"updated": "ALS*VORTAC*298.88"
	},
	{
		"name": "XOZSU",
		"latitude": "40-27-28.21 N",
		"longitude": "107-50-41.6 W",
		"state": "COLORADO",
		"artcc": "ZDV",
		"type": "RP",
		"updated": "CHE*VOR/DME*247.59/25.00"
	},
	{
		"name": "XPATH",
		"latitude": "39-12-21.19 N",
		"longitude": "104-50-5.46 W",
		"state": "COLORADO",
		"artcc": "ZDV",
		"type": "RNAV",
		"updated": "06/05/2015"
	},
	{
		"name": "XSTRA",
		"latitude": "39-17-25.82 N",
		"longitude": "104-40-3.21 W",
		"state": "COLORADO",
		"artcc": "ZDV",
		"type": "RNAV",
		"updated": "09/24/2012"
	},
	{
		"name": "XTREM",
		"latitude": "39-20-21.94 N",
		"longitude": "106-55-27.98 W",
		"state": "COLORADO",
		"artcc": "ZDV",
		"type": "RP",
		"updated": "ASE*LE*330.63/8.27"
	},
	{
		"name": "XUKAW",
		"latitude": "39-9-7.4 N",
		"longitude": "108-40-47.18 W",
		"state": "COLORADO",
		"artcc": "ZDV",
		"type": "CN",
		"updated": "07/05/2011"
	},
	{
		"name": "XWILL",
		"latitude": "39-16-54.63 N",
		"longitude": "104-52-50.04 W",
		"state": "COLORADO",
		"artcc": "ZDV",
		"type": "RNAV",
		"updated": "09/24/2012"
	},
	{
		"name": "XYOUU",
		"latitude": "39-31-42.24 N",
		"longitude": "105-1-31.41 W",
		"state": "COLORADO",
		"artcc": "ZDV",
		"type": "RNAV",
		"updated": "09/24/2012"
	}
]
