	{
		"name": "ZABGU",
		"latitude": "37-58-42.3 N",
		"longitude": "108-2-57.71 W",
		"state": "COLORADO",
		"artcc": "ZDV",
		"type": "RP",
		"updated": "TEX*DD*272.90/6.43",
	},
	{
		"name": "ZADKA",
		"latitude": "40-56-55.22 N",
		"longitude": "100-6-2.59 W",
		"state": "NEBRASKA",
		"artcc": "ZDV",
		"type": "RNAV",
		"updated": "04/15/2008",
	},
	{
		"name": "ZADNA",
		"latitude": "40-28-9.14 N",
		"longitude": "107-11-23.25 W",
		"state": "COLORADO",
		"artcc": "ZDV",
		"type": "RNAV",
		"updated": "04/06/2018",
	},
	{
		"name": "ZAKOR",
		"latitude": "39-30-10.08 N",
		"longitude": "106-55-16.67 W",
		"state": "COLORADO",
		"artcc": "ZDV",
		"type": "RP",
		"updated": "DBL*VOR/DME*330.00/4.00",
	},
	{
		"name": "ZAKRY",
		"latitude": "39-22-47.16 N",
		"longitude": "107-12-15.76 W",
		"state": "COLORADO",
		"artcc": "ZDV",
		"type": "RNAV",
		"updated": "07/13/2009",
	},
	{
		"name": "ZALIS",
		"latitude": "39-48-36.44 N",
		"longitude": "108-8-28.12 W",
		"state": "COLORADO",
		"artcc": "ZDV",
		"type": "RNAV",
		"updated": "05/28/2010",
	},
	{
		"name": "ZAMAT",
		"latitude": "42-47-58.29 N",
		"longitude": "103-7-56.09 W",
		"state": "NEBRASKA",
		"artcc": "ZDV",
		"type": "RNAV",
		"updated": "12/14/2015",
	},
	{
		"name": "ZAMBI",
		"latitude": "43-57-1.85 N",
		"longitude": "103-22-45.77 W",
		"state": "SOUTH DAKOTA",
		"artcc": "ZDV",
		"type": "RP",
		"updated": "RAP*VORTAC*251.63/15.98",
	},
	{
		"name": "ZAMLO",
		"latitude": "38-55-51.89 N",
		"longitude": "104-42-56.81 W",
		"state": "COLORADO",
		"artcc": "ZDV",
		"type": "RNAV",
		"updated": "08/17/2010",
	},
	{
		"name": "ZANAB",
		"latitude": "40-28-57.85 N",
		"longitude": "107-37-53.78 W",
		"state": "COLORADO",
		"artcc": "ZDV",
		"type": "RP",
		"updated": "CHE*VOR/DME*247.59/15.12",
	},
	{
		"name": "ZANON",
		"latitude": "38-22-51.98 N",
		"longitude": "102-57-42.17 W",
		"state": "COLORADO",
		"artcc": "ZDV",
		"type": "RP",
		"updated": "LAA*VOR/DME*298.50/17.01",
	},
	{
		"name": "ZAPAA",
		"latitude": "37-43-15.85 N",
		"longitude": "105-37-22.7 W",
		"state": "COLORADO",
		"artcc": "ZDV",
		"type": "RNAV",
		"updated": "11/24/2012",
	},
	{
		"name": "ZAPER",
		"latitude": "41-57-15.16 N",
		"longitude": "105-2-23.98 W",
		"state": "WYOMING",
		"artcc": "ZDV",
		"type": "RNAV",
		"updated": "11/06/2002",
	},
	{
		"name": "ZARAT",
		"latitude": "38-2-49.22 N",
		"longitude": "103-48-23.46 W",
		"state": "COLORADO",
		"artcc": "ZDV",
		"type": "RNAV",
		"updated": "05/21/2003",
	},
	{
		"name": "ZAROS",
		"latitude": "37-59-21.6 N",
		"longitude": "102-20-21.6 W",
		"state": "COLORADO",
		"artcc": "ZDV",
		"type": "RNAV",
		"updated": "09/30/2014",
	},
	{
		"name": "ZAROT",
		"latitude": "40-18-34.48 N",
		"longitude": "102-57-44.62 W",
		"state": "COLORADO",
		"artcc": "ZDV",
		"type": "RNAV",
		"updated": "03/19/2018",
	},
	{
		"name": "ZASDA",
		"latitude": "41-10-18.66 N",
		"longitude": "101-48-52.3 W",
		"state": "NEBRASKA",
		"artcc": "ZDV",
		"type": "RNAV",
		"updated": "11/20/2012",
	},
	{
		"name": "ZAVLI",
		"latitude": "44-21-0.58 N",
		"longitude": "102-34-46.05 W",
		"state": "SOUTH DAKOTA",
		"artcc": "ZDV",
		"type": "RP",
		"updated": "RAP*VORTAC*026.64/29.21",
	},
	{
		"name": "ZAVOV",
		"latitude": "39-31-26.05 N",
		"longitude": "99-17-59.62 W",
		"state": "KANSAS",
		"artcc": "ZDV",
		"type": "RNAV",
		"updated": "10/29/2013",
	},
	{
		"name": "ZAXON",
		"latitude": "36-50-47.96 N",
		"longitude": "109-35-16.71 W",
		"state": "ARIZONA",
		"artcc": "ZDV",
		"type": "RNAV",
		"updated": "07/19/2011",
	},
	{
		"name": "ZEANS",
		"latitude": "37-23-1 N",
		"longitude": "107-37-37.41 W",
		"state": "COLORADO",
		"artcc": "ZDV",
		"type": "RP",
		"updated": "DRO*VOR/DME*009.00/15.00",
	},
	{
		"name": "ZEBAL",
		"latitude": "40-52-8.58 N",
		"longitude": "99-51-16.06 W",
		"state": "NEBRASKA",
		"artcc": "ZDV",
		"type": "RNAV",
		"updated": "03/23/2007",
	},
	{
		"name": "ZEDMO",
		"latitude": "41-7-4.26 N",
		"longitude": "101-43-6.7 W",
		"state": "NEBRASKA",
		"artcc": "ZDV",
		"type": "RNAV",
		"updated": "11/20/2012",
	},
	{
		"name": "ZEDOP",
		"latitude": "41-24-21.56 N",
		"longitude": "105-32-50.47 W",
		"state": "WYOMING",
		"artcc": "ZDV",
		"type": "RNAV",
		"updated": "07/01/2011",
	},
	{
		"name": "ZEGAN",
		"latitude": "42-56-51.44 N",
		"longitude": "106-24-56.83 W",
		"state": "WYOMING",
		"artcc": "ZDV",
		"type": "RP",
		"updated": "DDY*VOR/DME*203.45/10.54",
	},
	{
		"name": "ZEKEB",
		"latitude": "43-16-31.17 N",
		"longitude": "103-26-24.59 W",
		"state": "SOUTH DAKOTA",
		"artcc": "ZDV",
		"type": "RNAV",
		"updated": "04/26/2012",
	},
	{
		"name": "ZELOP",
		"latitude": "39-32-6.06 N",
		"longitude": "107-17-9.22 W",
		"state": "COLORADO",
		"artcc": "ZDV",
		"type": "RP",
		"updated": "RIL*LD*078.46/21.27",
	},
	{
		"name": "ZEMAD",
		"latitude": "38-32-31.33 N",
		"longitude": "107-54-4.87 W",
		"state": "COLORADO",
		"artcc": "ZDV",
		"type": "RNAV",
		"updated": "03/20/2009",
	},
	{
		"name": "ZENER",
		"latitude": "38-43-5.56 N",
		"longitude": "104-24-31.5 W",
		"state": "COLORADO",
		"artcc": "ZDV",
		"type": "RNAV",
		"updated": "04/01/2016",
	},
	{
		"name": "ZENFO",
		"latitude": "36-36-12.1 N",
		"longitude": "108-52-33.97 W",
		"state": "NEW MEXICO",
		"artcc": "ZDV",
		"type": "RP",
		"updated": "RSK*VORTAC*243.19/38.51",
	},
	{
		"name": "ZENRU",
		"latitude": "38-30-9.5 N",
		"longitude": "104-30-41.2 W",
		"state": "COLORADO",
		"artcc": "ZDV",
		"type": "RNAV",
		"updated": "05/07/2013",
	},
	{
		"name": "ZEPAL",
		"latitude": "40-30-10.93 N",
		"longitude": "107-26-16.55 W",
		"state": "COLORADO",
		"artcc": "ZDV",
		"type": "RNAV",
		"updated": "04/06/2018",
	},
	{
		"name": "ZERNA",
		"latitude": "40-10-56.31 N",
		"longitude": "104-18-12.95 W",
		"state": "COLORADO",
		"artcc": "ZDV",
		"type": "RP",
		"updated": "GLL*VOR/DME*136.23/22.42",
	},
	{
		"name": "ZETAX",
		"latitude": "40-49-37.69 N",
		"longitude": "103-21-3.6 W",
		"state": "COLORADO",
		"artcc": "ZDV",
		"type": "RNAV",
		"updated": "08/13/2012",
	},
	{
		"name": "ZETOD",
		"latitude": "41-5-1.82 N",
		"longitude": "101-43-49.83 W",
		"state": "NEBRASKA",
		"artcc": "ZDV",
		"type": "RNAV",
		"updated": "11/20/2012",
	},
	{
		"name": "ZEVAK",
		"latitude": "44-10-41.79 N",
		"longitude": "103-7-12.81 W",
		"state": "SOUTH DAKOTA",
		"artcc": "ZDV",
		"type": "RP",
		"updated": "RAP*VORTAC*326.00/13.00",
	},
	{
		"name": "ZIGBU",
		"latitude": "39-16-55.41 N",
		"longitude": "106-52-41.97 W",
		"state": "COLORADO",
		"artcc": "ZDV",
		"type": "RP",
		"updated": "DBL*VOR/DME*163.38/9.46",
	},
	{
		"name": "ZIGEE",
		"latitude": "37-31-10.35 N",
		"longitude": "102-46-48.58 W",
		"state": "COLORADO",
		"artcc": "ZDV",
		"type": "RNAV",
		"updated": "07/16/2014",
	},
	{
		"name": "ZIGGE",
		"latitude": "36-38-43.43 N",
		"longitude": "110-16-14.18 W",
		"state": "ARIZONA",
		"artcc": "ZDV",
		"type": "RNAV",
		"updated": "05/03/2002",
	},
	{
		"name": "ZIKOS",
		"latitude": "39-57-46.21 N",
		"longitude": "109-16-8.8 W",
		"state": "UTAH",
		"artcc": "ZDV",
		"type": "RP",
		"updated": "VEL*VOR/DME*142.48/27.00",
	},
	{
		"name": "ZIKRU",
		"latitude": "41-53-28.36 N",
		"longitude": "103-47-13.4 W",
		"state": "NEBRASKA",
		"artcc": "ZDV",
		"type": "RP",
		"updated": "BFF*VORTAC*256.36/13.67",
	},
	{
		"name": "ZILEV",
		"latitude": "41-6-59.28 N",
		"longitude": "101-42-35.97 W",
		"state": "NEBRASKA",
		"artcc": "ZDV",
		"type": "RP",
		"updated": "SAE*VOR/DME*086.00/3.00",
	},
	{
		"name": "ZIMMR",
		"latitude": "40-1-46.64 N",
		"longitude": "105-39-55.55 W",
		"state": "COLORADO",
		"artcc": "ZDV",
		"type": "RP",
		"updated": "DEN*VOR/DME*278.00/48.17",
	},
	{
		"name": "ZIMVI",
		"latitude": "38-35-47.63 N",
		"longitude": "107-53-34.83 W",
		"state": "COLORADO",
		"artcc": "ZDV",
		"type": "RP",
		"updated": "MTJ*VOR/DME*/5.41",
	},
	{
		"name": "ZINGS",
		"latitude": "37-44-46.33 N",
		"longitude": "106-14-53.23 W",
		"state": "COLORADO",
		"artcc": "ZDV",
		"type": "RNAV",
		"updated": "08/23/2017",
	},
	{
		"name": "ZIRAP",
		"latitude": "43-59-23.18 N",
		"longitude": "104-25-16.02 W",
		"state": "WYOMING",
		"artcc": "ZDV",
		"type": "RNAV",
		"updated": "09/22/2011",
	},
	{
		"name": "ZIRKL",
		"latitude": "40-7-56.94 N",
		"longitude": "101-22-17.29 W",
		"state": "NEBRASKA",
		"artcc": "ZDV",
		"type": "RNAV",
		"updated": "11/24/2012",
	},
	{
		"name": "ZIRKU",
		"latitude": "38-37-52.29 N",
		"longitude": "104-38-5.71 W",
		"state": "COLORADO",
		"artcc": "ZDV",
		"type": "RNAV",
		"updated": "04/01/2016",
	},
	{
		"name": "ZIRPO",
		"latitude": "39-36-28.14 N",
		"longitude": "101-28-26.07 W",
		"state": "KANSAS",
		"artcc": "ZDV",
		"type": "RNAV",
		"updated": "09/27/2016",
	},
	{
		"name": "ZISAS",
		"latitude": "40-29-28.94 N",
		"longitude": "102-12-38.17 W",
		"state": "COLORADO",
		"artcc": "ZDV",
		"type": "RNAV",
		"updated": "08/23/2005",
	},
	{
		"name": "ZITUG",
		"latitude": "38-27-22.66 N",
		"longitude": "104-28-47.75 W",
		"state": "COLORADO",
		"artcc": "ZDV",
		"type": "RP",
		"updated": "PUB*VORTAC*338.24/10.00",
	},
	{
		"name": "ZIVAD",
		"latitude": "38-56-21.49 N",
		"longitude": "104-31-8.01 W",
		"state": "COLORADO",
		"artcc": "ZDV",
		"type": "RNAV",
		"updated": "04/01/2016",
	},
	{
		"name": "ZIXUN",
		"latitude": "44-19-40.95 N",
		"longitude": "104-35-56.37 W",
		"state": "WYOMING",
		"artcc": "ZDV",
		"type": "RNAV",
		"updated": "02/12/2014",
	},
	{
		"name": "ZLOGR",
		"latitude": "39-44-31.6 N",
		"longitude": "104-27-12.6 W",
		"state": "COLORADO",
		"artcc": "ZDV",
		"type": "RNAV",
		"updated": "03/22/2012",
	},
	{
		"name": "ZNOBL",
		"latitude": "39-49-35.99 N",
		"longitude": "104-24-40.24 W",
		"state": "COLORADO",
		"artcc": "ZDV",
		"type": "RNAV",
		"updated": "03/22/2012",
	},
	{
		"name": "ZOBAK",
		"latitude": "39-31-19.54 N",
		"longitude": "107-33-36.81 W",
		"state": "COLORADO",
		"artcc": "ZDV",
		"type": "RP",
		"updated": "RIL*VOR/DME*082.84/7.41",
	},
	{
		"name": "ZODLU",
		"latitude": "37-29-2.77 N",
		"longitude": "104-59-26.49 W",
		"state": "COLORADO",
		"artcc": "ZDV",
		"type": "RNAV",
		"updated": "09/13/2013",
	},
	{
		"name": "ZODMA",
		"latitude": "44-24-39.24 N",
		"longitude": "103-41-10.79 W",
		"state": "SOUTH DAKOTA",
		"artcc": "ZDV",
		"type": "WP",
		"updated": "05/23/2011",
	},
	{
		"name": "ZODSY",
		"latitude": "39-37-17.33 N",
		"longitude": "107-3-30.69 W",
		"state": "COLORADO",
		"artcc": "ZDV",
		"type": "WP",
		"updated": "06/21/2001",
	},
	{
		"name": "ZOGAG",
		"latitude": "40-38-49.9 N",
		"longitude": "102-20-5 W",
		"state": "COLORADO",
		"artcc": "ZDV",
		"type": "RNAV",
		"updated": "08/23/2005",
	},
	{
		"name": "ZOGAN",
		"latitude": "41-24-53.4 N",
		"longitude": "106-54-46.77 W",
		"state": "WYOMING",
		"artcc": "ZDV",
		"type": "RNAV",
		"updated": "04/04/2011",
	},
	{
		"name": "ZOLGA",
		"latitude": "41-42-0.69 N",
		"longitude": "107-19-31.31 W",
		"state": "WYOMING",
		"artcc": "ZDV",
		"type": "RP",
		"updated": "CKW*VOR/DME*091.02/12.00",
	},
	{
		"name": "ZOMBU",
		"latitude": "40-31-18.17 N",
		"longitude": "106-56-0.12 W",
		"state": "COLORADO",
		"artcc": "ZDV",
		"type": "RP",
		"updated": "CHE*VOR/DME*075.55/17.00",
	},
	{
		"name": "ZOMBZ",
		"latitude": "39-11-20.18 N",
		"longitude": "105-11-32.96 W",
		"state": "COLORADO",
		"artcc": "ZDV",
		"type": "RNAV",
		"updated": "09/24/2012",
	},
	{
		"name": "ZOMOR",
		"latitude": "39-15-28.72 N",
		"longitude": "99-18-25.26 W",
		"state": "KANSAS",
		"artcc": "ZDV",
		"type": "RNAV",
		"updated": "10/29/2013",
	},
	{
		"name": "ZOMUN",
		"latitude": "38-29-4.19 N",
		"longitude": "105-13-30.78 W",
		"state": "COLORADO",
		"artcc": "ZDV",
		"type": "RNAV",
		"updated": "01/10/2013",
	},
	{
		"name": "ZONUR",
		"latitude": "39-31-28.12 N",
		"longitude": "107-49-39.95 W",
		"state": "COLORADO",
		"artcc": "ZDV",
		"type": "RNAV",
		"updated": "11/08/2010",
	},
	{
		"name": "ZORIM",
		"latitude": "41-11-2.49 N",
		"longitude": "105-54-41.33 W",
		"state": "WYOMING",
		"artcc": "ZDV",
		"type": "RNAV",
		"updated": "07/01/2011",
	},
	{
		"name": "ZORIS",
		"latitude": "41-0-58.7 N",
		"longitude": "104-38-12.67 W",
		"state": "WYOMING",
		"artcc": "ZDV",
		"type": "RNAV",
		"updated": "07/24/2008",
	},
	{
		"name": "ZORSU",
		"latitude": "37-44-20.69 N",
		"longitude": "104-43-23.43 W",
		"state": "COLORADO",
		"artcc": "ZDV",
		"type": "RNAV",
		"updated": "01/22/2013",
	},
	{
		"name": "ZORUM",
		"latitude": "37-42-2.17 N",
		"longitude": "104-51-36.22 W",
		"state": "COLORADO",
		"artcc": "ZDV",
		"type": "RNAV",
		"updated": "08/26/2013",
	},
	{
		"name": "ZOTOS",
		"latitude": "36-59-26.81 N",
		"longitude": "105-51-35.05 W",
		"state": "NEW MEXICO",
		"artcc": "ZDV",
		"type": "RP",
		"updated": "ALS*VORTAC*172.65/21.58",
	},
	{
		"name": "ZOXOX",
		"latitude": "38-15-10.12 N",
		"longitude": "108-32-5.27 W",
		"state": "COLORADO",
		"artcc": "ZDV",
		"type": "RNAV",
		"updated": "03/14/2007",
	},
	{
		"name": "ZPLYN",
		"latitude": "38-43-19.31 N",
		"longitude": "103-21-31.87 W",
		"state": "COLORADO",
		"artcc": "ZDV",
		"type": "RNAV",
		"updated": "09/25/2012",
	},
	{
		"name": "ZUBUB",
		"latitude": "41-17-35.61 N",
		"longitude": "107-16-20.45 W",
		"state": "WYOMING",
		"artcc": "ZDV",
		"type": "RNAV",
		"updated": "04/04/2011",
	},
	{
		"name": "ZUDIM",
		"latitude": "44-7-45.86 N",
		"longitude": "103-7-16.44 W",
		"state": "SOUTH DAKOTA",
		"artcc": "ZDV",
		"type": "RNAV",
		"updated": "02/02/2010",
	},
	{
		"name": "ZUKSO",
		"latitude": "38-58-25.34 N",
		"longitude": "109-3-17.38 W",
		"state": "COLORADO",
		"artcc": "ZDV",
		"type": "RP",
		"updated": "JNC*VOR/DME*232.32/13.30",
	},
	{
		"name": "ZULOK",
		"latitude": "44-6-5.19 N",
		"longitude": "101-41-39.67 W",
		"state": "SOUTH DAKOTA",
		"artcc": "ZDV",
		"type": "RNAV",
		"updated": "12/23/2013",
	},
	{
		"name": "ZULON",
		"latitude": "40-30-46.38 N",
		"longitude": "107-18-44.99 W",
		"state": "COLORADO",
		"artcc": "ZDV",
		"type": "RNAV",
		"updated": "09/04/2015",
	},
	{
		"name": "ZULSU",
		"latitude": "38-26-34.62 N",
		"longitude": "107-52-59.66 W",
		"state": "COLORADO",
		"artcc": "ZDV",
		"type": "RNAV",
		"updated": "03/20/2009",
	},
	{
		"name": "ZULVO",
		"latitude": "37-41-27.02 N",
		"longitude": "104-40-27.61 W",
		"state": "COLORADO",
		"artcc": "ZDV",
		"type": "RNAV",
		"updated": "01/22/2013",
	},
	{
		"name": "ZUNAK",
		"latitude": "39-4-56.2 N",
		"longitude": "104-40-17.78 W",
		"state": "COLORADO",
		"artcc": "ZDV",
		"type": "RNAV",
		"updated": "04/01/2016",
	},
	{
		"name": "ZUNUB",
		"latitude": "42-0-51.84 N",
		"longitude": "102-45-21.46 W",
		"state": "NEBRASKA",
		"artcc": "ZDV",
		"type": "RNAV",
		"updated": "08/16/2010",
	},
	{
		"name": "ZUPGI",
		"latitude": "40-30-32.62 N",
		"longitude": "107-24-1.71 W",
		"state": "COLORADO",
		"artcc": "ZDV",
		"type": "RP",
		"updated": "CHE*VOR/DME*247.44/4.42",
	},
