	{
		"name": "AAAME",
		"latitude": "37-46-15.27 N",
		"longitude": "122-4-58.12 W",
		"state": "CALIFORNIA",
		"artcc": "ZOA",
		"type": "RNAV",
		"updated": "12/16/2014",
	},
	{
		"name": "AANET",
		"latitude": "38-31-50.77 N",
		"longitude": "122-29-49.9 W",
		"state": "CALIFORNIA",
		"artcc": "ZOA",
		"type": "RNAV",
		"updated": "12/16/2014",
	},
	{
		"name": "ACEKO",
		"latitude": "39-1-13.76 N",
		"longitude": "120-31-0.15 W",
		"state": "CALIFORNIA",
		"artcc": "ZOA",
		"type": "RP",
		"updated": "SWR*VOR/DME*214.38/15.00",
	},
	{
		"name": "ACETY",
		"latitude": "36-56-3.09 N",
		"longitude": "121-30-57.11 W",
		"state": "CALIFORNIA",
		"artcc": "ZOA",
		"type": "RNAV",
		"updated": "02/26/2018",
	},
	{
		"name": "ACHOZ",
		"latitude": "37-18-6 N",
		"longitude": "122-2-29.52 W",
		"state": "CALIFORNIA",
		"artcc": "ZOA",
		"type": "CN",
		"updated": "07/10/2002",
	},
	{
		"name": "ACIYO",
		"latitude": "36-24-22.39 N",
		"longitude": "121-24-21.05 W",
		"state": "CALIFORNIA",
		"artcc": "ZOA",
		"type": "RNAV",
		"updated": "07/06/2009",
	},
	{
		"name": "ACOVY",
		"latitude": "39-51-41.46 N",
		"longitude": "119-59-31.42 W",
		"state": "NEVADA",
		"artcc": "ZOA",
		"type": "WP",
		"updated": "FMG*VORTAC*305.94/25.18",
	},
	{
		"name": "ACUTI",
		"latitude": "38-31-30.4 N",
		"longitude": "122-49-4.36 W",
		"state": "CALIFORNIA",
		"artcc": "ZOA",
		"type": "RNAV",
		"updated": "10/06/2014",
	},
	{
		"name": "ADABE",
		"latitude": "9-35-48.93 N",
		"longitude": "138-14-50.31 E",
		"state": "",
		"artcc": "ZOA",
		"type": "RP",
		"updated": "YP*NDB/DME*057.26/11.07",
	},
	{
		"name": "ADAFE",
		"latitude": "39-39-10.43 N",
		"longitude": "123-20-47.71 W",
		"state": "CALIFORNIA",
		"artcc": "ZOA",
		"type": "CN",
		"updated": "07/10/2002",
	},
	{
		"name": "ADAYI",
		"latitude": "13-34-20.9 N",
		"longitude": "144-58-15.04 E",
		"state": "GUAM",
		"artcc": "ZOA",
		"type": "RP",
		"updated": "AJA*NDB*060.51",
	},
	{
		"name": "ADBAW",
		"latitude": "39-35-47.53 N",
		"longitude": "123-26-7.99 W",
		"state": "CALIFORNIA",
		"artcc": "ZOA",
		"type": "WP",
		"updated": "09/13/2010",
	},
	{
		"name": "ADDMM",
		"latitude": "37-46-15.7 N",
		"longitude": "121-42-30.91 W",
		"state": "CALIFORNIA",
		"artcc": "ZOA",
		"type": "RNAV",
		"updated": "02/23/2015",
	},
	{
		"name": "ADDPO",
		"latitude": "7-53-10 N",
		"longitude": "132-5-25 E",
		"state": "OFFSHORE PACIFIC",
		"artcc": "ZOA",
		"type": "RNAV",
		"updated": "02/14/2011",
	},
	{
		"name": "ADISN",
		"latitude": "4-1-26 N",
		"longitude": "175-21-9 W",
		"state": "OFFSHORE PACIFIC",
		"artcc": "ZOA",
		"type": "RNAV",
		"updated": "02/08/2008",
	},
	{
		"name": "ADMIF",
		"latitude": "38-1-48.76 N",
		"longitude": "120-37-32.3 W",
		"state": "CALIFORNIA",
		"artcc": "ZOA",
		"type": "RNAV",
		"updated": "02/09/2018",
	},
	{
		"name": "ADMIH",
		"latitude": "39-28-33.43 N",
		"longitude": "123-48-20.2 W",
		"state": "CALIFORNIA",
		"artcc": "ZOA",
		"type": "RNAV",
		"updated": "11/18/2014",
	},
	{
		"name": "ADOPE",
		"latitude": "28-30-50 N",
		"longitude": "148-49-30 W",
		"state": "OFFSHORE PACIFIC",
		"artcc": "ZOA",
		"type": "RNAV",
		"updated": "02/08/2008",
	},
	{
		"name": "ADOWA",
		"latitude": "13-42-26 N",
		"longitude": "165-49-35 W",
		"state": "OFFSHORE PACIFIC",
		"artcc": "ZOA",
		"type": "RNAV",
		"updated": "02/08/2008",
	},
	{
		"name": "ADTIL",
		"latitude": "34-58-42 N",
		"longitude": "134-42-14 W",
		"state": "OFFSHORE PACIFIC",
		"artcc": "ZOA",
		"type": "RNAV",
		"updated": "02/08/2008",
	},
	{
		"name": "ADUCU",
		"latitude": "38-11-54.5 N",
		"longitude": "122-23-56.48 W",
		"state": "CALIFORNIA",
		"artcc": "ZOA",
		"type": "RNAV",
		"updated": "02/09/2018",
	},
	{
		"name": "ADUGE",
		"latitude": "38-50-24.13 N",
		"longitude": "122-34-11.25 W",
		"state": "CALIFORNIA",
		"artcc": "ZOA",
		"type": "RNAV",
		"updated": "11/14/2014",
	},
	{
		"name": "ADUMM",
		"latitude": "33-51-59.97 N",
		"longitude": "128-47-4.36 W",
		"state": "OFFSHORE PACIFIC",
		"artcc": "ZOA",
		"type": "RNAV",
		"updated": "09/05/2008",
	},
	{
		"name": "ADUWY",
		"latitude": "38-57-18.41 N",
		"longitude": "123-0-26.93 W",
		"state": "CALIFORNIA",
		"artcc": "ZOA",
		"type": "RNAV",
		"updated": "11/18/2014",
	},
	{
		"name": "ADWAT",
		"latitude": "39-0-0 N",
		"longitude": "118-30-0 W",
		"state": "NEVADA",
		"artcc": "ZOA",
		"type": "RNAV",
		"updated": "05/09/2018",
	},
	{
		"name": "AFIVA",
		"latitude": "37-46-24.6 N",
		"longitude": "122-22-32.37 W",
		"state": "CALIFORNIA",
		"artcc": "ZOA",
		"type": "RNAV",
		"updated": "01/12/2015",
	},
	{
		"name": "AFONE",
		"latitude": "25-18-0 N",
		"longitude": "132-9-42 W",
		"state": "OFFSHORE PACIFIC",
		"artcc": "ZOA",
		"type": "RP",
		"updated": "05/06/2002",
	},
	{
		"name": "AFTIN",
		"latitude": "38-13-29.23 N",
		"longitude": "122-30-34.19 W",
		"state": "CALIFORNIA",
		"artcc": "ZOA",
		"type": "RP",
		"updated": "PYE*VOR/DME*045.75",
	},
	{
		"name": "AGAPE",
		"latitude": "37-10-40.94 N",
		"longitude": "121-55-34.1 W",
		"state": "CALIFORNIA",
		"artcc": "ZOA",
		"type": "MR",
		"updated": "NUQ*TACAN*/16.49",
	},
	{
		"name": "AGEKE",
		"latitude": "39-9-33.69 N",
		"longitude": "121-26-48.8 W",
		"state": "CALIFORNIA",
		"artcc": "ZOA",
		"type": "MR",
		"updated": "BAB*TACAN*333.00/1.50",
	},
	{
		"name": "AGIRE",
		"latitude": "8-45-8 N",
		"longitude": "132-27-35 E",
		"state": "OFFSHORE PACIFIC",
		"artcc": "ZOA",
		"type": "RNAV",
		"updated": "02/14/2011",
	},
	{
		"name": "AGODY",
		"latitude": "15-12-11.54 N",
		"longitude": "145-56-31.79 E",
		"state": "",
		"artcc": "ZOA",
		"type": "RNAV",
		"updated": "11/19/2010",
	},
	{
		"name": "AGOLY",
		"latitude": "9-30-3.58 N",
		"longitude": "167-35-20.72 E",
		"state": "",
		"artcc": "ZOA",
		"type": "MW",
		"updated": "10/28/2008",
	},
	{
		"name": "AHART",
		"latitude": "39-19-52.63 N",
		"longitude": "121-29-23.78 W",
		"state": "CALIFORNIA",
		"artcc": "ZOA",
		"type": "MR",
		"updated": "BAB*TACAN*333.00/12.00",
	},
	{
		"name": "AHNDO",
		"latitude": "24-25-42 N",
		"longitude": "131-24-42 W",
		"state": "OFFSHORE PACIFIC",
		"artcc": "ZOA",
		"type": "RP",
		"updated": "05/06/2002",
	},
	{
		"name": "AIBIE",
		"latitude": "7-20-50 N",
		"longitude": "133-23-30 E",
		"state": "OFFSHORE PACIFIC",
		"artcc": "ZOA",
		"type": "RNAV",
		"updated": "02/14/2011",
	},
	{
		"name": "AJFOR",
		"latitude": "37-26-18.12 N",
		"longitude": "118-23-57.14 W",
		"state": "CALIFORNIA",
		"artcc": "ZOA",
		"type": "CN",
		"updated": "12/22/1999",
	},
	{
		"name": "AJINK",
		"latitude": "20-7-0 N",
		"longitude": "163-18-0 W",
		"state": "OFFSHORE PACIFIC",
		"artcc": "ZOA",
		"type": "RNAV",
		"updated": "02/21/2008",
	},
	{
		"name": "AJSAJ",
		"latitude": "35-46-47.65 N",
		"longitude": "120-36-30.89 W",
		"state": "CALIFORNIA",
		"artcc": "ZOA",
		"type": "RP",
		"updated": "PRB*VORTAC*352.00/6.50",
	},
	{
		"name": "AJUDO",
		"latitude": "35-36-54.83 N",
		"longitude": "120-35-5.99 W",
		"state": "CALIFORNIA",
		"artcc": "ZOA",
		"type": "CN",
		"updated": "12/21/1999",
	},
	{
		"name": "AJUHO",
		"latitude": "40-27-44.34 N",
		"longitude": "122-18-16.19 W",
		"state": "CALIFORNIA",
		"artcc": "ZOA",
		"type": "CN",
		"updated": "12/21/1999",
	},
	{
		"name": "AJUYU",
		"latitude": "37-17-36.14 N",
		"longitude": "121-51-5.99 W",
		"state": "CALIFORNIA",
		"artcc": "ZOA",
		"type": "CN",
		"updated": "12/21/1999",
	},
	{
		"name": "AJVER",
		"latitude": "36-13-53.49 N",
		"longitude": "119-22-53.19 W",
		"state": "CALIFORNIA",
		"artcc": "ZOA",
		"type": "CN",
		"updated": "12/21/1999",
	},
	{
		"name": "AJXOX",
		"latitude": "39-1-19.2 N",
		"longitude": "123-10-23.89 W",
		"state": "CALIFORNIA",
		"artcc": "ZOA",
		"type": "RNAV",
		"updated": "08/10/2009",
	},
	{
		"name": "AKADY",
		"latitude": "35-50-4.82 N",
		"longitude": "119-24-46.4 W",
		"state": "CALIFORNIA",
		"artcc": "ZOA",
		"type": "RNAV",
		"updated": "09/08/2015",
	},
	{
		"name": "AKAPY",
		"latitude": "39-25-3.58 N",
		"longitude": "122-13-17.53 W",
		"state": "CALIFORNIA",
		"artcc": "ZOA",
		"type": "CN",
		"updated": "12/21/1999",
	},
	{
		"name": "AKCEV",
		"latitude": "36-48-53.9 N",
		"longitude": "120-33-45.63 W",
		"state": "CALIFORNIA",
		"artcc": "ZOA",
		"type": "CN",
		"updated": "12/21/1999",
	},
	{
		"name": "AKEVE",
		"latitude": "37-45-30.35 N",
		"longitude": "122-16-46.08 W",
		"state": "CALIFORNIA",
		"artcc": "ZOA",
		"type": "RNAV",
		"updated": "08/15/2014",
	},
	{
		"name": "AKGIC",
		"latitude": "39-11-7.35 N",
		"longitude": "123-12-59.76 W",
		"state": "CALIFORNIA",
		"artcc": "ZOA",
		"type": "RNAV",
		"updated": "08/10/2009",
	},
	{
		"name": "AKORD",
		"latitude": "36-43-44.94 N",
		"longitude": "121-51-13.93 W",
		"state": "CALIFORNIA",
		"artcc": "ZOA",
		"type": "MW",
		"updated": "SNS*VORTAC*271.01/12.72",
	},
	{
		"name": "ALANN",
		"latitude": "35-35-48 N",
		"longitude": "125-56-24 W",
		"state": "OFFSHORE PACIFIC",
		"artcc": "ZOA",
		"type": "RNAV",
		"updated": "01/26/2015",
	},
	{
		"name": "ALCAT",
		"latitude": "37-50-56.79 N",
		"longitude": "122-26-10.93 W",
		"state": "CALIFORNIA",
		"artcc": "ZOA",
		"type": "RP",
		"updated": "SFO*VOR/DME*330.83",
	},
	{
		"name": "ALCOA",
		"latitude": "37-49-59.71 N",
		"longitude": "125-50-4.29 W",
		"state": "OFFSHORE PACIFIC",
		"artcc": "ZOA",
		"type": "RP",
		"updated": "ENI*VORTAC*223.59/141.10",
	},
	{
		"name": "ALIXE",
		"latitude": "36-25-56.74 N",
		"longitude": "119-22-56.59 W",
		"state": "CALIFORNIA",
		"artcc": "ZOA",
		"type": "MR",
		"updated": "EHF*VORTAC*332.34/58.46",
	},
	{
		"name": "ALLBE",
		"latitude": "37-30-23 N",
		"longitude": "127-0-0 W",
		"state": "OFFSHORE PACIFIC",
		"artcc": "ZOA",
		"type": "RNAV",
		"updated": "01/26/2015",
	},
	{
		"name": "ALLXX",
		"latitude": "37-43-46.58 N",
		"longitude": "122-3-51.42 W",
		"state": "CALIFORNIA",
		"artcc": "ZOA",
		"type": "RNAV",
		"updated": "12/16/2014",
	},
	{
		"name": "ALMDN",
		"latitude": "37-27-26.38 N",
		"longitude": "121-45-20.3 W",
		"state": "CALIFORNIA",
		"artcc": "ZOA",
		"type": "RNAV",
		"updated": "01/13/2015",
	},
	{
		"name": "ALOHI",
		"latitude": "14-13-37.8 S",
		"longitude": "170-58-45.47 W",
		"state": "AMERICAN SAMOA",
		"artcc": "ZOA",
		"type": "RP",
		"updated": "TUT*VORTAC*279.71/17.00",
	},
	{
		"name": "ALOIN",
		"latitude": "37-45-28.79 N",
		"longitude": "122-16-55.64 W",
		"state": "CALIFORNIA",
		"artcc": "ZOA",
		"type": "RNAV",
		"updated": "08/12/2014",
	},
	{
		"name": "ALPIN",
		"latitude": "38-48-53.9 N",
		"longitude": "119-42-39.2 W",
		"state": "NEVADA",
		"artcc": "ZOA",
		"type": "RP",
		"updated": "LLC*VORTAC*198.20",
	},
	{
		"name": "ALTAM",
		"latitude": "37-48-43.82 N",
		"longitude": "121-44-49.54 W",
		"state": "CALIFORNIA",
		"artcc": "ZOA",
		"type": "RP",
		"updated": "LIN*VOR/DME*229.20",
	},
	{
		"name": "ALTTA",
		"latitude": "36-33-8.91 N",
		"longitude": "119-19-36.45 W",
		"state": "CALIFORNIA",
		"artcc": "ZOA",
		"type": "RP",
		"updated": "FRA*VORTAC*141.55/35.52",
	},
	{
		"name": "ALVAR",
		"latitude": "37-36-32.56 N",
		"longitude": "122-4-33.66 W",
		"state": "CALIFORNIA",
		"artcc": "ZOA",
		"type": "RP",
		"updated": "OSI*VOR/DME*020.00",
	},
	{
		"name": "ALWYS",
		"latitude": "37-38-0.31 N",
		"longitude": "120-57-33.95 W",
		"state": "CALIFORNIA",
		"artcc": "ZOA",
		"type": "RNAV",
		"updated": "02/23/2015",
	},
	{
		"name": "AMAKR",
		"latitude": "39-0-0 N",
		"longitude": "123-45-0 W",
		"state": "CALIFORNIA",
		"artcc": "ZOA",
		"type": "RP",
		"updated": "PYE*VOR/DME*306.30/69.04",
	},
	{
		"name": "AMATT",
		"latitude": "23-15-37 N",
		"longitude": "130-9-52 W",
		"state": "OFFSHORE PACIFIC",
		"artcc": "ZOA",
		"type": "RP",
		"updated": "05/06/2002",
	},
	{
		"name": "AMEBY",
		"latitude": "37-22-18.58 N",
		"longitude": "122-3-29.16 W",
		"state": "CALIFORNIA",
		"artcc": "ZOA",
		"type": "RNAV",
		"updated": "06/18/2010",
	},
	{
		"name": "AMEME",
		"latitude": "38-36-52.79 N",
		"longitude": "121-36-9.4 W",
		"state": "CALIFORNIA",
		"artcc": "ZOA",
		"type": "RNAV",
		"updated": "03/24/2015",
	},
	{
		"name": "AMIES",
		"latitude": "39-49-11.25 N",
		"longitude": "119-49-12.41 W",
		"state": "NEVADA",
		"artcc": "ZOA",
		"type": "RNAV",
		"updated": "04/20/2016",
	},
	{
		"name": "AMNIC",
		"latitude": "38-38-48.53 N",
		"longitude": "121-34-51.85 W",
		"state": "CALIFORNIA",
		"artcc": "ZOA",
		"type": "RNAV",
		"updated": "03/24/2015",
	},
	{
		"name": "AMNOT",
		"latitude": "38-17-15.25 N",
		"longitude": "121-53-26.25 W",
		"state": "CALIFORNIA",
		"artcc": "ZOA",
		"type": "MR",
		"updated": "SUU*TACAN*028.60/3.60",
	},
	{
		"name": "AMRVR",
		"latitude": "38-46-58.29 N",
		"longitude": "120-11-35.25 W",
		"state": "CALIFORNIA",
		"artcc": "ZOA",
		"type": "RNAV",
		"updated": "04/04/2012",
	},
	{
		"name": "AMUNE",
		"latitude": "38-45-38.59 N",
		"longitude": "121-36-0.69 W",
		"state": "CALIFORNIA",
		"artcc": "ZOA",
		"type": "RNAV",
		"updated": "11/24/2014",
	},
	{
		"name": "AMZAP",
		"latitude": "5-30-59.47 N",
		"longitude": "162-28-56.83 E",
		"state": "",
		"artcc": "ZOA",
		"type": "MR",
		"updated": "UKS*NDB/DME*281.16/30.00",
	},
	{
		"name": "ANAHO",
		"latitude": "39-57-39.97 N",
		"longitude": "119-24-56.3 W",
		"state": "NEVADA",
		"artcc": "ZOA",
		"type": "RP",
		"updated": "LLC*VORTAC*239.97/39.85",
	},
	{
		"name": "ANDEE",
		"latitude": "37-33-12.13 N",
		"longitude": "120-43-42.56 W",
		"state": "CALIFORNIA",
		"artcc": "ZOA",
		"type": "MR",
		"updated": "HYP*VOR/DME*307.00",
	},
	{
		"name": "ANETE",
		"latitude": "37-27-49.46 N",
		"longitude": "121-56-33.91 W",
		"state": "CALIFORNIA",
		"artcc": "ZOA",
		"type": "RP",
		"updated": "FNP*DD*100.81/22.39",
	},
	{
		"name": "ANEVY",
		"latitude": "15-26-0.51 N",
		"longitude": "146-16-26.47 E",
		"state": "GUAM",
		"artcc": "ZOA",
		"type": "RP",
		"updated": "UNZ*VORTAC*035.00/148.40",
	},
	{
		"name": "ANEZI",
		"latitude": "41-7-21.28 N",
		"longitude": "83-11-32.7 W",
		"state": "OHIO",
		"artcc": "ZOB",
		"type": "RNAV",
		"updated": "02/09/2018",
	},
	{
		"name": "ANGIF",
		"latitude": "37-21-50.16 N",
		"longitude": "121-50-54.88 W",
		"state": "CALIFORNIA",
		"artcc": "ZOA",
		"type": "RNAV",
		"updated": "06/12/2002",
	},
	{
		"name": "ANITR",
		"latitude": "14-9-44.5 S",
		"longitude": "170-56-31.42 W",
		"state": "AMERICAN SAMOA",
		"artcc": "ZOA",
		"type": "RP",
		"updated": "TUT*VORTAC*294.71/17.00",
	},
	{
		"name": "ANJEE",
		"latitude": "36-44-46.63 N",
		"longitude": "121-57-53.61 W",
		"state": "CALIFORNIA",
		"artcc": "ZOA",
		"type": "RP",
		"updated": "OAK*VOR/DME*151.00/60.00",
	},
	{
		"name": "ANJJE",
		"latitude": "5-0-0 N",
		"longitude": "145-25-48 W",
		"state": "OFFSHORE PACIFIC",
		"artcc": "ZOA",
		"type": "RP",
		"updated": "01/22/1993",
	},
	{
		"name": "APEVE",
		"latitude": "38-11-47.82 N",
		"longitude": "121-42-3.41 W",
		"state": "CALIFORNIA",
		"artcc": "ZOA",
		"type": "RP",
		"updated": "SAC*VORTAC*188.51/16.40",
	},
	{
		"name": "APIDD",
		"latitude": "21-49-46 N",
		"longitude": "128-1-19 W",
		"state": "OFFSHORE PACIFIC",
		"artcc": "ZOA",
		"type": "RP",
		"updated": "05/06/2002",
	},
	{
		"name": "APIME",
		"latitude": "39-11-59.58 N",
		"longitude": "119-46-12.23 W",
		"state": "NEVADA",
		"artcc": "ZOA",
		"type": "RP",
		"updated": "SWR*VOR/DME*070.96",
	},
	{
		"name": "APLLE",
		"latitude": "37-2-0.87 N",
		"longitude": "121-47-46.94 W",
		"state": "CALIFORNIA",
		"artcc": "ZOA",
		"type": "RNAV",
		"updated": "01/08/2015",
	},
	{
		"name": "ARCHI",
		"latitude": "37-29-26.87 N",
		"longitude": "121-52-31.95 W",
		"state": "CALIFORNIA",
		"artcc": "ZOA",
		"type": "RP",
		"updated": "SFO*VOR/DME*090.82/25.00",
	},
	{
		"name": "ARDEN",
		"latitude": "38-33-8.54 N",
		"longitude": "121-22-41.99 W",
		"state": "CALIFORNIA",
		"artcc": "ZOA",
		"type": "RP",
		"updated": "MCC*VOR/DME*153.00/7.00",
	},
	{
		"name": "ARENS",
		"latitude": "22-36-15 N",
		"longitude": "129-17-20 W",
		"state": "OFFSHORE PACIFIC",
		"artcc": "ZOA",
		"type": "RP",
		"updated": "05/06/2002",
	},
	{
		"name": "ARITE",
		"latitude": "39-49-3.11 N",
		"longitude": "119-45-43.35 W",
		"state": "NEVADA",
		"artcc": "ZOA",
		"type": "RNAV",
		"updated": "02/16/2001",
	},
	{
		"name": "ARPAW",
		"latitude": "39-22-44.93 N",
		"longitude": "119-52-39.25 W",
		"state": "NEVADA",
		"artcc": "ZOA",
		"type": "RP",
		"updated": "SWR*VOR/DME*040.75/21.81",
	},
	{
		"name": "ARRTU",
		"latitude": "37-44-1.04 N",
		"longitude": "121-30-10.76 W",
		"state": "CALIFORNIA",
		"artcc": "ZOA",
		"type": "RNAV",
		"updated": "02/23/2015",
	},
	{
		"name": "ARTAQ",
		"latitude": "37-27-48.04 N",
		"longitude": "122-2-25.34 W",
		"state": "CALIFORNIA",
		"artcc": "ZOA",
		"type": "RP",
		"updated": "OSI*VOR/DME*052.69",
	},
	{
		"name": "ARTOP",
		"latitude": "0-52-41 S",
		"longitude": "180-0-0 E",
		"state": "OFFSHORE PACIFIC",
		"artcc": "ZOA",
		"type": "RP",
		"updated": "09/13/1993",
	},
	{
		"name": "ARUYU",
		"latitude": "8-12-51 N",
		"longitude": "133-45-30 E",
		"state": "OFFSHORE PACIFIC",
		"artcc": "ZOA",
		"type": "RNAV",
		"updated": "02/14/2011",
	},
	{
		"name": "ARVII",
		"latitude": "8-53-30 N",
		"longitude": "170-39-23 W",
		"state": "OFFSHORE PACIFIC",
		"artcc": "ZOA",
		"type": "RNAV",
		"updated": "02/08/2008",
	},
	{
		"name": "ASAYE",
		"latitude": "40-46-42.17 N",
		"longitude": "122-23-17.62 W",
		"state": "CALIFORNIA",
		"artcc": "ZOA",
		"type": "RP",
		"updated": "RDD*VOR/DME*327.00/17.00",
	},
	{
		"name": "ASOKE",
		"latitude": "39-30-39.96 N",
		"longitude": "119-46-9.2 W",
		"state": "NEVADA",
		"artcc": "ZOA",
		"type": "WP",
		"updated": "10/26/1995",
	},
	{
		"name": "ATEME",
		"latitude": "36-53-53.88 N",
		"longitude": "121-35-14.82 W",
		"state": "CALIFORNIA",
		"artcc": "ZOA",
		"type": "RNAV",
		"updated": "01/28/2015",
	},
	{
		"name": "ATIGO",
		"latitude": "21-0-0 N",
		"longitude": "150-19-0 E",
		"state": "OFFSHORE PACIFIC",
		"artcc": "ZOA",
		"type": "RNAV",
		"updated": "06/27/2007",
	},
	{
		"name": "AUDIA",
		"latitude": "34-14-56.31 N",
		"longitude": "123-5-24.96 W",
		"state": "OFFSHORE PACIFIC",
		"artcc": "ZOA",
		"type": "RP",
		"updated": "11/15/2004",
	},
	{
		"name": "AUDIO",
		"latitude": "38-56-45.33 N",
		"longitude": "121-2-53 W",
		"state": "CALIFORNIA",
		"artcc": "ZOA",
		"type": "RP",
		"updated": "ILA*VORTAC*081.00",
	},
	{
		"name": "AUNTI",
		"latitude": "24-43-17 N",
		"longitude": "155-15-47 W",
		"state": "OFFSHORE PACIFIC",
		"artcc": "ZOA",
		"type": "RNAV",
		"updated": "02/08/2008",
	},
	{
		"name": "AVPEY",
		"latitude": "38-57-55.57 N",
		"longitude": "120-56-57.63 W",
		"state": "CALIFORNIA",
		"artcc": "ZOA",
		"type": "RNAV",
		"updated": "12/23/2009",
	},
	{
		"name": "AWALI",
		"latitude": "37-37-43.3 N",
		"longitude": "120-33-9.76 W",
		"state": "CALIFORNIA",
		"artcc": "ZOA",
		"type": "RP",
		"updated": "LIN*VOR/DME*124.12/34.26",
	},
	{
		"name": "AWAZE",
		"latitude": "36-9-50 N",
		"longitude": "119-17-45 W",
		"state": "CALIFORNIA",
		"artcc": "ZOA",
		"type": "RNAV",
		"updated": "10/06/2015",
	},
	{
		"name": "AWEGA",
		"latitude": "39-36-49.83 N",
		"longitude": "120-1-31.06 W",
		"state": "CALIFORNIA",
		"artcc": "ZOA",
		"type": "RNAV",
		"updated": "11/18/2014",
	},
	{
		"name": "AWIJU",
		"latitude": "9-23-3.98 N",
		"longitude": "167-27-24.27 E",
		"state": "",
		"artcc": "ZOA",
		"type": "MW",
		"updated": "10/28/2008",
	},
	{
		"name": "AXAME",
		"latitude": "36-43-45.79 N",
		"longitude": "121-51-15.83 W",
		"state": "CALIFORNIA",
		"artcc": "ZOA",
		"type": "RNAV",
		"updated": "12/29/2009",
	},
	{
		"name": "AXELE",
		"latitude": "31-59-6 N",
		"longitude": "141-55-24 W",
		"state": "OFFSHORE PACIFIC",
		"artcc": "ZOA",
		"type": "RNAV",
		"updated": "02/11/2008",
	},
	{
		"name": "AXHEC",
		"latitude": "40-24-11.13 N",
		"longitude": "122-19-18.15 W",
		"state": "CALIFORNIA",
		"artcc": "ZOA",
		"type": "RNAV",
		"updated": "10/18/2013",
	},
	{
		"name": "AXIDE",
		"latitude": "12-31-14 N",
		"longitude": "146-59-47 E",
		"state": "OFFSHORE PACIFIC",
		"artcc": "ZOA",
		"type": "RNAV",
		"updated": "12/23/2008",
	},
	{
		"name": "AXMUL",
		"latitude": "37-34-17.45 N",
		"longitude": "122-15-25.91 W",
		"state": "CALIFORNIA",
		"artcc": "ZOA",
		"type": "RP",
		"updated": "OAK*VOR/DME*172.83",
	},
	{
		"name": "AXXXX",
		"latitude": "38-1-9.18 N",
		"longitude": "121-38-42.3 W",
		"state": "CALIFORNIA",
		"artcc": "ZOA",
		"type": "RNAV",
		"updated": "01/13/2015",
	},
	{
		"name": "AYALU",
		"latitude": "39-30-44.36 N",
		"longitude": "119-46-18.88 W",
		"state": "NEVADA",
		"artcc": "ZOA",
		"type": "RP",
		"updated": "FMG*VORTAC*242.11",
	},
	{
		"name": "AYOBI",
		"latitude": "39-41-39.74 N",
		"longitude": "121-48-29.68 W",
		"state": "CALIFORNIA",
		"artcc": "ZOA",
		"type": "RP",
		"updated": "CIC*VOR/DME*146.50/6.00",
	},
	{
		"name": "AYUGO",
		"latitude": "5-33-12.66 N",
		"longitude": "163-1-10.93 E",
		"state": "",
		"artcc": "ZOA",
		"type": "RNAV",
		"updated": "09/04/2003",
	},
	{
		"name": "AZGER",
		"latitude": "39-34-43.51 N",
		"longitude": "118-33-10.94 W",
		"state": "NEVADA",
		"artcc": "ZOA",
		"type": "MR",
		"updated": "NFL*TACAN*022.00/12.00",
	},
