	{
		"name": "CAATE",
		"latitude": "36-46-32.29 N",
		"longitude": "122-4-9.57 W",
		"state": "CALIFORNIA",
		"artcc": "ZOA",
		"type": "RNAV",
		"updated": "04/24/2017",
	},
	{
		"name": "CABAB",
		"latitude": "37-16-36 N",
		"longitude": "118-43-12 W",
		"state": "CALIFORNIA",
		"artcc": "ZOA",
		"type": "RNAV",
		"updated": "12/16/2014",
	},
	{
		"name": "CABBE",
		"latitude": "40-14-42.35 N",
		"longitude": "122-16-50.85 W",
		"state": "CALIFORNIA",
		"artcc": "ZOA",
		"type": "RP",
		"updated": "RBL*VORTAC*328.89/9.00",
	},
	{
		"name": "CABEG",
		"latitude": "9-20-34 N",
		"longitude": "136-55-28 E",
		"state": "OFFSHORE PACIFIC",
		"artcc": "ZOA",
		"type": "RNAV",
		"updated": "02/14/2011",
	},
	{
		"name": "CABEX",
		"latitude": "38-48-4.3 N",
		"longitude": "123-3-54.68 W",
		"state": "CALIFORNIA",
		"artcc": "ZOA",
		"type": "RP",
		"updated": "STS*VOR/DME*309.81/21.25",
	},
	{
		"name": "CAHYO",
		"latitude": "3-30-0 N",
		"longitude": "133-30-0 E",
		"state": "OFFSHORE PACIFIC",
		"artcc": "ZOA",
		"type": "RNAV",
		"updated": "04/06/2010",
	},
	{
		"name": "CAINS",
		"latitude": "37-19-25.26 N",
		"longitude": "119-21-58.41 W",
		"state": "CALIFORNIA",
		"artcc": "ZOA",
		"type": "RP",
		"updated": "FRA*VORTAC*022.83/17.13",
	},
	{
		"name": "CALAI",
		"latitude": "39-30-59.85 N",
		"longitude": "118-10-57.55 W",
		"state": "NEVADA",
		"artcc": "ZOA",
		"type": "MR",
		"updated": "NFL*TACAN*062.00/25.00",
	},
	{
		"name": "CALEG",
		"latitude": "39-23-0.17 N",
		"longitude": "119-46-10.45 W",
		"state": "NEVADA",
		"artcc": "ZOA",
		"type": "RP",
		"updated": "AGY*LD*S CRS/8.00",
	},
	{
		"name": "CALRY",
		"latitude": "36-29-0.15 N",
		"longitude": "119-33-8.03 W",
		"state": "CALIFORNIA",
		"artcc": "ZOA",
		"type": "RNAV",
		"updated": "07/19/2011",
	},
	{
		"name": "CAMAF",
		"latitude": "36-47-21.9 N",
		"longitude": "121-18-31.63 W",
		"state": "CALIFORNIA",
		"artcc": "ZOA",
		"type": "RNAV",
		"updated": "04/15/2008",
	},
	{
		"name": "CAMOS",
		"latitude": "14-53-17 N",
		"longitude": "146-4-18 W",
		"state": "OFFSHORE PACIFIC",
		"artcc": "ZOA",
		"type": "RP",
		"updated": "12/29/1993",
	},
	{
		"name": "CAMRR",
		"latitude": "38-44-57.87 N",
		"longitude": "120-57-24.23 W",
		"state": "CALIFORNIA",
		"artcc": "ZOA",
		"type": "RP",
		"updated": "HNW*VOR/DME*261.72",
	},
	{
		"name": "CANAY",
		"latitude": "5-29-55.94 N",
		"longitude": "163-4-58.88 E",
		"state": "",
		"artcc": "ZOA",
		"type": "RNAV",
		"updated": "09/04/2003",
	},
	{
		"name": "CANDA",
		"latitude": "37-23-22.53 N",
		"longitude": "118-47-1.91 W",
		"state": "CALIFORNIA",
		"artcc": "ZOA",
		"type": "RP",
		"updated": "OAL*VORTAC*216.00/60.68",
	},
	{
		"name": "CANKU",
		"latitude": "19-12-40.55 N",
		"longitude": "166-59-43.74 E",
		"state": "OFFSHORE PACIFIC",
		"artcc": "ZOA",
		"type": "RNAV",
		"updated": "11/03/2015",
	},
	{
		"name": "CANLO",
		"latitude": "38-39-19.35 N",
		"longitude": "121-36-6.99 W",
		"state": "CALIFORNIA",
		"artcc": "ZOA",
		"type": "RNAV",
		"updated": "03/24/2015",
	},
	{
		"name": "CANOE",
		"latitude": "23-31-39 N",
		"longitude": "155-0-0 E",
		"state": "OFFSHORE PACIFIC",
		"artcc": "ZOA",
		"type": "RP",
		"updated": "04/19/2001",
	},
	{
		"name": "CANOL",
		"latitude": "12-57-46 N",
		"longitude": "144-14-35 W",
		"state": "OFFSHORE PACIFIC",
		"artcc": "ZOA",
		"type": "RP",
		"updated": "12/29/1993",
	},
	{
		"name": "CANRI",
		"latitude": "36-33-36.51 N",
		"longitude": "121-24-54.88 W",
		"state": "CALIFORNIA",
		"artcc": "ZOA",
		"type": "RP",
		"updated": "SNS*VORTAC*107.33/11.00",
	},
	{
		"name": "CANYA",
		"latitude": "39-29-17.64 N",
		"longitude": "119-37-35.63 W",
		"state": "NEVADA",
		"artcc": "ZOA",
		"type": "RNAV",
		"updated": "05/25/2011",
	},
	{
		"name": "CAPTO",
		"latitude": "38-40-19.95 N",
		"longitude": "121-37-27.55 W",
		"state": "CALIFORNIA",
		"artcc": "ZOA",
		"type": "RP",
		"updated": "SAC*VORTAC*329.00/14.00",
	},
	{
		"name": "CARLS",
		"latitude": "10-21-22 N",
		"longitude": "141-15-28 W",
		"state": "OFFSHORE PACIFIC",
		"artcc": "ZOA",
		"type": "RP",
		"updated": "12/29/1993",
	},
	{
		"name": "CARME",
		"latitude": "36-27-18.66 N",
		"longitude": "121-52-46.97 W",
		"state": "CALIFORNIA",
		"artcc": "ZOA",
		"type": "RP",
		"updated": "SNS*VORTAC*210.00",
	},
	{
		"name": "CARRL",
		"latitude": "36-8-35.55 N",
		"longitude": "120-20-47.81 W",
		"state": "CALIFORNIA",
		"artcc": "ZOA",
		"type": "RNAV",
		"updated": "01/29/2016",
	},
	{
		"name": "CARVV",
		"latitude": "38-59-41.47 N",
		"longitude": "120-16-29.48 W",
		"state": "CALIFORNIA",
		"artcc": "ZOA",
		"type": "RNAV",
		"updated": "09/17/2015",
	},
	{
		"name": "CASPU",
		"latitude": "37-25-12.68 N",
		"longitude": "118-25-21.75 W",
		"state": "CALIFORNIA",
		"artcc": "ZOA",
		"type": "RNAV",
		"updated": "06/25/2007",
	},
	{
		"name": "CASRA",
		"latitude": "36-35-55.88 N",
		"longitude": "121-32-17.49 W",
		"state": "CALIFORNIA",
		"artcc": "ZOA",
		"type": "RP",
		"updated": "SNS*VORTAC*124.11/5.00",
	},
	{
		"name": "CASWO",
		"latitude": "9-13-48.46 N",
		"longitude": "167-24-31.19 E",
		"state": "",
		"artcc": "ZOA",
		"type": "MW",
		"updated": "04/14/2011",
	},
	{
		"name": "CATHE",
		"latitude": "37-5-46.82 N",
		"longitude": "121-18-57.07 W",
		"state": "CALIFORNIA",
		"artcc": "ZOA",
		"type": "RP",
		"updated": "MOD*VOR/DME*191.39/36.14",
	},
	{
		"name": "CATTY",
		"latitude": "37-38-57.24 N",
		"longitude": "121-41-20.32 W",
		"state": "CALIFORNIA",
		"artcc": "ZOA",
		"type": "RNAV",
		"updated": "02/27/2018",
	},
	{
		"name": "CAVRI",
		"latitude": "7-14-29.4 N",
		"longitude": "151-48-27.19 E",
		"state": "",
		"artcc": "ZOA",
		"type": "RNAV",
		"updated": "12/05/2017",
	},
	{
		"name": "CAWDE",
		"latitude": "38-41-20.19 N",
		"longitude": "120-50-28.38 W",
		"state": "CALIFORNIA",
		"artcc": "ZOA",
		"type": "RNAV",
		"updated": "02/27/2018",
	},
	{
		"name": "CAXAB",
		"latitude": "37-21-48.33 N",
		"longitude": "121-50-57.88 W",
		"state": "CALIFORNIA",
		"artcc": "ZOA",
		"type": "RNAV",
		"updated": "06/12/2002",
	},
	{
		"name": "CAXIL",
		"latitude": "39-14-18.3 N",
		"longitude": "119-33-19.6 W",
		"state": "NEVADA",
		"artcc": "ZOA",
		"type": "RNAV",
		"updated": "08/05/2008",
	},
	{
		"name": "CAXIN",
		"latitude": "37-43-54.59 N",
		"longitude": "122-14-8.11 W",
		"state": "CALIFORNIA",
		"artcc": "ZOA",
		"type": "RNAV",
		"updated": "09/11/2013",
	},
	{
		"name": "CAXOR",
		"latitude": "37-31-52.28 N",
		"longitude": "118-26-31.66 W",
		"state": "CALIFORNIA",
		"artcc": "ZOA",
		"type": "RP",
		"updated": "BIH*DD*NW CRS/10.33",
	},
	{
		"name": "CAXUL",
		"latitude": "39-27-54.24 N",
		"longitude": "118-27-16.21 W",
		"state": "NEVADA",
		"artcc": "ZOA",
		"type": "MR",
		"updated": "NFL*TACAN*062.00/12.00",
	},
	{
		"name": "CAZAR",
		"latitude": "37-21-13.21 N",
		"longitude": "120-35-25.19 W",
		"state": "CALIFORNIA",
		"artcc": "ZOA",
		"type": "RP",
		"updated": "MCE*LD*NW CRS/4.90",
	},
	{
		"name": "CBRNA",
		"latitude": "40-2-33.02 N",
		"longitude": "122-14-52.93 W",
		"state": "CALIFORNIA",
		"artcc": "ZOA",
		"type": "RNAV",
		"updated": "01/06/2015",
	},
	{
		"name": "CEBAN",
		"latitude": "38-11-17.95 N",
		"longitude": "122-23-32.9 W",
		"state": "CALIFORNIA",
		"artcc": "ZOA",
		"type": "RNAV",
		"updated": "09/08/2003",
	},
	{
		"name": "CEBAS",
		"latitude": "40-18-4.45 N",
		"longitude": "120-28-7.56 W",
		"state": "CALIFORNIA",
		"artcc": "ZOA",
		"type": "RNAV",
		"updated": "11/16/2010",
	},
	{
		"name": "CEBEN",
		"latitude": "23-46-50 N",
		"longitude": "153-21-58 W",
		"state": "OFFSHORE PACIFIC",
		"artcc": "ZOA",
		"type": "RNAV",
		"updated": "02/11/2008",
	},
	{
		"name": "CEBUR",
		"latitude": "2-38-16 N",
		"longitude": "169-56-48 W",
		"state": "OFFSHORE PACIFIC",
		"artcc": "ZOA",
		"type": "RNAV",
		"updated": "02/11/2008",
	},
	{
		"name": "CECAC",
		"latitude": "9-32-38.78 N",
		"longitude": "138-9-40.34 E",
		"state": "",
		"artcc": "ZOA",
		"type": "RP",
		"updated": "YP*NDB/DME*057.26/5.07",
	},
	{
		"name": "CEDAY",
		"latitude": "40-19-57.21 N",
		"longitude": "120-33-5.51 W",
		"state": "CALIFORNIA",
		"artcc": "ZOA",
		"type": "RNAV",
		"updated": "09/26/2003",
	},
	{
		"name": "CEDES",
		"latitude": "37-33-2.96 N",
		"longitude": "121-37-28.51 W",
		"state": "CALIFORNIA",
		"artcc": "ZOA",
		"type": "RP",
		"updated": "MOD*VOR/DME*244.99/32.12",
	},
	{
		"name": "CEDRA",
		"latitude": "38-36-52.87 N",
		"longitude": "121-34-53.78 W",
		"state": "CALIFORNIA",
		"artcc": "ZOA",
		"type": "RNAV",
		"updated": "03/24/2015",
	},
	{
		"name": "CEJAA",
		"latitude": "38-58-25.58 N",
		"longitude": "122-55-53.26 W",
		"state": "CALIFORNIA",
		"artcc": "ZOA",
		"type": "RNAV",
		"updated": "08/28/2014",
	},
	{
		"name": "CEKHE",
		"latitude": "37-36-28.19 N",
		"longitude": "118-43-25.43 W",
		"state": "CALIFORNIA",
		"artcc": "ZOA",
		"type": "WP",
		"updated": "12/27/1995",
	},
	{
		"name": "CEKPA",
		"latitude": "37-18-32.66 N",
		"longitude": "120-29-37.93 W",
		"state": "CALIFORNIA",
		"artcc": "ZOA",
		"type": "RP",
		"updated": "HYP*VOR/DME*305.17/7.00",
	},
	{
		"name": "CELIM",
		"latitude": "14-21-31.37 S",
		"longitude": "170-32-19.3 W",
		"state": "AMERICAN SAMOA",
		"artcc": "ZOA",
		"type": "RP",
		"updated": "TUT*VORTAC*087.00/10.00",
	},
	{
		"name": "CEMAS",
		"latitude": "36-40-34.08 N",
		"longitude": "121-43-24.22 W",
		"state": "CALIFORNIA",
		"artcc": "ZOA",
		"type": "RP",
		"updated": "SNS*VORTAC*260.28/5.85",
	},
	{
		"name": "CEPAS",
		"latitude": "38-7-51 N",
		"longitude": "127-0-0 W",
		"state": "OFFSHORE PACIFIC",
		"artcc": "ZOA",
		"type": "RP",
		"updated": "08/27/2003",
	},
	{
		"name": "CEPEL",
		"latitude": "37-27-49.12 N",
		"longitude": "121-56-35.68 W",
		"state": "CALIFORNIA",
		"artcc": "ZOA",
		"type": "RNAV",
		"updated": "06/12/2002",
	},
	{
		"name": "CEPIN",
		"latitude": "37-32-9.43 N",
		"longitude": "122-10-22.35 W",
		"state": "CALIFORNIA",
		"artcc": "ZOA",
		"type": "RP",
		"updated": "SFO*VOR/DME*100.51",
	},
	{
		"name": "CEROX",
		"latitude": "39-50-50.27 N",
		"longitude": "119-45-46.53 W",
		"state": "NEVADA",
		"artcc": "ZOA",
		"type": "RNAV",
		"updated": "08/05/2008",
	},
	{
		"name": "CETMO",
		"latitude": "8-44-34.05 N",
		"longitude": "167-31-15.88 E",
		"state": "",
		"artcc": "ZOA",
		"type": "MW",
		"updated": "11/25/2008",
	},
	{
		"name": "CETNI",
		"latitude": "39-14-22.12 N",
		"longitude": "123-42-59.16 W",
		"state": "CALIFORNIA",
		"artcc": "ZOA",
		"type": "RNAV",
		"updated": "04/12/2010",
	},
	{
		"name": "CETTA",
		"latitude": "36-33-28.35 N",
		"longitude": "119-8-23.96 W",
		"state": "CALIFORNIA",
		"artcc": "ZOA",
		"type": "MR",
		"updated": "NLC*TACAN*058.00/42.00",
	},
	{
		"name": "CEVAP",
		"latitude": "39-27-6.39 N",
		"longitude": "119-43-59.65 W",
		"state": "NEVADA",
		"artcc": "ZOA",
		"type": "RP",
		"updated": "SWR*VOR/DME*040.75/29.81",
	},
	{
		"name": "CEVGI",
		"latitude": "37-10-37.87 N",
		"longitude": "121-55-37.52 W",
		"state": "CALIFORNIA",
		"artcc": "ZOA",
		"type": "MR",
		"updated": "NUQ*TACAN*140.75/16.52",
	},
	{
		"name": "CEVIE",
		"latitude": "8-32-15 N",
		"longitude": "137-24-49 E",
		"state": "OFFSHORE PACIFIC",
		"artcc": "ZOA",
		"type": "RNAV",
		"updated": "02/14/2011",
	},
	{
		"name": "CEVIT",
		"latitude": "38-30-0.72 N",
		"longitude": "121-56-38.43 W",
		"state": "CALIFORNIA",
		"artcc": "ZOA",
		"type": "RNAV",
		"updated": "03/19/2009",
	},
	{
		"name": "CEVLA",
		"latitude": "39-2-55.74 N",
		"longitude": "122-46-28.62 W",
		"state": "CALIFORNIA",
		"artcc": "ZOA",
		"type": "RNAV",
		"updated": "07/01/2009",
	},
	{
		"name": "CEXUR",
		"latitude": "37-56-2.98 N",
		"longitude": "122-15-10.54 W",
		"state": "CALIFORNIA",
		"artcc": "ZOA",
		"type": "RNAV",
		"updated": "09/11/2013",
	},
	{
		"name": "CEYJE",
		"latitude": "7-39-24.11 N",
		"longitude": "151-53-17.38 E",
		"state": "",
		"artcc": "ZOA",
		"type": "RNAV",
		"updated": "12/05/2017",
	},
	{
		"name": "CFASK",
		"latitude": "37-41-16.05 N",
		"longitude": "118-52-42.72 W",
		"state": "CALIFORNIA",
		"artcc": "ZOA",
		"type": "CN",
		"updated": "09/16/2016",
	},
	{
		"name": "CFBCT",
		"latitude": "36-45-25.09 N",
		"longitude": "120-41-19.49 W",
		"state": "CALIFORNIA",
		"artcc": "ZOA",
		"type": "CN",
		"updated": "12/21/1999",
	},
	{
		"name": "CFBFW",
		"latitude": "38-37-51.03 N",
		"longitude": "121-38-56.53 W",
		"state": "CALIFORNIA",
		"artcc": "ZOA",
		"type": "CN",
		"updated": "03/26/2015",
	},
	{
		"name": "CFBFX",
		"latitude": "38-37-51.03 N",
		"longitude": "121-38-56.75 W",
		"state": "CALIFORNIA",
		"artcc": "ZOA",
		"type": "CN",
		"updated": "03/26/2015",
	},
	{
		"name": "CFBFZ",
		"latitude": "38-37-51.14 N",
		"longitude": "121-37-41.78 W",
		"state": "CALIFORNIA",
		"artcc": "ZOA",
		"type": "CN",
		"updated": "03/26/2015",
	},
	{
		"name": "CFBGB",
		"latitude": "38-45-39.97 N",
		"longitude": "121-37-32.12 W",
		"state": "CALIFORNIA",
		"artcc": "ZOA",
		"type": "CN",
		"updated": "03/26/2015",
	},
	{
		"name": "CFBGL",
		"latitude": "38-45-40.13 N",
		"longitude": "121-38-48.66 W",
		"state": "CALIFORNIA",
		"artcc": "ZOA",
		"type": "CN",
		"updated": "03/26/2015",
	},
	{
		"name": "CFBHN",
		"latitude": "38-45-36.5 N",
		"longitude": "121-31-59 W",
		"state": "CALIFORNIA",
		"artcc": "ZOA",
		"type": "CN",
		"updated": "03/26/2015",
	},
	{
		"name": "CFBHT",
		"latitude": "38-45-36.71 N",
		"longitude": "121-33-14.71 W",
		"state": "CALIFORNIA",
		"artcc": "ZOA",
		"type": "CN",
		"updated": "03/26/2015",
	},
	{
		"name": "CFBJJ",
		"latitude": "38-45-40.13 N",
		"longitude": "121-38-48.6 W",
		"state": "CALIFORNIA",
		"artcc": "ZOA",
		"type": "CN",
		"updated": "03/26/2015",
	},
	{
		"name": "CFBJK",
		"latitude": "37-2-50.17 N",
		"longitude": "121-35-10.05 W",
		"state": "CALIFORNIA",
		"artcc": "ZOA",
		"type": "CN",
		"updated": "01/28/2015",
	},
	{
		"name": "CFBJT",
		"latitude": "37-15-3.98 N",
		"longitude": "121-59-49.41 W",
		"state": "CALIFORNIA",
		"artcc": "ZOA",
		"type": "CN",
		"updated": "01/27/2015",
	},
	{
		"name": "CFBKG",
		"latitude": "37-16-27.91 N",
		"longitude": "121-53-29.69 W",
		"state": "CALIFORNIA",
		"artcc": "ZOA",
		"type": "CN",
		"updated": "01/27/2015",
	},
	{
		"name": "CFBKP",
		"latitude": "37-16-31.43 N",
		"longitude": "121-53-24.21 W",
		"state": "CALIFORNIA",
		"artcc": "ZOA",
		"type": "CN",
		"updated": "01/29/2015",
	},
	{
		"name": "CFBLF",
		"latitude": "37-23-14.92 N",
		"longitude": "122-0-56.48 W",
		"state": "CALIFORNIA",
		"artcc": "ZOA",
		"type": "CN",
		"updated": "07/06/2015",
	},
	{
		"name": "CFBLQ",
		"latitude": "37-23-14.81 N",
		"longitude": "122-0-56.44 W",
		"state": "CALIFORNIA",
		"artcc": "ZOA",
		"type": "CN",
		"updated": "07/06/2015",
	},
	{
		"name": "CFBNV",
		"latitude": "37-23-12.51 N",
		"longitude": "122-0-59.72 W",
		"state": "CALIFORNIA",
		"artcc": "ZOA",
		"type": "CN",
		"updated": "07/06/2015",
	},
	{
		"name": "CFBRC",
		"latitude": "36-35-10.23 N",
		"longitude": "121-45-42.21 W",
		"state": "CALIFORNIA",
		"artcc": "ZOA",
		"type": "CN",
		"updated": "03/13/2015",
	},
	{
		"name": "CFBRS",
		"latitude": "36-45-20.71 N",
		"longitude": "121-55-54.93 W",
		"state": "CALIFORNIA",
		"artcc": "ZOA",
		"type": "CN",
		"updated": "03/02/2018",
	},
	{
		"name": "CFBSB",
		"latitude": "39-45-41.07 N",
		"longitude": "119-50-59.33 W",
		"state": "NEVADA",
		"artcc": "ZOA",
		"type": "CN",
		"updated": "04/20/2016",
	},
	{
		"name": "CFBZF",
		"latitude": "36-42-8.6 N",
		"longitude": "121-55-44.32 W",
		"state": "CALIFORNIA",
		"artcc": "ZOA",
		"type": "CN",
		"updated": "03/13/2015",
	},
	{
		"name": "CFCDH",
		"latitude": "39-45-27.66 N",
		"longitude": "119-51-6.15 W",
		"state": "NEVADA",
		"artcc": "ZOA",
		"type": "CN",
		"updated": "04/21/2016",
	},
	{
		"name": "CFCHG",
		"latitude": "40-3-41.4 N",
		"longitude": "118-34-19.87 W",
		"state": "NEVADA",
		"artcc": "ZOA",
		"type": "CN",
		"updated": "07/28/2017",
	},
	{
		"name": "CFCLH",
		"latitude": "7-3-9.75 N",
		"longitude": "158-4-14.06 E",
		"state": "",
		"artcc": "ZOA",
		"type": "CN",
		"updated": "03/07/2017",
	},
	{
		"name": "CFCMK",
		"latitude": "7-3-6.46 N",
		"longitude": "158-16-22.41 E",
		"state": "",
		"artcc": "ZOA",
		"type": "CN",
		"updated": "03/07/2017",
	},
	{
		"name": "CFDRB",
		"latitude": "37-39-46.6 N",
		"longitude": "118-53-13.75 W",
		"state": "CALIFORNIA",
		"artcc": "ZOA",
		"type": "CN",
		"updated": "09/16/2016",
	},
	{
		"name": "CFDRJ",
		"latitude": "39-41-33.42 N",
		"longitude": "119-42-13.7 W",
		"state": "NEVADA",
		"artcc": "ZOA",
		"type": "CN",
		"updated": "04/20/2016",
	},
	{
		"name": "CFDXQ",
		"latitude": "38-41-26.29 N",
		"longitude": "122-53-10.5 W",
		"state": "CALIFORNIA",
		"artcc": "ZOA",
		"type": "CN",
		"updated": "12/21/1999",
	},
	{
		"name": "CFECE",
		"latitude": "40-24-27.07 N",
		"longitude": "122-19-49.41 W",
		"state": "CALIFORNIA",
		"artcc": "ZOA",
		"type": "CN",
		"updated": "12/21/1999",
	},
	{
		"name": "CFFJP",
		"latitude": "36-56-35.35 N",
		"longitude": "120-0-36.79 W",
		"state": "CALIFORNIA",
		"artcc": "ZOA",
		"type": "CN",
		"updated": "07/02/2013",
	},
	{
		"name": "CFFJX",
		"latitude": "37-38-20.9 N",
		"longitude": "122-17-27.6 W",
		"state": "CALIFORNIA",
		"artcc": "ZOA",
		"type": "CN",
		"updated": "01/23/2018",
	},
	{
		"name": "CFFJZ",
		"latitude": "37-32-36.99 N",
		"longitude": "122-16-47.76 W",
		"state": "CALIFORNIA",
		"artcc": "ZOA",
		"type": "CN",
		"updated": "01/23/2018",
	},
	{
		"name": "CFFKC",
		"latitude": "37-37-0.71 N",
		"longitude": "122-21-22.83 W",
		"state": "CALIFORNIA",
		"artcc": "ZOA",
		"type": "CN",
		"updated": "05/23/2013",
	},
	{
		"name": "CFFKK",
		"latitude": "40-29-21.91 N",
		"longitude": "122-21-18.56 W",
		"state": "CALIFORNIA",
		"artcc": "ZOA",
		"type": "CN",
		"updated": "10/23/2013",
	},
	{
		"name": "CFFKL",
		"latitude": "39-33-49.58 N",
		"longitude": "119-42-14.75 W",
		"state": "NEVADA",
		"artcc": "ZOA",
		"type": "CN",
		"updated": "09/26/2013",
	},
	{
		"name": "CFFKM",
		"latitude": "39-33-39.66 N",
		"longitude": "119-42-12.17 W",
		"state": "NEVADA",
		"artcc": "ZOA",
		"type": "CN",
		"updated": "09/26/2013",
	},
	{
		"name": "CFFKN",
		"latitude": "39-33-40.1 N",
		"longitude": "119-42-12.59 W",
		"state": "NEVADA",
		"artcc": "ZOA",
		"type": "CN",
		"updated": "09/27/2013",
	},
	{
		"name": "CFFKQ",
		"latitude": "39-33-51.2 N",
		"longitude": "119-42-11.87 W",
		"state": "NEVADA",
		"artcc": "ZOA",
		"type": "CN",
		"updated": "09/27/2013",
	},
	{
		"name": "CFFKT",
		"latitude": "37-50-31.3 N",
		"longitude": "122-15-43.18 W",
		"state": "CALIFORNIA",
		"artcc": "ZOA",
		"type": "CN",
		"updated": "09/11/2013",
	},
	{
		"name": "CFFKV",
		"latitude": "37-50-52.46 N",
		"longitude": "122-16-12.97 W",
		"state": "CALIFORNIA",
		"artcc": "ZOA",
		"type": "CN",
		"updated": "09/11/2013",
	},
	{
		"name": "CFFPB",
		"latitude": "37-42-38.74 N",
		"longitude": "122-2-17.26 W",
		"state": "CALIFORNIA",
		"artcc": "ZOA",
		"type": "CN",
		"updated": "09/08/2015",
	},
	{
		"name": "CFFPC",
		"latitude": "37-39-32.98 N",
		"longitude": "122-2-35.1 W",
		"state": "CALIFORNIA",
		"artcc": "ZOA",
		"type": "CN",
		"updated": "09/08/2015",
	},
	{
		"name": "CFFVX",
		"latitude": "37-34-53.72 N",
		"longitude": "122-21-29.95 W",
		"state": "CALIFORNIA",
		"artcc": "ZOA",
		"type": "CN",
		"updated": "11/21/2016",
	},
	{
		"name": "CFGTP",
		"latitude": "37-36-32.07 N",
		"longitude": "118-52-48.78 W",
		"state": "CALIFORNIA",
		"artcc": "ZOA",
		"type": "CN",
		"updated": "09/16/2016",
	},
	{
		"name": "CFHHN",
		"latitude": "37-38-42.59 N",
		"longitude": "118-44-30.35 W",
		"state": "CALIFORNIA",
		"artcc": "ZOA",
		"type": "CN",
		"updated": "09/16/2016",
	},
	{
		"name": "CFIXK",
		"latitude": "36-46-50.08 N",
		"longitude": "121-41-1.14 W",
		"state": "CALIFORNIA",
		"artcc": "ZOA",
		"type": "CN",
		"updated": "12/21/1999",
	},
	{
		"name": "CFJWL",
		"latitude": "37-37-26.06 N",
		"longitude": "118-44-10.74 W",
		"state": "CALIFORNIA",
		"artcc": "ZOA",
		"type": "CN",
		"updated": "03/07/2017",
	},
	{
		"name": "CFLEZ",
		"latitude": "37-15-5.18 N",
		"longitude": "121-48-13.82 W",
		"state": "CALIFORNIA",
		"artcc": "ZOA",
		"type": "CN",
		"updated": "12/21/1999",
	},
	{
		"name": "CFLOG",
		"latitude": "37-14-31.81 N",
		"longitude": "121-47-49.77 W",
		"state": "CALIFORNIA",
		"artcc": "ZOA",
		"type": "CN",
		"updated": "12/21/1999",
	},
	{
		"name": "CFVGJ",
		"latitude": "37-56-45.11 N",
		"longitude": "119-9-35.06 W",
		"state": "CALIFORNIA",
		"artcc": "ZOA",
		"type": "CN",
		"updated": "01/29/2018",
	},
	{
		"name": "CFZGZ",
		"latitude": "37-41-7.43 N",
		"longitude": "118-38-1.05 W",
		"state": "CALIFORNIA",
		"artcc": "ZOA",
		"type": "CN",
		"updated": "09/16/2016",
	},
	{
		"name": "CHAWZ",
		"latitude": "37-6-48.59 N",
		"longitude": "122-21-9.58 W",
		"state": "CALIFORNIA",
		"artcc": "ZOA",
		"type": "RNAV",
		"updated": "04/24/2017",
	},
	{
		"name": "CHBLI",
		"latitude": "38-33-50.32 N",
		"longitude": "122-32-19.55 W",
		"state": "CALIFORNIA",
		"artcc": "ZOA",
		"type": "RNAV",
		"updated": "01/12/2015",
	},
	{
		"name": "CHEEM",
		"latitude": "18-3-9 N",
		"longitude": "160-16-11 W",
		"state": "OFFSHORE PACIFIC",
		"artcc": "ZOA",
		"type": "RNAV",
		"updated": "02/11/2008",
	},
	{
		"name": "CHENG",
		"latitude": "7-31-13.12 N",
		"longitude": "151-53-24.53 E",
		"state": "N MARIANA ISLANDS",
		"artcc": "ZOA",
		"type": "RP",
		"updated": "TKK*NDB/DME*034.00/5.00",
	},
	{
		"name": "CHERA",
		"latitude": "37-28-51.89 N",
		"longitude": "122-9-29.82 W",
		"state": "CALIFORNIA",
		"artcc": "ZOA",
		"type": "RNAV",
		"updated": "02/08/2018",
	},
	{
		"name": "CHIME",
		"latitude": "39-21-8.29 N",
		"longitude": "119-25-44.31 W",
		"state": "NEVADA",
		"artcc": "ZOA",
		"type": "RP",
		"updated": "HZN*VORTAC*227.00/22.33",
	},
	{
		"name": "CHOWA",
		"latitude": "37-4-50.18 N",
		"longitude": "120-17-18.99 W",
		"state": "CALIFORNIA",
		"artcc": "ZOA",
		"type": "RP",
		"updated": "PXN*VORTAC*031.00",
	},
	{
		"name": "CHRLE",
		"latitude": "36-28-10.28 N",
		"longitude": "121-29-56.84 W",
		"state": "CALIFORNIA",
		"artcc": "ZOA",
		"type": "RP",
		"updated": "SNS*VORTAC*139.60",
	},
	{
		"name": "CHRLI",
		"latitude": "8-1-43 N",
		"longitude": "136-33-39 E",
		"state": "OFFSHORE PACIFIC",
		"artcc": "ZOA",
		"type": "RNAV",
		"updated": "02/14/2011",
	},
	{
		"name": "CIDOM",
		"latitude": "38-45-51.34 N",
		"longitude": "122-37-32.11 W",
		"state": "CALIFORNIA",
		"artcc": "ZOA",
		"type": "RNAV",
		"updated": "04/05/2018",
	},
	{
		"name": "CIGDU",
		"latitude": "37-35-16.52 N",
		"longitude": "122-1-1.88 W",
		"state": "CALIFORNIA",
		"artcc": "ZOA",
		"type": "RP",
		"updated": "OAK*VOR/DME*113.00/12.85",
	},
	{
		"name": "CIITY",
		"latitude": "37-31-59.22 N",
		"longitude": "122-8-58.24 W",
		"state": "CALIFORNIA",
		"artcc": "ZOA",
		"type": "RNAV",
		"updated": "06/25/2015",
	},
	{
		"name": "CIKGA",
		"latitude": "37-23-56.09 N",
		"longitude": "122-2-21.12 W",
		"state": "CALIFORNIA",
		"artcc": "ZOA",
		"type": "MR",
		"updated": "NUQ*TACAN*/2.19",
	},
	{
		"name": "CIKPI",
		"latitude": "38-7-22.45 N",
		"longitude": "122-19-33.77 W",
		"state": "CALIFORNIA",
		"artcc": "ZOA",
		"type": "RP",
		"updated": "SGD*VORTAC*129.61",
	},
	{
		"name": "CILGU",
		"latitude": "37-26-8.58 N",
		"longitude": "122-3-29.22 W",
		"state": "CALIFORNIA",
		"artcc": "ZOA",
		"type": "MR",
		"updated": "NUQ*TACAN*/0.20",
	},
	{
		"name": "CILUN",
		"latitude": "36-12-32.33 N",
		"longitude": "119-52-31.47 W",
		"state": "CALIFORNIA",
		"artcc": "ZOA",
		"type": "RNAV",
		"updated": "04/19/2018",
	},
	{
		"name": "CIMAX",
		"latitude": "38-40-38.17 N",
		"longitude": "122-55-8.62 W",
		"state": "CALIFORNIA",
		"artcc": "ZOA",
		"type": "RNAV",
		"updated": "05/29/2003",
	},
	{
		"name": "CIMKI",
		"latitude": "39-28-2.47 N",
		"longitude": "121-40-53.15 W",
		"state": "CALIFORNIA",
		"artcc": "ZOA",
		"type": "RNAV",
		"updated": "02/20/2015",
	},
	{
		"name": "CIMOS",
		"latitude": "37-26-22.63 N",
		"longitude": "118-26-48.08 W",
		"state": "CALIFORNIA",
		"artcc": "ZOA",
		"type": "RNAV",
		"updated": "10/29/2007",
	},
	{
		"name": "CIMVO",
		"latitude": "39-42-40.56 N",
		"longitude": "119-46-7.41 W",
		"state": "NEVADA",
		"artcc": "ZOA",
		"type": "WP",
		"updated": "10/26/1995",
	},
	{
		"name": "CINDU",
		"latitude": "40-33-53.15 N",
		"longitude": "122-17-41.27 W",
		"state": "CALIFORNIA",
		"artcc": "ZOA",
		"type": "RP",
		"updated": "RDD*LD*342.08/2.50",
	},
	{
		"name": "CINNY",
		"latitude": "36-10-54 N",
		"longitude": "124-45-36 W",
		"state": "OFFSHORE PACIFIC",
		"artcc": "ZOA",
		"type": "RNAV",
		"updated": "08/10/2016",
	},
	{
		"name": "CINTO",
		"latitude": "7-9-42 N",
		"longitude": "136-19-32 W",
		"state": "OFFSHORE PACIFIC",
		"artcc": "ZOA",
		"type": "RP",
		"updated": "03/08/1994",
	},
	{
		"name": "CISKO",
		"latitude": "35-41-51.02 N",
		"longitude": "120-27-54.64 W",
		"state": "CALIFORNIA",
		"artcc": "ZOA",
		"type": "RNAV",
		"updated": "11/24/2014",
	},
	{
		"name": "CISNA",
		"latitude": "36-59-57.69 N",
		"longitude": "121-32-22.1 W",
		"state": "CALIFORNIA",
		"artcc": "ZOA",
		"type": "RNAV",
		"updated": "01/28/2015",
	},
	{
		"name": "CITAB",
		"latitude": "39-23-2.64 N",
		"longitude": "118-39-23.08 W",
		"state": "NEVADA",
		"artcc": "ZOA",
		"type": "MR",
		"updated": "NFL*TACAN*117.00/3.00",
	},
	{
		"name": "CITIE",
		"latitude": "36-25-50.33 N",
		"longitude": "120-33-46.29 W",
		"state": "CALIFORNIA",
		"artcc": "ZOA",
		"type": "RP",
		"updated": "ROM*VOR*359.00",
	},
	{
		"name": "CITRU",
		"latitude": "38-52-7.07 N",
		"longitude": "121-16-13.59 W",
		"state": "CALIFORNIA",
		"artcc": "ZOA",
		"type": "RNAV",
		"updated": "08/03/2009",
	},
	{
		"name": "CITXU",
		"latitude": "38-56-9.72 N",
		"longitude": "121-18-41.28 W",
		"state": "CALIFORNIA",
		"artcc": "ZOA",
		"type": "RNAV",
		"updated": "12/23/2009",
	},
	{
		"name": "CIVDA",
		"latitude": "38-16-24.62 N",
		"longitude": "122-15-13.66 W",
		"state": "CALIFORNIA",
		"artcc": "ZOA",
		"type": "RNAV",
		"updated": "05/25/2011",
	},
	{
		"name": "CIVIT",
		"latitude": "27-14-12 N",
		"longitude": "147-13-11 W",
		"state": "OFFSHORE PACIFIC",
		"artcc": "ZOA",
		"type": "RNAV",
		"updated": "02/11/2008",
	},
	{
		"name": "CIVOR",
		"latitude": "39-27-8.7 N",
		"longitude": "123-53-5.37 W",
		"state": "CALIFORNIA",
		"artcc": "ZOA",
		"type": "RNAV",
		"updated": "06/02/2016",
	},
	{
		"name": "CIVSI",
		"latitude": "37-1-24.58 N",
		"longitude": "120-9-21.39 W",
		"state": "CALIFORNIA",
		"artcc": "ZOA",
		"type": "RNAV",
		"updated": "06/13/2016",
	},
	{
		"name": "CIVUN",
		"latitude": "36-32-50.66 N",
		"longitude": "120-3-42.75 W",
		"state": "CALIFORNIA",
		"artcc": "ZOA",
		"type": "RNAV",
		"updated": "03/06/2018",
	},
	{
		"name": "CLAIB",
		"latitude": "14-17-56.96 S",
		"longitude": "170-59-53.11 W",
		"state": "AMERICAN SAMOA",
		"artcc": "ZOA",
		"type": "RP",
		"updated": "TUT*VORTAC*264.71/17.00",
	},
	{
		"name": "CLANS",
		"latitude": "12-48-18 N",
		"longitude": "146-18-42 E",
		"state": "OFFSHORE PACIFIC",
		"artcc": "ZOA",
		"type": "RNAV",
		"updated": "06/27/2007",
	},
	{
		"name": "CLASN",
		"latitude": "35-39-35.4 N",
		"longitude": "119-30-8.7 W",
		"state": "CALIFORNIA",
		"artcc": "ZOA",
		"type": "RNAV",
		"updated": "06/26/2017",
	},
	{
		"name": "CLITN",
		"latitude": "38-26-43.01 N",
		"longitude": "121-57-46.2 W",
		"state": "CALIFORNIA",
		"artcc": "ZOA",
		"type": "MR",
		"updated": "SUU*TACAN*339.00/12.00",
	},
	{
		"name": "CLMNS",
		"latitude": "35-24-45.26 N",
		"longitude": "121-9-45.91 W",
		"state": "CALIFORNIA",
		"artcc": "ZOA",
		"type": "RP",
		"updated": "MQO*VORTAC*280.00/22.00",
	},
	{
		"name": "CLOTS",
		"latitude": "38-58-54.88 N",
		"longitude": "118-38-50.81 W",
		"state": "NEVADA",
		"artcc": "ZOA",
		"type": "RNAV",
		"updated": "04/04/2012",
	},
	{
		"name": "CNDEL",
		"latitude": "37-46-59.77 N",
		"longitude": "122-20-12.33 W",
		"state": "CALIFORNIA",
		"artcc": "ZOA",
		"type": "RNAV",
		"updated": "11/24/2014",
	},
	{
		"name": "COALI",
		"latitude": "36-16-5.03 N",
		"longitude": "120-22-5.44 W",
		"state": "CALIFORNIA",
		"artcc": "ZOA",
		"type": "MR",
		"updated": "NLC*TACAN*241.00/20.00",
	},
	{
		"name": "COBAD",
		"latitude": "38-50-0 N",
		"longitude": "130-0-0 W",
		"state": "OFFSHORE PACIFIC",
		"artcc": "ZOA",
		"type": "RP",
		"updated": "08/27/2003",
	},
	{
		"name": "COBAT",
		"latitude": "8-49-9 N",
		"longitude": "136-3-26 E",
		"state": "OFFSHORE PACIFIC",
		"artcc": "ZOA",
		"type": "RNAV",
		"updated": "02/14/2011",
	},
	{
		"name": "COBIN",
		"latitude": "8-18-58 N",
		"longitude": "135-12-59 E",
		"state": "OFFSHORE PACIFIC",
		"artcc": "ZOA",
		"type": "RNAV",
		"updated": "02/14/2011",
	},
	{
		"name": "COBUV",
		"latitude": "39-19-51.27 N",
		"longitude": "121-57-17.55 W",
		"state": "CALIFORNIA",
		"artcc": "ZOA",
		"type": "RNAV",
		"updated": "01/20/2015",
	},
	{
		"name": "COCPE",
		"latitude": "37-44-49.37 N",
		"longitude": "120-1-12.91 W",
		"state": "CALIFORNIA",
		"artcc": "ZOA",
		"type": "WP",
		"updated": "11/02/1998",
	},
	{
		"name": "CODEY",
		"latitude": "38-59-55.71 N",
		"longitude": "121-22-53.23 W",
		"state": "CALIFORNIA",
		"artcc": "ZOA",
		"type": "RP",
		"updated": "MYV*VOR/DME*107.69",
	},
	{
		"name": "CODRU",
		"latitude": "38-41-21.46 N",
		"longitude": "121-47-1.83 W",
		"state": "CALIFORNIA",
		"artcc": "ZOA",
		"type": "RNAV",
		"updated": "03/19/2009",
	},
	{
		"name": "COGGR",
		"latitude": "37-49-8.33 N",
		"longitude": "121-58-34.12 W",
		"state": "CALIFORNIA",
		"artcc": "ZOA",
		"type": "RNAV",
		"updated": "02/23/2015",
	},
	{
		"name": "COGIS",
		"latitude": "37-5-32.58 N",
		"longitude": "120-53-16.08 W",
		"state": "CALIFORNIA",
		"artcc": "ZOA",
		"type": "RNAV",
		"updated": "10/20/2009",
	},
	{
		"name": "COGOB",
		"latitude": "40-29-9.76 N",
		"longitude": "122-17-41.78 W",
		"state": "CALIFORNIA",
		"artcc": "ZOA",
		"type": "RP",
		"updated": "RDD*LD*162.08/2.22",
	},
	{
		"name": "COGOL",
		"latitude": "37-17-5.1 N",
		"longitude": "119-47-30.53 W",
		"state": "CALIFORNIA",
		"artcc": "ZOA",
		"type": "RP",
		"updated": "FRA*VORTAC*302.00/14.33",
	},
	{
		"name": "COGTU",
		"latitude": "39-17-9.4 N",
		"longitude": "118-34-48.16 W",
		"state": "NEVADA",
		"artcc": "ZOA",
		"type": "MR",
		"updated": "11/17/2014",
	},
	{
		"name": "COKGA",
		"latitude": "40-14-25.42 N",
		"longitude": "119-56-29.76 W",
		"state": "NEVADA",
		"artcc": "ZOA",
		"type": "MW",
		"updated": "07/05/2009",
	},
	{
		"name": "COKOR",
		"latitude": "37-16-58.57 N",
		"longitude": "121-50-21.83 W",
		"state": "CALIFORNIA",
		"artcc": "ZOA",
		"type": "RNAV",
		"updated": "01/27/2015",
	},
	{
		"name": "COLLI",
		"latitude": "37-51-46.72 N",
		"longitude": "122-5-0.64 W",
		"state": "CALIFORNIA",
		"artcc": "ZOA",
		"type": "RP",
		"updated": "CCR*VOR/DME*172.48",
	},
	{
		"name": "COLOM",
		"latitude": "38-50-20.3 N",
		"longitude": "120-52-12.07 W",
		"state": "CALIFORNIA",
		"artcc": "ZOA",
		"type": "RP",
		"updated": "SWR*VOR/DME*218.11/34.74",
	},
	{
		"name": "COLSO",
		"latitude": "38-54-42.28 N",
		"longitude": "121-17-43.25 W",
		"state": "CALIFORNIA",
		"artcc": "ZOA",
		"type": "MR",
		"updated": "BAB*TACAN*137.00/15.00",
	},
	{
		"name": "COLUR",
		"latitude": "40-12-2.65 N",
		"longitude": "119-50-14.92 W",
		"state": "NEVADA",
		"artcc": "ZOA",
		"type": "MR",
		"updated": "AHC*VOR/DME*088.46/15.00",
	},
	{
		"name": "COMIR",
		"latitude": "8-53-32 N",
		"longitude": "139-13-38 W",
		"state": "OFFSHORE PACIFIC",
		"artcc": "ZOA",
		"type": "RP",
		"updated": "12/30/1993",
	},
	{
		"name": "COMIS",
		"latitude": "38-3-55.02 N",
		"longitude": "121-13-35.57 W",
		"state": "CALIFORNIA",
		"artcc": "ZOA",
		"type": "RNAV",
		"updated": "02/13/2007",
	},
	{
		"name": "COMKI",
		"latitude": "37-39-5.46 N",
		"longitude": "121-0-2.02 W",
		"state": "CALIFORNIA",
		"artcc": "ZOA",
		"type": "RNAV",
		"updated": "07/14/2008",
	},
	{
		"name": "COMMO",
		"latitude": "37-52-27.19 N",
		"longitude": "122-29-31.35 W",
		"state": "CALIFORNIA",
		"artcc": "ZOA",
		"type": "RP",
		"updated": "PYE*VOR/DME*107.53",
	},
	{
		"name": "COMOT",
		"latitude": "39-9-48.39 N",
		"longitude": "123-12-18.55 W",
		"state": "CALIFORNIA",
		"artcc": "ZOA",
		"type": "RNAV",
		"updated": "05/20/2009",
	},
	{
		"name": "CONIV",
		"latitude": "36-37-13.41 N",
		"longitude": "121-39-55.54 W",
		"state": "CALIFORNIA",
		"artcc": "ZOA",
		"type": "RNAV",
		"updated": "03/13/2015",
	},
	{
		"name": "CONOP",
		"latitude": "19-15-33.33 N",
		"longitude": "166-45-14.83 E",
		"state": "OFFSHORE PACIFIC",
		"artcc": "ZOA",
		"type": "RNAV",
		"updated": "11/03/2015",
	},
	{
		"name": "CONYO",
		"latitude": "39-13-47.18 N",
		"longitude": "120-45-33.58 W",
		"state": "CALIFORNIA",
		"artcc": "ZOA",
		"type": "RP",
		"updated": "SWR*VOR/DME*261.55",
	},
	{
		"name": "COOPE",
		"latitude": "37-12-42.12 N",
		"longitude": "120-25-59.23 W",
		"state": "CALIFORNIA",
		"artcc": "ZOA",
		"type": "RP",
		"updated": "HYP*VOR/DME*238.75",
	},
	{
		"name": "CORDD",
		"latitude": "38-12-41.4 N",
		"longitude": "122-10-49.99 W",
		"state": "CALIFORNIA",
		"artcc": "ZOA",
		"type": "RP",
		"updated": "SGD*VORTAC*061.00",
	},
	{
		"name": "CORKK",
		"latitude": "37-44-0.92 N",
		"longitude": "122-29-51.18 W",
		"state": "CALIFORNIA",
		"artcc": "ZOA",
		"type": "RNAV",
		"updated": "01/12/2015",
	},
	{
		"name": "CORLY",
		"latitude": "38-43-18.58 N",
		"longitude": "121-4-24.61 W",
		"state": "CALIFORNIA",
		"artcc": "ZOA",
		"type": "RP",
		"updated": "LIN*VOR/DME*338.18",
	},
	{
		"name": "CORSE",
		"latitude": "35-57-21.49 N",
		"longitude": "121-56-48.24 W",
		"state": "CALIFORNIA",
		"artcc": "ZOA",
		"type": "MR",
		"updated": "NLC*TACAN*241.00/99.00",
	},
	{
		"name": "CORTT",
		"latitude": "30-24-24 N",
		"longitude": "140-42-0 W",
		"state": "OFFSHORE PACIFIC",
		"artcc": "ZOA",
		"type": "RNAV",
		"updated": "02/11/2008",
	},
	{
		"name": "CORUB",
		"latitude": "37-41-20.38 N",
		"longitude": "118-48-6.1 W",
		"state": "CALIFORNIA",
		"artcc": "ZOA",
		"type": "RNAV",
		"updated": "10/29/2007",
	},
	{
		"name": "COSAT",
		"latitude": "9-0-0 N",
		"longitude": "152-30-0 E",
		"state": "OFFSHORE PACIFIC",
		"artcc": "ZOA",
		"type": "RNAV",
		"updated": "07/18/2007",
	},
	{
		"name": "COSBA",
		"latitude": "37-26-36.61 N",
		"longitude": "122-10-11.29 W",
		"state": "CALIFORNIA",
		"artcc": "ZOA",
		"type": "RNAV",
		"updated": "11/14/2016",
	},
	{
		"name": "COSKA",
		"latitude": "38-32-49.9 N",
		"longitude": "121-3-16.56 W",
		"state": "CALIFORNIA",
		"artcc": "ZOA",
		"type": "RP",
		"updated": "LIN*VOR/DME*338.18",
	},
	{
		"name": "COSLO",
		"latitude": "7-26-2.94 N",
		"longitude": "151-37-15.9 E",
		"state": "",
		"artcc": "ZOA",
		"type": "RNAV",
		"updated": "12/05/2017",
	},
	{
		"name": "COSMC",
		"latitude": "37-49-33.82 N",
		"longitude": "122-0-17.64 W",
		"state": "CALIFORNIA",
		"artcc": "ZOA",
		"type": "RNAV",
		"updated": "09/25/2014",
	},
	{
		"name": "COTTA",
		"latitude": "7-30-30 N",
		"longitude": "135-42-3 E",
		"state": "OFFSHORE PACIFIC",
		"artcc": "ZOA",
		"type": "RNAV",
		"updated": "02/14/2011",
	},
	{
		"name": "COUPS",
		"latitude": "38-18-58.58 N",
		"longitude": "121-39-9.44 W",
		"state": "CALIFORNIA",
		"artcc": "ZOA",
		"type": "RP",
		"updated": "SAC*VORTAC*195.00/9.00",
	},
	{
		"name": "COVAR",
		"latitude": "36-35-10.36 N",
		"longitude": "121-31-47.39 W",
		"state": "CALIFORNIA",
		"artcc": "ZOA",
		"type": "RNAV",
		"updated": "12/29/2009",
	},
	{
		"name": "COVTA",
		"latitude": "36-34-41.2 N",
		"longitude": "121-49-5.23 W",
		"state": "CALIFORNIA",
		"artcc": "ZOA",
		"type": "RNAV",
		"updated": "12/20/2005",
	},
	{
		"name": "COXEP",
		"latitude": "39-25-54.84 N",
		"longitude": "122-0-31.46 W",
		"state": "CALIFORNIA",
		"artcc": "ZOA",
		"type": "RNAV",
		"updated": "01/20/2015",
	},
	{
		"name": "CRASY",
		"latitude": "38-34-35.06 N",
		"longitude": "118-8-26.87 W",
		"state": "NEVADA",
		"artcc": "ZOA",
		"type": "RNAV",
		"updated": "09/28/2015",
	},
	{
		"name": "CRDDZ",
		"latitude": "39-40-15.08 N",
		"longitude": "119-57-0.33 W",
		"state": "NEVADA",
		"artcc": "ZOA",
		"type": "RNAV",
		"updated": "06/29/2011",
	},
	{
		"name": "CREAN",
		"latitude": "35-43-54 N",
		"longitude": "126-5-41 W",
		"state": "OFFSHORE PACIFIC",
		"artcc": "ZOA",
		"type": "RP",
		"updated": "05/06/2002",
	},
	{
		"name": "CREEZ",
		"latitude": "36-26-20.35 N",
		"longitude": "120-12-27.64 W",
		"state": "CALIFORNIA",
		"artcc": "ZOA",
		"type": "MR",
		"updated": "NLC*TACAN*282.00/13.00",
	},
	{
		"name": "CRESP",
		"latitude": "22-12-20 N",
		"longitude": "163-54-52 W",
		"state": "OFFSHORE PACIFIC",
		"artcc": "ZOA",
		"type": "RNAV",
		"updated": "02/21/2008",
	},
	{
		"name": "CRISE",
		"latitude": "38-30-34.24 N",
		"longitude": "121-23-47.97 W",
		"state": "CALIFORNIA",
		"artcc": "ZOA",
		"type": "RP",
		"updated": "MCC*VOR/DME*160.86",
	},
	{
		"name": "CROBY",
		"latitude": "10-16-18 N",
		"longitude": "165-12-15 W",
		"state": "OFFSHORE PACIFIC",
		"artcc": "ZOA",
		"type": "RNAV",
		"updated": "02/11/2008",
	},
	{
		"name": "CROIT",
		"latitude": "38-3-22.4 N",
		"longitude": "122-11-39.75 W",
		"state": "CALIFORNIA",
		"artcc": "ZOA",
		"type": "RP",
		"updated": "CCR*VOR/DME*258.52",
	},
	{
		"name": "CROLI",
		"latitude": "37-31-36.29 N",
		"longitude": "118-51-55.12 W",
		"state": "CALIFORNIA",
		"artcc": "ZOA",
		"type": "RNAV",
		"updated": "12/23/2014",
	},
	{
		"name": "CRONN",
		"latitude": "8-45-0 N",
		"longitude": "138-50-11 W",
		"state": "OFFSHORE PACIFIC",
		"artcc": "ZOA",
		"type": "RP",
		"updated": "12/28/1993",
	},
	{
		"name": "CROTI",
		"latitude": "38-36-51.8 N",
		"longitude": "120-43-32.58 W",
		"state": "CALIFORNIA",
		"artcc": "ZOA",
		"type": "RP",
		"updated": "LIN*VOR/DME*005.00",
	},
	{
		"name": "CRSEN",
		"latitude": "37-41-42.25 N",
		"longitude": "122-0-29.2 W",
		"state": "CALIFORNIA",
		"artcc": "ZOA",
		"type": "RNAV",
		"updated": "08/21/2015",
	},
	{
		"name": "CRTER",
		"latitude": "37-27-9.35 N",
		"longitude": "121-50-28.62 W",
		"state": "CALIFORNIA",
		"artcc": "ZOA",
		"type": "RNAV",
		"updated": "04/24/2017",
	},
	{
		"name": "CUBUN",
		"latitude": "39-50-18.66 N",
		"longitude": "121-53-35.69 W",
		"state": "CALIFORNIA",
		"artcc": "ZOA",
		"type": "RP",
		"updated": "CIC*VOR/DME*/3.61",
	},
	{
		"name": "CUDUG",
		"latitude": "37-47-33.08 N",
		"longitude": "121-34-39.59 W",
		"state": "CALIFORNIA",
		"artcc": "ZOA",
		"type": "RNAV",
		"updated": "08/11/2006",
	},
	{
		"name": "CUFFY",
		"latitude": "5-0-0 S",
		"longitude": "174-39-6 W",
		"state": "OFFSHORE PACIFIC",
		"artcc": "ZOA",
		"type": "RP",
		"updated": "04/29/1987",
	},
	{
		"name": "CUGTI",
		"latitude": "40-1-1.32 N",
		"longitude": "120-26-3.78 W",
		"state": "CALIFORNIA",
		"artcc": "ZOA",
		"type": "RNAV",
		"updated": "05/16/2006",
	},
	{
		"name": "CUGVU",
		"latitude": "36-46-28.12 N",
		"longitude": "121-53-8.06 W",
		"state": "CALIFORNIA",
		"artcc": "ZOA",
		"type": "RNAV",
		"updated": "03/13/2015",
	},
	{
		"name": "CULPS",
		"latitude": "13-59-51.62 N",
		"longitude": "144-57-29.02 E",
		"state": "N MARIANA ISLANDS",
		"artcc": "ZOA",
		"type": "RP",
		"updated": "UNZ*VORTAC*020.00/35.00",
	},
	{
		"name": "CULUL",
		"latitude": "39-10-35.11 N",
		"longitude": "121-36-50.49 W",
		"state": "CALIFORNIA",
		"artcc": "ZOA",
		"type": "RP",
		"updated": "MYV*VOR/DME*/5.04",
	},
	{
		"name": "CUMKA",
		"latitude": "36-48-48.3 N",
		"longitude": "120-33-55.07 W",
		"state": "CALIFORNIA",
		"artcc": "ZOA",
		"type": "RNAV",
		"updated": "05/13/2011",
	},
	{
		"name": "CUMLO",
		"latitude": "37-13-34.89 N",
		"longitude": "120-24-44.6 W",
		"state": "CALIFORNIA",
		"artcc": "ZOA",
		"type": "RNAV",
		"updated": "12/08/2008",
	},
	{
		"name": "CUMUX",
		"latitude": "36-45-24.53 N",
		"longitude": "119-41-11.19 W",
		"state": "CALIFORNIA",
		"artcc": "ZOA",
		"type": "RNAV",
		"updated": "07/03/2013",
	},
	{
		"name": "CUMVO",
		"latitude": "39-14-35.05 N",
		"longitude": "121-52-28.91 W",
		"state": "CALIFORNIA",
		"artcc": "ZOA",
		"type": "RNAV",
		"updated": "02/13/2007",
	},
	{
		"name": "CUNDU",
		"latitude": "33-16-51 N",
		"longitude": "133-37-22 W",
		"state": "OFFSHORE PACIFIC",
		"artcc": "ZOA",
		"type": "RNAV",
		"updated": "02/11/2008",
	},
	{
		"name": "CUNEX",
		"latitude": "39-17-41.83 N",
		"longitude": "123-44-51.85 W",
		"state": "CALIFORNIA",
		"artcc": "ZOA",
		"type": "RNAV",
		"updated": "05/04/2009",
	},
	{
		"name": "CUPIR",
		"latitude": "39-30-27.38 N",
		"longitude": "118-45-34.86 W",
		"state": "NEVADA",
		"artcc": "ZOA",
		"type": "MR",
		"updated": "NFL*TACAN*321.00/6.00",
	},
	{
		"name": "CURBA",
		"latitude": "39-8-12.54 N",
		"longitude": "121-7-30.62 W",
		"state": "CALIFORNIA",
		"artcc": "ZOA",
		"type": "RNAV",
		"updated": "04/28/2015",
	},
	{
		"name": "CURCH",
		"latitude": "8-17-35 N",
		"longitude": "168-39-8 E",
		"state": "OFFSHORE PACIFIC",
		"artcc": "ZOA",
		"type": "RNAV",
		"updated": "05/11/2012",
	},
	{
		"name": "CURIE",
		"latitude": "38-19-22.82 N",
		"longitude": "122-12-7.6 W",
		"state": "CALIFORNIA",
		"artcc": "ZOA",
		"type": "MR",
		"updated": "SUU*TACAN*274.00/13.00",
	},
	{
		"name": "CURKI",
		"latitude": "19-18-1.47 N",
		"longitude": "166-34-35.46 E",
		"state": "WAKE ISLAND",
		"artcc": "ZOA",
		"type": "MR",
		"updated": "AWK*VORTAC*280.00/3.00",
	},
	{
		"name": "CUSEX",
		"latitude": "37-49-46.98 N",
		"longitude": "121-7-55.11 W",
		"state": "CALIFORNIA",
		"artcc": "ZOA",
		"type": "RP",
		"updated": "LIN*VOR/DME*185.54",
	},
	{
		"name": "CUSOS",
		"latitude": "6-59-20.71 N",
		"longitude": "158-16-14.57 E",
		"state": "",
		"artcc": "ZOA",
		"type": "RNAV",
		"updated": "03/06/2017",
	},
	{
		"name": "CUVSA",
		"latitude": "37-41-46.56 N",
		"longitude": "122-7-0.07 W",
		"state": "CALIFORNIA",
		"artcc": "ZOA",
		"type": "RP",
		"updated": "OAK*VOR/DME*/5.39",
	},
	{
		"name": "CUYAP",
		"latitude": "40-27-51.91 N",
		"longitude": "122-17-41.83 W",
		"state": "CALIFORNIA",
		"artcc": "ZOA",
		"type": "RNAV",
		"updated": "07/08/2009",
	},
	{
		"name": "CUZUP",
		"latitude": "37-26-28.51 N",
		"longitude": "122-9-11.45 W",
		"state": "CALIFORNIA",
		"artcc": "ZOA",
		"type": "RNAV",
		"updated": "06/18/2010",
	},
	{
		"name": "CYMBL",
		"latitude": "37-34-15.17 N",
		"longitude": "121-50-37.07 W",
		"state": "CALIFORNIA",
		"artcc": "ZOA",
		"type": "RNAV",
		"updated": "03/02/2015",
	},
	{
		"name": "CYPRS",
		"latitude": "36-25-20.41 N",
		"longitude": "122-25-55.85 W",
		"state": "CALIFORNIA",
		"artcc": "ZOA",
		"type": "RP",
		"updated": "MQO*VORTAC*295.15/107.57",
	},
