	{
		"name": "DACEM",
		"latitude": "38-27-59 N",
		"longitude": "127-0-0 W",
		"state": "OFFSHORE PACIFIC",
		"artcc": "ZOA",
		"type": "RP",
		"updated": "08/27/2003",
	},
	{
		"name": "DACER",
		"latitude": "38-18-7.8 N",
		"longitude": "122-39-43.26 W",
		"state": "CALIFORNIA",
		"artcc": "ZOA",
		"type": "RP",
		"updated": "PYE*VOR/DME*019.08",
	},
	{
		"name": "DADIE",
		"latitude": "31-6-11 N",
		"longitude": "132-8-12 W",
		"state": "OFFSHORE PACIFIC",
		"artcc": "ZOA",
		"type": "RNAV",
		"updated": "09/05/2008",
	},
	{
		"name": "DALON",
		"latitude": "39-4-7.64 N",
		"longitude": "122-15-58.99 W",
		"state": "CALIFORNIA",
		"artcc": "ZOA",
		"type": "RP",
		"updated": "ILA*VORTAC*251.35/11.18",
	},
	{
		"name": "DARBI",
		"latitude": "38-17-57.03 N",
		"longitude": "119-43-53.66 W",
		"state": "CALIFORNIA",
		"artcc": "ZOA",
		"type": "RP",
		"updated": "LIN*VOR/DME*060.00",
	},
	{
		"name": "DARNE",
		"latitude": "37-35-35.79 N",
		"longitude": "122-17-32.13 W",
		"state": "CALIFORNIA",
		"artcc": "ZOA",
		"type": "RP",
		"updated": "FNP*DD*100.81/4.00",
	},
	{
		"name": "DASHE",
		"latitude": "38-52-3.21 N",
		"longitude": "121-24-1.02 W",
		"state": "CALIFORNIA",
		"artcc": "ZOA",
		"type": "RP",
		"updated": "MCC*VOR/DME*343.87/12.00",
	},
	{
		"name": "DASNE",
		"latitude": "10-12-17 N",
		"longitude": "162-47-29 W",
		"state": "OFFSHORE PACIFIC",
		"artcc": "ZOA",
		"type": "RNAV",
		"updated": "02/11/2008",
	},
	{
		"name": "DASVE",
		"latitude": "37-36-12.19 N",
		"longitude": "121-24-33.78 W",
		"state": "CALIFORNIA",
		"artcc": "ZOA",
		"type": "RNAV",
		"updated": "07/12/2017",
	},
	{
		"name": "DATBE",
		"latitude": "17-45-21 N",
		"longitude": "159-32-20 W",
		"state": "OFFSHORE PACIFIC",
		"artcc": "ZOA",
		"type": "RNAV",
		"updated": "02/11/2008",
	},
	{
		"name": "DATTS",
		"latitude": "37-49-51.08 N",
		"longitude": "122-24-47.93 W",
		"state": "CALIFORNIA",
		"artcc": "ZOA",
		"type": "RP",
		"updated": "SFO*VOR/DME*334.59",
	},
	{
		"name": "DATTT",
		"latitude": "39-21-16.39 N",
		"longitude": "119-30-28.38 W",
		"state": "NEVADA",
		"artcc": "ZOA",
		"type": "RNAV",
		"updated": "06/29/2011",
	},
	{
		"name": "DECOT",
		"latitude": "37-36-21.73 N",
		"longitude": "122-2-55.49 W",
		"state": "CALIFORNIA",
		"artcc": "ZOA",
		"type": "RP",
		"updated": "SFO*VOR/DME*075.88/15.52",
	},
	{
		"name": "DEDHD",
		"latitude": "38-20-7.86 N",
		"longitude": "122-6-46.11 W",
		"state": "CALIFORNIA",
		"artcc": "ZOA",
		"type": "RNAV",
		"updated": "09/25/2014",
	},
	{
		"name": "DEEAN",
		"latitude": "38-20-56.99 N",
		"longitude": "123-18-8.24 W",
		"state": "CALIFORNIA",
		"artcc": "ZOA",
		"type": "RNAV",
		"updated": "01/06/2015",
	},
	{
		"name": "DEEII",
		"latitude": "37-48-52.61 N",
		"longitude": "121-52-2.75 W",
		"state": "CALIFORNIA",
		"artcc": "ZOA",
		"type": "RNAV",
		"updated": "01/13/2015",
	},
	{
		"name": "DESRT",
		"latitude": "36-19-43.19 N",
		"longitude": "120-14-1.71 W",
		"state": "CALIFORNIA",
		"artcc": "ZOA",
		"type": "MR",
		"updated": "NLC*TACAN*250.00/13.00",
	},
	{
		"name": "DETAY",
		"latitude": "40-26-6.28 N",
		"longitude": "120-36-7.67 W",
		"state": "CALIFORNIA",
		"artcc": "ZOA",
		"type": "RNAV",
		"updated": "08/16/2011",
	},
	{
		"name": "DEWOP",
		"latitude": "27-0-0 N",
		"longitude": "161-4-50 E",
		"state": "OFFSHORE PACIFIC",
		"artcc": "ZOA",
		"type": "RP",
		"updated": "04/19/2001",
	},
	{
		"name": "DEWSS",
		"latitude": "14-52-30 N",
		"longitude": "148-58-54 E",
		"state": "OFFSHORE PACIFIC",
		"artcc": "ZOA",
		"type": "RP",
		"updated": "11/29/1989",
	},
	{
		"name": "DIALO",
		"latitude": "28-42-6 N",
		"longitude": "139-25-36 W",
		"state": "OFFSHORE PACIFIC",
		"artcc": "ZOA",
		"type": "RNAV",
		"updated": "02/11/2008",
	},
	{
		"name": "DIANS",
		"latitude": "39-42-43.26 N",
		"longitude": "121-47-18.77 W",
		"state": "CALIFORNIA",
		"artcc": "ZOA",
		"type": "RNAV",
		"updated": "06/30/2017",
	},
	{
		"name": "DIBLE",
		"latitude": "40-13-22.13 N",
		"longitude": "122-17-43.51 W",
		"state": "CALIFORNIA",
		"artcc": "ZOA",
		"type": "RP",
		"updated": "RBL*VORTAC*321.93",
	},
	{
		"name": "DIDBE",
		"latitude": "39-42-7.53 N",
		"longitude": "119-46-7.36 W",
		"state": "NEVADA",
		"artcc": "ZOA",
		"type": "RNAV",
		"updated": "08/05/2008",
	},
	{
		"name": "DIGQY",
		"latitude": "37-26-58.74 N",
		"longitude": "120-51-17.21 W",
		"state": "CALIFORNIA",
		"artcc": "ZOA",
		"type": "RNAV",
		"updated": "12/08/2008",
	},
	{
		"name": "DIJER",
		"latitude": "37-40-36.33 N",
		"longitude": "120-52-59.39 W",
		"state": "CALIFORNIA",
		"artcc": "ZOA",
		"type": "RP",
		"updated": "LIN*VOR/DME*149.44",
	},
	{
		"name": "DIKEC",
		"latitude": "10-1-56 N",
		"longitude": "139-54-15 E",
		"state": "OFFSHORE PACIFIC",
		"artcc": "ZOA",
		"type": "RNAV",
		"updated": "02/14/2011",
	},
	{
		"name": "DIKNE",
		"latitude": "39-15-59.38 N",
		"longitude": "119-31-39.4 W",
		"state": "NEVADA",
		"artcc": "ZOA",
		"type": "RNAV",
		"updated": "06/26/2013",
	},
	{
		"name": "DINUB",
		"latitude": "36-25-29.42 N",
		"longitude": "119-19-19.18 W",
		"state": "CALIFORNIA",
		"artcc": "ZOA",
		"type": "RP",
		"updated": "VIS*VOR/DME*050.00/8.49",
	},
	{
		"name": "DIRBE",
		"latitude": "38-50-9.77 N",
		"longitude": "121-34-40.45 W",
		"state": "CALIFORNIA",
		"artcc": "ZOA",
		"type": "RP",
		"updated": "MDK*LD*347.76/9.32",
	},
	{
		"name": "DISCS",
		"latitude": "39-39-33.77 N",
		"longitude": "119-46-7.77 W",
		"state": "NEVADA",
		"artcc": "ZOA",
		"type": "RP",
		"updated": "04/20/2016",
	},
	{
		"name": "DISDE",
		"latitude": "36-52-34.68 N",
		"longitude": "119-47-28.55 W",
		"state": "CALIFORNIA",
		"artcc": "ZOA",
		"type": "RNAV",
		"updated": "04/26/2018",
	},
	{
		"name": "DIVEC",
		"latitude": "37-25-58.38 N",
		"longitude": "121-56-6.03 W",
		"state": "CALIFORNIA",
		"artcc": "ZOA",
		"type": "RP",
		"updated": "SFO*LD*103.81/24.86",
	},
	{
		"name": "DIVIT",
		"latitude": "36-26-44.15 N",
		"longitude": "119-40-59.73 W",
		"state": "CALIFORNIA",
		"artcc": "ZOA",
		"type": "MR",
		"updated": "NLC*TACAN*050.00/15.00",
	},
	{
		"name": "DIYEB",
		"latitude": "37-23-55.41 N",
		"longitude": "122-2-24.97 W",
		"state": "CALIFORNIA",
		"artcc": "ZOA",
		"type": "MR",
		"updated": "NUQ*TACAN*140.75/2.18",
	},
	{
		"name": "DIZZY",
		"latitude": "36-35-46.74 N",
		"longitude": "121-52-18.97 W",
		"state": "CALIFORNIA",
		"artcc": "ZOA",
		"type": "RNAV",
		"updated": "12/20/2005",
	},
	{
		"name": "DLANI",
		"latitude": "39-7-33.95 N",
		"longitude": "120-3-39.56 W",
		"state": "CALIFORNIA",
		"artcc": "ZOA",
		"type": "RNAV",
		"updated": "04/29/2010",
	},
	{
		"name": "DLRAY",
		"latitude": "37-27-47.07 N",
		"longitude": "120-39-7.71 W",
		"state": "CALIFORNIA",
		"artcc": "ZOA",
		"type": "RP",
		"updated": "HYP*VOR/DME*305.55/18.94",
	},
	{
		"name": "DMEZG",
		"latitude": "39-56-12.28 N",
		"longitude": "122-11-8.27 W",
		"state": "CALIFORNIA",
		"artcc": "ZOA",
		"type": "CN",
		"updated": "12/21/1999",
	},
	{
		"name": "DMGDB",
		"latitude": "39-38-2.21 N",
		"longitude": "119-50-59.73 W",
		"state": "NEVADA",
		"artcc": "ZOA",
		"type": "CN",
		"updated": "05/31/2011",
	},
	{
		"name": "DMTFB",
		"latitude": "39-38-24.51 N",
		"longitude": "119-50-7.67 W",
		"state": "NEVADA",
		"artcc": "ZOA",
		"type": "CN",
		"updated": "05/25/2011",
	},
	{
		"name": "DMVCB",
		"latitude": "39-38-33.63 N",
		"longitude": "119-50-17.55 W",
		"state": "NEVADA",
		"artcc": "ZOA",
		"type": "CN",
		"updated": "05/25/2011",
	},
	{
		"name": "DMYPW",
		"latitude": "35-56-12.94 N",
		"longitude": "120-34-53.05 W",
		"state": "CALIFORNIA",
		"artcc": "ZOA",
		"type": "CN",
		"updated": "12/21/1999",
	},
	{
		"name": "DMYSU",
		"latitude": "40-29-22.47 N",
		"longitude": "122-21-19.94 W",
		"state": "CALIFORNIA",
		"artcc": "ZOA",
		"type": "CN",
		"updated": "12/21/1999",
	},
	{
		"name": "DMYUJ",
		"latitude": "37-10-3.04 N",
		"longitude": "121-42-30.07 W",
		"state": "CALIFORNIA",
		"artcc": "ZOA",
		"type": "CN",
		"updated": "12/21/1999",
	},
	{
		"name": "DMYUX",
		"latitude": "36-58-38.47 N",
		"longitude": "121-56-36.24 W",
		"state": "CALIFORNIA",
		"artcc": "ZOA",
		"type": "CN",
		"updated": "12/21/1999",
	},
	{
		"name": "DNGER",
		"latitude": "38-38-54.47 N",
		"longitude": "120-42-20.48 W",
		"state": "CALIFORNIA",
		"artcc": "ZOA",
		"type": "RNAV",
		"updated": "11/24/2014",
	},
	{
		"name": "DOCAL",
		"latitude": "37-15-13.02 N",
		"longitude": "122-1-26.19 W",
		"state": "CALIFORNIA",
		"artcc": "ZOA",
		"type": "RNAV",
		"updated": "11/19/2002",
	},
	{
		"name": "DOFER",
		"latitude": "37-7-21.57 N",
		"longitude": "120-13-49.24 W",
		"state": "CALIFORNIA",
		"artcc": "ZOA",
		"type": "RP",
		"updated": "HYP*VOR/DME*110.37/10.00",
	},
	{
		"name": "DOGIF",
		"latitude": "23-15-30 N",
		"longitude": "163-51-18 W",
		"state": "OFFSHORE PACIFIC",
		"artcc": "ZOA",
		"type": "RNAV",
		"updated": "02/21/2008",
	},
	{
		"name": "DOHRT",
		"latitude": "0-0-0 N",
		"longitude": "156-50-0 E",
		"state": "OFFSHORE PACIFIC",
		"artcc": "ZOA",
		"type": "RP",
		"updated": "03/13/1996",
	},
	{
		"name": "DOJOS",
		"latitude": "35-37-31.48 N",
		"longitude": "120-34-48.51 W",
		"state": "CALIFORNIA",
		"artcc": "ZOA",
		"type": "RNAV",
		"updated": "11/30/2015",
	},
	{
		"name": "DOKKS",
		"latitude": "37-34-25.77 N",
		"longitude": "122-3-5.86 W",
		"state": "CALIFORNIA",
		"artcc": "ZOA",
		"type": "RP",
		"updated": "OAK*VOR/DME*120.99/12.26",
	},
	{
		"name": "DOLCE",
		"latitude": "38-23-45.06 N",
		"longitude": "121-50-32.04 W",
		"state": "CALIFORNIA",
		"artcc": "ZOA",
		"type": "RP",
		"updated": "SAC*VORTAC*241.26/14.00",
	},
	{
		"name": "DOMAC",
		"latitude": "37-21-20.43 N",
		"longitude": "121-55-19.91 W",
		"state": "CALIFORNIA",
		"artcc": "ZOA",
		"type": "WP",
		"updated": "SJC*VOR/DME*120.73/1.57",
	},
	{
		"name": "DONNG",
		"latitude": "37-35-12.18 N",
		"longitude": "122-15-5.04 W",
		"state": "CALIFORNIA",
		"artcc": "ZOA",
		"type": "RNAV",
		"updated": "01/23/2018",
	},
	{
		"name": "DONNR",
		"latitude": "37-43-23.95 N",
		"longitude": "117-57-43.56 W",
		"state": "NEVADA",
		"artcc": "ZOA",
		"type": "RNAV",
		"updated": "09/28/2015",
	},
	{
		"name": "DOSCO",
		"latitude": "38-25-59.96 N",
		"longitude": "120-11-35.43 W",
		"state": "CALIFORNIA",
		"artcc": "ZOA",
		"type": "RNAV",
		"updated": "11/24/2014",
	},
	{
		"name": "DOTHI",
		"latitude": "36-43-46.55 N",
		"longitude": "119-48-57.48 W",
		"state": "CALIFORNIA",
		"artcc": "ZOA",
		"type": "WP",
		"updated": "02/05/1996",
	},
	{
		"name": "DOTNE",
		"latitude": "37-43-7.18 N",
		"longitude": "122-36-51.36 W",
		"state": "CALIFORNIA",
		"artcc": "ZOA",
		"type": "RNAV",
		"updated": "05/07/2002",
	},
	{
		"name": "DOTTR",
		"latitude": "37-28-36.75 N",
		"longitude": "122-10-11.29 W",
		"state": "CALIFORNIA",
		"artcc": "ZOA",
		"type": "RNAV",
		"updated": "11/14/2016",
	},
	{
		"name": "DOUKE",
		"latitude": "9-38-41 N",
		"longitude": "139-14-5 E",
		"state": "OFFSHORE PACIFIC",
		"artcc": "ZOA",
		"type": "RNAV",
		"updated": "02/14/2011",
	},
	{
		"name": "DOWUN",
		"latitude": "38-32-40.01 N",
		"longitude": "121-51-26.1 W",
		"state": "CALIFORNIA",
		"artcc": "ZOA",
		"type": "WP",
		"updated": "09/23/2010",
	},
	{
		"name": "DRANK",
		"latitude": "37-34-48.86 N",
		"longitude": "122-46-54.96 W",
		"state": "CALIFORNIA",
		"artcc": "ZOA",
		"type": "MR",
		"updated": "OAK*VOR/DME*235.00/28.00",
	},
	{
		"name": "DRAXE",
		"latitude": "38-45-32.4 N",
		"longitude": "122-23-20.57 W",
		"state": "CALIFORNIA",
		"artcc": "ZOA",
		"type": "RNAV",
		"updated": "12/16/2014",
	},
	{
		"name": "DRAYK",
		"latitude": "23-1-27 N",
		"longitude": "152-34-40 W",
		"state": "OFFSHORE PACIFIC",
		"artcc": "ZOA",
		"type": "RNAV",
		"updated": "02/11/2008",
	},
	{
		"name": "DRIPY",
		"latitude": "10-26-38 N",
		"longitude": "138-44-1 E",
		"state": "OFFSHORE PACIFIC",
		"artcc": "ZOA",
		"type": "RNAV",
		"updated": "02/14/2011",
	},
	{
		"name": "DRNAY",
		"latitude": "37-41-39.86 N",
		"longitude": "121-53-42.87 W",
		"state": "CALIFORNIA",
		"artcc": "ZOA",
		"type": "RNAV",
		"updated": "07/07/2016",
	},
	{
		"name": "DUBRY",
		"latitude": "37-52-56.74 N",
		"longitude": "122-52-4.17 W",
		"state": "CALIFORNIA",
		"artcc": "ZOA",
		"type": "RP",
		"updated": "PYE*VOR/DME*163.00/12.00",
	},
	{
		"name": "DUBSS",
		"latitude": "36-18-17.44 N",
		"longitude": "121-46-22.72 W",
		"state": "CALIFORNIA",
		"artcc": "ZOA",
		"type": "RNAV",
		"updated": "04/18/2017",
	},
	{
		"name": "DUCKE",
		"latitude": "37-53-51.65 N",
		"longitude": "120-6-3.73 W",
		"state": "CALIFORNIA",
		"artcc": "ZOA",
		"type": "RNAV",
		"updated": "02/02/2018",
	},
	{
		"name": "DUDES",
		"latitude": "38-43-5.12 N",
		"longitude": "120-12-27.35 W",
		"state": "CALIFORNIA",
		"artcc": "ZOA",
		"type": "RP",
		"updated": "SWR*VOR/DME*158.00",
	},
	{
		"name": "DUETS",
		"latitude": "33-4-10.76 N",
		"longitude": "124-31-6.48 W",
		"state": "OFFSHORE PACIFIC",
		"artcc": "ZOA",
		"type": "RNAV",
		"updated": "07/25/2008",
	},
	{
		"name": "DUGLE",
		"latitude": "37-51-53.96 N",
		"longitude": "120-40-4.4 W",
		"state": "CALIFORNIA",
		"artcc": "ZOA",
		"type": "RP",
		"updated": "LIN*VOR/DME*111.14/20.30",
	},
	{
		"name": "DUKAY",
		"latitude": "36-19-47.81 N",
		"longitude": "119-35-8.87 W",
		"state": "CALIFORNIA",
		"artcc": "ZOA",
		"type": "RP",
		"updated": "VIS*VOR/DME*230.00/5.50",
	},
	{
		"name": "DULCE",
		"latitude": "2-36-39 N",
		"longitude": "165-53-49 W",
		"state": "OFFSHORE PACIFIC",
		"artcc": "ZOA",
		"type": "RNAV",
		"updated": "02/11/2008",
	},
	{
		"name": "DUMBA",
		"latitude": "37-30-12.66 N",
		"longitude": "122-5-46.13 W",
		"state": "CALIFORNIA",
		"artcc": "ZOA",
		"type": "RP",
		"updated": "SFO*VOR/DME*100.59/14.96",
	},
	{
		"name": "DUNEY",
		"latitude": "5-0-0 S",
		"longitude": "168-58-6 W",
		"state": "OFFSHORE PACIFIC",
		"artcc": "ZOA",
		"type": "RP",
		"updated": "04/29/1987",
	},
	{
		"name": "DUNSS",
		"latitude": "10-50-30 N",
		"longitude": "139-25-14 E",
		"state": "OFFSHORE PACIFIC",
		"artcc": "ZOA",
		"type": "RNAV",
		"updated": "02/14/2011",
	},
	{
		"name": "DUPUF",
		"latitude": "19-19-33.66 N",
		"longitude": "166-24-56.29 E",
		"state": "OFFSHORE PACIFIC",
		"artcc": "ZOA",
		"type": "RNAV",
		"updated": "11/03/2015",
	},
	{
		"name": "DURHA",
		"latitude": "39-39-48.92 N",
		"longitude": "121-45-24.16 W",
		"state": "CALIFORNIA",
		"artcc": "ZOA",
		"type": "RP",
		"updated": "ILA*VORTAC*001.43/37.68",
	},
	{
		"name": "DUSAC",
		"latitude": "26-0-22 N",
		"longitude": "146-10-3 W",
		"state": "OFFSHORE PACIFIC",
		"artcc": "ZOA",
		"type": "RNAV",
		"updated": "02/11/2008",
	},
	{
		"name": "DUVBE",
		"latitude": "37-36-37.98 N",
		"longitude": "118-33-18.64 W",
		"state": "CALIFORNIA",
		"artcc": "ZOA",
		"type": "RNAV",
		"updated": "12/23/2014",
	},
	{
		"name": "DUXBY",
		"latitude": "37-41-45.17 N",
		"longitude": "122-27-19.03 W",
		"state": "CALIFORNIA",
		"artcc": "ZOA",
		"type": "RP",
		"updated": "PYE*VOR/DME*122.45",
	},
	{
		"name": "DUYEP",
		"latitude": "39-25-36.3 N",
		"longitude": "119-46-10.03 W",
		"state": "NEVADA",
		"artcc": "ZOA",
		"type": "RNAV",
		"updated": "AGY*LD*S CRS/5.40",
	},
	{
		"name": "DUYET",
		"latitude": "37-34-2.64 N",
		"longitude": "122-15-10.54 W",
		"state": "CALIFORNIA",
		"artcc": "ZOA",
		"type": "RP",
		"updated": "OAK*VOR/DME*171.38",
	},
	{
		"name": "DYAMD",
		"latitude": "37-41-56.98 N",
		"longitude": "120-24-15.94 W",
		"state": "CALIFORNIA",
		"artcc": "ZOA",
		"type": "RNAV",
		"updated": "02/23/2015",
	},
	{
		"name": "DYKEE",
		"latitude": "38-3-32.87 N",
		"longitude": "122-25-44.13 W",
		"state": "CALIFORNIA",
		"artcc": "ZOA",
		"type": "RP",
		"updated": "PYE*VOR/DME*076.27",
	},
	{
		"name": "DYLON",
		"latitude": "19-15-15.34 N",
		"longitude": "166-44-45.13 E",
		"state": "WAKE ISLAND",
		"artcc": "ZOA",
		"type": "MR",
		"updated": "AWK*VORTAC*100.00/7.00",
	},
	{
		"name": "DYNER",
		"latitude": "36-52-5.15 N",
		"longitude": "121-44-38.97 W",
		"state": "CALIFORNIA",
		"artcc": "ZOA",
		"type": "RP",
		"updated": "SNS*VORTAC*314.00/14.00",
	},
