[
	{
		"name": "EBAYE",
		"latitude": "35-52-7.39 N",
		"longitude": "120-15-38.01 W",
		"state": "CALIFORNIA",
		"artcc": "ZOA",
		"type": "RNAV",
		"updated": "11/24/2014"
	},
	{
		"name": "EBEBE",
		"latitude": "2-35-11 N",
		"longitude": "164-37-19 W",
		"state": "OFFSHORE PACIFIC",
		"artcc": "ZOA",
		"type": "RNAV",
		"updated": "02/11/2008"
	},
	{
		"name": "EBFIT",
		"latitude": "7-26-47.4 N",
		"longitude": "134-44-26.31 E",
		"state": "",
		"artcc": "ZOA",
		"type": "RNAV",
		"updated": "03/07/2003"
	},
	{
		"name": "EBIYI",
		"latitude": "37-18-34.39 N",
		"longitude": "121-59-36.14 W",
		"state": "CALIFORNIA",
		"artcc": "ZOA",
		"type": "MR",
		"updated": "NUQ*TACAN*/7.98"
	},
	{
		"name": "EBOBE",
		"latitude": "37-34-29.54 N",
		"longitude": "118-28-1.06 W",
		"state": "CALIFORNIA",
		"artcc": "ZOA",
		"type": "RP",
		"updated": "BIH*DD*NW CRS/13.20"
	},
	{
		"name": "EBTUW",
		"latitude": "37-19-23.27 N",
		"longitude": "120-14-51.19 W",
		"state": "CALIFORNIA",
		"artcc": "ZOA",
		"type": "RP",
		"updated": "HYP*VOR/DME*034.59/9.60"
	},
	{
		"name": "EBULE",
		"latitude": "36-36-53.45 N",
		"longitude": "121-30-51.36 W",
		"state": "CALIFORNIA",
		"artcc": "ZOA",
		"type": "RP",
		"updated": "SNS*VORTAC*107.33/5.20"
	},
	{
		"name": "EBYIB",
		"latitude": "39-17-12.93 N",
		"longitude": "123-47-41.87 W",
		"state": "CALIFORNIA",
		"artcc": "ZOA",
		"type": "RNAV",
		"updated": "04/12/2010"
	},
	{
		"name": "ECEDO",
		"latitude": "24-10-8 N",
		"longitude": "163-15-59 W",
		"state": "OFFSHORE PACIFIC",
		"artcc": "ZOA",
		"type": "RNAV",
		"updated": "02/21/2008"
	},
	{
		"name": "ECOBU",
		"latitude": "38-3-29.57 N",
		"longitude": "120-34-23.43 W",
		"state": "CALIFORNIA",
		"artcc": "ZOA",
		"type": "RNAV",
		"updated": "02/09/2018"
	},
	{
		"name": "ECOLO",
		"latitude": "39-48-39.05 N",
		"longitude": "119-46-6.29 W",
		"state": "NEVADA",
		"artcc": "ZOA",
		"type": "RNAV",
		"updated": "08/05/2008"
	},
	{
		"name": "ECYON",
		"latitude": "37-9-22.71 N",
		"longitude": "121-39-8.49 W",
		"state": "CALIFORNIA",
		"artcc": "ZOA",
		"type": "RNAV",
		"updated": "06/14/2010"
	},
	{
		"name": "EDDYY",
		"latitude": "37-22-29.65 N",
		"longitude": "122-7-7.5 W",
		"state": "CALIFORNIA",
		"artcc": "ZOA",
		"type": "RNAV",
		"updated": "01/23/2018"
	},
	{
		"name": "EDIME",
		"latitude": "8-44-36 N",
		"longitude": "149-39-31 E",
		"state": "OFFSHORE PACIFIC",
		"artcc": "ZOA",
		"type": "RNAV",
		"updated": "02/14/2011"
	},
	{
		"name": "EDMND",
		"latitude": "37-13-54.91 N",
		"longitude": "121-55-56.59 W",
		"state": "CALIFORNIA",
		"artcc": "ZOA",
		"type": "RNAV",
		"updated": "01/12/2015"
	},
	{
		"name": "EDOKE",
		"latitude": "36-13-32.65 N",
		"longitude": "120-11-27.32 W",
		"state": "CALIFORNIA",
		"artcc": "ZOA",
		"type": "MR",
		"updated": "NLC*TACAN*223.00/13.00"
	},
	{
		"name": "EDOVE",
		"latitude": "38-21-28.81 N",
		"longitude": "122-43-40.92 W",
		"state": "CALIFORNIA",
		"artcc": "ZOA",
		"type": "RP",
		"updated": "PYE*VOR/DME*004.58"
	},
	{
		"name": "EDOYE",
		"latitude": "37-28-43.61 N",
		"longitude": "122-4-52.25 W",
		"state": "CALIFORNIA",
		"artcc": "ZOA",
		"type": "MR",
		"updated": "NUQ*TACAN*320.89/3.00"
	},
	{
		"name": "EDOYO",
		"latitude": "9-26-58 N",
		"longitude": "150-17-5 E",
		"state": "OFFSHORE PACIFIC",
		"artcc": "ZOA",
		"type": "RNAV",
		"updated": "02/14/2011"
	},
	{
		"name": "EDTOF",
		"latitude": "39-26-33.98 N",
		"longitude": "123-48-4 W",
		"state": "CALIFORNIA",
		"artcc": "ZOA",
		"type": "RNAV",
		"updated": "10/21/2014"
	},
	{
		"name": "EDWIL",
		"latitude": "43-20-0 N",
		"longitude": "130-57-0 W",
		"state": "OFFSHORE PACIFIC",
		"artcc": "ZOA",
		"type": "RNAV",
		"updated": "09/02/2009"
	},
	{
		"name": "EDZUT",
		"latitude": "38-45-3.09 N",
		"longitude": "122-58-7.27 W",
		"state": "CALIFORNIA",
		"artcc": "ZOA",
		"type": "RNAV",
		"updated": "02/09/2018"
	},
	{
		"name": "EELLS",
		"latitude": "39-32-51.64 N",
		"longitude": "123-40-25.74 W",
		"state": "CALIFORNIA",
		"artcc": "ZOA",
		"type": "MR",
		"updated": "ENI*VORTAC*312.00/35.00"
	},
	{
		"name": "EELZA",
		"latitude": "40-2-35.96 N",
		"longitude": "119-46-3.32 W",
		"state": "NEVADA",
		"artcc": "ZOA",
		"type": "RNAV",
		"updated": "07/06/2011"
	},
	{
		"name": "EFAHU",
		"latitude": "7-18-39.26 N",
		"longitude": "171-43-19.45 E",
		"state": "",
		"artcc": "ZOA",
		"type": "RP",
		"updated": "MAJ*NDB/DME*051.15/30.00"
	},
	{
		"name": "EFGON",
		"latitude": "36-26-48.15 N",
		"longitude": "121-12-38.97 W",
		"state": "CALIFORNIA",
		"artcc": "ZOA",
		"type": "RNAV",
		"updated": "07/06/2009"
	},
	{
		"name": "EFRAM",
		"latitude": "38-16-41.86 N",
		"longitude": "122-30-14.21 W",
		"state": "CALIFORNIA",
		"artcc": "ZOA",
		"type": "RNAV",
		"updated": "02/09/2018"
	},
	{
		"name": "EFUYE",
		"latitude": "7-37-18.12 N",
		"longitude": "134-57-56.24 E",
		"state": "",
		"artcc": "ZOA",
		"type": "RP",
		"updated": "ROR*NDB/DME*057.59/29.00"
	},
	{
		"name": "EGEBE",
		"latitude": "8-30-50 N",
		"longitude": "151-22-5 E",
		"state": "OFFSHORE PACIFIC",
		"artcc": "ZOA",
		"type": "RNAV",
		"updated": "02/14/2011"
	},
	{
		"name": "EGHEP",
		"latitude": "38-52-7.23 N",
		"longitude": "122-21-38.47 W",
		"state": "CALIFORNIA",
		"artcc": "ZOA",
		"type": "RNAV",
		"updated": "11/14/2014"
	},
	{
		"name": "EGHIB",
		"latitude": "39-2-17.01 N",
		"longitude": "122-36-37.93 W",
		"state": "CALIFORNIA",
		"artcc": "ZOA",
		"type": "RNAV",
		"updated": "10/21/2014"
	},
	{
		"name": "EGIYE",
		"latitude": "37-49-7.67 N",
		"longitude": "118-40-12.2 W",
		"state": "CALIFORNIA",
		"artcc": "ZOA",
		"type": "CN",
		"updated": "06/25/2007"
	},
	{
		"name": "EGKEL",
		"latitude": "10-11-28 N",
		"longitude": "162-8-16 W",
		"state": "OFFSHORE PACIFIC",
		"artcc": "ZOA",
		"type": "RNAV",
		"updated": "02/11/2008"
	},
	{
		"name": "EGSOW",
		"latitude": "37-8-40.65 N",
		"longitude": "120-55-14.55 W",
		"state": "CALIFORNIA",
		"artcc": "ZOA",
		"type": "RNAV",
		"updated": "10/20/2009"
	},
	{
		"name": "EGUYO",
		"latitude": "39-6-44.99 N",
		"longitude": "121-25-34.22 W",
		"state": "CALIFORNIA",
		"artcc": "ZOA",
		"type": "MR",
		"updated": "BAB*TACAN*137.00/1.50"
	},
	{
		"name": "EGUYU",
		"latitude": "38-38-26.54 N",
		"longitude": "122-0-56.72 W",
		"state": "CALIFORNIA",
		"artcc": "ZOA",
		"type": "RNAV",
		"updated": "10/30/2012"
	},
	{
		"name": "EHETY",
		"latitude": "38-38-56.77 N",
		"longitude": "122-56-26.34 W",
		"state": "CALIFORNIA",
		"artcc": "ZOA",
		"type": "RNAV",
		"updated": "10/06/2014"
	},
	{
		"name": "EHIHY",
		"latitude": "38-35-31.95 N",
		"longitude": "122-36-5.08 W",
		"state": "CALIFORNIA",
		"artcc": "ZOA",
		"type": "RNAV",
		"updated": "12/23/2013"
	},
	{
		"name": "EHUPE",
		"latitude": "37-49-23.06 N",
		"longitude": "122-23-3.96 W",
		"state": "CALIFORNIA",
		"artcc": "ZOA",
		"type": "RNAV",
		"updated": "11/14/2014"
	},
	{
		"name": "EJAAY",
		"latitude": "39-5-52.26 N",
		"longitude": "121-24-53.34 W",
		"state": "CALIFORNIA",
		"artcc": "ZOA",
		"type": "RP",
		"updated": "MYV*VOR/DME*074.32"
	},
	{
		"name": "EJOSO",
		"latitude": "9-17-33.86 N",
		"longitude": "167-21-9.78 E",
		"state": "",
		"artcc": "ZOA",
		"type": "MW",
		"updated": "10/28/2008"
	},
	{
		"name": "EKECE",
		"latitude": "37-18-31.79 N",
		"longitude": "121-59-39.32 W",
		"state": "CALIFORNIA",
		"artcc": "ZOA",
		"type": "MR",
		"updated": "NUQ*TACAN*140.75/8.00"
	},
	{
		"name": "EKUJA",
		"latitude": "39-6-18.61 N",
		"longitude": "121-3-58.4 W",
		"state": "CALIFORNIA",
		"artcc": "ZOA",
		"type": "RNAV",
		"updated": "12/23/2009"
	},
	{
		"name": "ELCAP",
		"latitude": "37-41-9.66 N",
		"longitude": "119-46-6.06 W",
		"state": "CALIFORNIA",
		"artcc": "ZOA",
		"type": "RP",
		"updated": "HYP*VOR/DME*032.00/41.15"
	},
	{
		"name": "ELEGY",
		"latitude": "38-51-22.67 N",
		"longitude": "122-4-50.36 W",
		"state": "CALIFORNIA",
		"artcc": "ZOA",
		"type": "RP",
		"updated": "ILA*VORTAC*173.00/13.12"
	},
	{
		"name": "ELFES",
		"latitude": "38-1-17.76 N",
		"longitude": "117-17-30 W",
		"state": "NEVADA",
		"artcc": "ZOA",
		"type": "RP",
		"updated": "TPH*VORTAC*250.54/12.25"
	},
	{
		"name": "ELIDE",
		"latitude": "38-42-17.62 N",
		"longitude": "119-26-42.6 W",
		"state": "NEVADA",
		"artcc": "ZOA",
		"type": "RNAV",
		"updated": "04/04/2012"
	},
	{
		"name": "ELKHN",
		"latitude": "38-9-24.47 N",
		"longitude": "120-22-23.46 W",
		"state": "CALIFORNIA",
		"artcc": "ZOA",
		"type": "RNAV",
		"updated": "04/18/2017"
	},
	{
		"name": "ELKOE",
		"latitude": "38-36-49.76 N",
		"longitude": "121-40-55.18 W",
		"state": "CALIFORNIA",
		"artcc": "ZOA",
		"type": "RP",
		"updated": "MYV*VOR/DME*174.00/29.51"
	},
	{
		"name": "ELLMS",
		"latitude": "5-0-0 S",
		"longitude": "167-4-7 W",
		"state": "OFFSHORE PACIFIC",
		"artcc": "ZOA",
		"type": "RP",
		"updated": "05/10/2006"
	},
	{
		"name": "ELMAC",
		"latitude": "38-29-37.13 N",
		"longitude": "121-36-16.55 W",
		"state": "CALIFORNIA",
		"artcc": "ZOA",
		"type": "RP",
		"updated": "SAC*VORTAC*303.18"
	},
	{
		"name": "ELMMR",
		"latitude": "39-16-28.01 N",
		"longitude": "118-29-40.23 W",
		"state": "NEVADA",
		"artcc": "ZOA",
		"type": "MR",
		"updated": "NFL*TACAN*117.00/13.00"
	},
	{
		"name": "ELNUR",
		"latitude": "3-30-0 N",
		"longitude": "166-30-30 E",
		"state": "OFFSHORE PACIFIC",
		"artcc": "ZOA",
		"type": "RP",
		"updated": "04/29/1987"
	},
	{
		"name": "ELOYI",
		"latitude": "22-20-39 N",
		"longitude": "151-53-7 W",
		"state": "OFFSHORE PACIFIC",
		"artcc": "ZOA",
		"type": "RNAV",
		"updated": "02/11/2008"
	},
	{
		"name": "EMAAA",
		"latitude": "37-19-6.65 N",
		"longitude": "121-21-39.83 W",
		"state": "CALIFORNIA",
		"artcc": "ZOA",
		"type": "RNAV",
		"updated": "03/02/2015"
	},
	{
		"name": "EMBER",
		"latitude": "38-16-47.1 N",
		"longitude": "121-49-30.52 W",
		"state": "CALIFORNIA",
		"artcc": "ZOA",
		"type": "RP",
		"updated": "ILA*VORTAC*150.62/48.38"
	},
	{
		"name": "EMNAK",
		"latitude": "29-0-0 N",
		"longitude": "165-0-0 E",
		"state": "OFFSHORE PACIFIC",
		"artcc": "ZOA",
		"type": "RP",
		"updated": "05/26/2006"
	},
	{
		"name": "EMZOH",
		"latitude": "36-32-7.99 N",
		"longitude": "120-35-37.79 W",
		"state": "CALIFORNIA",
		"artcc": "ZOA",
		"type": "RNAV",
		"updated": "03/02/2015"
	},
	{
		"name": "ENCIN",
		"latitude": "19-18-20.39 N",
		"longitude": "166-31-9.03 E",
		"state": "OFFSHORE PACIFIC",
		"artcc": "ZOA",
		"type": "RNAV",
		"updated": "11/03/2015"
	},
	{
		"name": "ENCOL",
		"latitude": "37-46-59.52 N",
		"longitude": "122-19-37.21 W",
		"state": "CALIFORNIA",
		"artcc": "ZOA",
		"type": "RP",
		"updated": "SFO*VOR/DME*355.81"
	},
	{
		"name": "ENDAW",
		"latitude": "42-55-15 N",
		"longitude": "126-43-2 W",
		"state": "OFFSHORE PACIFIC",
		"artcc": "ZOA",
		"type": "RP",
		"updated": "08/27/2003"
	},
	{
		"name": "ENDAX",
		"latitude": "14-15-0 N",
		"longitude": "130-0-0 E",
		"state": "OFFSHORE PACIFIC",
		"artcc": "ZOA",
		"type": "RP",
		"updated": "11/08/1990"
	},
	{
		"name": "ENINY",
		"latitude": "11-21-0 N",
		"longitude": "162-20-0 E",
		"state": "",
		"artcc": "ZOA",
		"type": "RNAV",
		"updated": "02/09/2018"
	},
	{
		"name": "ENITY",
		"latitude": "36-4-31.62 N",
		"longitude": "119-32-5.65 W",
		"state": "CALIFORNIA",
		"artcc": "ZOA",
		"type": "RNAV",
		"updated": "09/08/2015"
	},
	{
		"name": "ENTAR",
		"latitude": "40-37-55.48 N",
		"longitude": "122-17-40.82 W",
		"state": "CALIFORNIA",
		"artcc": "ZOA",
		"type": "RP",
		"updated": "RDD*LD*342.08/6.54"
	},
	{
		"name": "EOBDO",
		"latitude": "38-39-33.53 N",
		"longitude": "123-29-47.92 W",
		"state": "CALIFORNIA",
		"artcc": "ZOA",
		"type": "RNAV",
		"updated": "05/21/2009"
	},
	{
		"name": "EOCIN",
		"latitude": "36-31-59.47 N",
		"longitude": "119-37-51.28 W",
		"state": "CALIFORNIA",
		"artcc": "ZOA",
		"type": "MR",
		"updated": "NLC*TACAN*041.00/19.80"
	},
	{
		"name": "EPCAX",
		"latitude": "14-13-45.33 N",
		"longitude": "145-3-15.23 E",
		"state": "N MARIANA ISLANDS",
		"artcc": "ZOA",
		"type": "RNAV",
		"updated": "01/05/2012"
	},
	{
		"name": "EPICK",
		"latitude": "36-57-2.96 N",
		"longitude": "121-57-9.62 W",
		"state": "CALIFORNIA",
		"artcc": "ZOA",
		"type": "RNAV",
		"updated": "01/07/2015"
	},
	{
		"name": "EPOSE",
		"latitude": "39-19-11.83 N",
		"longitude": "119-46-11.07 W",
		"state": "NEVADA",
		"artcc": "ZOA",
		"type": "RP",
		"updated": "AGY*LD*164.12/11.80"
	},
	{
		"name": "ERALE",
		"latitude": "37-29-16.75 N",
		"longitude": "118-20-9.85 W",
		"state": "CALIFORNIA",
		"artcc": "ZOA",
		"type": "CN",
		"updated": "09/10/2007"
	},
	{
		"name": "ERECE",
		"latitude": "37-19-21.88 N",
		"longitude": "118-21-19.53 W",
		"state": "CALIFORNIA",
		"artcc": "ZOA",
		"type": "CN",
		"updated": "06/25/2007"
	},
	{
		"name": "ERIDE",
		"latitude": "39-51-8.18 N",
		"longitude": "119-45-40.62 W",
		"state": "NEVADA",
		"artcc": "ZOA",
		"type": "RNAV",
		"updated": "08/05/2008"
	},
	{
		"name": "ERROT",
		"latitude": "25-16-34 N",
		"longitude": "145-30-39 W",
		"state": "OFFSHORE PACIFIC",
		"artcc": "ZOA",
		"type": "RNAV",
		"updated": "09/05/2008"
	},
	{
		"name": "ESDIE",
		"latitude": "38-48-31.68 N",
		"longitude": "120-51-8.9 W",
		"state": "CALIFORNIA",
		"artcc": "ZOA",
		"type": "RP",
		"updated": "MHR*LD*036.72/27.08"
	},
	{
		"name": "ESPAD",
		"latitude": "19-21-11.03 N",
		"longitude": "166-16-39.15 E",
		"state": "OFFSHORE PACIFIC",
		"artcc": "ZOA",
		"type": "RNAV",
		"updated": "11/03/2015"
	},
	{
		"name": "ESSOH",
		"latitude": "38-43-11.37 N",
		"longitude": "120-38-10.87 W",
		"state": "CALIFORNIA",
		"artcc": "ZOA",
		"type": "RNAV",
		"updated": "04/18/2017"
	},
	{
		"name": "ESUME",
		"latitude": "37-45-11.67 N",
		"longitude": "122-17-10.97 W",
		"state": "CALIFORNIA",
		"artcc": "ZOA",
		"type": "RNAV",
		"updated": "07/25/2014"
	},
	{
		"name": "ESVOW",
		"latitude": "39-18-44.02 N",
		"longitude": "121-46-15.14 W",
		"state": "CALIFORNIA",
		"artcc": "ZOA",
		"type": "RNAV",
		"updated": "04/16/2012"
	},
	{
		"name": "ETACU",
		"latitude": "37-37-9.99 N",
		"longitude": "121-20-39.78 W",
		"state": "CALIFORNIA",
		"artcc": "ZOA",
		"type": "RNAV",
		"updated": "03/29/2017"
	},
	{
		"name": "ETARE",
		"latitude": "39-39-52.42 N",
		"longitude": "119-46-7.72 W",
		"state": "NEVADA",
		"artcc": "ZOA",
		"type": "RNAV",
		"updated": "08/05/2008"
	},
	{
		"name": "ETCHY",
		"latitude": "39-5-28 N",
		"longitude": "123-8-5 W",
		"state": "CALIFORNIA",
		"artcc": "ZOA",
		"type": "RNAV",
		"updated": "11/22/2002"
	},
	{
		"name": "ETDEL",
		"latitude": "38-45-44.68 N",
		"longitude": "123-31-14.66 W",
		"state": "CALIFORNIA",
		"artcc": "ZOA",
		"type": "RNAV",
		"updated": "05/21/2009"
	},
	{
		"name": "ETECO",
		"latitude": "30-17-9 N",
		"longitude": "131-38-10 W",
		"state": "OFFSHORE PACIFIC",
		"artcc": "ZOA",
		"type": "RNAV",
		"updated": "02/11/2008"
	},
	{
		"name": "ETIYO",
		"latitude": "39-28-37.64 N",
		"longitude": "119-55-20.15 W",
		"state": "NEVADA",
		"artcc": "ZOA",
		"type": "CN",
		"updated": "07/17/2002"
	},
	{
		"name": "ETNIC",
		"latitude": "27-54-42 N",
		"longitude": "138-51-24 W",
		"state": "OFFSHORE PACIFIC",
		"artcc": "ZOA",
		"type": "RNAV",
		"updated": "02/11/2008"
	},
	{
		"name": "EUGEN",
		"latitude": "37-5-36.41 N",
		"longitude": "122-26-39.17 W",
		"state": "CALIFORNIA",
		"artcc": "ZOA",
		"type": "RP",
		"updated": "PYE*VOR/DME*144.00/62.47"
	},
	{
		"name": "EVEMY",
		"latitude": "40-17-24.19 N",
		"longitude": "122-29-28.57 W",
		"state": "CALIFORNIA",
		"artcc": "ZOA",
		"type": "RNAV",
		"updated": "02/09/2018"
	},
	{
		"name": "EVERR",
		"latitude": "37-42-53.42 N",
		"longitude": "118-32-48.03 W",
		"state": "CALIFORNIA",
		"artcc": "ZOA",
		"type": "RP",
		"updated": "BIH*VOR/DME*322.05/22.00"
	},
	{
		"name": "EVETT",
		"latitude": "38-0-36.11 N",
		"longitude": "121-7-48.14 W",
		"state": "CALIFORNIA",
		"artcc": "ZOA",
		"type": "RNAV",
		"updated": "09/30/2017"
	},
	{
		"name": "EVOCU",
		"latitude": "37-36-9.08 N",
		"longitude": "122-8-38.64 W",
		"state": "CALIFORNIA",
		"artcc": "ZOA",
		"type": "MR",
		"updated": "NUQ*TACAN*/11.00"
	},
	{
		"name": "EVOLV",
		"latitude": "37-41-13.54 N",
		"longitude": "121-40-18.42 W",
		"state": "CALIFORNIA",
		"artcc": "ZOA",
		"type": "RNAV",
		"updated": "03/02/2015"
	},
	{
		"name": "EVUNE",
		"latitude": "40-9-5.29 N",
		"longitude": "120-14-27.68 W",
		"state": "CALIFORNIA",
		"artcc": "ZOA",
		"type": "RNAV",
		"updated": "09/26/2003"
	},
	{
		"name": "EWILS",
		"latitude": "7-48-48 N",
		"longitude": "150-44-14 E",
		"state": "OFFSHORE PACIFIC",
		"artcc": "ZOA",
		"type": "RNAV",
		"updated": "02/14/2011"
	},
	{
		"name": "EWNEL",
		"latitude": "36-46-58.74 N",
		"longitude": "119-54-30.53 W",
		"state": "CALIFORNIA",
		"artcc": "ZOA",
		"type": "WP",
		"updated": "11/02/1998"
	},
	{
		"name": "EWOKS",
		"latitude": "40-21-28.56 N",
		"longitude": "121-42-45.06 W",
		"state": "CALIFORNIA",
		"artcc": "ZOA",
		"type": "RP",
		"updated": "SAC*VORTAC*339.32/115.00"
	},
	{
		"name": "EWTOF",
		"latitude": "36-49-26.12 N",
		"longitude": "121-43-53.83 W",
		"state": "CALIFORNIA",
		"artcc": "ZOA",
		"type": "RNAV",
		"updated": "07/06/2009"
	},
	{
		"name": "EXEJO",
		"latitude": "35-56-12.91 N",
		"longitude": "120-34-53.07 W",
		"state": "CALIFORNIA",
		"artcc": "ZOA",
		"type": "RP",
		"updated": "PRB*VORTAC*352.00/16.00"
	},
	{
		"name": "EXOXE",
		"latitude": "37-45-17.85 N",
		"longitude": "118-17-27.3 W",
		"state": "CALIFORNIA",
		"artcc": "ZOA",
		"type": "CN",
		"updated": "06/25/2007"
	},
	{
		"name": "EXTRA",
		"latitude": "36-19-39.06 N",
		"longitude": "119-13-6.84 W",
		"state": "CALIFORNIA",
		"artcc": "ZOA",
		"type": "RP",
		"updated": "TTE*VOR/DME*322.90/26.63"
	},
	{
		"name": "EYARA",
		"latitude": "37-34-57.07 N",
		"longitude": "118-42-3.29 W",
		"state": "CALIFORNIA",
		"artcc": "ZOA",
		"type": "CN",
		"updated": "06/25/2007"
	},
	{
		"name": "EYATI",
		"latitude": "36-57-18.93 N",
		"longitude": "121-27-4.11 W",
		"state": "CALIFORNIA",
		"artcc": "ZOA",
		"type": "RNAV",
		"updated": "01/28/2015"
	},
	{
		"name": "EYEJI",
		"latitude": "38-13-38.47 N",
		"longitude": "122-35-25.15 W",
		"state": "CALIFORNIA",
		"artcc": "ZOA",
		"type": "WP",
		"updated": "11/02/1998"
	},
	{
		"name": "EYPOF",
		"latitude": "38-52-3.68 N",
		"longitude": "121-41-12.45 W",
		"state": "CALIFORNIA",
		"artcc": "ZOA",
		"type": "RP",
		"updated": "SAC*VORTAC*329.01/26.20"
	}
]
