[
	{
		"name": "GAAAS",
		"latitude": "38-36-57.52 N",
		"longitude": "121-51-23.86 W",
		"state": "CALIFORNIA",
		"artcc": "ZOA",
		"type": "WP",
		"updated": "09/23/2010"
	},
	{
		"name": "GAARY",
		"latitude": "37-11-27.41 N",
		"longitude": "121-54-15.5 W",
		"state": "CALIFORNIA",
		"artcc": "ZOA",
		"type": "RNAV",
		"updated": "01/12/2015"
	},
	{
		"name": "GADBE",
		"latitude": "38-36-48.35 N",
		"longitude": "121-11-39.05 W",
		"state": "CALIFORNIA",
		"artcc": "ZOA",
		"type": "RP",
		"updated": "MHR*LD*036.72/7.21"
	},
	{
		"name": "GAELN",
		"latitude": "36-25-50 N",
		"longitude": "122-14-27 W",
		"state": "OFFSHORE PACIFIC",
		"artcc": "ZOA",
		"type": "RNAV",
		"updated": "01/23/2015"
	},
	{
		"name": "GAFWY",
		"latitude": "14-48-10.2 N",
		"longitude": "145-50-26.77 E",
		"state": "N MARIANA ISLANDS",
		"artcc": "ZOA",
		"type": "RNAV",
		"updated": "08/20/2003"
	},
	{
		"name": "GALEE",
		"latitude": "5-0-0 N",
		"longitude": "143-37-0 E",
		"state": "OFFSHORE PACIFIC",
		"artcc": "ZOA",
		"type": "WP",
		"updated": "06/16/1999"
	},
	{
		"name": "GALIP",
		"latitude": "33-55-0 N",
		"longitude": "124-55-3.99 W",
		"state": "OFFSHORE PACIFIC",
		"artcc": "ZOA",
		"type": "RP",
		"updated": "05/06/2002"
	},
	{
		"name": "GALOO",
		"latitude": "37-43-52.13 N",
		"longitude": "122-19-52.38 W",
		"state": "CALIFORNIA",
		"artcc": "ZOA",
		"type": "RNAV",
		"updated": "03/31/2015"
	},
	{
		"name": "GALSS",
		"latitude": "10-27-42 N",
		"longitude": "147-47-30 E",
		"state": "OFFSHORE PACIFIC",
		"artcc": "ZOA",
		"type": "RP",
		"updated": "12/04/1989"
	},
	{
		"name": "GALTS",
		"latitude": "38-16-14 N",
		"longitude": "121-17-36.75 W",
		"state": "CALIFORNIA",
		"artcc": "ZOA",
		"type": "RP",
		"updated": "SAC*VORTAC*113.34/16.00"
	},
	{
		"name": "GANQA",
		"latitude": "37-31-48.01 N",
		"longitude": "120-43-12.4 W",
		"state": "CALIFORNIA",
		"artcc": "ZOA",
		"type": "RNAV",
		"updated": "12/08/2008"
	},
	{
		"name": "GAPNE",
		"latitude": "41-12-0 N",
		"longitude": "130-45-0 W",
		"state": "OFFSHORE PACIFIC",
		"artcc": "ZOA",
		"type": "RNAV",
		"updated": "09/02/2009"
	},
	{
		"name": "GAROW",
		"latitude": "37-31-31.3 N",
		"longitude": "122-4-57.03 W",
		"state": "CALIFORNIA",
		"artcc": "ZOA",
		"type": "RNAV",
		"updated": "06/17/2014"
	},
	{
		"name": "GARSA",
		"latitude": "40-42-5.61 N",
		"longitude": "122-1-26.87 W",
		"state": "CALIFORNIA",
		"artcc": "ZOA",
		"type": "RP",
		"updated": "RBL*VORTAC*357.00/37.42"
	},
	{
		"name": "GASSI",
		"latitude": "40-34-17.99 N",
		"longitude": "119-4-6.02 W",
		"state": "NEVADA",
		"artcc": "ZOA",
		"type": "RP",
		"updated": "FMG*VORTAC*007.28/68.00"
	},
	{
		"name": "GAYNS",
		"latitude": "37-41-31.94 N",
		"longitude": "121-37-47.03 W",
		"state": "CALIFORNIA",
		"artcc": "ZOA",
		"type": "RNAV",
		"updated": "09/30/2017"
	},
	{
		"name": "GEBXA",
		"latitude": "40-14-24.97 N",
		"longitude": "122-16-36.73 W",
		"state": "CALIFORNIA",
		"artcc": "ZOA",
		"type": "RNAV",
		"updated": "10/23/2013"
	},
	{
		"name": "GEEHH",
		"latitude": "38-27-12 N",
		"longitude": "122-25-43.14 W",
		"state": "CALIFORNIA",
		"artcc": "ZOA",
		"type": "RNAV",
		"updated": "01/07/2015"
	},
	{
		"name": "GEKNE",
		"latitude": "38-46-6.79 N",
		"longitude": "120-19-46.52 W",
		"state": "CALIFORNIA",
		"artcc": "ZOA",
		"type": "RNAV",
		"updated": "04/04/2012"
	},
	{
		"name": "GELVY",
		"latitude": "37-0-5.56 N",
		"longitude": "121-33-10.19 W",
		"state": "CALIFORNIA",
		"artcc": "ZOA",
		"type": "RNAV",
		"updated": "01/31/2013"
	},
	{
		"name": "GENCO",
		"latitude": "25-40-34 N",
		"longitude": "161-41-28 W",
		"state": "OFFSHORE PACIFIC",
		"artcc": "ZOA",
		"type": "RNAV",
		"updated": "02/21/2008"
	},
	{
		"name": "GENNE",
		"latitude": "38-42-54.45 N",
		"longitude": "119-38-6.82 W",
		"state": "CALIFORNIA",
		"artcc": "ZOA",
		"type": "RP",
		"updated": "SWR*VOR/DME*117.00/40.73"
	},
	{
		"name": "GETER",
		"latitude": "38-42-6.63 N",
		"longitude": "122-58-59.82 W",
		"state": "CALIFORNIA",
		"artcc": "ZOA",
		"type": "RP",
		"updated": "ILA*VORTAC*226.00"
	},
	{
		"name": "GEVRY",
		"latitude": "36-51-12.06 N",
		"longitude": "119-56-40.01 W",
		"state": "CALIFORNIA",
		"artcc": "ZOA",
		"type": "RNAV",
		"updated": "06/13/2016"
	},
	{
		"name": "GEZJO",
		"latitude": "37-2-7.35 N",
		"longitude": "120-51-6.99 W",
		"state": "CALIFORNIA",
		"artcc": "ZOA",
		"type": "RNAV",
		"updated": "10/20/2009"
	},
	{
		"name": "GGUGL",
		"latitude": "37-7-31.68 N",
		"longitude": "121-51-34.2 W",
		"state": "CALIFORNIA",
		"artcc": "ZOA",
		"type": "RNAV",
		"updated": "06/25/2015"
	},
	{
		"name": "GGULF",
		"latitude": "38-51-27.96 N",
		"longitude": "123-5-6.81 W",
		"state": "CALIFORNIA",
		"artcc": "ZOA",
		"type": "RNAV",
		"updated": "01/12/2015"
	},
	{
		"name": "GHEER",
		"latitude": "38-47-16.12 N",
		"longitude": "121-51-18.48 W",
		"state": "CALIFORNIA",
		"artcc": "ZOA",
		"type": "RNAV",
		"updated": "11/19/2012"
	},
	{
		"name": "GIBGE",
		"latitude": "40-24-27.03 N",
		"longitude": "122-19-49.39 W",
		"state": "CALIFORNIA",
		"artcc": "ZOA",
		"type": "RP",
		"updated": "RBL*VORTAC*328.89/19.00"
	},
	{
		"name": "GIFME",
		"latitude": "38-12-2.39 N",
		"longitude": "121-35-11.42 W",
		"state": "CALIFORNIA",
		"artcc": "ZOA",
		"type": "RNAV",
		"updated": "04/19/2017"
	},
	{
		"name": "GIKTE",
		"latitude": "37-57-20.52 N",
		"longitude": "121-20-18.7 W",
		"state": "CALIFORNIA",
		"artcc": "ZOA",
		"type": "RNAV",
		"updated": "12/27/2016"
	},
	{
		"name": "GILRO",
		"latitude": "37-2-46.62 N",
		"longitude": "121-34-6.76 W",
		"state": "CALIFORNIA",
		"artcc": "ZOA",
		"type": "RP",
		"updated": "SNS*VORTAC*347.15"
	},
	{
		"name": "GILVE",
		"latitude": "38-14-8.09 N",
		"longitude": "117-19-32.73 W",
		"state": "NEVADA",
		"artcc": "ZOA",
		"type": "RNAV",
		"updated": "11/04/2011"
	},
	{
		"name": "GIMMY",
		"latitude": "39-42-24.4 N",
		"longitude": "121-40-35.77 W",
		"state": "CALIFORNIA",
		"artcc": "ZOA",
		"type": "MR",
		"updated": "BAB*TACAN*326.34/36.00"
	},
	{
		"name": "GINJU",
		"latitude": "37-32-38.71 N",
		"longitude": "121-58-44.75 W",
		"state": "CALIFORNIA",
		"artcc": "ZOA",
		"type": "WP",
		"updated": "11/02/1998"
	},
	{
		"name": "GIPVY",
		"latitude": "36-26-59.46 N",
		"longitude": "121-26-22.85 W",
		"state": "CALIFORNIA",
		"artcc": "ZOA",
		"type": "RNAV",
		"updated": "07/06/2009"
	},
	{
		"name": "GIRPE",
		"latitude": "36-47-47.8 N",
		"longitude": "119-45-30.91 W",
		"state": "CALIFORNIA",
		"artcc": "ZOA",
		"type": "RNAV",
		"updated": "07/11/2005"
	},
	{
		"name": "GIRRR",
		"latitude": "37-29-58.56 N",
		"longitude": "122-1-38.05 W",
		"state": "CALIFORNIA",
		"artcc": "ZOA",
		"type": "RNAV",
		"updated": "01/07/2015"
	},
	{
		"name": "GITLE",
		"latitude": "32-9-57 N",
		"longitude": "132-49-44 W",
		"state": "OFFSHORE PACIFIC",
		"artcc": "ZOA",
		"type": "RNAV",
		"updated": "02/11/2008"
	},
	{
		"name": "GIVEN",
		"latitude": "37-15-57.57 N",
		"longitude": "119-7-54.02 W",
		"state": "CALIFORNIA",
		"artcc": "ZOA",
		"type": "RP",
		"updated": "CZQ*VORTAC*039.92/40.00"
	},
	{
		"name": "GLDDD",
		"latitude": "37-44-17.27 N",
		"longitude": "120-39-46.87 W",
		"state": "CALIFORNIA",
		"artcc": "ZOA",
		"type": "RNAV",
		"updated": "03/09/2015"
	},
	{
		"name": "GLDIS",
		"latitude": "39-41-39.21 N",
		"longitude": "119-38-56.21 W",
		"state": "NEVADA",
		"artcc": "ZOA",
		"type": "RNAV",
		"updated": "03/10/2010"
	},
	{
		"name": "GLOEW",
		"latitude": "9-42-40 N",
		"longitude": "167-32-57 E",
		"state": "OFFSHORE PACIFIC",
		"artcc": "ZOA",
		"type": "RNAV",
		"updated": "07/10/2012"
	},
	{
		"name": "GNNRR",
		"latitude": "37-40-29.08 N",
		"longitude": "122-30-12.18 W",
		"state": "CALIFORNIA",
		"artcc": "ZOA",
		"type": "RNAV",
		"updated": "01/13/2015"
	},
	{
		"name": "GNOSS",
		"latitude": "26-24-3 N",
		"longitude": "160-0-0 E",
		"state": "OFFSHORE PACIFIC",
		"artcc": "ZOA",
		"type": "RP",
		"updated": "02/07/2005"
	},
	{
		"name": "GOALI",
		"latitude": "36-27-34.03 N",
		"longitude": "121-25-26.34 W",
		"state": "CALIFORNIA",
		"artcc": "ZOA",
		"type": "RP",
		"updated": "SNS*VORTAC*127.67/15.00"
	},
	{
		"name": "GOBBS",
		"latitude": "37-46-16.74 N",
		"longitude": "122-39-29.23 W",
		"state": "CALIFORNIA",
		"artcc": "ZOA",
		"type": "RP",
		"updated": "SFO*VOR/DME*287.00/16.31"
	},
	{
		"name": "GOBEC",
		"latitude": "37-34-43.44 N",
		"longitude": "122-15-10.18 W",
		"state": "CALIFORNIA",
		"artcc": "ZOA",
		"type": "RP",
		"updated": "FNP*DD*100.81/6.07"
	},
	{
		"name": "GOLPE",
		"latitude": "9-26-1.43 N",
		"longitude": "167-30-45.71 E",
		"state": "",
		"artcc": "ZOA",
		"type": "MW",
		"updated": "10/28/2008"
	},
	{
		"name": "GOMKE",
		"latitude": "39-44-7.28 N",
		"longitude": "119-49-50.36 W",
		"state": "NEVADA",
		"artcc": "ZOA",
		"type": "RNAV",
		"updated": "02/16/2001"
	},
	{
		"name": "GONAQ",
		"latitude": "37-52-40.95 N",
		"longitude": "120-26-50.97 W",
		"state": "CALIFORNIA",
		"artcc": "ZOA",
		"type": "RNAV",
		"updated": "06/30/2017"
	},
	{
		"name": "GONGS",
		"latitude": "39-44-36.22 N",
		"longitude": "122-3-1.33 W",
		"state": "CALIFORNIA",
		"artcc": "ZOA",
		"type": "RP",
		"updated": "CIC*VOR/DME*237.57/9.80"
	},
	{
		"name": "GONPE",
		"latitude": "39-38-29.4 N",
		"longitude": "119-57-52.22 W",
		"state": "NEVADA",
		"artcc": "ZOA",
		"type": "RNAV",
		"updated": "11/19/2004"
	},
	{
		"name": "GOOFI",
		"latitude": "10-5-32 N",
		"longitude": "147-19-29 E",
		"state": "OFFSHORE PACIFIC",
		"artcc": "ZOA",
		"type": "WP",
		"updated": "05/14/1997"
	},
	{
		"name": "GOTEE",
		"latitude": "37-2-15.11 N",
		"longitude": "121-22-5.05 W",
		"state": "CALIFORNIA",
		"artcc": "ZOA",
		"type": "RNAV",
		"updated": "02/17/2015"
	},
	{
		"name": "GOVLE",
		"latitude": "38-9-53.92 N",
		"longitude": "122-34-0.6 W",
		"state": "CALIFORNIA",
		"artcc": "ZOA",
		"type": "WP",
		"updated": "11/02/1998"
	},
	{
		"name": "GOWCH",
		"latitude": "38-33-58.91 N",
		"longitude": "122-43-8.47 W",
		"state": "CALIFORNIA",
		"artcc": "ZOA",
		"type": "RP",
		"updated": "PYE*VOR/DME*356.50/30.00"
	},
	{
		"name": "GOWVO",
		"latitude": "38-58-57.97 N",
		"longitude": "119-45-6.8 W",
		"state": "NEVADA",
		"artcc": "ZOA",
		"type": "RNAV",
		"updated": "02/09/2018"
	},
	{
		"name": "GOXTU",
		"latitude": "39-4-33.29 N",
		"longitude": "123-11-15.3 W",
		"state": "CALIFORNIA",
		"artcc": "ZOA",
		"type": "RNAV",
		"updated": "08/10/2009"
	},
	{
		"name": "GOYBE",
		"latitude": "37-31-36.97 N",
		"longitude": "122-10-11.29 W",
		"state": "CALIFORNIA",
		"artcc": "ZOA",
		"type": "RNAV",
		"updated": "11/14/2016"
	},
	{
		"name": "GOYET",
		"latitude": "39-34-14.99 N",
		"longitude": "119-38-32.09 W",
		"state": "NEVADA",
		"artcc": "ZOA",
		"type": "RNAV",
		"updated": "09/27/2013"
	},
	{
		"name": "GRAFT",
		"latitude": "38-24-58 N",
		"longitude": "118-15-30 W",
		"state": "NEVADA",
		"artcc": "ZOA",
		"type": "RNAV",
		"updated": "03/10/2010"
	},
	{
		"name": "GRDOE",
		"latitude": "37-56-42.51 N",
		"longitude": "120-12-58.67 W",
		"state": "CALIFORNIA",
		"artcc": "ZOA",
		"type": "RNAV",
		"updated": "11/24/2014"
	},
	{
		"name": "GRENY",
		"latitude": "39-47-28.26 N",
		"longitude": "122-24-13.28 W",
		"state": "CALIFORNIA",
		"artcc": "ZOA",
		"type": "RP",
		"updated": "CIC*VOR/DME*254.36"
	},
	{
		"name": "GRIDD",
		"latitude": "39-19-38.69 N",
		"longitude": "121-50-7.5 W",
		"state": "CALIFORNIA",
		"artcc": "ZOA",
		"type": "RP",
		"updated": "RBL*VORTAC*140.00/49.84"
	},
	{
		"name": "GRIFN",
		"latitude": "36-29-45.23 N",
		"longitude": "119-17-49.15 W",
		"state": "CALIFORNIA",
		"artcc": "ZOA",
		"type": "MR",
		"updated": "EHF*VORTAC*336.94"
	},
	{
		"name": "GRIJO",
		"latitude": "38-11-35.89 N",
		"longitude": "122-31-34.66 W",
		"state": "CALIFORNIA",
		"artcc": "ZOA",
		"type": "RNAV",
		"updated": "01/12/2015"
	},
	{
		"name": "GRIME",
		"latitude": "39-0-49.33 N",
		"longitude": "121-44-1.81 W",
		"state": "CALIFORNIA",
		"artcc": "ZOA",
		"type": "RP",
		"updated": "ILA*VORTAC*086.00"
	},
	{
		"name": "GRNIT",
		"latitude": "41-0-0 N",
		"longitude": "119-30-0 W",
		"state": "NEVADA",
		"artcc": "ZOA",
		"type": "RNAV",
		"updated": "06/21/2006"
	},
	{
		"name": "GROAN",
		"latitude": "37-35-25.15 N",
		"longitude": "121-17-6.28 W",
		"state": "CALIFORNIA",
		"artcc": "ZOA",
		"type": "RP",
		"updated": "MOD*VOR/DME*245.00/15.76"
	},
	{
		"name": "GROVE",
		"latitude": "37-39-19.17 N",
		"longitude": "121-59-27.32 W",
		"state": "CALIFORNIA",
		"artcc": "ZOA",
		"type": "RP",
		"updated": "OAK*VOR/DME*/11.86"
	},
	{
		"name": "GRRIF",
		"latitude": "37-27-1.54 N",
		"longitude": "121-57-10.66 W",
		"state": "CALIFORNIA",
		"artcc": "ZOA",
		"type": "RNAV",
		"updated": "01/13/2015"
	},
	{
		"name": "GRTFL",
		"latitude": "38-21-7.81 N",
		"longitude": "122-13-53.29 W",
		"state": "CALIFORNIA",
		"artcc": "ZOA",
		"type": "RNAV",
		"updated": "09/25/2014"
	},
	{
		"name": "GRUDG",
		"latitude": "37-47-43.55 N",
		"longitude": "120-51-28.85 W",
		"state": "CALIFORNIA",
		"artcc": "ZOA",
		"type": "RNAV",
		"updated": "03/02/2015"
	},
	{
		"name": "GSTEE",
		"latitude": "37-3-44.95 N",
		"longitude": "121-40-11.03 W",
		"state": "CALIFORNIA",
		"artcc": "ZOA",
		"type": "RNAV",
		"updated": "01/12/2015"
	},
	{
		"name": "GUHWO",
		"latitude": "36-40-47.67 N",
		"longitude": "121-37-7.81 W",
		"state": "CALIFORNIA",
		"artcc": "ZOA",
		"type": "RNAV",
		"updated": "07/06/2009"
	},
	{
		"name": "GUKCE",
		"latitude": "39-21-57.44 N",
		"longitude": "119-46-10.62 W",
		"state": "NEVADA",
		"artcc": "ZOA",
		"type": "RNAV",
		"updated": "08/07/2008"
	},
	{
		"name": "GULLS",
		"latitude": "38-7-49.61 N",
		"longitude": "121-27-20.38 W",
		"state": "CALIFORNIA",
		"artcc": "ZOA",
		"type": "RNAV",
		"updated": "03/19/2009"
	},
	{
		"name": "GULSE",
		"latitude": "37-29-43.9 N",
		"longitude": "118-27-25.79 W",
		"state": "CALIFORNIA",
		"artcc": "ZOA",
		"type": "RNAV",
		"updated": "07/02/2007"
	},
	{
		"name": "GUNSS",
		"latitude": "10-43-54 N",
		"longitude": "148-3-54 E",
		"state": "OFFSHORE PACIFIC",
		"artcc": "ZOA",
		"type": "RP",
		"updated": "12/04/1989"
	},
	{
		"name": "GUPEY",
		"latitude": "51-42-0 N",
		"longitude": "134-15-0 W",
		"state": "OFFSHORE PACIFIC",
		"artcc": "ZOA",
		"type": "RP",
		"updated": "03/29/2000"
	},
	{
		"name": "GUTTS",
		"latitude": "37-32-47.84 N",
		"longitude": "122-9-21.38 W",
		"state": "CALIFORNIA",
		"artcc": "ZOA",
		"type": "RNAV",
		"updated": "05/23/2013"
	},
	{
		"name": "GUUYY",
		"latitude": "36-44-13.2 N",
		"longitude": "121-31-53.05 W",
		"state": "CALIFORNIA",
		"artcc": "ZOA",
		"type": "RNAV",
		"updated": "01/14/2015"
	},
	{
		"name": "GUYES",
		"latitude": "15-7-48 N",
		"longitude": "144-49-48 E",
		"state": "OFFSHORE PACIFIC",
		"artcc": "ZOA",
		"type": "RNAV",
		"updated": "06/27/2007"
	},
	{
		"name": "GYLET",
		"latitude": "37-27-20 N",
		"longitude": "119-0-5 W",
		"state": "CALIFORNIA",
		"artcc": "ZOA",
		"type": "RNAV",
		"updated": "02/17/2015"
	}
]
