	{
		"name": "KABYE",
		"latitude": "40-13-22.01 N",
		"longitude": "119-55-39.9 W",
		"state": "NEVADA",
		"artcc": "ZOA",
		"type": "MR",
		"updated": "AHC*VOR/DME*087.63/10.65",
	},
	{
		"name": "KACBY",
		"latitude": "38-2-25.71 N",
		"longitude": "120-33-27.64 W",
		"state": "CALIFORNIA",
		"artcc": "ZOA",
		"type": "RNAV",
		"updated": "08/01/2017",
	},
	{
		"name": "KAESS",
		"latitude": "37-49-37.86 N",
		"longitude": "121-38-11.28 W",
		"state": "CALIFORNIA",
		"artcc": "ZOA",
		"type": "RNAV",
		"updated": "01/13/2015",
	},
	{
		"name": "KAISR",
		"latitude": "37-14-56 N",
		"longitude": "119-29-27.88 W",
		"state": "CALIFORNIA",
		"artcc": "ZOA",
		"type": "MR",
		"updated": "FRA*VORTAC*013.00/10.00",
	},
	{
		"name": "KALIN",
		"latitude": "0-0-0 N",
		"longitude": "142-0-0 E",
		"state": "OFFSHORE PACIFIC",
		"artcc": "ZOA",
		"type": "WP",
		"updated": "05/14/1997",
	},
	{
		"name": "KAQTU",
		"latitude": "13-45-42.94 N",
		"longitude": "144-58-13.25 E",
		"state": "N MARIANA ISLANDS",
		"artcc": "ZOA",
		"type": "RP",
		"updated": "UNZ*VORTAC*035.00/23.00",
	},
	{
		"name": "KARME",
		"latitude": "39-19-10.88 N",
		"longitude": "119-46-11.07 W",
		"state": "NEVADA",
		"artcc": "ZOA",
		"type": "RNAV",
		"updated": "08/07/2008",
	},
	{
		"name": "KARNN",
		"latitude": "37-9-3.79 N",
		"longitude": "121-16-45.22 W",
		"state": "CALIFORNIA",
		"artcc": "ZOA",
		"type": "RP",
		"updated": "MOD*VOR/DME*191.39/32.42",
	},
	{
		"name": "KATFH",
		"latitude": "37-27-7.73 N",
		"longitude": "122-2-50.83 W",
		"state": "CALIFORNIA",
		"artcc": "ZOA",
		"type": "RNAV",
		"updated": "11/24/2014",
	},
	{
		"name": "KATHZ",
		"latitude": "6-12-36 N",
		"longitude": "159-4-5 E",
		"state": "OFFSHORE PACIFIC",
		"artcc": "ZOA",
		"type": "RNAV",
		"updated": "02/14/2011",
	},
	{
		"name": "KATQO",
		"latitude": "14-36-57.37 N",
		"longitude": "145-37-59.6 E",
		"state": "GUAM",
		"artcc": "ZOA",
		"type": "RP",
		"updated": "UNZ*VORTAC*035.00/87.00",
	},
	{
		"name": "KATSO",
		"latitude": "38-21-6.58 N",
		"longitude": "120-38-18.73 W",
		"state": "CALIFORNIA",
		"artcc": "ZOA",
		"type": "RP",
		"updated": "LIN*VOR/DME*029.00/23.97",
	},
	{
		"name": "KAVBE",
		"latitude": "39-24-39.22 N",
		"longitude": "123-47-55.22 W",
		"state": "CALIFORNIA",
		"artcc": "ZOA",
		"type": "RNAV",
		"updated": "05/04/2009",
	},
	{
		"name": "KAVLE",
		"latitude": "5-44-5 N",
		"longitude": "160-26-19 E",
		"state": "OFFSHORE PACIFIC",
		"artcc": "ZOA",
		"type": "RNAV",
		"updated": "02/14/2011",
	},
	{
		"name": "KAVRE",
		"latitude": "37-26-8.85 N",
		"longitude": "122-26-37.52 W",
		"state": "CALIFORNIA",
		"artcc": "ZOA",
		"type": "RNAV",
		"updated": "08/14/2006",
	},
	{
		"name": "KAYAA",
		"latitude": "39-14-17.64 N",
		"longitude": "123-0-46.67 W",
		"state": "CALIFORNIA",
		"artcc": "ZOA",
		"type": "RNAV",
		"updated": "08/28/2014",
	},
	{
		"name": "KAYEG",
		"latitude": "38-43-44.49 N",
		"longitude": "121-36-2.6 W",
		"state": "CALIFORNIA",
		"artcc": "ZOA",
		"type": "RP",
		"updated": "SMF*LD*345.75/3.16",
	},
	{
		"name": "KAYEX",
		"latitude": "36-29-14.95 N",
		"longitude": "120-56-52.29 W",
		"state": "CALIFORNIA",
		"artcc": "ZOA",
		"type": "RNAV",
		"updated": "11/24/2014",
	},
	{
		"name": "KAZWY",
		"latitude": "36-49-47.4 N",
		"longitude": "121-20-53.37 W",
		"state": "CALIFORNIA",
		"artcc": "ZOA",
		"type": "RNAV",
		"updated": "04/15/2008",
	},
	{
		"name": "KEALA",
		"latitude": "5-15-18 N",
		"longitude": "161-48-31 E",
		"state": "OFFSHORE PACIFIC",
		"artcc": "ZOA",
		"type": "RNAV",
		"updated": "02/14/2011",
	},
	{
		"name": "KEARN",
		"latitude": "39-16-33.5 N",
		"longitude": "123-14-26.42 W",
		"state": "CALIFORNIA",
		"artcc": "ZOA",
		"type": "RP",
		"updated": "UKI*LE*314.34/9.62",
	},
	{
		"name": "KECEP",
		"latitude": "40-22-49.72 N",
		"longitude": "120-34-30.41 W",
		"state": "CALIFORNIA",
		"artcc": "ZOA",
		"type": "RNAV",
		"updated": "09/26/2003",
	},
	{
		"name": "KEEFE",
		"latitude": "39-11-53.25 N",
		"longitude": "121-7-37.81 W",
		"state": "CALIFORNIA",
		"artcc": "ZOA",
		"type": "RP",
		"updated": "MYV*VOR/DME*057.87/21.65",
	},
	{
		"name": "KEENR",
		"latitude": "37-53-50.51 N",
		"longitude": "121-44-9.87 W",
		"state": "CALIFORNIA",
		"artcc": "ZOA",
		"type": "RNAV",
		"updated": "03/02/2015",
	},
	{
		"name": "KEKDE",
		"latitude": "37-57-36.63 N",
		"longitude": "120-25-44.24 W",
		"state": "CALIFORNIA",
		"artcc": "ZOA",
		"type": "RNAV",
		"updated": "03/02/2010",
	},
	{
		"name": "KEKDY",
		"latitude": "36-39-47.16 N",
		"longitude": "121-16-54.84 W",
		"state": "CALIFORNIA",
		"artcc": "ZOA",
		"type": "RNAV",
		"updated": "04/15/2008",
	},
	{
		"name": "KEKME",
		"latitude": "36-54-43.48 N",
		"longitude": "120-49-44.72 W",
		"state": "CALIFORNIA",
		"artcc": "ZOA",
		"type": "RP",
		"updated": "PXN*VORTAC*332.37/12.03",
	},
	{
		"name": "KEMLE",
		"latitude": "6-8-44 N",
		"longitude": "162-6-47 E",
		"state": "OFFSHORE PACIFIC",
		"artcc": "ZOA",
		"type": "RNAV",
		"updated": "02/14/2011",
	},
	{
		"name": "KENDL",
		"latitude": "40-27-20.5 N",
		"longitude": "122-23-4.5 W",
		"state": "CALIFORNIA",
		"artcc": "ZOA",
		"type": "RP",
		"updated": "RBL*VORTAC*324.40/22.45",
	},
	{
		"name": "KENIW",
		"latitude": "36-46-50.07 N",
		"longitude": "121-41-1.15 W",
		"state": "CALIFORNIA",
		"artcc": "ZOA",
		"type": "RP",
		"updated": "SNS*VORTAC*314.00/8.00",
	},
	{
		"name": "KENNO",
		"latitude": "37-17-53.37 N",
		"longitude": "117-18-36.81 W",
		"state": "NEVADA",
		"artcc": "ZOA",
		"type": "RNAV",
		"updated": "11/24/2014",
	},
	{
		"name": "KEONE",
		"latitude": "4-0-0 N",
		"longitude": "141-55-0 E",
		"state": "OFFSHORE PACIFIC",
		"artcc": "ZOA",
		"type": "RNAV",
		"updated": "03/14/2011",
	},
	{
		"name": "KEPLR",
		"latitude": "37-33-51.06 N",
		"longitude": "122-17-53.2 W",
		"state": "CALIFORNIA",
		"artcc": "ZOA",
		"type": "RNAV",
		"updated": "11/21/2016",
	},
	{
		"name": "KERNE",
		"latitude": "12-10-0 N",
		"longitude": "138-38-48 E",
		"state": "OFFSHORE PACIFIC",
		"artcc": "ZOA",
		"type": "WP",
		"updated": "06/16/1999",
	},
	{
		"name": "KERRY",
		"latitude": "15-50-0 N",
		"longitude": "152-8-30 E",
		"state": "OFFSHORE PACIFIC",
		"artcc": "ZOA",
		"type": "RP",
		"updated": "03/14/2011",
	},
	{
		"name": "KETBE",
		"latitude": "40-25-5.27 N",
		"longitude": "119-54-8.25 W",
		"state": "NEVADA",
		"artcc": "ZOA",
		"type": "MW",
		"updated": "05/11/2005",
	},
	{
		"name": "KEVDE",
		"latitude": "35-44-0.44 N",
		"longitude": "120-36-59.75 W",
		"state": "CALIFORNIA",
		"artcc": "ZOA",
		"type": "RP",
		"updated": "PRB*VORTAC*352.00/3.69",
	},
	{
		"name": "KICHI",
		"latitude": "37-58-0 N",
		"longitude": "117-11-0 W",
		"state": "NEVADA",
		"artcc": "ZOA",
		"type": "RNAV",
		"updated": "09/19/2014",
	},
	{
		"name": "KIELY",
		"latitude": "37-20-55.74 N",
		"longitude": "121-45-26.75 W",
		"state": "CALIFORNIA",
		"artcc": "ZOA",
		"type": "RNAV",
		"updated": "01/13/2015",
	},
	{
		"name": "KIGHT",
		"latitude": "35-59-50.98 N",
		"longitude": "122-6-13.16 W",
		"state": "CALIFORNIA",
		"artcc": "ZOA",
		"type": "MR",
		"updated": "BSR*VORTAC*228.00/25.00",
	},
	{
		"name": "KINGS",
		"latitude": "39-14-51.47 N",
		"longitude": "119-55-58.68 W",
		"state": "NEVADA",
		"artcc": "ZOA",
		"type": "RP",
		"updated": "SWR*VOR/DME*059.48/16.21",
	},
	{
		"name": "KIOTE",
		"latitude": "36-34-19.74 N",
		"longitude": "118-35-24.18 W",
		"state": "CALIFORNIA",
		"artcc": "ZOA",
		"type": "MR",
		"updated": "NLC*TACAN*062.00/68.00",
	},
	{
		"name": "KIPSE",
		"latitude": "37-41-28.59 N",
		"longitude": "118-29-6.3 W",
		"state": "CALIFORNIA",
		"artcc": "ZOA",
		"type": "RNAV",
		"updated": "07/02/2007",
	},
	{
		"name": "KIRVE",
		"latitude": "37-15-11.55 N",
		"longitude": "121-48-27.78 W",
		"state": "CALIFORNIA",
		"artcc": "ZOA",
		"type": "RNAV",
		"updated": "01/27/2015",
	},
	{
		"name": "KISME",
		"latitude": "5-0-0 N",
		"longitude": "148-5-24 E",
		"state": "OFFSHORE PACIFIC",
		"artcc": "ZOA",
		"type": "RP",
		"updated": "09/12/1995",
	},
	{
		"name": "KITBY",
		"latitude": "36-46-14.53 N",
		"longitude": "120-2-49.65 W",
		"state": "CALIFORNIA",
		"artcc": "ZOA",
		"type": "RNAV",
		"updated": "06/13/2016",
	},
	{
		"name": "KITSS",
		"latitude": "13-50-6 N",
		"longitude": "140-38-42 E",
		"state": "OFFSHORE PACIFIC",
		"artcc": "ZOA",
		"type": "RP",
		"updated": "12/04/1989",
	},
	{
		"name": "KIYJE",
		"latitude": "7-29-9.9 N",
		"longitude": "151-52-18.5 E",
		"state": "",
		"artcc": "ZOA",
		"type": "WP",
		"updated": "11/02/1998",
	},
	{
		"name": "KIZEM",
		"latitude": "37-30-26.47 N",
		"longitude": "122-14-38.31 W",
		"state": "CALIFORNIA",
		"artcc": "ZOA",
		"type": "RNAV",
		"updated": "06/18/2010",
	},
	{
		"name": "KLARK",
		"latitude": "38-13-0.09 N",
		"longitude": "122-23-58.46 W",
		"state": "CALIFORNIA",
		"artcc": "ZOA",
		"type": "RNAV",
		"updated": "06/04/2010",
	},
	{
		"name": "KLAUS",
		"latitude": "37-33-17.04 N",
		"longitude": "122-21-2.49 W",
		"state": "CALIFORNIA",
		"artcc": "ZOA",
		"type": "RNAV",
		"updated": "11/21/2016",
	},
	{
		"name": "KLEMM",
		"latitude": "39-29-57.88 N",
		"longitude": "121-36-49.04 W",
		"state": "CALIFORNIA",
		"artcc": "ZOA",
		"type": "RNAV",
		"updated": "07/07/2017",
	},
	{
		"name": "KLIDE",
		"latitude": "37-9-51.03 N",
		"longitude": "121-42-46.98 W",
		"state": "CALIFORNIA",
		"artcc": "ZOA",
		"type": "RP",
		"updated": "SJC*LD*125.82/16.71",
	},
	{
		"name": "KLOCK",
		"latitude": "39-29-37.6 N",
		"longitude": "119-33-40.04 W",
		"state": "NEVADA",
		"artcc": "ZOA",
		"type": "RNAV",
		"updated": "04/04/2012",
	},
	{
		"name": "KLOGE",
		"latitude": "38-36-36.48 N",
		"longitude": "122-40-12.27 W",
		"state": "CALIFORNIA",
		"artcc": "ZOA",
		"type": "RP",
		"updated": "SGD*VORTAC*314.61",
	},
	{
		"name": "KNETH",
		"latitude": "39-16-3.01 N",
		"longitude": "120-7-16.03 W",
		"state": "CALIFORNIA",
		"artcc": "ZOA",
		"type": "RNAV",
		"updated": "04/29/2010",
	},
	{
		"name": "KNGRY",
		"latitude": "38-0-41.6 N",
		"longitude": "117-33-28.28 W",
		"state": "NEVADA",
		"artcc": "ZOA",
		"type": "RNAV",
		"updated": "02/17/2015",
	},
	{
		"name": "KNOLS",
		"latitude": "37-17-10.1 N",
		"longitude": "119-47-30.26 W",
		"state": "CALIFORNIA",
		"artcc": "ZOA",
		"type": "RP",
		"updated": "HYP*VOR/DME*067.00/29.42",
	},
	{
		"name": "KNOSP",
		"latitude": "36-57-43.05 N",
		"longitude": "120-4-45.43 W",
		"state": "CALIFORNIA",
		"artcc": "ZOA",
		"type": "RNAV",
		"updated": "06/13/2016",
	},
	{
		"name": "KNOWS",
		"latitude": "7-6-16 N",
		"longitude": "159-21-39 E",
		"state": "OFFSHORE PACIFIC",
		"artcc": "ZOA",
		"type": "RNAV",
		"updated": "02/14/2011",
	},
	{
		"name": "KO33E",
		"latitude": "35-30-0 N",
		"longitude": "122-0-0 W",
		"state": "OFFSHORE PACIFIC",
		"artcc": "ZOA",
		"type": "NRS",
		"updated": "04/06/2004",
	},
	{
		"name": "KO36A",
		"latitude": "36-0-0 N",
		"longitude": "126-0-0 W",
		"state": "OFFSHORE PACIFIC",
		"artcc": "ZOA",
		"type": "NRS",
		"updated": "03/05/2005",
	},
	{
		"name": "KO36C",
		"latitude": "36-0-0 N",
		"longitude": "124-0-0 W",
		"state": "OFFSHORE PACIFIC",
		"artcc": "ZOA",
		"type": "NRS",
		"updated": "04/06/2004",
	},
	{
		"name": "KO36E",
		"latitude": "36-0-0 N",
		"longitude": "122-0-0 W",
		"state": "OFFSHORE PACIFIC",
		"artcc": "ZOA",
		"type": "NRS",
		"updated": "04/06/2004",
	},
	{
		"name": "KO36G",
		"latitude": "36-0-0 N",
		"longitude": "120-0-0 W",
		"state": "CALIFORNIA",
		"artcc": "ZOA",
		"type": "NRS",
		"updated": "04/06/2004",
	},
	{
		"name": "KO39A",
		"latitude": "36-30-0 N",
		"longitude": "126-0-0 W",
		"state": "OFFSHORE PACIFIC",
		"artcc": "ZOA",
		"type": "NRS",
		"updated": "03/05/2005",
	},
	{
		"name": "KO39C",
		"latitude": "36-30-0 N",
		"longitude": "124-0-0 W",
		"state": "OFFSHORE PACIFIC",
		"artcc": "ZOA",
		"type": "NRS",
		"updated": "04/06/2004",
	},
	{
		"name": "KO39E",
		"latitude": "36-30-0 N",
		"longitude": "122-0-0 W",
		"state": "OFFSHORE PACIFIC",
		"artcc": "ZOA",
		"type": "NRS",
		"updated": "04/06/2004",
	},
	{
		"name": "KO39G",
		"latitude": "36-30-0 N",
		"longitude": "120-0-0 W",
		"state": "CALIFORNIA",
		"artcc": "ZOA",
		"type": "NRS",
		"updated": "04/06/2004",
	},
	{
		"name": "KO42A",
		"latitude": "37-0-0 N",
		"longitude": "126-0-0 W",
		"state": "OFFSHORE PACIFIC",
		"artcc": "ZOA",
		"type": "NRS",
		"updated": "03/05/2005",
	},
	{
		"name": "KO42C",
		"latitude": "37-0-0 N",
		"longitude": "124-0-0 W",
		"state": "OFFSHORE PACIFIC",
		"artcc": "ZOA",
		"type": "NRS",
		"updated": "04/06/2004",
	},
	{
		"name": "KO42E",
		"latitude": "37-0-0 N",
		"longitude": "122-0-0 W",
		"state": "CALIFORNIA",
		"artcc": "ZOA",
		"type": "NRS",
		"updated": "04/06/2004",
	},
	{
		"name": "KO42G",
		"latitude": "37-0-0 N",
		"longitude": "120-0-0 W",
		"state": "CALIFORNIA",
		"artcc": "ZOA",
		"type": "NRS",
		"updated": "04/06/2004",
	},
	{
		"name": "KO45A",
		"latitude": "37-30-0 N",
		"longitude": "126-0-0 W",
		"state": "OFFSHORE PACIFIC",
		"artcc": "ZOA",
		"type": "NRS",
		"updated": "03/05/2005",
	},
	{
		"name": "KO45C",
		"latitude": "37-30-0 N",
		"longitude": "124-0-0 W",
		"state": "OFFSHORE PACIFIC",
		"artcc": "ZOA",
		"type": "NRS",
		"updated": "04/06/2004",
	},
	{
		"name": "KO45E",
		"latitude": "37-30-0 N",
		"longitude": "122-0-0 W",
		"state": "CALIFORNIA",
		"artcc": "ZOA",
		"type": "NRS",
		"updated": "04/06/2004",
	},
	{
		"name": "KO45G",
		"latitude": "37-30-0 N",
		"longitude": "120-0-0 W",
		"state": "CALIFORNIA",
		"artcc": "ZOA",
		"type": "NRS",
		"updated": "04/06/2004",
	},
	{
		"name": "KO45I",
		"latitude": "37-30-0 N",
		"longitude": "118-0-0 W",
		"state": "CALIFORNIA",
		"artcc": "ZOA",
		"type": "NRS",
		"updated": "04/06/2004",
	},
	{
		"name": "KO48A",
		"latitude": "38-0-0 N",
		"longitude": "126-0-0 W",
		"state": "OFFSHORE PACIFIC",
		"artcc": "ZOA",
		"type": "NRS",
		"updated": "03/05/2005",
	},
	{
		"name": "KO48C",
		"latitude": "38-0-0 N",
		"longitude": "124-0-0 W",
		"state": "OFFSHORE PACIFIC",
		"artcc": "ZOA",
		"type": "NRS",
		"updated": "04/06/2004",
	},
	{
		"name": "KO48E",
		"latitude": "38-0-0 N",
		"longitude": "122-0-0 W",
		"state": "CALIFORNIA",
		"artcc": "ZOA",
		"type": "NRS",
		"updated": "04/06/2004",
	},
	{
		"name": "KO48G",
		"latitude": "38-0-0 N",
		"longitude": "120-0-0 W",
		"state": "CALIFORNIA",
		"artcc": "ZOA",
		"type": "NRS",
		"updated": "04/06/2004",
	},
	{
		"name": "KO48I",
		"latitude": "38-0-0 N",
		"longitude": "118-0-0 W",
		"state": "NEVADA",
		"artcc": "ZOA",
		"type": "NRS",
		"updated": "04/06/2004",
	},
	{
		"name": "KO51A",
		"latitude": "38-30-0 N",
		"longitude": "126-0-0 W",
		"state": "OFFSHORE PACIFIC",
		"artcc": "ZOA",
		"type": "NRS",
		"updated": "03/05/2005",
	},
	{
		"name": "KO51C",
		"latitude": "38-30-0 N",
		"longitude": "124-0-0 W",
		"state": "OFFSHORE PACIFIC",
		"artcc": "ZOA",
		"type": "NRS",
		"updated": "04/06/2004",
	},
	{
		"name": "KO51E",
		"latitude": "38-30-0 N",
		"longitude": "122-0-0 W",
		"state": "CALIFORNIA",
		"artcc": "ZOA",
		"type": "NRS",
		"updated": "04/06/2004",
	},
	{
		"name": "KO51G",
		"latitude": "38-30-0 N",
		"longitude": "120-0-0 W",
		"state": "CALIFORNIA",
		"artcc": "ZOA",
		"type": "NRS",
		"updated": "04/06/2004",
	},
	{
		"name": "KO51I",
		"latitude": "38-30-0 N",
		"longitude": "118-0-0 W",
		"state": "NEVADA",
		"artcc": "ZOA",
		"type": "NRS",
		"updated": "04/06/2004",
	},
	{
		"name": "KO54A",
		"latitude": "39-0-0 N",
		"longitude": "126-0-0 W",
		"state": "OFFSHORE PACIFIC",
		"artcc": "ZOA",
		"type": "NRS",
		"updated": "03/05/2005",
	},
	{
		"name": "KO54C",
		"latitude": "39-0-0 N",
		"longitude": "124-0-0 W",
		"state": "OFFSHORE PACIFIC",
		"artcc": "ZOA",
		"type": "NRS",
		"updated": "04/06/2004",
	},
	{
		"name": "KO54E",
		"latitude": "39-0-0 N",
		"longitude": "122-0-0 W",
		"state": "CALIFORNIA",
		"artcc": "ZOA",
		"type": "NRS",
		"updated": "04/06/2004",
	},
	{
		"name": "KO54G",
		"latitude": "39-0-0 N",
		"longitude": "120-0-0 W",
		"state": "NEVADA",
		"artcc": "ZOA",
		"type": "NRS",
		"updated": "04/06/2004",
	},
	{
		"name": "KO54I",
		"latitude": "39-0-0 N",
		"longitude": "118-0-0 W",
		"state": "NEVADA",
		"artcc": "ZOA",
		"type": "NRS",
		"updated": "04/06/2004",
	},
	{
		"name": "KO57A",
		"latitude": "39-30-0 N",
		"longitude": "126-0-0 W",
		"state": "OFFSHORE PACIFIC",
		"artcc": "ZOA",
		"type": "NRS",
		"updated": "03/05/2005",
	},
	{
		"name": "KO57C",
		"latitude": "39-30-0 N",
		"longitude": "124-0-0 W",
		"state": "OFFSHORE PACIFIC",
		"artcc": "ZOA",
		"type": "NRS",
		"updated": "04/06/2004",
	},
	{
		"name": "KO57E",
		"latitude": "39-30-0 N",
		"longitude": "122-0-0 W",
		"state": "CALIFORNIA",
		"artcc": "ZOA",
		"type": "NRS",
		"updated": "04/06/2004",
	},
	{
		"name": "KO57G",
		"latitude": "39-30-0 N",
		"longitude": "120-0-0 W",
		"state": "NEVADA",
		"artcc": "ZOA",
		"type": "NRS",
		"updated": "04/06/2004",
	},
	{
		"name": "KO57I",
		"latitude": "39-30-0 N",
		"longitude": "118-0-0 W",
		"state": "NEVADA",
		"artcc": "ZOA",
		"type": "NRS",
		"updated": "04/06/2004",
	},
	{
		"name": "KO60A",
		"latitude": "40-0-0 N",
		"longitude": "126-0-0 W",
		"state": "OFFSHORE PACIFIC",
		"artcc": "ZOA",
		"type": "NRS",
		"updated": "03/05/2005",
	},
	{
		"name": "KO60C",
		"latitude": "40-0-0 N",
		"longitude": "124-0-0 W",
		"state": "CALIFORNIA",
		"artcc": "ZOA",
		"type": "NRS",
		"updated": "04/06/2004",
	},
	{
		"name": "KO60E",
		"latitude": "40-0-0 N",
		"longitude": "122-0-0 W",
		"state": "CALIFORNIA",
		"artcc": "ZOA",
		"type": "NRS",
		"updated": "04/06/2004",
	},
	{
		"name": "KO60G",
		"latitude": "40-0-0 N",
		"longitude": "120-0-0 W",
		"state": "NEVADA",
		"artcc": "ZOA",
		"type": "NRS",
		"updated": "04/06/2004",
	},
	{
		"name": "KO60I",
		"latitude": "40-0-0 N",
		"longitude": "118-0-0 W",
		"state": "NEVADA",
		"artcc": "ZOA",
		"type": "NRS",
		"updated": "04/06/2004",
	},
	{
		"name": "KO63A",
		"latitude": "40-30-0 N",
		"longitude": "126-0-0 W",
		"state": "OFFSHORE PACIFIC",
		"artcc": "ZOA",
		"type": "NRS",
		"updated": "03/05/2005",
	},
	{
		"name": "KO63E",
		"latitude": "40-30-0 N",
		"longitude": "122-0-0 W",
		"state": "CALIFORNIA",
		"artcc": "ZOA",
		"type": "NRS",
		"updated": "04/06/2004",
	},
	{
		"name": "KO63G",
		"latitude": "40-30-0 N",
		"longitude": "120-0-0 W",
		"state": "NEVADA",
		"artcc": "ZOA",
		"type": "NRS",
		"updated": "04/06/2004",
	},
	{
		"name": "KO66E",
		"latitude": "41-0-0 N",
		"longitude": "122-0-0 W",
		"state": "CALIFORNIA",
		"artcc": "ZOA",
		"type": "NRS",
		"updated": "04/06/2004",
	},
	{
		"name": "KO66G",
		"latitude": "41-0-0 N",
		"longitude": "120-0-0 W",
		"state": "NEVADA",
		"artcc": "ZOA",
		"type": "NRS",
		"updated": "04/06/2004",
	},
	{
		"name": "KOBDE",
		"latitude": "36-17-53.89 N",
		"longitude": "119-56-29.81 W",
		"state": "CALIFORNIA",
		"artcc": "ZOA",
		"type": "MW",
		"updated": "11/19/2007",
	},
	{
		"name": "KOLGE",
		"latitude": "38-48-38.55 N",
		"longitude": "119-59-9.62 W",
		"state": "CALIFORNIA",
		"artcc": "ZOA",
		"type": "RNAV",
		"updated": "04/04/2012",
	},
	{
		"name": "KOMGY",
		"latitude": "7-22-15.29 N",
		"longitude": "151-47-1.51 E",
		"state": "",
		"artcc": "ZOA",
		"type": "WP",
		"updated": "11/02/1998",
	},
	{
		"name": "KOONY",
		"latitude": "6-37-21 N",
		"longitude": "160-44-39 E",
		"state": "OFFSHORE PACIFIC",
		"artcc": "ZOA",
		"type": "RNAV",
		"updated": "02/14/2011",
	},
	{
		"name": "KORDY",
		"latitude": "15-4-40.88 N",
		"longitude": "145-37-33.78 E",
		"state": "GUAM",
		"artcc": "ZOA",
		"type": "RP",
		"updated": "GSN*LD*SW CRS/7.34",
	},
	{
		"name": "KOZRY",
		"latitude": "5-25-21.84 N",
		"longitude": "163-1-3.31 E",
		"state": "",
		"artcc": "ZOA",
		"type": "RNAV",
		"updated": "08/28/2003",
	},
	{
		"name": "KRAPZ",
		"latitude": "39-40-37.58 N",
		"longitude": "119-46-7.47 W",
		"state": "NEVADA",
		"artcc": "ZOA",
		"type": "RNAV",
		"updated": "08/20/2010",
	},
	{
		"name": "KRASY",
		"latitude": "5-0-0 N",
		"longitude": "155-27-0 E",
		"state": "OFFSHORE PACIFIC",
		"artcc": "ZOA",
		"type": "RP",
		"updated": "05/25/1993",
	},
	{
		"name": "KRAZY",
		"latitude": "38-30-0 N",
		"longitude": "117-17-30 W",
		"state": "NEVADA",
		"artcc": "ZOA",
		"type": "RNAV",
		"updated": "06/21/2006",
	},
	{
		"name": "KREAM",
		"latitude": "36-56-51.32 N",
		"longitude": "120-0-26.87 W",
		"state": "CALIFORNIA",
		"artcc": "ZOA",
		"type": "RP",
		"updated": "FRA*VORTAC*227.73",
	},
	{
		"name": "KREST",
		"latitude": "40-41-58.41 N",
		"longitude": "122-13-57.27 W",
		"state": "CALIFORNIA",
		"artcc": "ZOA",
		"type": "RP",
		"updated": "RDD*VOR/DME*355.00/12.00",
	},
	{
		"name": "KRLOS",
		"latitude": "37-48-16.16 N",
		"longitude": "122-31-42.42 W",
		"state": "CALIFORNIA",
		"artcc": "ZOA",
		"type": "RNAV",
		"updated": "09/25/2014",
	},
	{
		"name": "KRONK",
		"latitude": "9-24-0 N",
		"longitude": "154-11-0 E",
		"state": "OFFSHORE PACIFIC",
		"artcc": "ZOA",
		"type": "RP",
		"updated": "11/05/1997",
	},
	{
		"name": "KTINA",
		"latitude": "36-23-3.6 N",
		"longitude": "121-9-48.62 W",
		"state": "CALIFORNIA",
		"artcc": "ZOA",
		"type": "RNAV",
		"updated": "11/24/2014",
	},
	{
		"name": "KUBSE",
		"latitude": "36-6-42.32 N",
		"longitude": "119-57-5.09 W",
		"state": "CALIFORNIA",
		"artcc": "ZOA",
		"type": "MW",
		"updated": "03/03/2010",
	},
	{
		"name": "KUCEF",
		"latitude": "7-25-55.19 N",
		"longitude": "151-49-19.03 E",
		"state": "",
		"artcc": "ZOA",
		"type": "WP",
		"updated": "11/02/1998",
	},
	{
		"name": "KUHEK",
		"latitude": "7-6-11.35 N",
		"longitude": "171-4-34.37 E",
		"state": "",
		"artcc": "ZOA",
		"type": "RNAV",
		"updated": "08/27/2003",
	},
	{
		"name": "KULVY",
		"latitude": "9-28-13.75 N",
		"longitude": "137-59-46.14 E",
		"state": "",
		"artcc": "ZOA",
		"type": "RNAV",
		"updated": "08/28/2003",
	},
	{
		"name": "KUPLE",
		"latitude": "37-20-58.39 N",
		"longitude": "118-20-8.44 W",
		"state": "CALIFORNIA",
		"artcc": "ZOA",
		"type": "RNAV",
		"updated": "10/29/2007",
	},
	{
		"name": "KURTT",
		"latitude": "50-11-58.9 N",
		"longitude": "131-53-5.89 W",
		"state": "OFFSHORE PACIFIC",
		"artcc": "ZOA",
		"type": "RP",
		"updated": "04/29/1987",
	},
	{
		"name": "KUWAF",
		"latitude": "37-50-13.06 N",
		"longitude": "122-25-4.95 W",
		"state": "CALIFORNIA",
		"artcc": "ZOA",
		"type": "WP",
		"updated": "11/02/1998",
	},
	{
		"name": "KUWXU",
		"latitude": "38-33-13 N",
		"longitude": "118-10-4 W",
		"state": "NEVADA",
		"artcc": "ZOA",
		"type": "RNAV",
		"updated": "08/04/2017",
	},
	{
		"name": "KUYEB",
		"latitude": "7-25-12.79 N",
		"longitude": "134-16-53.43 E",
		"state": "",
		"artcc": "ZOA",
		"type": "RNAV",
		"updated": "03/07/2003",
	},
	{
		"name": "KUZIE",
		"latitude": "38-28-12.78 N",
		"longitude": "121-21-35.76 W",
		"state": "CALIFORNIA",
		"artcc": "ZOA",
		"type": "RP",
		"updated": "MCC*VOR/DME*153.00/12.00",
	},
	{
		"name": "KYILE",
		"latitude": "39-1-40.71 N",
		"longitude": "121-51-14.6 W",
		"state": "CALIFORNIA",
		"artcc": "ZOA",
		"type": "RNAV",
		"updated": "08/04/2017",
	},
	{
		"name": "KYLLA",
		"latitude": "37-49-33.88 N",
		"longitude": "119-22-5.5 W",
		"state": "CALIFORNIA",
		"artcc": "ZOA",
		"type": "RP",
		"updated": "OAL*VORTAC*245.52/76.60",
	},
	{
		"name": "KYNNG",
		"latitude": "37-40-57.36 N",
		"longitude": "122-31-25.5 W",
		"state": "CALIFORNIA",
		"artcc": "ZOA",
		"type": "RNAV",
		"updated": "09/25/2014",
	},
	{
		"name": "KYWEE",
		"latitude": "16-40-0 N",
		"longitude": "136-42-0 E",
		"state": "OFFSHORE PACIFIC",
		"artcc": "ZOA",
		"type": "WP",
		"updated": "06/27/2007",
	},
