	{
		"name": "LAANE",
		"latitude": "37-39-32.34 N",
		"longitude": "120-44-50.61 W",
		"state": "CALIFORNIA",
		"artcc": "ZOA",
		"type": "RNAV",
		"updated": "02/23/2015",
	},
	{
		"name": "LACFA",
		"latitude": "39-15-53 N",
		"longitude": "119-45-6.8 W",
		"state": "NEVADA",
		"artcc": "ZOA",
		"type": "RNAV",
		"updated": "02/09/2018",
	},
	{
		"name": "LADSS",
		"latitude": "14-51-0 N",
		"longitude": "140-50-0 E",
		"state": "OFFSHORE PACIFIC",
		"artcc": "ZOA",
		"type": "RNAV",
		"updated": "06/27/2007",
	},
	{
		"name": "LAGSE",
		"latitude": "7-43-41 N",
		"longitude": "167-8-4 E",
		"state": "OFFSHORE PACIFIC",
		"artcc": "ZOA",
		"type": "RNAV",
		"updated": "02/14/2011",
	},
	{
		"name": "LAGVE",
		"latitude": "36-28-6.1 N",
		"longitude": "119-44-46.64 W",
		"state": "CALIFORNIA",
		"artcc": "ZOA",
		"type": "MR",
		"updated": "NLC*TACAN*041.00/13.00",
	},
	{
		"name": "LAKCI",
		"latitude": "38-4-13.55 N",
		"longitude": "122-35-13.18 W",
		"state": "CALIFORNIA",
		"artcc": "ZOA",
		"type": "RP",
		"updated": "PYE*VOR/DME*075.32/13.32",
	},
	{
		"name": "LANBE",
		"latitude": "39-19-36.21 N",
		"longitude": "119-46-11 W",
		"state": "NEVADA",
		"artcc": "ZOA",
		"type": "RNAV",
		"updated": "08/07/2008",
	},
	{
		"name": "LAPED",
		"latitude": "39-3-42.14 N",
		"longitude": "122-47-38.26 W",
		"state": "CALIFORNIA",
		"artcc": "ZOA",
		"type": "RP",
		"updated": "ENI*VORTAC*072.55/22.46",
	},
	{
		"name": "LAPOW",
		"latitude": "37-11-52.27 N",
		"longitude": "120-7-24.5 W",
		"state": "CALIFORNIA",
		"artcc": "ZOA",
		"type": "RP",
		"updated": "CZQ*VORTAC*306.84/23.92",
	},
	{
		"name": "LASSN",
		"latitude": "40-23-24.6 N",
		"longitude": "122-17-42.32 W",
		"state": "CALIFORNIA",
		"artcc": "ZOA",
		"type": "RP",
		"updated": "RDD*LD*162.07/7.97",
	},
	{
		"name": "LATNE",
		"latitude": "41-41-41 N",
		"longitude": "126-50-24 W",
		"state": "OFFSHORE PACIFIC",
		"artcc": "ZOA",
		"type": "RP",
		"updated": "08/27/2003",
	},
	{
		"name": "LATON",
		"latitude": "36-22-34.61 N",
		"longitude": "119-33-4.74 W",
		"state": "CALIFORNIA",
		"artcc": "ZOA",
		"type": "RP",
		"updated": "AVE*VOR/DME*009.33",
	},
	{
		"name": "LAVNE",
		"latitude": "38-17-49.44 N",
		"longitude": "121-50-10.28 W",
		"state": "CALIFORNIA",
		"artcc": "ZOA",
		"type": "MR",
		"updated": "SUU*TACAN*042.00/6.00",
	},
	{
		"name": "LAVVA",
		"latitude": "41-0-0 N",
		"longitude": "121-15-0 W",
		"state": "CALIFORNIA",
		"artcc": "ZOA",
		"type": "RNAV",
		"updated": "07/21/2011",
	},
	{
		"name": "LAYKI",
		"latitude": "37-34-45.74 N",
		"longitude": "122-34-43.12 W",
		"state": "CALIFORNIA",
		"artcc": "ZOA",
		"type": "RNAV",
		"updated": "08/14/2006",
	},
	{
		"name": "LAZGO",
		"latitude": "35-54-42.65 N",
		"longitude": "119-27-6.88 W",
		"state": "CALIFORNIA",
		"artcc": "ZOA",
		"type": "RNAV",
		"updated": "09/08/2015",
	},
	{
		"name": "LDOOR",
		"latitude": "38-42-25.71 N",
		"longitude": "121-1-50.62 W",
		"state": "CALIFORNIA",
		"artcc": "ZOA",
		"type": "RP",
		"updated": "MHR*LD*036.72/16.73",
	},
	{
		"name": "LEAHI",
		"latitude": "37-28-58 N",
		"longitude": "117-14-57 W",
		"state": "NEVADA",
		"artcc": "ZOA",
		"type": "RNAV",
		"updated": "10/12/2005",
	},
	{
		"name": "LECWI",
		"latitude": "5-38-36.67 N",
		"longitude": "163-21-51.48 E",
		"state": "",
		"artcc": "ZOA",
		"type": "RP",
		"updated": "UKS*NDB/DME*046.49/30.00",
	},
	{
		"name": "LEEFF",
		"latitude": "37-36-31.19 N",
		"longitude": "121-7-26.5 W",
		"state": "CALIFORNIA",
		"artcc": "ZOA",
		"type": "RP",
		"updated": "MOD*VOR/DME*244.99/8.00",
	},
	{
		"name": "LEETA",
		"latitude": "15-53-48 N",
		"longitude": "135-0-0 E",
		"state": "OFFSHORE PACIFIC",
		"artcc": "ZOA",
		"type": "RNAV",
		"updated": "12/18/2007",
	},
	{
		"name": "LEFOR",
		"latitude": "39-32-57.23 N",
		"longitude": "123-24-52.06 W",
		"state": "CALIFORNIA",
		"artcc": "ZOA",
		"type": "RNAV",
		"updated": "09/13/2010",
	},
	{
		"name": "LEGDE",
		"latitude": "36-4-50.08 N",
		"longitude": "119-40-46.92 W",
		"state": "CALIFORNIA",
		"artcc": "ZOA",
		"type": "RNAV",
		"updated": "04/19/2018",
	},
	{
		"name": "LEGGS",
		"latitude": "39-20-11.85 N",
		"longitude": "121-5-44.75 W",
		"state": "CALIFORNIA",
		"artcc": "ZOA",
		"type": "RNAV",
		"updated": "01/07/2015",
	},
	{
		"name": "LEJAY",
		"latitude": "37-45-42.13 N",
		"longitude": "122-18-16.83 W",
		"state": "CALIFORNIA",
		"artcc": "ZOA",
		"type": "RNAV",
		"updated": "11/24/2014",
	},
	{
		"name": "LEKIY",
		"latitude": "6-39-49 N",
		"longitude": "165-36-24 E",
		"state": "OFFSHORE PACIFIC",
		"artcc": "ZOA",
		"type": "RNAV",
		"updated": "02/14/2011",
	},
	{
		"name": "LEKYI",
		"latitude": "39-31-39.27 N",
		"longitude": "120-21-18.29 W",
		"state": "CALIFORNIA",
		"artcc": "ZOA",
		"type": "RNAV",
		"updated": "10/20/2014",
	},
	{
		"name": "LENCO",
		"latitude": "39-35-32.03 N",
		"longitude": "118-32-25.21 W",
		"state": "NEVADA",
		"artcc": "ZOA",
		"type": "MR",
		"updated": "NFL*TACAN*022.00/13.00",
	},
	{
		"name": "LENIA",
		"latitude": "5-35-47 N",
		"longitude": "164-5-17 E",
		"state": "OFFSHORE PACIFIC",
		"artcc": "ZOA",
		"type": "RNAV",
		"updated": "02/14/2011",
	},
	{
		"name": "LENNA",
		"latitude": "30-31-30 N",
		"longitude": "122-59-42 W",
		"state": "OFFSHORE PACIFIC",
		"artcc": "ZOA",
		"type": "RP",
		"updated": "01/11/1994",
	},
	{
		"name": "LEPWU",
		"latitude": "36-48-27.36 N",
		"longitude": "122-3-24.76 W",
		"state": "CALIFORNIA",
		"artcc": "ZOA",
		"type": "RNAV",
		"updated": "04/09/2018",
	},
	{
		"name": "LERIY",
		"latitude": "38-35-38.62 N",
		"longitude": "121-37-43.99 W",
		"state": "CALIFORNIA",
		"artcc": "ZOA",
		"type": "RNAV",
		"updated": "10/05/2012",
	},
	{
		"name": "LERMO",
		"latitude": "39-23-57.87 N",
		"longitude": "121-36-42.29 W",
		"state": "CALIFORNIA",
		"artcc": "ZOA",
		"type": "RP",
		"updated": "MYV*VOR/DME*338.30/18.12",
	},
	{
		"name": "LERNE",
		"latitude": "36-13-44.58 N",
		"longitude": "119-54-12.5 W",
		"state": "CALIFORNIA",
		"artcc": "ZOA",
		"type": "MW",
		"updated": "04/19/2018",
	},
	{
		"name": "LETHH",
		"latitude": "38-37-17.43 N",
		"longitude": "123-8-40.51 W",
		"state": "CALIFORNIA",
		"artcc": "ZOA",
		"type": "RP",
		"updated": "PYE*VOR/DME*321.17/35.00",
	},
	{
		"name": "LEVEY",
		"latitude": "38-48-8.56 N",
		"longitude": "121-34-42.44 W",
		"state": "CALIFORNIA",
		"artcc": "ZOA",
		"type": "RP",
		"updated": "MDK*LD*347.76/7.30",
	},
	{
		"name": "LIAMM",
		"latitude": "38-36-20.57 N",
		"longitude": "121-27-44.21 W",
		"state": "CALIFORNIA",
		"artcc": "ZOA",
		"type": "RP",
		"updated": "MYV*VOR/DME*154.00/30.00",
	},
	{
		"name": "LIBBO",
		"latitude": "36-0-0 N",
		"longitude": "121-50-0 W",
		"state": "OFFSHORE PACIFIC",
		"artcc": "ZOA",
		"type": "RNAV",
		"updated": "11/20/2012",
	},
	{
		"name": "LIBGE",
		"latitude": "39-56-14.09 N",
		"longitude": "119-46-5.38 W",
		"state": "NEVADA",
		"artcc": "ZOA",
		"type": "RP",
		"updated": "FMG*VORTAC*332.00/24.89",
	},
	{
		"name": "LICIA",
		"latitude": "8-29-51 N",
		"longitude": "166-35-28 E",
		"state": "OFFSHORE PACIFIC",
		"artcc": "ZOA",
		"type": "RNAV",
		"updated": "02/14/2011",
	},
	{
		"name": "LICKE",
		"latitude": "37-9-35.68 N",
		"longitude": "121-41-53.37 W",
		"state": "CALIFORNIA",
		"artcc": "ZOA",
		"type": "RP",
		"updated": "SNS*VORTAC*334.29",
	},
	{
		"name": "LIDAT",
		"latitude": "37-25-48.67 N",
		"longitude": "117-16-41 W",
		"state": "NEVADA",
		"artcc": "ZOA",
		"type": "RP",
		"updated": "OAL*VORTAC*128.53/41.58",
	},
	{
		"name": "LIDIT",
		"latitude": "9-18-0 S",
		"longitude": "142-20-0 E",
		"state": "OFFSHORE PACIFIC",
		"artcc": "ZOA",
		"type": "WP",
		"updated": "05/14/1997",
	},
	{
		"name": "LIMLE",
		"latitude": "16-39-42 N",
		"longitude": "130-0-0 E",
		"state": "OFFSHORE PACIFIC",
		"artcc": "ZOA",
		"type": "RNAV",
		"updated": "12/18/2007",
	},
	{
		"name": "LINEC",
		"latitude": "38-11-38.22 N",
		"longitude": "122-3-13.69 W",
		"state": "CALIFORNIA",
		"artcc": "ZOA",
		"type": "MR",
		"updated": "SUU*TACAN*222.00/6.00",
	},
	{
		"name": "LINGO",
		"latitude": "53-0-0 N",
		"longitude": "136-34-25 W",
		"state": "OFFSHORE PACIFIC",
		"artcc": "ZOA",
		"type": "WP",
		"updated": "09/22/2005",
	},
	{
		"name": "LINNN",
		"latitude": "39-13-46.7 N",
		"longitude": "120-6-15.15 W",
		"state": "CALIFORNIA",
		"artcc": "ZOA",
		"type": "RNAV",
		"updated": "04/29/2010",
	},
	{
		"name": "LINWO",
		"latitude": "38-4-28.52 N",
		"longitude": "121-0-13.89 W",
		"state": "CALIFORNIA",
		"artcc": "ZOA",
		"type": "RNAV",
		"updated": "10/05/2016",
	},
	{
		"name": "LIPRE",
		"latitude": "36-30-30.26 N",
		"longitude": "120-10-12.68 W",
		"state": "CALIFORNIA",
		"artcc": "ZOA",
		"type": "MW",
		"updated": "11/19/2007",
	},
	{
		"name": "LITPE",
		"latitude": "37-54-50.32 N",
		"longitude": "121-35-39.53 W",
		"state": "CALIFORNIA",
		"artcc": "ZOA",
		"type": "RNAV",
		"updated": "12/02/2008",
	},
	{
		"name": "LIZRD",
		"latitude": "38-3-31.7 N",
		"longitude": "122-15-44.67 W",
		"state": "CALIFORNIA",
		"artcc": "ZOA",
		"type": "RP",
		"updated": "PYE*VOR/DME*075.32",
	},
	{
		"name": "LKHRN",
		"latitude": "36-5-59.82 N",
		"longitude": "120-45-22.53 W",
		"state": "CALIFORNIA",
		"artcc": "ZOA",
		"type": "RNAV",
		"updated": "04/21/2017",
	},
	{
		"name": "LLVII",
		"latitude": "37-42-1.55 N",
		"longitude": "121-46-44.99 W",
		"state": "CALIFORNIA",
		"artcc": "ZOA",
		"type": "RNAV",
		"updated": "09/25/2014",
	},
	{
		"name": "LLYNN",
		"latitude": "36-32-16.56 N",
		"longitude": "121-28-38.62 W",
		"state": "CALIFORNIA",
		"artcc": "ZOA",
		"type": "RP",
		"updated": "SNS*VORTAC*124.11/9.69",
	},
	{
		"name": "LNNDA",
		"latitude": "37-28-56 N",
		"longitude": "120-26-39 W",
		"state": "CALIFORNIA",
		"artcc": "ZOA",
		"type": "RP",
		"updated": "MOD*VOR/DME*092.38/26.01",
	},
	{
		"name": "LOCKE",
		"latitude": "37-42-48.55 N",
		"longitude": "121-30-34.61 W",
		"state": "CALIFORNIA",
		"artcc": "ZOA",
		"type": "RNAV",
		"updated": "04/27/2017",
	},
	{
		"name": "LODDI",
		"latitude": "38-4-0.06 N",
		"longitude": "121-18-57.02 W",
		"state": "CALIFORNIA",
		"artcc": "ZOA",
		"type": "RP",
		"updated": "LIN*VOR/DME*251.26/14.79",
	},
	{
		"name": "LOEBB",
		"latitude": "12-14-31.079 N",
		"longitude": "142-40-41.358 E",
		"state": "OFFSHORE PACIFIC",
		"artcc": "ZOA",
		"type": "RNAV",
		"updated": "01/08/2009",
	},
	{
		"name": "LOGLE",
		"latitude": "13-28-37.41 N",
		"longitude": "144-40-48.58 E",
		"state": "GUAM",
		"artcc": "ZOA",
		"type": "MR",
		"updated": "UAM*TACAN*244.38/17.00",
	},
	{
		"name": "LOGYE",
		"latitude": "38-26-42.81 N",
		"longitude": "121-29-7.85 W",
		"state": "CALIFORNIA",
		"artcc": "ZOA",
		"type": "RNAV",
		"updated": "12/18/2006",
	},
	{
		"name": "LOHGN",
		"latitude": "37-54-54.79 N",
		"longitude": "121-57-33.96 W",
		"state": "CALIFORNIA",
		"artcc": "ZOA",
		"type": "RNAV",
		"updated": "03/02/2015",
	},
	{
		"name": "LOHMA",
		"latitude": "39-26-59.45 N",
		"longitude": "123-20-13.72 W",
		"state": "CALIFORNIA",
		"artcc": "ZOA",
		"type": "RNAV",
		"updated": "06/02/2016",
	},
	{
		"name": "LOLLA",
		"latitude": "39-25-13.9 N",
		"longitude": "120-22-0.99 W",
		"state": "CALIFORNIA",
		"artcc": "ZOA",
		"type": "RP",
		"updated": "SWR*VOR/DME*326.56/15.10",
	},
	{
		"name": "LOLXU",
		"latitude": "40-3-30.07 N",
		"longitude": "118-34-32.04 W",
		"state": "NEVADA",
		"artcc": "ZOA",
		"type": "RNAV",
		"updated": "07/28/2017",
	},
	{
		"name": "LOMBO",
		"latitude": "39-57-30.16 N",
		"longitude": "121-40-41.53 W",
		"state": "CALIFORNIA",
		"artcc": "ZOA",
		"type": "RP",
		"updated": "SAC*VORTAC*339.32/91.00",
	},
	{
		"name": "LOMIA",
		"latitude": "39-13-11.57 N",
		"longitude": "119-6-22.95 W",
		"state": "NEVADA",
		"artcc": "ZOA",
		"type": "RNAV",
		"updated": "10/03/2005",
	},
	{
		"name": "LOOIS",
		"latitude": "8-12-6 N",
		"longitude": "164-44-54 E",
		"state": "OFFSHORE PACIFIC",
		"artcc": "ZOA",
		"type": "RP",
		"updated": "11/17/2008",
	},
	{
		"name": "LOSHN",
		"latitude": "35-50-51.39 N",
		"longitude": "120-0-1.71 W",
		"state": "CALIFORNIA",
		"artcc": "ZOA",
		"type": "RNAV",
		"updated": "11/24/2014",
	},
	{
		"name": "LOUPE",
		"latitude": "37-21-11.4 N",
		"longitude": "121-48-14.26 W",
		"state": "CALIFORNIA",
		"artcc": "ZOA",
		"type": "RP",
		"updated": "OAK*VOR/DME*121.00/30.00",
	},
	{
		"name": "LOWDG",
		"latitude": "39-10-59.58 N",
		"longitude": "120-5-5.33 W",
		"state": "CALIFORNIA",
		"artcc": "ZOA",
		"type": "RNAV",
		"updated": "06/24/2010",
	},
	{
		"name": "LOWEY",
		"latitude": "7-25-48 N",
		"longitude": "165-3-33 E",
		"state": "OFFSHORE PACIFIC",
		"artcc": "ZOA",
		"type": "RNAV",
		"updated": "02/14/2011",
	},
	{
		"name": "LOZIT",
		"latitude": "37-53-57.57 N",
		"longitude": "122-40-23.5 W",
		"state": "CALIFORNIA",
		"artcc": "ZOA",
		"type": "RP",
		"updated": "PYE*VOR/DME*122.45",
	},
	{
		"name": "LOZWU",
		"latitude": "38-45-57.16 N",
		"longitude": "122-57-46.1 W",
		"state": "CALIFORNIA",
		"artcc": "ZOA",
		"type": "RNAV",
		"updated": "10/06/2014",
	},
	{
		"name": "LUBEY",
		"latitude": "7-27-19.49 N",
		"longitude": "134-21-6.33 E",
		"state": "",
		"artcc": "ZOA",
		"type": "RNAV",
		"updated": "04/01/2003",
	},
	{
		"name": "LUCAB",
		"latitude": "36-1-0.67 N",
		"longitude": "120-57-44.83 W",
		"state": "CALIFORNIA",
		"artcc": "ZOA",
		"type": "RP",
		"updated": "ROM*VOR*227.00",
	},
	{
		"name": "LUCEK",
		"latitude": "39-40-39.08 N",
		"longitude": "119-47-30.06 W",
		"state": "NEVADA",
		"artcc": "ZOA",
		"type": "RNAV",
		"updated": "05/25/2011",
	},
	{
		"name": "LULJY",
		"latitude": "14-48-14.94 N",
		"longitude": "145-17-38.3 E",
		"state": "GUAM",
		"artcc": "ZOA",
		"type": "RP",
		"updated": "UNZ*VORTAC*020.00/87.00",
	},
	{
		"name": "LUMTY",
		"latitude": "36-57-32.67 N",
		"longitude": "120-48-14.57 W",
		"state": "CALIFORNIA",
		"artcc": "ZOA",
		"type": "RNAV",
		"updated": "10/20/2009",
	},
	{
		"name": "LUNES",
		"latitude": "39-14-4.21 N",
		"longitude": "121-23-29.17 W",
		"state": "CALIFORNIA",
		"artcc": "ZOA",
		"type": "MR",
		"updated": "MCC*VOR/DME*344.00/34.00",
	},
	{
		"name": "LUSEE",
		"latitude": "38-19-18.79 N",
		"longitude": "122-42-31.2 W",
		"state": "CALIFORNIA",
		"artcc": "ZOA",
		"type": "RP",
		"updated": "PYE*VOR/DME*010.37",
	},
	{
		"name": "LUYTA",
		"latitude": "37-17-41.6 N",
		"longitude": "122-12-16.39 W",
		"state": "CALIFORNIA",
		"artcc": "ZOA",
		"type": "RNAV",
		"updated": "01/12/2015",
	},
	{
		"name": "LYNIS",
		"latitude": "6-21-31 N",
		"longitude": "163-32-11 E",
		"state": "OFFSHORE PACIFIC",
		"artcc": "ZOA",
		"type": "RNAV",
		"updated": "02/14/2011",
	},
