[
	{
		"name": "MAAYS",
		"latitude": "37-29-1.67 N",
		"longitude": "122-8-52.17 W",
		"state": "CALIFORNIA",
		"artcc": "ZOA",
		"type": "RNAV",
		"updated": "11/24/2014"
	},
	{
		"name": "MABJO",
		"latitude": "39-7-31.81 N",
		"longitude": "123-12-6.02 W",
		"state": "CALIFORNIA",
		"artcc": "ZOA",
		"type": "CN",
		"updated": "12/21/1999"
	},
	{
		"name": "MABRY",
		"latitude": "37-25-52.24 N",
		"longitude": "121-47-43.61 W",
		"state": "CALIFORNIA",
		"artcc": "ZOA",
		"type": "RP",
		"updated": "SJC*VOR/DME*048.58"
	},
	{
		"name": "MACAJ",
		"latitude": "36-51-34.65 N",
		"longitude": "120-27-55.03 W",
		"state": "CALIFORNIA",
		"artcc": "ZOA",
		"type": "CN",
		"updated": "12/21/1999"
	},
	{
		"name": "MACFE",
		"latitude": "38-12-14.86 N",
		"longitude": "122-17-57.07 W",
		"state": "CALIFORNIA",
		"artcc": "ZOA",
		"type": "CN",
		"updated": "12/21/1999"
	},
	{
		"name": "MACOG",
		"latitude": "39-29-58.98 N",
		"longitude": "118-45-23.01 W",
		"state": "NEVADA",
		"artcc": "ZOA",
		"type": "RP",
		"updated": "HZN*VORTAC*078.03/11.25"
	},
	{
		"name": "MACUS",
		"latitude": "39-53-0 N",
		"longitude": "118-48-0 W",
		"state": "NEVADA",
		"artcc": "ZOA",
		"type": "RNAV",
		"updated": "11/24/2014"
	},
	{
		"name": "MACZA",
		"latitude": "37-44-0.86 N",
		"longitude": "122-14-14.5 W",
		"state": "CALIFORNIA",
		"artcc": "ZOA",
		"type": "CN",
		"updated": "12/21/1999"
	},
	{
		"name": "MAEVA",
		"latitude": "3-30-0 N",
		"longitude": "141-5-0 W",
		"state": "OFFSHORE PACIFIC",
		"artcc": "ZOA",
		"type": "RP",
		"updated": "05/25/1993"
	},
	{
		"name": "MAFAF",
		"latitude": "36-41-54.08 N",
		"longitude": "121-37-59.67 W",
		"state": "CALIFORNIA",
		"artcc": "ZOA",
		"type": "RNAV",
		"updated": "07/07/2009"
	},
	{
		"name": "MAFIC",
		"latitude": "35-44-27.38 N",
		"longitude": "125-3-32.02 W",
		"state": "OFFSHORE PACIFIC",
		"artcc": "ZOA",
		"type": "RP",
		"updated": "03/15/2002"
	},
	{
		"name": "MAGHA",
		"latitude": "37-37-52.6 N",
		"longitude": "122-21-57.63 W",
		"state": "CALIFORNIA",
		"artcc": "ZOA",
		"type": "CN",
		"updated": "12/21/1999"
	},
	{
		"name": "MAGXY",
		"latitude": "37-42-0.11 N",
		"longitude": "121-25-31.97 W",
		"state": "CALIFORNIA",
		"artcc": "ZOA",
		"type": "CN",
		"updated": "12/21/1999"
	},
	{
		"name": "MAHEG",
		"latitude": "39-43-16.52 N",
		"longitude": "122-8-46.86 W",
		"state": "CALIFORNIA",
		"artcc": "ZOA",
		"type": "CN",
		"updated": "12/21/1999"
	},
	{
		"name": "MAIDN",
		"latitude": "41-20-0 N",
		"longitude": "122-31-46 W",
		"state": "CALIFORNIA",
		"artcc": "ZOA",
		"type": "RNAV",
		"updated": "06/04/2003"
	},
	{
		"name": "MAJAZ",
		"latitude": "38-40-30.6 N",
		"longitude": "121-52-20.11 W",
		"state": "CALIFORNIA",
		"artcc": "ZOA",
		"type": "CN",
		"updated": "12/21/1999"
	},
	{
		"name": "MAJHU",
		"latitude": "36-56-6.64 N",
		"longitude": "121-47-26.31 W",
		"state": "CALIFORNIA",
		"artcc": "ZOA",
		"type": "CN",
		"updated": "12/21/1999"
	},
	{
		"name": "MAJOX",
		"latitude": "39-28-46.56 N",
		"longitude": "121-37-19.63 W",
		"state": "CALIFORNIA",
		"artcc": "ZOA",
		"type": "RP",
		"updated": "MYV*VOR/DME*338.30/22.95"
	},
	{
		"name": "MAJUJ",
		"latitude": "38-40-43.03 N",
		"longitude": "121-36-5.8 W",
		"state": "CALIFORNIA",
		"artcc": "ZOA",
		"type": "CN",
		"updated": "12/21/1999"
	},
	{
		"name": "MAJUK",
		"latitude": "38-40-35.46 N",
		"longitude": "121-34-58.27 W",
		"state": "CALIFORNIA",
		"artcc": "ZOA",
		"type": "CN",
		"updated": "12/21/1999"
	},
	{
		"name": "MAMIE",
		"latitude": "37-50-25.13 N",
		"longitude": "121-3-59.61 W",
		"state": "CALIFORNIA",
		"artcc": "ZOA",
		"type": "RNAV",
		"updated": "04/27/2017"
	},
	{
		"name": "MAMLE",
		"latitude": "36-34-52.32 N",
		"longitude": "119-58-2.34 W",
		"state": "CALIFORNIA",
		"artcc": "ZOA",
		"type": "MW",
		"updated": "11/19/2007"
	},
	{
		"name": "MANEY",
		"latitude": "31-56-51 N",
		"longitude": "127-22-45 W",
		"state": "OFFSHORE PACIFIC",
		"artcc": "ZOA",
		"type": "RNAV",
		"updated": "02/11/2008"
	},
	{
		"name": "MANJO",
		"latitude": "52-0-0 N",
		"longitude": "135-27-26 W",
		"state": "OFFSHORE PACIFIC",
		"artcc": "ZOA",
		"type": "WP",
		"updated": "09/22/2005"
	},
	{
		"name": "MANRE",
		"latitude": "15-55-50 N",
		"longitude": "171-33-23 W",
		"state": "OFFSHORE PACIFIC",
		"artcc": "ZOA",
		"type": "RNAV",
		"updated": "02/11/2008"
	},
	{
		"name": "MAPVC",
		"latitude": "36-43-51.16 N",
		"longitude": "119-49-18.45 W",
		"state": "CALIFORNIA",
		"artcc": "ZOA",
		"type": "CN",
		"updated": "03/06/2003"
	},
	{
		"name": "MAPVR",
		"latitude": "39-13-25.54 N",
		"longitude": "121-0-38.91 W",
		"state": "CALIFORNIA",
		"artcc": "ZOA",
		"type": "CN",
		"updated": "03/25/2003"
	},
	{
		"name": "MAPVT",
		"latitude": "36-18-54.87 N",
		"longitude": "119-37-35.3 W",
		"state": "CALIFORNIA",
		"artcc": "ZOA",
		"type": "CN",
		"updated": "03/06/2003"
	},
	{
		"name": "MAPVV",
		"latitude": "37-39-16.99 N",
		"longitude": "122-7-14.28 W",
		"state": "CALIFORNIA",
		"artcc": "ZOA",
		"type": "CN",
		"updated": "03/06/2003"
	},
	{
		"name": "MAPYN",
		"latitude": "38-12-1.17 N",
		"longitude": "121-15-53.18 W",
		"state": "CALIFORNIA",
		"artcc": "ZOA",
		"type": "RP",
		"updated": "LIN*VOR/DME*284.47/14.47"
	},
	{
		"name": "MARBD",
		"latitude": "37-3-33.98 N",
		"longitude": "120-51-43.62 W",
		"state": "CALIFORNIA",
		"artcc": "ZOA",
		"type": "CN",
		"updated": "03/06/2003"
	},
	{
		"name": "MARBN",
		"latitude": "39-43-16.74 N",
		"longitude": "122-8-46.93 W",
		"state": "CALIFORNIA",
		"artcc": "ZOA",
		"type": "CN",
		"updated": "03/10/2003"
	},
	{
		"name": "MARDL",
		"latitude": "37-42-1.37 N",
		"longitude": "121-25-33.01 W",
		"state": "CALIFORNIA",
		"artcc": "ZOA",
		"type": "CN",
		"updated": "03/06/2003"
	},
	{
		"name": "MARDR",
		"latitude": "39-19-54.13 N",
		"longitude": "120-10-4.98 W",
		"state": "CALIFORNIA",
		"artcc": "ZOA",
		"type": "RNAV",
		"updated": "10/20/2014"
	},
	{
		"name": "MARGL",
		"latitude": "39-7-22.53 N",
		"longitude": "123-12-14.49 W",
		"state": "CALIFORNIA",
		"artcc": "ZOA",
		"type": "RP",
		"updated": "ENI*VORTAC*022.14"
	},
	{
		"name": "MARGR",
		"latitude": "38-22-43.46 N",
		"longitude": "121-56-42.37 W",
		"state": "CALIFORNIA",
		"artcc": "ZOA",
		"type": "RP",
		"updated": "SAC*VORTAC*241.26/18.96"
	},
	{
		"name": "MARLC",
		"latitude": "36-55-56.09 N",
		"longitude": "121-47-19 W",
		"state": "CALIFORNIA",
		"artcc": "ZOA",
		"type": "RP",
		"updated": "SNS*VORTAC*314.00/18.40"
	},
	{
		"name": "MARLK",
		"latitude": "38-40-23.26 N",
		"longitude": "121-52-9.96 W",
		"state": "CALIFORNIA",
		"artcc": "ZOA",
		"type": "RP",
		"updated": "SAC*VORTAC*295.70/20.32"
	},
	{
		"name": "MARNA",
		"latitude": "36-43-54.92 N",
		"longitude": "121-48-47.28 W",
		"state": "CALIFORNIA",
		"artcc": "ZOA",
		"type": "RP",
		"updated": "SNS*VORTAC*275.00/10.92"
	},
	{
		"name": "MARNL",
		"latitude": "40-4-29.02 N",
		"longitude": "118-33-53.99 W",
		"state": "NEVADA",
		"artcc": "ZOA",
		"type": "RP",
		"updated": "LLC*VORTAC*153.16/3.08"
	},
	{
		"name": "MARPP",
		"latitude": "39-30-34.72 N",
		"longitude": "119-45-36.21 W",
		"state": "NEVADA",
		"artcc": "ZOA",
		"type": "CN",
		"updated": "04/21/2003"
	},
	{
		"name": "MARRI",
		"latitude": "38-45-47.21 N",
		"longitude": "119-42-0.31 W",
		"state": "CALIFORNIA",
		"artcc": "ZOA",
		"type": "RP",
		"updated": "SWR*VOR/DME*117.00/36.55"
	},
	{
		"name": "MARRS",
		"latitude": "39-23-59.29 N",
		"longitude": "123-20-13.72 W",
		"state": "CALIFORNIA",
		"artcc": "ZOA",
		"type": "RNAV",
		"updated": "06/02/2016"
	},
	{
		"name": "MARRV",
		"latitude": "35-40-31 N",
		"longitude": "121-27-39 W",
		"state": "CALIFORNIA",
		"artcc": "ZOA",
		"type": "RNAV",
		"updated": "01/23/2015"
	},
	{
		"name": "MASTR",
		"latitude": "39-36-6.86 N",
		"longitude": "119-44-32.9 W",
		"state": "NEVADA",
		"artcc": "ZOA",
		"type": "RNAV",
		"updated": "09/27/2013"
	},
	{
		"name": "MASUE",
		"latitude": "39-12-10.01 N",
		"longitude": "119-46-11.95 W",
		"state": "NEVADA",
		"artcc": "ZOA",
		"type": "RNAV",
		"updated": "02/16/2001"
	},
	{
		"name": "MATEE",
		"latitude": "37-54-22.14 N",
		"longitude": "119-56-46.44 W",
		"state": "CALIFORNIA",
		"artcc": "ZOA",
		"type": "RNAV",
		"updated": "04/27/2017"
	},
	{
		"name": "MAVTE",
		"latitude": "8-41-42.75 N",
		"longitude": "167-39-3.41 E",
		"state": "",
		"artcc": "ZOA",
		"type": "MW",
		"updated": "11/25/2008"
	},
	{
		"name": "MAXAE",
		"latitude": "36-37-55.75 N",
		"longitude": "120-0-29.85 W",
		"state": "CALIFORNIA",
		"artcc": "ZOA",
		"type": "MW",
		"updated": "04/19/2018"
	},
	{
		"name": "MAXKA",
		"latitude": "36-14-12.26 N",
		"longitude": "119-34-26.77 W",
		"state": "CALIFORNIA",
		"artcc": "ZOA",
		"type": "RNAV",
		"updated": "06/12/2010"
	},
	{
		"name": "MAZBE",
		"latitude": "39-57-59.2 N",
		"longitude": "118-40-26.85 W",
		"state": "NEVADA",
		"artcc": "ZOA",
		"type": "RNAV",
		"updated": "07/28/2017"
	},
	{
		"name": "MAZZA",
		"latitude": "11-42-32 N",
		"longitude": "180-0-0 W",
		"state": "OFFSHORE PACIFIC",
		"artcc": "ZOA",
		"type": "RP",
		"updated": "02/05/1992"
	},
	{
		"name": "MBARI",
		"latitude": "36-1-37.09 N",
		"longitude": "120-34-38.27 W",
		"state": "CALIFORNIA",
		"artcc": "ZOA",
		"type": "RNAV",
		"updated": "04/21/2017"
	},
	{
		"name": "MCFLY",
		"latitude": "19-39-29 N",
		"longitude": "162-41-58 W",
		"state": "OFFSHORE PACIFIC",
		"artcc": "ZOA",
		"type": "RNAV",
		"updated": "02/11/2008"
	},
	{
		"name": "MCKEY",
		"latitude": "35-28-59.14 N",
		"longitude": "121-4-59.3 W",
		"state": "CALIFORNIA",
		"artcc": "ZOA",
		"type": "RP",
		"updated": "MQO*VORTAC*295.15/21.06"
	},
	{
		"name": "MCORD",
		"latitude": "40-12-0 N",
		"longitude": "118-1-0 W",
		"state": "NEVADA",
		"artcc": "ZOA",
		"type": "RNAV",
		"updated": "03/16/2011"
	},
	{
		"name": "MCOVY",
		"latitude": "37-21-19.81 N",
		"longitude": "122-0-48.94 W",
		"state": "CALIFORNIA",
		"artcc": "ZOA",
		"type": "RNAV",
		"updated": "11/24/2014"
	},
	{
		"name": "MDBAY",
		"latitude": "37-41-5.19 N",
		"longitude": "122-18-12.98 W",
		"state": "CALIFORNIA",
		"artcc": "ZOA",
		"type": "RNAV",
		"updated": "09/25/2014"
	},
	{
		"name": "MDOWS",
		"latitude": "39-47-3.41 N",
		"longitude": "119-7-41.96 W",
		"state": "NEVADA",
		"artcc": "ZOA",
		"type": "RNAV",
		"updated": "09/17/2014"
	},
	{
		"name": "MEETL",
		"latitude": "35-57-7.4 N",
		"longitude": "120-33-32.5 W",
		"state": "CALIFORNIA",
		"artcc": "ZOA",
		"type": "RNAV",
		"updated": "12/02/2010"
	},
	{
		"name": "MEFKE",
		"latitude": "40-10-27.87 N",
		"longitude": "118-35-23.5 W",
		"state": "NEVADA",
		"artcc": "ZOA",
		"type": "RP",
		"updated": "LLC*VORTAC*333.16/3.00"
	},
	{
		"name": "MEHTA",
		"latitude": "37-27-42.09 N",
		"longitude": "121-59-47.49 W",
		"state": "CALIFORNIA",
		"artcc": "ZOA",
		"type": "RP",
		"updated": "SFO*VOR/DME*100.59"
	},
	{
		"name": "MELIC",
		"latitude": "39-16-38.9 N",
		"longitude": "123-14-27.92 W",
		"state": "CALIFORNIA",
		"artcc": "ZOA",
		"type": "RP",
		"updated": "UKI*LE*NW CRS/9.70"
	},
	{
		"name": "MELNY",
		"latitude": "39-44-48 N",
		"longitude": "119-40-36 W",
		"state": "NEVADA",
		"artcc": "ZOA",
		"type": "RNAV",
		"updated": "03/10/2010"
	},
	{
		"name": "MELTS",
		"latitude": "38-9-56.11 N",
		"longitude": "120-29-18.82 W",
		"state": "CALIFORNIA",
		"artcc": "ZOA",
		"type": "RP",
		"updated": "LIN*VOR/DME*060.00/25.00"
	},
	{
		"name": "MEMVE",
		"latitude": "39-10-41.17 N",
		"longitude": "123-36-54.51 W",
		"state": "CALIFORNIA",
		"artcc": "ZOA",
		"type": "RNAV",
		"updated": "06/19/2012"
	},
	{
		"name": "MENDO",
		"latitude": "36-45-57.63 N",
		"longitude": "120-29-42.9 W",
		"state": "CALIFORNIA",
		"artcc": "ZOA",
		"type": "RP",
		"updated": "HYP*VOR/DME*174.57"
	},
	{
		"name": "MENLE",
		"latitude": "5-20-26.89 N",
		"longitude": "162-55-33.46 E",
		"state": "",
		"artcc": "ZOA",
		"type": "RNAV",
		"updated": "09/04/2003"
	},
	{
		"name": "MENLO",
		"latitude": "37-27-49.27 N",
		"longitude": "122-9-13.17 W",
		"state": "CALIFORNIA",
		"artcc": "ZOA",
		"type": "RP",
		"updated": "OAK*VOR/DME*151.00/16.07"
	},
	{
		"name": "MENSE",
		"latitude": "39-27-4.07 N",
		"longitude": "122-53-2.27 W",
		"state": "CALIFORNIA",
		"artcc": "ZOA",
		"type": "RP",
		"updated": "ENI*VORTAC*021.21/30.00"
	},
	{
		"name": "MEPVE",
		"latitude": "37-19-28.66 N",
		"longitude": "122-0-3.86 W",
		"state": "CALIFORNIA",
		"artcc": "ZOA",
		"type": "RP",
		"updated": "NUQ*TACAN*140.29/7.00"
	},
	{
		"name": "MEQXY",
		"latitude": "39-13-9.67 N",
		"longitude": "121-7-42.38 W",
		"state": "CALIFORNIA",
		"artcc": "ZOA",
		"type": "RNAV",
		"updated": "11/02/2016"
	},
	{
		"name": "MERET",
		"latitude": "38-36-25.95 N",
		"longitude": "121-46-40.1 W",
		"state": "CALIFORNIA",
		"artcc": "ZOA",
		"type": "RP",
		"updated": "SAC*VORTAC*295.70/14.47"
	},
	{
		"name": "MERPH",
		"latitude": "38-2-1.92 N",
		"longitude": "120-22-22.51 W",
		"state": "CALIFORNIA",
		"artcc": "ZOA",
		"type": "RP",
		"updated": "LIN*VOR/DME*077.47/30.00"
	},
	{
		"name": "MERRI",
		"latitude": "39-17-47.22 N",
		"longitude": "123-24-55.87 W",
		"state": "CALIFORNIA",
		"artcc": "ZOA",
		"type": "RP",
		"updated": "ENI*VORTAC*319.73/16.00"
	},
	{
		"name": "METRE",
		"latitude": "38-47-41.34 N",
		"longitude": "121-35-58.66 W",
		"state": "CALIFORNIA",
		"artcc": "ZOA",
		"type": "RP",
		"updated": "SAC*VORTAC*336.89/21.17"
	},
	{
		"name": "MICNO",
		"latitude": "7-25-28.43 N",
		"longitude": "152-20-39.46 E",
		"state": "",
		"artcc": "ZOA",
		"type": "RP",
		"updated": "TKK*NDB/DME*088.89/30.00"
	},
	{
		"name": "MICRA",
		"latitude": "37-57-26.49 N",
		"longitude": "122-38-36.72 W",
		"state": "CALIFORNIA",
		"artcc": "ZOA",
		"type": "RP",
		"updated": "PYE*VOR/DME*107.53/12.92"
	},
	{
		"name": "MIFGA",
		"latitude": "38-12-37.24 N",
		"longitude": "120-42-11.38 W",
		"state": "CALIFORNIA",
		"artcc": "ZOA",
		"type": "RNAV",
		"updated": "02/09/2018"
	},
	{
		"name": "MIKSE",
		"latitude": "36-27-23.84 N",
		"longitude": "120-1-43.84 W",
		"state": "CALIFORNIA",
		"artcc": "ZOA",
		"type": "MW",
		"updated": "04/19/2018"
	},
	{
		"name": "MIKYY",
		"latitude": "15-46-0 N",
		"longitude": "141-17-0 E",
		"state": "OFFSHORE PACIFIC",
		"artcc": "ZOA",
		"type": "RNAV",
		"updated": "06/27/2007"
	},
	{
		"name": "MILAR",
		"latitude": "40-42-5.47 N",
		"longitude": "122-17-40.36 W",
		"state": "CALIFORNIA",
		"artcc": "ZOA",
		"type": "RP",
		"updated": "RDD*LD*342.08/10.70"
	},
	{
		"name": "MILZY",
		"latitude": "19-17-24.19 N",
		"longitude": "166-31-18.04 E",
		"state": "WAKE ISLAND",
		"artcc": "ZOA",
		"type": "MR",
		"updated": "AWK*VORTAC*266.00/6.00"
	},
	{
		"name": "MIMGE",
		"latitude": "39-15-15.78 N",
		"longitude": "123-12-31.85 W",
		"state": "CALIFORNIA",
		"artcc": "ZOA",
		"type": "RNAV",
		"updated": "05/04/2016"
	},
	{
		"name": "MINCK",
		"latitude": "36-37-15.38 N",
		"longitude": "121-56-41.7 W",
		"state": "CALIFORNIA",
		"artcc": "ZOA",
		"type": "RP",
		"updated": "MRY*LD*277.74/5.89"
	},
	{
		"name": "MINSE",
		"latitude": "36-49-16.14 N",
		"longitude": "119-41-36.18 W",
		"state": "CALIFORNIA",
		"artcc": "ZOA",
		"type": "RNAV",
		"updated": "04/26/2018"
	},
	{
		"name": "MIRKE",
		"latitude": "39-21-4.34 N",
		"longitude": "118-36-28.03 W",
		"state": "NEVADA",
		"artcc": "ZOA",
		"type": "MR",
		"updated": "NFL*TACAN*117.00/6.00"
	},
	{
		"name": "MISON",
		"latitude": "37-29-48.54 N",
		"longitude": "121-53-25.06 W",
		"state": "CALIFORNIA",
		"artcc": "ZOA",
		"type": "RP",
		"updated": "SJC*VOR/DME*003.53"
	},
	{
		"name": "MISSS",
		"latitude": "37-28-38.24 N",
		"longitude": "122-29-1.01 W",
		"state": "CALIFORNIA",
		"artcc": "ZOA",
		"type": "RNAV",
		"updated": "01/12/2015"
	},
	{
		"name": "MITAE",
		"latitude": "39-34-11.89 N",
		"longitude": "119-28-7.33 W",
		"state": "NEVADA",
		"artcc": "ZOA",
		"type": "MR",
		"updated": "FMG*VORTAC*059.00/9.00"
	},
	{
		"name": "MITEL",
		"latitude": "36-41-3.92 N",
		"longitude": "118-35-2.68 W",
		"state": "CALIFORNIA",
		"artcc": "ZOA",
		"type": "RP",
		"updated": "CZQ*VORTAC*086.04/60.53"
	},
	{
		"name": "MITOE",
		"latitude": "37-38-11.16 N",
		"longitude": "122-7-0.68 W",
		"state": "CALIFORNIA",
		"artcc": "ZOA",
		"type": "RP",
		"updated": "INB*LD*116.01/8.25"
	},
	{
		"name": "MITOH",
		"latitude": "41-47-25 N",
		"longitude": "126-49-53 W",
		"state": "OFFSHORE PACIFIC",
		"artcc": "ZOA",
		"type": "RP",
		"updated": "08/27/2003"
	},
	{
		"name": "MIUKE",
		"latitude": "37-33-8.16 N",
		"longitude": "122-10-52.25 W",
		"state": "CALIFORNIA",
		"artcc": "ZOA",
		"type": "RP",
		"updated": "FNP*DD*E CRS/9.84"
	},
	{
		"name": "MIZRE",
		"latitude": "37-0-15.09 N",
		"longitude": "119-22-1.39 W",
		"state": "CALIFORNIA",
		"artcc": "ZOA",
		"type": "MR",
		"updated": "NLC*TACAN*020.00/49.00"
	},
	{
		"name": "MKNNA",
		"latitude": "37-4-23.41 N",
		"longitude": "120-50-22.26 W",
		"state": "CALIFORNIA",
		"artcc": "ZOA",
		"type": "RNAV",
		"updated": "04/21/2017"
	},
	{
		"name": "MLBEC",
		"latitude": "38-52-29.18 N",
		"longitude": "122-57-32.36 W",
		"state": "CALIFORNIA",
		"artcc": "ZOA",
		"type": "RNAV",
		"updated": "01/07/2015"
	},
	{
		"name": "MLPTS",
		"latitude": "37-23-57.16 N",
		"longitude": "121-58-0.27 W",
		"state": "CALIFORNIA",
		"artcc": "ZOA",
		"type": "RNAV",
		"updated": "11/24/2014"
	},
	{
		"name": "MNTNA",
		"latitude": "37-32-19.49 N",
		"longitude": "122-37-45.63 W",
		"state": "CALIFORNIA",
		"artcc": "ZOA",
		"type": "RNAV",
		"updated": "01/12/2015"
	},
	{
		"name": "MOBOH",
		"latitude": "40-17-20.65 N",
		"longitude": "118-37-6.8 W",
		"state": "NEVADA",
		"artcc": "ZOA",
		"type": "RP",
		"updated": "LLC*VORTAC*333.16/10.00"
	},
	{
		"name": "MODSE",
		"latitude": "36-44-48.14 N",
		"longitude": "119-40-17.71 W",
		"state": "CALIFORNIA",
		"artcc": "ZOA",
		"type": "RNAV",
		"updated": "07/11/2005"
	},
	{
		"name": "MOFHU",
		"latitude": "9-24-23.6 N",
		"longitude": "167-28-54.64 E",
		"state": "",
		"artcc": "ZOA",
		"type": "MW",
		"updated": "10/28/2008"
	},
	{
		"name": "MOFTE",
		"latitude": "40-21-16.51 N",
		"longitude": "118-38-5.98 W",
		"state": "NEVADA",
		"artcc": "ZOA",
		"type": "RP",
		"updated": "LLC*VORTAC*333.16/14.00"
	},
	{
		"name": "MOGEE",
		"latitude": "38-20-10 N",
		"longitude": "121-23-23 W",
		"state": "CALIFORNIA",
		"artcc": "ZOA",
		"type": "RNAV",
		"updated": "08/29/2013"
	},
	{
		"name": "MOGLE",
		"latitude": "14-2-24 N",
		"longitude": "143-7-30 E",
		"state": "OFFSHORE PACIFIC",
		"artcc": "ZOA",
		"type": "RNAV",
		"updated": "06/27/2007"
	},
	{
		"name": "MOKPY",
		"latitude": "38-17-42.47 N",
		"longitude": "120-50-9.1 W",
		"state": "CALIFORNIA",
		"artcc": "ZOA",
		"type": "WP",
		"updated": "11/02/1998"
	},
	{
		"name": "MOLBE",
		"latitude": "39-34-22.24 N",
		"longitude": "119-48-38.43 W",
		"state": "NEVADA",
		"artcc": "ZOA",
		"type": "RNAV",
		"updated": "07/12/2005"
	},
	{
		"name": "MOLEN",
		"latitude": "37-59-52.34 N",
		"longitude": "123-5-12.47 W",
		"state": "CALIFORNIA",
		"artcc": "ZOA",
		"type": "RP",
		"updated": "PYE*VOR/DME*227.76"
	},
	{
		"name": "MOLLA",
		"latitude": "37-58-52.98 N",
		"longitude": "119-42-42.06 W",
		"state": "CALIFORNIA",
		"artcc": "ZOA",
		"type": "RNAV",
		"updated": "03/02/2015"
	},
	{
		"name": "MONIE",
		"latitude": "14-22-11.87 N",
		"longitude": "145-6-46.04 E",
		"state": "N MARIANA ISLANDS",
		"artcc": "ZOA",
		"type": "RP",
		"updated": "UNZ*VORTAC*020.00/59.00"
	},
	{
		"name": "MONOH",
		"latitude": "38-7-30.63 N",
		"longitude": "118-44-49.1 W",
		"state": "NEVADA",
		"artcc": "ZOA",
		"type": "RNAV",
		"updated": "03/02/2015"
	},
	{
		"name": "MONPI",
		"latitude": "21-0-0 N",
		"longitude": "140-36-0 E",
		"state": "OFFSHORE PACIFIC",
		"artcc": "ZOA",
		"type": "RNAV",
		"updated": "06/27/2007"
	},
	{
		"name": "MOONE",
		"latitude": "41-0-0 N",
		"longitude": "120-30-0 W",
		"state": "CALIFORNIA",
		"artcc": "ZOA",
		"type": "RNAV",
		"updated": "07/21/2011"
	},
	{
		"name": "MOONY",
		"latitude": "37-8-18.8 N",
		"longitude": "121-34-19.59 W",
		"state": "CALIFORNIA",
		"artcc": "ZOA",
		"type": "RP",
		"updated": "SNS*VORTAC*346.00"
	},
	{
		"name": "MOOTH",
		"latitude": "36-1-11 N",
		"longitude": "119-59-38.16 W",
		"state": "CALIFORNIA",
		"artcc": "ZOA",
		"type": "MW",
		"updated": "04/19/2018"
	},
	{
		"name": "MOPNE",
		"latitude": "39-11-11.59 N",
		"longitude": "119-42-4.44 W",
		"state": "NEVADA",
		"artcc": "ZOA",
		"type": "RNAV",
		"updated": "07/20/2010"
	},
	{
		"name": "MORAE",
		"latitude": "39-15-24.41 N",
		"longitude": "122-2-56.69 W",
		"state": "CALIFORNIA",
		"artcc": "ZOA",
		"type": "RNAV",
		"updated": "02/07/2018"
	},
	{
		"name": "MORLA",
		"latitude": "36-53-4.65 N",
		"longitude": "119-54-24.87 W",
		"state": "CALIFORNIA",
		"artcc": "ZOA",
		"type": "RP",
		"updated": "CZQ*VORTAC*255.26/4.42"
	},
	{
		"name": "MOTER",
		"latitude": "37-48-0.6 N",
		"longitude": "121-0-30.63 W",
		"state": "CALIFORNIA",
		"artcc": "ZOA",
		"type": "RNAV",
		"updated": "07/20/2011"
	},
	{
		"name": "MOTSE",
		"latitude": "37-45-11.98 N",
		"longitude": "118-30-3.82 W",
		"state": "CALIFORNIA",
		"artcc": "ZOA",
		"type": "RNAV",
		"updated": "07/02/2007"
	},
	{
		"name": "MOVDD",
		"latitude": "37-39-40.88 N",
		"longitude": "121-26-53.53 W",
		"state": "CALIFORNIA",
		"artcc": "ZOA",
		"type": "RNAV",
		"updated": "04/19/2017"
	},
	{
		"name": "MOVER",
		"latitude": "36-51-23.67 N",
		"longitude": "121-53-22.3 W",
		"state": "CALIFORNIA",
		"artcc": "ZOA",
		"type": "RP",
		"updated": "SNS*VORTAC*293.00/18.00"
	},
	{
		"name": "MOZIL",
		"latitude": "37-37-57.3 N",
		"longitude": "118-52-12.03 W",
		"state": "CALIFORNIA",
		"artcc": "ZOA",
		"type": "RNAV",
		"updated": "09/16/2016"
	},
	{
		"name": "MRGAN",
		"latitude": "37-35-40.71 N",
		"longitude": "118-37-12.67 W",
		"state": "CALIFORNIA",
		"artcc": "ZOA",
		"type": "WP",
		"updated": "02/20/2001"
	},
	{
		"name": "MRGGO",
		"latitude": "39-13-20.25 N",
		"longitude": "121-16-43.18 W",
		"state": "CALIFORNIA",
		"artcc": "ZOA",
		"type": "RP",
		"updated": "MYV*VOR/DME*045.56/15.61"
	},
	{
		"name": "MRLET",
		"latitude": "39-7-37.2 N",
		"longitude": "119-49-31.2 W",
		"state": "NEVADA",
		"artcc": "ZOA",
		"type": "RNAV",
		"updated": "03/02/2015"
	},
	{
		"name": "MRRLO",
		"latitude": "38-53-51.17 N",
		"longitude": "122-34-41.64 W",
		"state": "CALIFORNIA",
		"artcc": "ZOA",
		"type": "RNAV",
		"updated": "01/07/2015"
	},
	{
		"name": "MSCAT",
		"latitude": "38-34-0.11 N",
		"longitude": "122-40-18 W",
		"state": "CALIFORNIA",
		"artcc": "ZOA",
		"type": "RNAV",
		"updated": "01/07/2015"
	},
	{
		"name": "MUBIT",
		"latitude": "3-30-0 N",
		"longitude": "164-40-6 E",
		"state": "OFFSHORE PACIFIC",
		"artcc": "ZOA",
		"type": "RP",
		"updated": "05/25/1993"
	},
	{
		"name": "MUBOE",
		"latitude": "37-31-18.58 N",
		"longitude": "118-33-17.48 W",
		"state": "CALIFORNIA",
		"artcc": "ZOA",
		"type": "RNAV",
		"updated": "10/29/2007"
	},
	{
		"name": "MUCGU",
		"latitude": "38-49-43.18 N",
		"longitude": "121-19-27.68 W",
		"state": "CALIFORNIA",
		"artcc": "ZOA",
		"type": "RNAV",
		"updated": "07/06/2010"
	},
	{
		"name": "MUFEL",
		"latitude": "38-59-34.88 N",
		"longitude": "122-54-2.63 W",
		"state": "CALIFORNIA",
		"artcc": "ZOA",
		"type": "RNAV",
		"updated": "07/01/2009"
	},
	{
		"name": "MUFIT",
		"latitude": "39-11-51.28 N",
		"longitude": "118-22-53.32 W",
		"state": "NEVADA",
		"artcc": "ZOA",
		"type": "MR",
		"updated": "NFL*TACAN*117.00/20.00"
	},
	{
		"name": "MUKVY",
		"latitude": "38-48-38.42 N",
		"longitude": "121-34-41.9 W",
		"state": "CALIFORNIA",
		"artcc": "ZOA",
		"type": "RNAV",
		"updated": "10/05/2012"
	},
	{
		"name": "MUNSO",
		"latitude": "36-37-8.84 N",
		"longitude": "121-56-22.14 W",
		"state": "CALIFORNIA",
		"artcc": "ZOA",
		"type": "RP",
		"updated": "MRY*LD*277.75/5.60"
	},
	{
		"name": "MUPNE",
		"latitude": "38-3-8.08 N",
		"longitude": "122-1-21.48 W",
		"state": "CALIFORNIA",
		"artcc": "ZOA",
		"type": "RNAV",
		"updated": "05/11/2017"
	},
	{
		"name": "MUREQ",
		"latitude": "38-29-2.41 N",
		"longitude": "120-50-38.8 W",
		"state": "CALIFORNIA",
		"artcc": "ZOA",
		"type": "RP",
		"updated": "HNW*VOR/DME*180.21/15.10"
	},
	{
		"name": "MVRKK",
		"latitude": "37-44-13.1 N",
		"longitude": "122-27-16.02 W",
		"state": "CALIFORNIA",
		"artcc": "ZOA",
		"type": "RNAV",
		"updated": "01/07/2015"
	},
	{
		"name": "MYBAD",
		"latitude": "40-23-16.23 N",
		"longitude": "118-22-22.96 W",
		"state": "NEVADA",
		"artcc": "ZOA",
		"type": "RNAV",
		"updated": "07/06/2011"
	},
	{
		"name": "MYCAF",
		"latitude": "37-32-46.12 N",
		"longitude": "121-53-58.08 W",
		"state": "CALIFORNIA",
		"artcc": "ZOA",
		"type": "RNAV",
		"updated": "03/02/2015"
	},
	{
		"name": "MYGEL",
		"latitude": "35-52-44.66 N",
		"longitude": "120-35-29.16 W",
		"state": "CALIFORNIA",
		"artcc": "ZOA",
		"type": "RP",
		"updated": "PRB*VORTAC*352.00/12.50"
	},
	{
		"name": "MYHIP",
		"latitude": "37-26-23.69 N",
		"longitude": "121-36-51.51 W",
		"state": "CALIFORNIA",
		"artcc": "ZOA",
		"type": "RNAV",
		"updated": "03/02/2015"
	},
	{
		"name": "MYJAW",
		"latitude": "36-46-26.36 N",
		"longitude": "120-51-30.06 W",
		"state": "CALIFORNIA",
		"artcc": "ZOA",
		"type": "RNAV",
		"updated": "03/09/2018"
	},
	{
		"name": "MYNEE",
		"latitude": "37-28-51.63 N",
		"longitude": "121-41-10.45 W",
		"state": "CALIFORNIA",
		"artcc": "ZOA",
		"type": "RNAV",
		"updated": "03/02/2015"
	},
	{
		"name": "MYNRR",
		"latitude": "38-12-54.91 N",
		"longitude": "121-12-43.62 W",
		"state": "CALIFORNIA",
		"artcc": "ZOA",
		"type": "RNAV",
		"updated": "03/09/2015"
	},
	{
		"name": "MYRIB",
		"latitude": "37-22-33.92 N",
		"longitude": "121-32-29.08 W",
		"state": "CALIFORNIA",
		"artcc": "ZOA",
		"type": "RNAV",
		"updated": "03/02/2015"
	},
	{
		"name": "MYSHN",
		"latitude": "37-31-53.46 N",
		"longitude": "121-46-29.3 W",
		"state": "CALIFORNIA",
		"artcc": "ZOA",
		"type": "RNAV",
		"updated": "03/02/2015"
	},
	{
		"name": "MYYAA",
		"latitude": "39-47-4.09 N",
		"longitude": "119-17-10.52 W",
		"state": "NEVADA",
		"artcc": "ZOA",
		"type": "RNAV",
		"updated": "07/06/2011"
	}
]
