	{
		"name": "NACKI",
		"latitude": "38-43-47.73 N",
		"longitude": "123-5-52.93 W",
		"state": "CALIFORNIA",
		"artcc": "ZOA",
		"type": "RNAV",
		"updated": "04/21/2017",
	},
	{
		"name": "NADIE",
		"latitude": "39-5-16.43 N",
		"longitude": "122-54-5 W",
		"state": "CALIFORNIA",
		"artcc": "ZOA",
		"type": "RNAV",
		"updated": "07/05/2009",
	},
	{
		"name": "NAGVY",
		"latitude": "37-38-8.42 N",
		"longitude": "121-55-50.68 W",
		"state": "CALIFORNIA",
		"artcc": "ZOA",
		"type": "RP",
		"updated": "OAK*VOR/DME*/14.96",
	},
	{
		"name": "NAIRA",
		"latitude": "6-59-8.6 N",
		"longitude": "158-4-13.01 E",
		"state": "",
		"artcc": "ZOA",
		"type": "RNAV",
		"updated": "12/30/2015",
	},
	{
		"name": "NAKLE",
		"latitude": "36-26-14.42 N",
		"longitude": "120-0-3.74 W",
		"state": "CALIFORNIA",
		"artcc": "ZOA",
		"type": "MW",
		"updated": "04/19/2018",
	},
	{
		"name": "NAKPT",
		"latitude": "39-3-38.38 N",
		"longitude": "122-19-45.43 W",
		"state": "CALIFORNIA",
		"artcc": "ZOA",
		"type": "RNAV",
		"updated": "04/21/2017",
	},
	{
		"name": "NALLS",
		"latitude": "36-50-25.94 N",
		"longitude": "121-51-56.34 W",
		"state": "CALIFORNIA",
		"artcc": "ZOA",
		"type": "RP",
		"updated": "SNS*VORTAC*293.00/16.50",
	},
	{
		"name": "NAMIE",
		"latitude": "8-59-28 N",
		"longitude": "176-53-5 W",
		"state": "OFFSHORE PACIFIC",
		"artcc": "ZOA",
		"type": "RNAV",
		"updated": "02/11/2008",
	},
	{
		"name": "NAMOE",
		"latitude": "38-58-12.25 N",
		"longitude": "121-27-26.8 W",
		"state": "CALIFORNIA",
		"artcc": "ZOA",
		"type": "RNAV",
		"updated": "11/19/2012",
	},
	{
		"name": "NAPBI",
		"latitude": "39-40-9.1 N",
		"longitude": "119-59-35.95 W",
		"state": "NEVADA",
		"artcc": "ZOA",
		"type": "RNAV",
		"updated": "05/16/2006",
	},
	{
		"name": "NAPCI",
		"latitude": "36-21-16.14 N",
		"longitude": "119-39-10.64 W",
		"state": "CALIFORNIA",
		"artcc": "ZOA",
		"type": "RNAV",
		"updated": "06/12/2010",
	},
	{
		"name": "NAPYI",
		"latitude": "37-31-23.95 N",
		"longitude": "121-12-30.75 W",
		"state": "CALIFORNIA",
		"artcc": "ZOA",
		"type": "RNAV",
		"updated": "03/30/2017",
	},
	{
		"name": "NARWL",
		"latitude": "37-16-29.21 N",
		"longitude": "122-4-45.46 W",
		"state": "CALIFORNIA",
		"artcc": "ZOA",
		"type": "RNAV",
		"updated": "12/07/2017",
	},
	{
		"name": "NATIC",
		"latitude": "38-52-17.39 N",
		"longitude": "123-14-29.49 W",
		"state": "CALIFORNIA",
		"artcc": "ZOA",
		"type": "RP",
		"updated": "ENI*VORTAC*156.00/11.00",
	},
	{
		"name": "NATIE",
		"latitude": "19-52-29 N",
		"longitude": "173-18-50 E",
		"state": "OFFSHORE PACIFIC",
		"artcc": "ZOA",
		"type": "RNAV",
		"updated": "03/14/2011",
	},
	{
		"name": "NATSS",
		"latitude": "16-35-0 N",
		"longitude": "141-57-0 E",
		"state": "OFFSHORE PACIFIC",
		"artcc": "ZOA",
		"type": "RNAV",
		"updated": "06/27/2007",
	},
	{
		"name": "NATTE",
		"latitude": "41-53-35 N",
		"longitude": "126-49-15 W",
		"state": "OFFSHORE PACIFIC",
		"artcc": "ZOA",
		"type": "RP",
		"updated": "08/27/2003",
	},
	{
		"name": "NAVRE",
		"latitude": "36-33-22.55 N",
		"longitude": "120-13-14.79 W",
		"state": "CALIFORNIA",
		"artcc": "ZOA",
		"type": "MW",
		"updated": "04/19/2018",
	},
	{
		"name": "NAYIR",
		"latitude": "38-25-10.47 N",
		"longitude": "122-52-48.94 W",
		"state": "CALIFORNIA",
		"artcc": "ZOA",
		"type": "RNAV",
		"updated": "12/30/2013",
	},
	{
		"name": "NAZFO",
		"latitude": "37-17-43.79 N",
		"longitude": "121-47-1.5 W",
		"state": "CALIFORNIA",
		"artcc": "ZOA",
		"type": "RNAV",
		"updated": "06/14/2010",
	},
	{
		"name": "NEAPO",
		"latitude": "39-39-37.41 N",
		"longitude": "123-27-50.65 W",
		"state": "CALIFORNIA",
		"artcc": "ZOA",
		"type": "RNAV",
		"updated": "09/13/2010",
	},
	{
		"name": "NEBBY",
		"latitude": "37-33-13.79 N",
		"longitude": "120-28-39.47 W",
		"state": "CALIFORNIA",
		"artcc": "ZOA",
		"type": "RP",
		"updated": "LIN*VOR/DME*124.12/40.00",
	},
	{
		"name": "NEBSE",
		"latitude": "37-20-23.45 N",
		"longitude": "118-5-47.87 W",
		"state": "CALIFORNIA",
		"artcc": "ZOA",
		"type": "RNAV",
		"updated": "10/29/2007",
	},
	{
		"name": "NECIN",
		"latitude": "39-47-25.99 N",
		"longitude": "120-8-32.63 W",
		"state": "CALIFORNIA",
		"artcc": "ZOA",
		"type": "RNAV",
		"updated": "11/19/2004",
	},
	{
		"name": "NEFDE",
		"latitude": "35-53-26.1 N",
		"longitude": "120-18-56.71 W",
		"state": "CALIFORNIA",
		"artcc": "ZOA",
		"type": "RP",
		"updated": "AVE*VOR/DME*295.66/22.00",
	},
	{
		"name": "NEKIE",
		"latitude": "37-44-1.17 N",
		"longitude": "122-15-45.08 W",
		"state": "CALIFORNIA",
		"artcc": "ZOA",
		"type": "RNAV",
		"updated": "05/07/2002",
	},
	{
		"name": "NEPIC",
		"latitude": "37-35-9.22 N",
		"longitude": "122-17-48.78 W",
		"state": "CALIFORNIA",
		"artcc": "ZOA",
		"type": "RP",
		"updated": "SFO*LD*103.81/5.30",
	},
	{
		"name": "NEVSE",
		"latitude": "37-17-30.06 N",
		"longitude": "121-50-52.1 W",
		"state": "CALIFORNIA",
		"artcc": "ZOA",
		"type": "RP",
		"updated": "SJC*VOR/DME*121.00/6.80",
	},
	{
		"name": "NEWTS",
		"latitude": "36-6-0.33 N",
		"longitude": "119-49-56.95 W",
		"state": "CALIFORNIA",
		"artcc": "ZOA",
		"type": "MR",
		"updated": "NLC*TACAN*140.00/16.00",
	},
	{
		"name": "NGGET",
		"latitude": "38-28-29.24 N",
		"longitude": "121-32-29.81 W",
		"state": "CALIFORNIA",
		"artcc": "ZOA",
		"type": "RNAV",
		"updated": "03/09/2015",
	},
	{
		"name": "NGUEN",
		"latitude": "18-51-23 N",
		"longitude": "166-41-51 E",
		"state": "OFFSHORE PACIFIC",
		"artcc": "ZOA",
		"type": "RNAV",
		"updated": "05/06/2011",
	},
	{
		"name": "NIBUY",
		"latitude": "37-25-23.3 N",
		"longitude": "122-1-42.69 W",
		"state": "CALIFORNIA",
		"artcc": "ZOA",
		"type": "RNAV",
		"updated": "07/16/2015",
	},
	{
		"name": "NICER",
		"latitude": "39-43-13.88 N",
		"longitude": "119-29-50.56 W",
		"state": "NEVADA",
		"artcc": "ZOA",
		"type": "RP",
		"updated": "HZN*VORTAC*281.00",
	},
	{
		"name": "NIECE",
		"latitude": "39-5-50.68 N",
		"longitude": "122-52-39.88 W",
		"state": "CALIFORNIA",
		"artcc": "ZOA",
		"type": "RP",
		"updated": "PYE*VOR/DME*342.56/61.00",
	},
	{
		"name": "NIITE",
		"latitude": "37-50-42.87 N",
		"longitude": "122-23-12.73 W",
		"state": "CALIFORNIA",
		"artcc": "ZOA",
		"type": "RNAV",
		"updated": "09/25/2014",
	},
	{
		"name": "NIKBY",
		"latitude": "39-13-34.78 N",
		"longitude": "123-29-56.06 W",
		"state": "CALIFORNIA",
		"artcc": "ZOA",
		"type": "RNAV",
		"updated": "09/13/2010",
	},
	{
		"name": "NIKDE",
		"latitude": "37-37-14.04 N",
		"longitude": "122-33-47.98 W",
		"state": "CALIFORNIA",
		"artcc": "ZOA",
		"type": "RNAV",
		"updated": "08/10/2010",
	},
	{
		"name": "NIKKT",
		"latitude": "37-5-53.11 N",
		"longitude": "121-7-36.15 W",
		"state": "CALIFORNIA",
		"artcc": "ZOA",
		"type": "RNAV",
		"updated": "02/17/2015",
	},
	{
		"name": "NIKOL",
		"latitude": "37-58-2.88 N",
		"longitude": "118-40-57.19 W",
		"state": "CALIFORNIA",
		"artcc": "ZOA",
		"type": "RP",
		"updated": "OAL*VORTAC*250.44/43.32",
	},
	{
		"name": "NIPFO",
		"latitude": "39-31-0.98 N",
		"longitude": "123-50-33.61 W",
		"state": "CALIFORNIA",
		"artcc": "ZOA",
		"type": "RNAV",
		"updated": "02/09/2018",
	},
	{
		"name": "NIPME",
		"latitude": "39-10-50.11 N",
		"longitude": "119-37-12.28 W",
		"state": "NEVADA",
		"artcc": "ZOA",
		"type": "RNAV",
		"updated": "08/11/2008",
	},
	{
		"name": "NIRFY",
		"latitude": "36-14-4.03 N",
		"longitude": "119-23-20.71 W",
		"state": "CALIFORNIA",
		"artcc": "ZOA",
		"type": "RNAV",
		"updated": "06/18/2010",
	},
	{
		"name": "NIRPY",
		"latitude": "37-52-47.44 N",
		"longitude": "122-28-58.15 W",
		"state": "CALIFORNIA",
		"artcc": "ZOA",
		"type": "WP",
		"updated": "11/02/1998",
	},
	{
		"name": "NIRYI",
		"latitude": "37-30-30.36 N",
		"longitude": "122-5-43.92 W",
		"state": "CALIFORNIA",
		"artcc": "ZOA",
		"type": "RP",
		"updated": "NUQ*TACAN*/4.90",
	},
	{
		"name": "NITUC",
		"latitude": "38-43-47.95 N",
		"longitude": "123-33-39.12 W",
		"state": "CALIFORNIA",
		"artcc": "ZOA",
		"type": "RNAV",
		"updated": "10/21/2014",
	},
	{
		"name": "NIVEE",
		"latitude": "37-0-0.93 N",
		"longitude": "119-41-58.68 W",
		"state": "CALIFORNIA",
		"artcc": "ZOA",
		"type": "RP",
		"updated": "HYP*VOR/DME*096.12",
	},
	{
		"name": "NIVIW",
		"latitude": "38-18-41.96 N",
		"longitude": "122-21-5.8 W",
		"state": "CALIFORNIA",
		"artcc": "ZOA",
		"type": "RNAV",
		"updated": "11/14/2014",
	},
	{
		"name": "NIVZY",
		"latitude": "9-45-36.2 N",
		"longitude": "138-31-16.35 E",
		"state": "",
		"artcc": "ZOA",
		"type": "RP",
		"updated": "YP*NDB/DME*057.71/30.00",
	},
	{
		"name": "NIWBA",
		"latitude": "38-55-0.57 N",
		"longitude": "122-36-41.31 W",
		"state": "CALIFORNIA",
		"artcc": "ZOA",
		"type": "RNAV",
		"updated": "11/14/2014",
	},
	{
		"name": "NIXAM",
		"latitude": "3-30-0 N",
		"longitude": "176-11-36 E",
		"state": "OFFSHORE PACIFIC",
		"artcc": "ZOA",
		"type": "RP",
		"updated": "04/29/1987",
	},
	{
		"name": "NIXDE",
		"latitude": "37-40-57.58 N",
		"longitude": "122-4-29.39 W",
		"state": "CALIFORNIA",
		"artcc": "ZOA",
		"type": "RP",
		"updated": "OAK*VOR/DME*/7.54",
	},
	{
		"name": "NIXEE",
		"latitude": "19-24-54 N",
		"longitude": "162-23-1 W",
		"state": "OFFSHORE PACIFIC",
		"artcc": "ZOA",
		"type": "RNAV",
		"updated": "02/11/2008",
	},
	{
		"name": "NIYIL",
		"latitude": "38-47-36.56 N",
		"longitude": "120-52-45.77 W",
		"state": "CALIFORNIA",
		"artcc": "ZOA",
		"type": "CN",
		"updated": "08/06/2010",
	},
	{
		"name": "NOCHO",
		"latitude": "39-4-53.76 N",
		"longitude": "122-51-19.66 W",
		"state": "CALIFORNIA",
		"artcc": "ZOA",
		"type": "RNAV",
		"updated": "10/21/2014",
	},
	{
		"name": "NOCIP",
		"latitude": "37-21-49.92 N",
		"longitude": "121-49-13.27 W",
		"state": "CALIFORNIA",
		"artcc": "ZOA",
		"type": "RP",
		"updated": "OAK*VOR/DME*121.31/29.00",
	},
	{
		"name": "NOFKE",
		"latitude": "7-4-48.22 N",
		"longitude": "171-2-9.55 E",
		"state": "",
		"artcc": "ZOA",
		"type": "RNAV",
		"updated": "08/27/2003",
	},
	{
		"name": "NOFTE",
		"latitude": "38-30-27.58 N",
		"longitude": "122-26-37.02 W",
		"state": "CALIFORNIA",
		"artcc": "ZOA",
		"type": "RNAV",
		"updated": "12/23/2013",
	},
	{
		"name": "NOHIT",
		"latitude": "37-8-36 N",
		"longitude": "119-23-2 W",
		"state": "CALIFORNIA",
		"artcc": "ZOA",
		"type": "RNAV",
		"updated": "10/06/2015",
	},
	{
		"name": "NOKVE",
		"latitude": "39-19-45.14 N",
		"longitude": "123-47-41.99 W",
		"state": "CALIFORNIA",
		"artcc": "ZOA",
		"type": "RNAV",
		"updated": "05/04/2009",
	},
	{
		"name": "NOMAE",
		"latitude": "37-43-33.09 N",
		"longitude": "120-42-9.48 W",
		"state": "CALIFORNIA",
		"artcc": "ZOA",
		"type": "RNAV",
		"updated": "07/20/2011",
	},
	{
		"name": "NONEY",
		"latitude": "19-14-19.42 N",
		"longitude": "166-51-27.28 E",
		"state": "OFFSHORE PACIFIC",
		"artcc": "ZOA",
		"type": "RNAV",
		"updated": "11/03/2015",
	},
	{
		"name": "NORCL",
		"latitude": "37-31-2.66 N",
		"longitude": "121-43-10.6 W",
		"state": "CALIFORNIA",
		"artcc": "ZOA",
		"type": "RNAV",
		"updated": "04/21/2017",
	},
	{
		"name": "NORDE",
		"latitude": "39-54-26.97 N",
		"longitude": "121-57-1.92 W",
		"state": "CALIFORNIA",
		"artcc": "ZOA",
		"type": "RP",
		"updated": "CIC*VOR/DME*309.94/8.52",
	},
	{
		"name": "NORMM",
		"latitude": "37-43-12.75 N",
		"longitude": "122-36-47.42 W",
		"state": "CALIFORNIA",
		"artcc": "ZOA",
		"type": "RP",
		"updated": "SFO*VOR/DME*280.98/12.90",
	},
	{
		"name": "NOTIC",
		"latitude": "40-31-24.22 N",
		"longitude": "120-38-45.35 W",
		"state": "CALIFORNIA",
		"artcc": "ZOA",
		"type": "RNAV",
		"updated": "08/16/2011",
	},
	{
		"name": "NOVIC",
		"latitude": "36-8-54.43 N",
		"longitude": "119-30-54.47 W",
		"state": "CALIFORNIA",
		"artcc": "ZOA",
		"type": "RNAV",
		"updated": "06/12/2010",
	},
	{
		"name": "NOXLU",
		"latitude": "37-49-48.2 N",
		"longitude": "122-19-18.99 W",
		"state": "CALIFORNIA",
		"artcc": "ZOA",
		"type": "RNAV",
		"updated": "02/09/2018",
	},
	{
		"name": "NOYES",
		"latitude": "17-48-18 N",
		"longitude": "156-4-5 W",
		"state": "OFFSHORE PACIFIC",
		"artcc": "ZOA",
		"type": "RNAV",
		"updated": "02/21/2008",
	},
	{
		"name": "NRRLI",
		"latitude": "36-29-44.16 N",
		"longitude": "121-41-57.84 W",
		"state": "CALIFORNIA",
		"artcc": "ZOA",
		"type": "RNAV",
		"updated": "01/07/2015",
	},
	{
		"name": "NTELL",
		"latitude": "36-53-58.99 N",
		"longitude": "119-53-22.21 W",
		"state": "CALIFORNIA",
		"artcc": "ZOA",
		"type": "RNAV",
		"updated": "04/02/2018",
	},
	{
		"name": "NUBIC",
		"latitude": "37-49-12.25 N",
		"longitude": "118-30-6.44 W",
		"state": "CALIFORNIA",
		"artcc": "ZOA",
		"type": "RNAV",
		"updated": "07/02/2007",
	},
	{
		"name": "NUDGE",
		"latitude": "51-0-0 N",
		"longitude": "134-24-2 W",
		"state": "OFFSHORE PACIFIC",
		"artcc": "ZOA",
		"type": "WP",
		"updated": "09/22/2005",
	},
	{
		"name": "NUFKY",
		"latitude": "38-27-3.76 N",
		"longitude": "121-53-57.71 W",
		"state": "CALIFORNIA",
		"artcc": "ZOA",
		"type": "RNAV",
		"updated": "07/12/2017",
	},
	{
		"name": "NUGWO",
		"latitude": "7-9-28.5 N",
		"longitude": "171-30-54.79 E",
		"state": "",
		"artcc": "ZOA",
		"type": "RNAV",
		"updated": "07/07/2017",
	},
	{
		"name": "NUJCO",
		"latitude": "14-28-9.5 N",
		"longitude": "145-31-8.26 E",
		"state": "",
		"artcc": "ZOA",
		"type": "RP",
		"updated": "UNZ*VORTAC*035.00/76.00",
	},
	{
		"name": "NUPUZ",
		"latitude": "37-6-39.79 N",
		"longitude": "120-33-32.03 W",
		"state": "CALIFORNIA",
		"artcc": "ZOA",
		"type": "RNAV",
		"updated": "12/08/2008",
	},
	{
		"name": "NURAY",
		"latitude": "36-35-44.75 N",
		"longitude": "119-42-5.28 W",
		"state": "CALIFORNIA",
		"artcc": "ZOA",
		"type": "RNAV",
		"updated": "06/07/2017",
	},
	{
		"name": "NUTTO",
		"latitude": "14-18-56 N",
		"longitude": "169-47-55 W",
		"state": "OFFSHORE PACIFIC",
		"artcc": "ZOA",
		"type": "RNAV",
		"updated": "02/11/2008",
	},
	{
		"name": "NUWXO",
		"latitude": "39-26-38.84 N",
		"longitude": "118-43-17.21 W",
		"state": "NEVADA",
		"artcc": "ZOA",
		"type": "MR",
		"updated": "NFL*TACAN*321.00/1.80",
	},
