	{
		"name": "OAKES",
		"latitude": "37-52-52.93 N",
		"longitude": "120-21-2.5 W",
		"state": "CALIFORNIA",
		"artcc": "ZOA",
		"type": "RNAV",
		"updated": "03/02/2015",
	},
	{
		"name": "OAKEY",
		"latitude": "38-3-23.83 N",
		"longitude": "121-40-18.59 W",
		"state": "CALIFORNIA",
		"artcc": "ZOA",
		"type": "RP",
		"updated": "LIN*VOR/DME*251.26/31.67",
	},
	{
		"name": "OATSS",
		"latitude": "16-45-0 N",
		"longitude": "142-10-0 E",
		"state": "OFFSHORE PACIFIC",
		"artcc": "ZOA",
		"type": "RNAV",
		"updated": "06/27/2007",
	},
	{
		"name": "OBAVE",
		"latitude": "39-10-16.41 N",
		"longitude": "119-58-40.31 W",
		"state": "CALIFORNIA",
		"artcc": "ZOA",
		"type": "WP",
		"updated": "11/02/1998",
	},
	{
		"name": "OBGEE",
		"latitude": "39-58-1.73 N",
		"longitude": "122-22-9.84 W",
		"state": "CALIFORNIA",
		"artcc": "ZOA",
		"type": "RP",
		"updated": "RBL*VORTAC*199.86/10.00",
	},
	{
		"name": "OBIVE",
		"latitude": "39-49-13.28 N",
		"longitude": "119-46-6.2 W",
		"state": "NEVADA",
		"artcc": "ZOA",
		"type": "RNAV",
		"updated": "08/07/2008",
	},
	{
		"name": "OBOTY",
		"latitude": "5-21-31.99 N",
		"longitude": "162-47-23.78 E",
		"state": "",
		"artcc": "ZOA",
		"type": "RP",
		"updated": "UKS*NDB/DME*264.00/10.00",
	},
	{
		"name": "OBSOE",
		"latitude": "8-51-26.22 N",
		"longitude": "167-53-32.9 E",
		"state": "",
		"artcc": "ZOA",
		"type": "MW",
		"updated": "11/18/2008",
	},
	{
		"name": "OCANO",
		"latitude": "5-16-40.47 N",
		"longitude": "162-47-12.91 E",
		"state": "",
		"artcc": "ZOA",
		"type": "RNAV",
		"updated": "09/04/2003",
	},
	{
		"name": "OCAVI",
		"latitude": "36-48-24.44 N",
		"longitude": "119-32-41.55 W",
		"state": "CALIFORNIA",
		"artcc": "ZOA",
		"type": "RNAV",
		"updated": "10/05/2012",
	},
	{
		"name": "OCERI",
		"latitude": "39-11-19.31 N",
		"longitude": "118-29-36.2 W",
		"state": "NEVADA",
		"artcc": "ZOA",
		"type": "MW",
		"updated": "11/17/2014",
	},
	{
		"name": "OCOVA",
		"latitude": "38-16-7.81 N",
		"longitude": "122-5-52.67 W",
		"state": "CALIFORNIA",
		"artcc": "ZOA",
		"type": "RNAV",
		"updated": "11/20/2012",
	},
	{
		"name": "ODLEE",
		"latitude": "39-9-16.79 N",
		"longitude": "119-31-53.93 W",
		"state": "NEVADA",
		"artcc": "ZOA",
		"type": "RNAV",
		"updated": "06/29/2011",
	},
	{
		"name": "ODOGE",
		"latitude": "36-51-43.64 N",
		"longitude": "119-39-27.32 W",
		"state": "CALIFORNIA",
		"artcc": "ZOA",
		"type": "RNAV",
		"updated": "04/26/2018",
	},
	{
		"name": "OENNS",
		"latitude": "37-30-48.06 N",
		"longitude": "118-27-37.94 W",
		"state": "CALIFORNIA",
		"artcc": "ZOA",
		"type": "RNAV",
		"updated": "12/23/2014",
	},
	{
		"name": "OGEVE",
		"latitude": "7-1-20.79 N",
		"longitude": "171-5-55.19 E",
		"state": "",
		"artcc": "ZOA",
		"type": "RNAV",
		"updated": "07/11/2017",
	},
	{
		"name": "OGISE",
		"latitude": "37-40-50.55 N",
		"longitude": "118-40-9.61 W",
		"state": "CALIFORNIA",
		"artcc": "ZOA",
		"type": "RNAV",
		"updated": "12/23/2014",
	},
	{
		"name": "OGLUY",
		"latitude": "39-13-24.11 N",
		"longitude": "121-1-16.8 W",
		"state": "CALIFORNIA",
		"artcc": "ZOA",
		"type": "RNAV",
		"updated": "11/02/2016",
	},
	{
		"name": "OHDEE",
		"latitude": "38-51-27.77 N",
		"longitude": "120-45-58.85 W",
		"state": "CALIFORNIA",
		"artcc": "ZOA",
		"type": "RP",
		"updated": "SWR*VOR/DME*214.38/30.22",
	},
	{
		"name": "OHOLI",
		"latitude": "39-26-35.26 N",
		"longitude": "119-11-27.81 W",
		"state": "NEVADA",
		"artcc": "ZOA",
		"type": "RP",
		"updated": "HZN*VORTAC*227.00/10.00",
	},
	{
		"name": "OHOSO",
		"latitude": "39-31-18.05 N",
		"longitude": "119-12-46.64 W",
		"state": "NEVADA",
		"artcc": "ZOA",
		"type": "RP",
		"updated": "HZN*VORTAC*254.88/10.00",
	},
	{
		"name": "OHUDA",
		"latitude": "7-21-54.55 N",
		"longitude": "134-38-14.61 E",
		"state": "",
		"artcc": "ZOA",
		"type": "RNAV",
		"updated": "03/07/2003",
	},
	{
		"name": "OHYUZ",
		"latitude": "36-20-11.81 N",
		"longitude": "121-27-39.05 W",
		"state": "CALIFORNIA",
		"artcc": "ZOA",
		"type": "RNAV",
		"updated": "07/06/2009",
	},
	{
		"name": "OKEEF",
		"latitude": "36-3-54.01 N",
		"longitude": "120-33-32.99 W",
		"state": "CALIFORNIA",
		"artcc": "ZOA",
		"type": "RP",
		"updated": "ROM*VOR*115.26",
	},
	{
		"name": "OKIBE",
		"latitude": "13-36-30.99 N",
		"longitude": "145-1-49.01 E",
		"state": "GUAM",
		"artcc": "ZOA",
		"type": "MR",
		"updated": "UAM*TACAN*076.00/5.00",
	},
	{
		"name": "OKITE",
		"latitude": "39-33-40.11 N",
		"longitude": "119-46-8.73 W",
		"state": "NEVADA",
		"artcc": "ZOA",
		"type": "RNAV",
		"updated": "05/25/2011",
	},
	{
		"name": "OKIVY",
		"latitude": "37-31-42.15 N",
		"longitude": "121-50-17.17 W",
		"state": "CALIFORNIA",
		"artcc": "ZOA",
		"type": "RNAV",
		"updated": "10/05/2012",
	},
	{
		"name": "OKNIE",
		"latitude": "40-26-28.2 N",
		"longitude": "121-43-10.15 W",
		"state": "CALIFORNIA",
		"artcc": "ZOA",
		"type": "RNAV",
		"updated": "04/12/2018",
	},
	{
		"name": "OKOLE",
		"latitude": "6-4-0 N",
		"longitude": "150-31-0 E",
		"state": "OFFSHORE PACIFIC",
		"artcc": "ZOA",
		"type": "WP",
		"updated": "11/05/1997",
	},
	{
		"name": "OKUGE",
		"latitude": "39-35-13.47 N",
		"longitude": "119-23-7.3 W",
		"state": "NEVADA",
		"artcc": "ZOA",
		"type": "MR",
		"updated": "FMG*VORTAC*059.00/13.00",
	},
	{
		"name": "OKUPE",
		"latitude": "36-34-2.18 N",
		"longitude": "121-44-28.95 W",
		"state": "CALIFORNIA",
		"artcc": "ZOA",
		"type": "RNAV",
		"updated": "03/13/2015",
	},
	{
		"name": "OLBIE",
		"latitude": "7-16-0 N",
		"longitude": "130-0-0 E",
		"state": "OFFSHORE PACIFIC",
		"artcc": "ZOA",
		"type": "RNAV",
		"updated": "06/27/2007",
	},
	{
		"name": "OLECU",
		"latitude": "36-13-15.72 N",
		"longitude": "121-6-44.56 W",
		"state": "CALIFORNIA",
		"artcc": "ZOA",
		"type": "RNAV",
		"updated": "01/06/2010",
	},
	{
		"name": "OLGEE",
		"latitude": "9-29-37.3 N",
		"longitude": "138-3-59.87 E",
		"state": "",
		"artcc": "ZOA",
		"type": "RP",
		"updated": "YP*NDB/DME*254.12/1.32",
	},
	{
		"name": "OLGIS",
		"latitude": "10-0-0 N",
		"longitude": "160-56-6 E",
		"state": "OFFSHORE PACIFIC",
		"artcc": "ZOA",
		"type": "RP",
		"updated": "04/21/1995",
	},
	{
		"name": "OLIPH",
		"latitude": "38-16-14.39 N",
		"longitude": "121-14-31.18 W",
		"state": "CALIFORNIA",
		"artcc": "ZOA",
		"type": "RNAV",
		"updated": "04/21/2017",
	},
	{
		"name": "OLMIE",
		"latitude": "36-41-48 N",
		"longitude": "121-52-8.4 W",
		"state": "CALIFORNIA",
		"artcc": "ZOA",
		"type": "RP",
		"updated": "SNS*VORTAC*261.80/12.98",
	},
	{
		"name": "OLUDE",
		"latitude": "37-22-41.4 N",
		"longitude": "122-5-36.95 W",
		"state": "CALIFORNIA",
		"artcc": "ZOA",
		"type": "RNAV",
		"updated": "11/14/2016",
	},
	{
		"name": "OLYMM",
		"latitude": "37-42-57.7 N",
		"longitude": "122-40-21.68 W",
		"state": "CALIFORNIA",
		"artcc": "ZOA",
		"type": "RP",
		"updated": "SFO*VOR/DME*275.21/15.37",
	},
	{
		"name": "OMEGA",
		"latitude": "36-15-29.62 N",
		"longitude": "119-0-10.98 W",
		"state": "CALIFORNIA",
		"artcc": "ZOA",
		"type": "MR",
		"updated": "NLC*TACAN*080.00/47.00",
	},
	{
		"name": "OMLET",
		"latitude": "21-0-0 N",
		"longitude": "142-59-24 E",
		"state": "OFFSHORE PACIFIC",
		"artcc": "ZOA",
		"type": "RP",
		"updated": "05/25/1993",
	},
	{
		"name": "OMOCO",
		"latitude": "9-33-14.99 N",
		"longitude": "138-15-1.89 E",
		"state": "",
		"artcc": "ZOA",
		"type": "RNAV",
		"updated": "08/28/2003",
	},
	{
		"name": "OMSEE",
		"latitude": "37-26-22.55 N",
		"longitude": "122-0-39.98 W",
		"state": "CALIFORNIA",
		"artcc": "ZOA",
		"type": "RNAV",
		"updated": "01/28/2015",
	},
	{
		"name": "OMWAP",
		"latitude": "37-41-30.01 N",
		"longitude": "121-11-26.63 W",
		"state": "CALIFORNIA",
		"artcc": "ZOA",
		"type": "RNAV",
		"updated": "03/30/2017",
	},
	{
		"name": "ONAFA",
		"latitude": "9-21-50.88 N",
		"longitude": "137-56-27.91 E",
		"state": "",
		"artcc": "ZOA",
		"type": "WP",
		"updated": "11/02/1998",
	},
	{
		"name": "ONSUW",
		"latitude": "14-10-50.47 N",
		"longitude": "145-9-27.86 E",
		"state": "N MARIANA ISLANDS",
		"artcc": "ZOA",
		"type": "RNAV",
		"updated": "01/05/2012",
	},
	{
		"name": "OOLEY",
		"latitude": "39-34-4.51 N",
		"longitude": "123-27-20.59 W",
		"state": "CALIFORNIA",
		"artcc": "ZOA",
		"type": "RNAV",
		"updated": "02/13/2002",
	},
	{
		"name": "OOMEN",
		"latitude": "37-28-36.76 N",
		"longitude": "121-56-0.8 W",
		"state": "CALIFORNIA",
		"artcc": "ZOA",
		"type": "RP",
		"updated": "SFO*VOR/DME*095.00/22.68",
	},
	{
		"name": "OOWEN",
		"latitude": "37-42-25.17 N",
		"longitude": "121-16-29.21 W",
		"state": "CALIFORNIA",
		"artcc": "ZOA",
		"type": "RNAV",
		"updated": "09/30/2017",
	},
	{
		"name": "OPBUL",
		"latitude": "14-10-17.23 N",
		"longitude": "145-20-3.63 E",
		"state": "N MARIANA ISLANDS",
		"artcc": "ZOA",
		"type": "RNAV",
		"updated": "01/05/2012",
	},
	{
		"name": "OPLIE",
		"latitude": "37-46-54.62 N",
		"longitude": "122-23-26.29 W",
		"state": "CALIFORNIA",
		"artcc": "ZOA",
		"type": "RNAV",
		"updated": "08/10/2010",
	},
	{
		"name": "OPOJI",
		"latitude": "39-28-44.76 N",
		"longitude": "120-4-20.58 W",
		"state": "CALIFORNIA",
		"artcc": "ZOA",
		"type": "RNAV",
		"updated": "10/20/2014",
	},
	{
		"name": "OPOLY",
		"latitude": "8-46-20.39 N",
		"longitude": "167-54-4.01 E",
		"state": "OFFSHORE PACIFIC",
		"artcc": "ZOA",
		"type": "MW",
		"updated": "08/06/1997",
	},
	{
		"name": "OQIKO",
		"latitude": "39-40-51.85 N",
		"longitude": "119-52-47.26 W",
		"state": "NEVADA",
		"artcc": "ZOA",
		"type": "RNAV",
		"updated": "05/25/2011",
	},
	{
		"name": "ORANG",
		"latitude": "37-59-0.43 N",
		"longitude": "121-15-50.95 W",
		"state": "CALIFORNIA",
		"artcc": "ZOA",
		"type": "RP",
		"updated": "LIN*VOR/DME*229.20",
	},
	{
		"name": "OREEO",
		"latitude": "7-26-53 N",
		"longitude": "170-28-9 E",
		"state": "OFFSHORE PACIFIC",
		"artcc": "ZOA",
		"type": "RNAV",
		"updated": "04/09/2013",
	},
	{
		"name": "ORIBY",
		"latitude": "38-17-54.32 N",
		"longitude": "122-38-44.61 W",
		"state": "CALIFORNIA",
		"artcc": "ZOA",
		"type": "WP",
		"updated": "11/02/1998",
	},
	{
		"name": "ORNAI",
		"latitude": "50-0-0 N",
		"longitude": "133-23-51 W",
		"state": "OFFSHORE PACIFIC",
		"artcc": "ZOA",
		"type": "WP",
		"updated": "09/22/2005",
	},
	{
		"name": "ORRCA",
		"latitude": "38-26-37.17 N",
		"longitude": "121-33-5.84 W",
		"state": "CALIFORNIA",
		"artcc": "ZOA",
		"type": "RNAV",
		"updated": "09/05/2017",
	},
	{
		"name": "ORUKE",
		"latitude": "39-6-39.56 N",
		"longitude": "119-52-38.51 W",
		"state": "NEVADA",
		"artcc": "ZOA",
		"type": "RNAV",
		"updated": "08/07/2008",
	},
	{
		"name": "ORYAN",
		"latitude": "37-36-17.72 N",
		"longitude": "122-20-11.8 W",
		"state": "CALIFORNIA",
		"artcc": "ZOA",
		"type": "RNAV",
		"updated": "03/31/2015",
	},
	{
		"name": "OSACU",
		"latitude": "39-38-20.4 N",
		"longitude": "119-10-16.2 W",
		"state": "NEVADA",
		"artcc": "ZOA",
		"type": "CN",
		"updated": "10/21/2002",
	},
	{
		"name": "OSAVE",
		"latitude": "38-43-48.8 N",
		"longitude": "121-34-46.82 W",
		"state": "CALIFORNIA",
		"artcc": "ZOA",
		"type": "RNAV",
		"updated": "03/24/2015",
	},
	{
		"name": "OSVEE",
		"latitude": "38-17-9.59 N",
		"longitude": "122-2-21.61 W",
		"state": "CALIFORNIA",
		"artcc": "ZOA",
		"type": "RNAV",
		"updated": "07/12/2017",
	},
	{
		"name": "OTRUW",
		"latitude": "38-57-22.95 N",
		"longitude": "121-19-27.31 W",
		"state": "CALIFORNIA",
		"artcc": "ZOA",
		"type": "RNAV",
		"updated": "07/06/2009",
	},
	{
		"name": "OTTRE",
		"latitude": "14-24-30 N",
		"longitude": "143-19-12 E",
		"state": "OFFSHORE PACIFIC",
		"artcc": "ZOA",
		"type": "RNAV",
		"updated": "06/27/2007",
	},
	{
		"name": "OUCHH",
		"latitude": "37-8-22.66 N",
		"longitude": "120-45-16.83 W",
		"state": "CALIFORNIA",
		"artcc": "ZOA",
		"type": "RNAV",
		"updated": "02/17/2015",
	},
	{
		"name": "OVICU",
		"latitude": "40-40-4.42 N",
		"longitude": "122-17-40.71 W",
		"state": "CALIFORNIA",
		"artcc": "ZOA",
		"type": "RNAV",
		"updated": "09/26/2006",
	},
	{
		"name": "OVOME",
		"latitude": "38-42-41.71 N",
		"longitude": "121-41-39.65 W",
		"state": "CALIFORNIA",
		"artcc": "ZOA",
		"type": "RNAV",
		"updated": "03/09/2015",
	},
	{
		"name": "OWILU",
		"latitude": "38-28-49 N",
		"longitude": "118-24-19 W",
		"state": "NEVADA",
		"artcc": "ZOA",
		"type": "RNAV",
		"updated": "08/04/2017",
	},
	{
		"name": "OWLEK",
		"latitude": "40-26-28.2 N",
		"longitude": "121-43-10.2 W",
		"state": "CALIFORNIA",
		"artcc": "ZOA",
		"type": "CN",
		"updated": "10/11/2002",
	},
	{
		"name": "OWLES",
		"latitude": "36-16-4.35 N",
		"longitude": "119-55-27.9 W",
		"state": "CALIFORNIA",
		"artcc": "ZOA",
		"type": "MR",
		"updated": "NLC*TACAN*142.00/5.00",
	},
	{
		"name": "OXJEF",
		"latitude": "37-46-11.4 N",
		"longitude": "121-2-3.31 W",
		"state": "CALIFORNIA",
		"artcc": "ZOA",
		"type": "RNAV",
		"updated": "05/05/2017",
	},
	{
		"name": "OXVEV",
		"latitude": "36-58-34.1 N",
		"longitude": "119-54-18.33 W",
		"state": "CALIFORNIA",
		"artcc": "ZOA",
		"type": "RP",
		"updated": "CZQ*VORTAC*306.84/7.00",
	},
	{
		"name": "OYAHI",
		"latitude": "37-41-33.84 N",
		"longitude": "121-41-14.52 W",
		"state": "CALIFORNIA",
		"artcc": "ZOA",
		"type": "RNAV",
		"updated": "07/07/2016",
	},
	{
		"name": "OYISU",
		"latitude": "36-15-14.56 N",
		"longitude": "119-54-0.49 W",
		"state": "CALIFORNIA",
		"artcc": "ZOA",
		"type": "MW",
		"updated": "04/19/2018",
	},
	{
		"name": "OYODU",
		"latitude": "38-8-28.39 N",
		"longitude": "120-38-38.39 W",
		"state": "CALIFORNIA",
		"artcc": "ZOA",
		"type": "RNAV",
		"updated": "02/09/2018",
	},
	{
		"name": "OYOMU",
		"latitude": "39-29-17.6 N",
		"longitude": "123-53-44.07 W",
		"state": "CALIFORNIA",
		"artcc": "ZOA",
		"type": "RNAV",
		"updated": "10/21/2014",
	},
	{
		"name": "OYOSO",
		"latitude": "37-49-33.08 N",
		"longitude": "121-38-16.97 W",
		"state": "CALIFORNIA",
		"artcc": "ZOA",
		"type": "RNAV",
		"updated": "03/30/2017",
	},
	{
		"name": "OYRUV",
		"latitude": "38-41-13.49 N",
		"longitude": "123-35-37.52 W",
		"state": "CALIFORNIA",
		"artcc": "ZOA",
		"type": "RNAV",
		"updated": "02/09/2018",
	},
	{
		"name": "OYUGO",
		"latitude": "36-26-10.52 N",
		"longitude": "119-37-55.73 W",
		"state": "CALIFORNIA",
		"artcc": "ZOA",
		"type": "RNAV",
		"updated": "12/19/2003",
	},
	{
		"name": "OYXOB",
		"latitude": "38-36-34.89 N",
		"longitude": "122-45-44.87 W",
		"state": "CALIFORNIA",
		"artcc": "ZOA",
		"type": "RNAV",
		"updated": "02/09/2018",
	},
	{
		"name": "OZCAJ",
		"latitude": "38-42-59.73 N",
		"longitude": "122-42-41.64 W",
		"state": "CALIFORNIA",
		"artcc": "ZOA",
		"type": "RNAV",
		"updated": "11/14/2014",
	},
	{
		"name": "OZEDU",
		"latitude": "39-12-11.7 N",
		"longitude": "119-42-46.16 W",
		"state": "NEVADA",
		"artcc": "ZOA",
		"type": "RNAV",
		"updated": "02/09/2018",
	},
	{
		"name": "OZHID",
		"latitude": "39-6-9.36 N",
		"longitude": "122-53-19.42 W",
		"state": "CALIFORNIA",
		"artcc": "ZOA",
		"type": "RNAV",
		"updated": "10/21/2014",
	},
	{
		"name": "OZIEE",
		"latitude": "38-29-32 N",
		"longitude": "122-23-11 W",
		"state": "CALIFORNIA",
		"artcc": "ZOA",
		"type": "RNAV",
		"updated": "06/04/2010",
	},
	{
		"name": "OZNUM",
		"latitude": "37-14-19.43 N",
		"longitude": "121-43-48.34 W",
		"state": "CALIFORNIA",
		"artcc": "ZOA",
		"type": "RNAV",
		"updated": "06/14/2010",
	},
	{
		"name": "OZVUD",
		"latitude": "38-5-18.16 N",
		"longitude": "122-0-59.97 W",
		"state": "CALIFORNIA",
		"artcc": "ZOA",
		"type": "RNAV",
		"updated": "02/09/2018",
	},
