[
	{
		"name": "RACFE",
		"latitude": "38-26-25.21 N",
		"longitude": "122-45-25.78 W",
		"state": "CALIFORNIA",
		"artcc": "ZOA",
		"type": "WP",
		"updated": "11/02/1998"
	},
	{
		"name": "RADNE",
		"latitude": "39-0-20.89 N",
		"longitude": "121-41-42.02 W",
		"state": "CALIFORNIA",
		"artcc": "ZOA",
		"type": "RNAV",
		"updated": "07/06/2009"
	},
	{
		"name": "RADRE",
		"latitude": "39-4-28.17 N",
		"longitude": "121-24-35.7 W",
		"state": "CALIFORNIA",
		"artcc": "ZOA",
		"type": "RNAV",
		"updated": "04/14/2014"
	},
	{
		"name": "RAGDE",
		"latitude": "9-47-32 N",
		"longitude": "158-12-52 W",
		"state": "OFFSHORE PACIFIC",
		"artcc": "ZOA",
		"type": "RNAV",
		"updated": "02/11/2008"
	},
	{
		"name": "RAGGS",
		"latitude": "38-28-34.94 N",
		"longitude": "122-9-24.65 W",
		"state": "CALIFORNIA",
		"artcc": "ZOA",
		"type": "RP",
		"updated": "OAK*VOR/DME*347.00"
	},
	{
		"name": "RAGTE",
		"latitude": "38-48-45.76 N",
		"longitude": "121-9-5.04 W",
		"state": "CALIFORNIA",
		"artcc": "ZOA",
		"type": "MW",
		"updated": "07/21/2011"
	},
	{
		"name": "RAIDR",
		"latitude": "38-1-57 N",
		"longitude": "122-33-27 W",
		"state": "CALIFORNIA",
		"artcc": "ZOA",
		"type": "RNAV",
		"updated": "08/19/2014"
	},
	{
		"name": "RAILE",
		"latitude": "39-11-20.52 N",
		"longitude": "121-26-44.22 W",
		"state": "CALIFORNIA",
		"artcc": "ZOA",
		"type": "RP",
		"updated": "ILA*VORTAC*057.23/28.06"
	},
	{
		"name": "RAINS",
		"latitude": "37-10-3.92 N",
		"longitude": "123-14-35.98 W",
		"state": "OFFSHORE PACIFIC",
		"artcc": "ZOA",
		"type": "RP",
		"updated": "OAK*VOR/DME*218.84/59.10"
	},
	{
		"name": "RAKPE",
		"latitude": "39-13-3.63 N",
		"longitude": "123-40-49.51 W",
		"state": "CALIFORNIA",
		"artcc": "ZOA",
		"type": "RNAV",
		"updated": "06/05/2012"
	},
	{
		"name": "RALEY",
		"latitude": "38-34-19.7 N",
		"longitude": "118-14-3.63 W",
		"state": "NEVADA",
		"artcc": "ZOA",
		"type": "RNAV",
		"updated": "11/24/2014"
	},
	{
		"name": "RAMIZ",
		"latitude": "5-0-0 S",
		"longitude": "159-5-12 W",
		"state": "OFFSHORE PACIFIC",
		"artcc": "ZOA",
		"type": "RNAV",
		"updated": "02/11/2008"
	},
	{
		"name": "RAMND",
		"latitude": "37-26-9.2 N",
		"longitude": "122-7-21.03 W",
		"state": "CALIFORNIA",
		"artcc": "ZOA",
		"type": "RNAV",
		"updated": "09/10/2009"
	},
	{
		"name": "RAMRE",
		"latitude": "39-1-52.79 N",
		"longitude": "119-41-5.38 W",
		"state": "NEVADA",
		"artcc": "ZOA",
		"type": "RP",
		"updated": "FMG*VORTAC*166.57/30.00"
	},
	{
		"name": "RANCK",
		"latitude": "36-35-29.9 N",
		"longitude": "121-6-10.37 W",
		"state": "CALIFORNIA",
		"artcc": "ZOA",
		"type": "RP",
		"updated": "ROM*VOR*306.00"
	},
	{
		"name": "RANGO",
		"latitude": "39-15-21.74 N",
		"longitude": "121-6-27.62 W",
		"state": "CALIFORNIA",
		"artcc": "ZOA",
		"type": "RP",
		"updated": "ILA*VORTAC*057.23/44.32"
	},
	{
		"name": "RAROC",
		"latitude": "39-56-57.19 N",
		"longitude": "119-58-24.92 W",
		"state": "NEVADA",
		"artcc": "ZOA",
		"type": "RP",
		"updated": "FMG*VORTAC*313.71/29.05"
	},
	{
		"name": "RATBE",
		"latitude": "38-43-49.59 N",
		"longitude": "121-36-2.53 W",
		"state": "CALIFORNIA",
		"artcc": "ZOA",
		"type": "RNAV",
		"updated": "03/24/2015"
	},
	{
		"name": "RAYOR",
		"latitude": "2-25-3 N",
		"longitude": "158-39-6 W",
		"state": "OFFSHORE PACIFIC",
		"artcc": "ZOA",
		"type": "RNAV",
		"updated": "02/11/2008"
	},
	{
		"name": "RAZRR",
		"latitude": "37-10-52.68 N",
		"longitude": "120-22-53.99 W",
		"state": "CALIFORNIA",
		"artcc": "ZOA",
		"type": "RNAV",
		"updated": "02/17/2015"
	},
	{
		"name": "RBBRY",
		"latitude": "39-45-8.81 N",
		"longitude": "119-36-31.06 W",
		"state": "NEVADA",
		"artcc": "ZOA",
		"type": "RNAV",
		"updated": "06/29/2011"
	},
	{
		"name": "RBLEW",
		"latitude": "37-53-49.8 N",
		"longitude": "121-30-30.31 W",
		"state": "CALIFORNIA",
		"artcc": "ZOA",
		"type": "RNAV",
		"updated": "04/21/2017"
	},
	{
		"name": "RBRTS",
		"latitude": "37-45-32.46 N",
		"longitude": "118-54-20.35 W",
		"state": "CALIFORNIA",
		"artcc": "ZOA",
		"type": "RP",
		"updated": "BIH*VOR/DME*296.84"
	},
	{
		"name": "RBUCL",
		"latitude": "39-4-12.19 N",
		"longitude": "122-1-34.14 W",
		"state": "CALIFORNIA",
		"artcc": "ZOA",
		"type": "RNAV",
		"updated": "12/16/2014"
	},
	{
		"name": "RDEYE",
		"latitude": "36-1-11.44 N",
		"longitude": "119-26-44.47 W",
		"state": "CALIFORNIA",
		"artcc": "ZOA",
		"type": "RNAV",
		"updated": "11/19/2003"
	},
	{
		"name": "REBAS",
		"latitude": "37-56-26.46 N",
		"longitude": "122-23-1.2 W",
		"state": "CALIFORNIA",
		"artcc": "ZOA",
		"type": "RP",
		"updated": "SGD*VORTAC*165.00/14.31"
	},
	{
		"name": "REBRG",
		"latitude": "35-58-53 N",
		"longitude": "119-36-53 W",
		"state": "CALIFORNIA",
		"artcc": "ZOA",
		"type": "RP",
		"updated": "FRA*VORTAC*163.80/67.30"
	},
	{
		"name": "RECOT",
		"latitude": "37-41-57.15 N",
		"longitude": "120-52-12.54 W",
		"state": "CALIFORNIA",
		"artcc": "ZOA",
		"type": "RP",
		"updated": "MOD*VOR/DME*027.12/6.00"
	},
	{
		"name": "REDOO",
		"latitude": "40-39-34.48 N",
		"longitude": "126-57-29.57 W",
		"state": "CALIFORNIA",
		"artcc": "ZOA",
		"type": "RP",
		"updated": "ENI*VORTAC*284.67/195.55"
	},
	{
		"name": "REDWD",
		"latitude": "40-0-0 N",
		"longitude": "126-30-0 W",
		"state": "OFFSHORE PACIFIC",
		"artcc": "ZOA",
		"type": "RP",
		"updated": "08/27/2003"
	},
	{
		"name": "REEDD",
		"latitude": "36-30-46.38 N",
		"longitude": "119-29-38.89 W",
		"state": "CALIFORNIA",
		"artcc": "ZOA",
		"type": "MR",
		"updated": "NLC*TACAN*050.00/25.00"
	},
	{
		"name": "REEDE",
		"latitude": "14-57-0 N",
		"longitude": "143-59-0 E",
		"state": "OFFSHORE PACIFIC",
		"artcc": "ZOA",
		"type": "WP",
		"updated": "11/05/1997"
	},
	{
		"name": "REJOY",
		"latitude": "38-9-59.2 N",
		"longitude": "121-46-15.14 W",
		"state": "CALIFORNIA",
		"artcc": "ZOA",
		"type": "RP",
		"updated": "CCR*VOR/DME*043.64/14.89"
	},
	{
		"name": "REMTY",
		"latitude": "39-49-8.84 N",
		"longitude": "119-52-27.41 W",
		"state": "NEVADA",
		"artcc": "ZOA",
		"type": "RP",
		"updated": "FMG*VORTAC*313.71/20.00"
	},
	{
		"name": "RENOC",
		"latitude": "40-10-56.7 N",
		"longitude": "119-43-44.57 W",
		"state": "NEVADA",
		"artcc": "ZOA",
		"type": "MR",
		"updated": "AHC*VOR/DME*087.63/20.10"
	},
	{
		"name": "REPUE",
		"latitude": "39-27-8.1 N",
		"longitude": "123-41-9.1 W",
		"state": "CALIFORNIA",
		"artcc": "ZOA",
		"type": "RNAV",
		"updated": "06/02/2016"
	},
	{
		"name": "RERAE",
		"latitude": "37-23-54.18 N",
		"longitude": "122-8-10.83 W",
		"state": "CALIFORNIA",
		"artcc": "ZOA",
		"type": "RNAV",
		"updated": "08/10/2010"
	},
	{
		"name": "RESEE",
		"latitude": "20-36-27 N",
		"longitude": "180-0-0 W",
		"state": "OFFSHORE PACIFIC",
		"artcc": "ZOA",
		"type": "RNAV",
		"updated": "03/14/2011"
	},
	{
		"name": "RETBE",
		"latitude": "38-46-28.79 N",
		"longitude": "121-14-17.89 W",
		"state": "CALIFORNIA",
		"artcc": "ZOA",
		"type": "RNAV",
		"updated": "02/13/2007"
	},
	{
		"name": "RETOP",
		"latitude": "37-12-40.65 N",
		"longitude": "120-35-20.8 W",
		"state": "CALIFORNIA",
		"artcc": "ZOA",
		"type": "RP",
		"updated": "HYP*VOR/DME*251.97/9.07"
	},
	{
		"name": "RETSO",
		"latitude": "37-10-46.2 N",
		"longitude": "122-13-6.48 W",
		"state": "CALIFORNIA",
		"artcc": "ZOA",
		"type": "MR",
		"updated": "NUQ*TACAN*190.00/17.00"
	},
	{
		"name": "REWJU",
		"latitude": "14-0-6.02 N",
		"longitude": "145-28-32.96 E",
		"state": "N MARIANA ISLANDS",
		"artcc": "ZOA",
		"type": "RNAV",
		"updated": "01/05/2012"
	},
	{
		"name": "REYOR",
		"latitude": "38-18-5.73 N",
		"longitude": "122-14-25.09 W",
		"state": "CALIFORNIA",
		"artcc": "ZOA",
		"type": "RNAV",
		"updated": "03/22/2006"
	},
	{
		"name": "RGOOD",
		"latitude": "35-54-32.01 N",
		"longitude": "119-50-40.77 W",
		"state": "CALIFORNIA",
		"artcc": "ZOA",
		"type": "RNAV",
		"updated": "08/21/2015"
	},
	{
		"name": "RHIDE",
		"latitude": "39-5-15.26 N",
		"longitude": "118-13-13.55 W",
		"state": "NEVADA",
		"artcc": "ZOA",
		"type": "MR",
		"updated": "NFL*TACAN*117.00/30.00"
	},
	{
		"name": "RICEE",
		"latitude": "38-53-47.38 N",
		"longitude": "121-23-39.86 W",
		"state": "CALIFORNIA",
		"artcc": "ZOA",
		"type": "RNAV",
		"updated": "09/17/2014"
	},
	{
		"name": "RICHH",
		"latitude": "17-11-49 N",
		"longitude": "142-49-12 E",
		"state": "OFFSHORE PACIFIC",
		"artcc": "ZOA",
		"type": "WP",
		"updated": "05/14/1997"
	},
	{
		"name": "RICHY",
		"latitude": "38-59-52.14 N",
		"longitude": "120-1-9 W",
		"state": "CALIFORNIA",
		"artcc": "ZOA",
		"type": "RP",
		"updated": "SWR*VOR/DME*117.00/16.02"
	},
	{
		"name": "RICOD",
		"latitude": "37-36-0.01 N",
		"longitude": "120-16-33.55 W",
		"state": "CALIFORNIA",
		"artcc": "ZOA",
		"type": "RNAV",
		"updated": "11/09/2004"
	},
	{
		"name": "RIDLL",
		"latitude": "16-4-6 N",
		"longitude": "142-25-0 E",
		"state": "OFFSHORE PACIFIC",
		"artcc": "ZOA",
		"type": "RNAV",
		"updated": "06/27/2007"
	},
	{
		"name": "RIDOH",
		"latitude": "37-51-36.09 N",
		"longitude": "120-27-5.75 W",
		"state": "CALIFORNIA",
		"artcc": "ZOA",
		"type": "RNAV",
		"updated": "03/02/2010"
	},
	{
		"name": "RIEKE",
		"latitude": "41-31-24.94 N",
		"longitude": "82-28-4.09 W",
		"state": "OHIO",
		"artcc": "ZOB",
		"type": "RP",
		"updated": "DJB*VOR/DME*310.83/17.00"
	},
	{
		"name": "RIGDE",
		"latitude": "36-42-32.97 N",
		"longitude": "121-58-17.26 W",
		"state": "CALIFORNIA",
		"artcc": "ZOA",
		"type": "RP",
		"updated": "SNS*VORTAC*261.80/17.98"
	},
	{
		"name": "RIJTU",
		"latitude": "39-25-47.92 N",
		"longitude": "119-46-10.01 W",
		"state": "NEVADA",
		"artcc": "ZOA",
		"type": "RP",
		"updated": "RNO*LD*S CRS/3.00"
	},
	{
		"name": "RIKPE",
		"latitude": "37-23-32.81 N",
		"longitude": "122-8-33.8 W",
		"state": "CALIFORNIA",
		"artcc": "ZOA",
		"type": "RNAV",
		"updated": "11/14/2016"
	},
	{
		"name": "RILRE",
		"latitude": "37-27-5.73 N",
		"longitude": "120-38-25.22 W",
		"state": "CALIFORNIA",
		"artcc": "ZOA",
		"type": "RNAV",
		"updated": "12/08/2008"
	},
	{
		"name": "RIPIE",
		"latitude": "6-59-6.04 N",
		"longitude": "158-13-45.01 E",
		"state": "",
		"artcc": "ZOA",
		"type": "RNAV",
		"updated": "12/30/2015"
	},
	{
		"name": "RIROC",
		"latitude": "37-12-43.85 N",
		"longitude": "121-56-36.84 W",
		"state": "CALIFORNIA",
		"artcc": "ZOA",
		"type": "RP",
		"updated": "NUQ*TACAN*/14.28"
	},
	{
		"name": "RISBA",
		"latitude": "21-0-0 N",
		"longitude": "154-8-12 E",
		"state": "OFFSHORE PACIFIC",
		"artcc": "ZOA",
		"type": "RNAV",
		"updated": "06/27/2007"
	},
	{
		"name": "RISHE",
		"latitude": "37-37-8.79 N",
		"longitude": "122-2-40.51 W",
		"state": "CALIFORNIA",
		"artcc": "ZOA",
		"type": "RP",
		"updated": "HWD*LE*107.86/4.84"
	},
	{
		"name": "RISPE",
		"latitude": "36-41-14.08 N",
		"longitude": "121-49-12.2 W",
		"state": "CALIFORNIA",
		"artcc": "ZOA",
		"type": "RNAV",
		"updated": "01/10/2013"
	},
	{
		"name": "RISTI",
		"latitude": "37-36-29.25 N",
		"longitude": "121-31-59.8 W",
		"state": "CALIFORNIA",
		"artcc": "ZOA",
		"type": "RP",
		"updated": "SAC*VORTAC*162.00/50.00"
	},
	{
		"name": "RIWSO",
		"latitude": "36-51-20.24 N",
		"longitude": "119-47-55.42 W",
		"state": "CALIFORNIA",
		"artcc": "ZOA",
		"type": "RNAV",
		"updated": "10/05/2012"
	},
	{
		"name": "ROANA",
		"latitude": "37-38-8.63 N",
		"longitude": "121-43-43.06 W",
		"state": "CALIFORNIA",
		"artcc": "ZOA",
		"type": "RNAV",
		"updated": "01/13/2015"
	},
	{
		"name": "ROARS",
		"latitude": "39-49-40.9 N",
		"longitude": "119-46-6.12 W",
		"state": "NEVADA",
		"artcc": "ZOA",
		"type": "RP",
		"updated": "RNO*LD*344.12/20.86"
	},
	{
		"name": "ROBIE",
		"latitude": "35-58-53.3 N",
		"longitude": "121-0-34.05 W",
		"state": "CALIFORNIA",
		"artcc": "ZOA",
		"type": "RP",
		"updated": "AVE*VOR/DME*276.02/54.15"
	},
	{
		"name": "ROBME",
		"latitude": "39-2-41.63 N",
		"longitude": "121-23-49.65 W",
		"state": "CALIFORNIA",
		"artcc": "ZOA",
		"type": "MW",
		"updated": "04/17/2014"
	},
	{
		"name": "ROCOC",
		"latitude": "39-17-25.34 N",
		"longitude": "122-1-56.26 W",
		"state": "CALIFORNIA",
		"artcc": "ZOA",
		"type": "RNAV",
		"updated": "11/17/2017"
	},
	{
		"name": "ROCOS",
		"latitude": "37-13-39.27 N",
		"longitude": "118-19-18.37 W",
		"state": "CALIFORNIA",
		"artcc": "ZOA",
		"type": "RNAV",
		"updated": "10/29/2007"
	},
	{
		"name": "RODNE",
		"latitude": "36-30-30.87 N",
		"longitude": "121-36-48.26 W",
		"state": "CALIFORNIA",
		"artcc": "ZOA",
		"type": "RP",
		"updated": "MTB*LE*E CRS/12.84"
	},
	{
		"name": "ROGGE",
		"latitude": "37-42-30.61 N",
		"longitude": "122-18-47.58 W",
		"state": "CALIFORNIA",
		"artcc": "ZOA",
		"type": "RP",
		"updated": "SFO*VOR/DME*011.43/6.07"
	},
	{
		"name": "ROKME",
		"latitude": "37-30-38.13 N",
		"longitude": "122-7-5.79 W",
		"state": "CALIFORNIA",
		"artcc": "ZOA",
		"type": "RP",
		"updated": "SFO*LD*103.81/14.95"
	},
	{
		"name": "ROMMO",
		"latitude": "36-58-16.69 N",
		"longitude": "121-48-49.38 W",
		"state": "CALIFORNIA",
		"artcc": "ZOA",
		"type": "MR",
		"updated": "NUQ*TACAN*140.00/30.00"
	},
	{
		"name": "RONHU",
		"latitude": "39-18-1.61 N",
		"longitude": "123-12-57.15 W",
		"state": "CALIFORNIA",
		"artcc": "ZOA",
		"type": "RNAV",
		"updated": "08/28/2014"
	},
	{
		"name": "ROOSE",
		"latitude": "38-10-34.68 N",
		"longitude": "122-18-1.68 W",
		"state": "CALIFORNIA",
		"artcc": "ZOA",
		"type": "RP",
		"updated": "SGD*VORTAC*076.36"
	},
	{
		"name": "ROOTH",
		"latitude": "36-59-23.92 N",
		"longitude": "120-24-39.4 W",
		"state": "CALIFORNIA",
		"artcc": "ZOA",
		"type": "RNAV",
		"updated": "08/14/2008"
	},
	{
		"name": "ROSTE",
		"latitude": "37-28-46.1 N",
		"longitude": "122-3-17.91 W",
		"state": "CALIFORNIA",
		"artcc": "ZOA",
		"type": "RNAV",
		"updated": "01/28/2015"
	},
	{
		"name": "ROUKE",
		"latitude": "48-0-0 N",
		"longitude": "131-32-1 W",
		"state": "OFFSHORE PACIFIC",
		"artcc": "ZOA",
		"type": "WP",
		"updated": "02/19/1998"
	},
	{
		"name": "ROVUE",
		"latitude": "37-14-2.24 N",
		"longitude": "124-7-49.55 W",
		"state": "OFFSHORE PACIFIC",
		"artcc": "ZOA",
		"type": "RNAV",
		"updated": "11/20/2012"
	},
	{
		"name": "ROWLY",
		"latitude": "37-35-59.87 N",
		"longitude": "122-5-58.16 W",
		"state": "CALIFORNIA",
		"artcc": "ZOA",
		"type": "RNAV",
		"updated": "11/24/2014"
	},
	{
		"name": "ROWWN",
		"latitude": "38-24-55.86 N",
		"longitude": "121-47-0.05 W",
		"state": "CALIFORNIA",
		"artcc": "ZOA",
		"type": "RNAV",
		"updated": "04/21/2017"
	},
	{
		"name": "ROXJO",
		"latitude": "39-48-55.82 N",
		"longitude": "119-38-19.61 W",
		"state": "NEVADA",
		"artcc": "ZOA",
		"type": "RNAV",
		"updated": "08/07/2008"
	},
	{
		"name": "ROXXY",
		"latitude": "38-20-43.51 N",
		"longitude": "121-57-14.19 W",
		"state": "CALIFORNIA",
		"artcc": "ZOA",
		"type": "MR",
		"updated": "SUU*TACAN*339.00/6.00"
	},
	{
		"name": "ROYDO",
		"latitude": "39-11-1.32 N",
		"longitude": "119-46-3.2 W",
		"state": "NEVADA",
		"artcc": "ZOA",
		"type": "RNAV",
		"updated": "08/07/2008"
	},
	{
		"name": "ROYOD",
		"latitude": "8-45-9.26 N",
		"longitude": "167-50-13 E",
		"state": "",
		"artcc": "ZOA",
		"type": "MW",
		"updated": "11/12/2008"
	},
	{
		"name": "ROZZY",
		"latitude": "38-44-42.45 N",
		"longitude": "121-15-1.75 W",
		"state": "CALIFORNIA",
		"artcc": "ZOA",
		"type": "RP",
		"updated": "ILA*VORTAC*100.00/41.30"
	},
	{
		"name": "RPARK",
		"latitude": "38-7-24.91 N",
		"longitude": "118-44-49.79 W",
		"state": "CALIFORNIA",
		"artcc": "ZOA",
		"type": "RNAV",
		"updated": "03/09/2018"
	},
	{
		"name": "RUCOC",
		"latitude": "39-25-50.19 N",
		"longitude": "119-44-39.98 W",
		"state": "NEVADA",
		"artcc": "ZOA",
		"type": "CN",
		"updated": "04/27/2006"
	},
	{
		"name": "RUDEE",
		"latitude": "17-10-14 N",
		"longitude": "157-45-24 W",
		"state": "OFFSHORE PACIFIC",
		"artcc": "ZOA",
		"type": "RNAV",
		"updated": "02/11/2008"
	},
	{
		"name": "RUDNY",
		"latitude": "36-37-25.46 N",
		"longitude": "121-19-24.39 W",
		"state": "CALIFORNIA",
		"artcc": "ZOA",
		"type": "RP",
		"updated": "SNS*VORTAC*083.00/13.72"
	},
	{
		"name": "RUGUE",
		"latitude": "37-2-28.3 N",
		"longitude": "120-23-3.8 W",
		"state": "CALIFORNIA",
		"artcc": "ZOA",
		"type": "RNAV",
		"updated": "06/13/2016"
	},
	{
		"name": "RUKDE",
		"latitude": "39-19-38.61 N",
		"longitude": "123-51-34.58 W",
		"state": "CALIFORNIA",
		"artcc": "ZOA",
		"type": "RNAV",
		"updated": "05/04/2009"
	},
	{
		"name": "RULTE",
		"latitude": "37-58-35.22 N",
		"longitude": "121-16-35.79 W",
		"state": "CALIFORNIA",
		"artcc": "ZOA",
		"type": "RNAV",
		"updated": "02/13/2007"
	},
	{
		"name": "RULTT",
		"latitude": "39-42-4.19 N",
		"longitude": "119-43-5.28 W",
		"state": "NEVADA",
		"artcc": "ZOA",
		"type": "RNAV",
		"updated": "08/20/2010"
	},
	{
		"name": "RUMPS",
		"latitude": "38-7-10 N",
		"longitude": "117-16-15 W",
		"state": "NEVADA",
		"artcc": "ZOA",
		"type": "RNAV",
		"updated": "07/06/2006"
	},
	{
		"name": "RUMSY",
		"latitude": "38-52-33.73 N",
		"longitude": "122-18-3.31 W",
		"state": "CALIFORNIA",
		"artcc": "ZOA",
		"type": "RP",
		"updated": "ILA*VORTAC*209.68/17.34"
	},
	{
		"name": "RURSE",
		"latitude": "37-12-41.83 N",
		"longitude": "121-56-40.68 W",
		"state": "CALIFORNIA",
		"artcc": "ZOA",
		"type": "RP",
		"updated": "NUQ*TACAN*140.75/14.29"
	},
	{
		"name": "RUSME",
		"latitude": "37-29-39 N",
		"longitude": "117-31-12 W",
		"state": "NEVADA",
		"artcc": "ZOA",
		"type": "RNAV",
		"updated": "09/22/2014"
	},
	{
		"name": "RUTUS",
		"latitude": "0-0-0 N",
		"longitude": "148-49-42 E",
		"state": "OFFSHORE PACIFIC",
		"artcc": "ZOA",
		"type": "RP",
		"updated": "09/20/1995"
	},
	{
		"name": "RUXEE",
		"latitude": "38-5-4.7 N",
		"longitude": "122-10-36.16 W",
		"state": "CALIFORNIA",
		"artcc": "ZOA",
		"type": "MR",
		"updated": "SUU*TACAN*/14.60"
	},
	{
		"name": "RVRCT",
		"latitude": "38-41-57.57 N",
		"longitude": "121-20-0.12 W",
		"state": "CALIFORNIA",
		"artcc": "ZOA",
		"type": "RNAV",
		"updated": "11/24/2014"
	},
	{
		"name": "RYANN",
		"latitude": "39-14-1.61 N",
		"longitude": "119-16-46.06 W",
		"state": "NEVADA",
		"artcc": "ZOA",
		"type": "RP",
		"updated": "HZN*VORTAC*200.82"
	},
	{
		"name": "RYMAR",
		"latitude": "38-6-36.1 N",
		"longitude": "121-49-45.24 W",
		"state": "CALIFORNIA",
		"artcc": "ZOA",
		"type": "RP",
		"updated": "SGD*VORTAC*082.00"
	},
	{
		"name": "RYPAX",
		"latitude": "38-58-0.22 N",
		"longitude": "123-4-53.09 W",
		"state": "CALIFORNIA",
		"artcc": "ZOA",
		"type": "RNAV",
		"updated": "08/28/2014"
	}
]
