[
	{
		"name": "SAAGO",
		"latitude": "37-51-19.01 N",
		"longitude": "120-5-9.54 W",
		"state": "CALIFORNIA",
		"artcc": "ZOA",
		"type": "RNAV",
		"updated": "04/21/2017"
	},
	{
		"name": "SABBY",
		"latitude": "39-17-31.77 N",
		"longitude": "123-2-26.51 W",
		"state": "CALIFORNIA",
		"artcc": "ZOA",
		"type": "RP",
		"updated": "ENI*VORTAC*021.20/18.00"
	},
	{
		"name": "SABLO",
		"latitude": "37-59-27.02 N",
		"longitude": "122-12-0.65 W",
		"state": "CALIFORNIA",
		"artcc": "ZOA",
		"type": "RP",
		"updated": "CCR*VOR/DME*229.24/8.03"
	},
	{
		"name": "SACJU",
		"latitude": "37-47-0.38 N",
		"longitude": "122-20-14.55 W",
		"state": "CALIFORNIA",
		"artcc": "ZOA",
		"type": "WP",
		"updated": "11/02/1998"
	},
	{
		"name": "SAFCO",
		"latitude": "38-51-26.93 N",
		"longitude": "121-35-54.85 W",
		"state": "CALIFORNIA",
		"artcc": "ZOA",
		"type": "WP",
		"updated": "SAC*VORTAC*337.90/24.90"
	},
	{
		"name": "SAFYR",
		"latitude": "38-56-42.11 N",
		"longitude": "121-9-4.76 W",
		"state": "CALIFORNIA",
		"artcc": "ZOA",
		"type": "MW",
		"updated": "07/21/2011"
	},
	{
		"name": "SAGUE",
		"latitude": "36-43-37.27 N",
		"longitude": "122-7-9.37 W",
		"state": "CALIFORNIA",
		"artcc": "ZOA",
		"type": "RP",
		"updated": "SNS*VORTAC*261.80/25.19"
	},
	{
		"name": "SAHEY",
		"latitude": "37-34-6.42 N",
		"longitude": "122-14-40.4 W",
		"state": "CALIFORNIA",
		"artcc": "ZOA",
		"type": "RNAV",
		"updated": "06/25/2015"
	},
	{
		"name": "SAILA",
		"latitude": "38-27-42.92 N",
		"longitude": "121-57-51.53 W",
		"state": "CALIFORNIA",
		"artcc": "ZOA",
		"type": "MR",
		"updated": "SUU*TACAN*339.00/13.00"
	},
	{
		"name": "SAKAE",
		"latitude": "6-59-5.69 N",
		"longitude": "158-15-1.03 E",
		"state": "",
		"artcc": "ZOA",
		"type": "RNAV",
		"updated": "12/30/2015"
	},
	{
		"name": "SAKEE",
		"latitude": "39-11-54.26 N",
		"longitude": "121-27-49.1 W",
		"state": "CALIFORNIA",
		"artcc": "ZOA",
		"type": "MW",
		"updated": "04/17/2014"
	},
	{
		"name": "SAKOC",
		"latitude": "38-45-0.21 N",
		"longitude": "120-30-38.23 W",
		"state": "CALIFORNIA",
		"artcc": "ZOA",
		"type": "RNAV",
		"updated": "04/04/2012"
	},
	{
		"name": "SAKYY",
		"latitude": "38-56-53.75 N",
		"longitude": "119-59-3.29 W",
		"state": "CALIFORNIA",
		"artcc": "ZOA",
		"type": "WP",
		"updated": "11/02/1998"
	},
	{
		"name": "SALAD",
		"latitude": "37-46-25.92 N",
		"longitude": "121-57-36.68 W",
		"state": "CALIFORNIA",
		"artcc": "ZOA",
		"type": "RP",
		"updated": "SGD*VORTAC*124.00"
	},
	{
		"name": "SALIC",
		"latitude": "36-51-46.97 N",
		"longitude": "120-48-59.36 W",
		"state": "CALIFORNIA",
		"artcc": "ZOA",
		"type": "RP",
		"updated": "PXN*VORTAC*332.37/9.03"
	},
	{
		"name": "SALLI",
		"latitude": "39-36-42.54 N",
		"longitude": "119-36-37.51 W",
		"state": "NEVADA",
		"artcc": "ZOA",
		"type": "RNAV",
		"updated": "03/10/2010"
	},
	{
		"name": "SAMES",
		"latitude": "36-43-33.15 N",
		"longitude": "121-40-12.7 W",
		"state": "CALIFORNIA",
		"artcc": "ZOA",
		"type": "RP",
		"updated": "SNS*VORTAC*302.00/5.00"
	},
	{
		"name": "SAMML",
		"latitude": "37-34-32.34 N",
		"longitude": "122-14-16.16 W",
		"state": "CALIFORNIA",
		"artcc": "ZOA",
		"type": "RNAV",
		"updated": "06/17/2014"
	},
	{
		"name": "SAMPS",
		"latitude": "38-50-58.72 N",
		"longitude": "121-30-58.05 W",
		"state": "CALIFORNIA",
		"artcc": "ZOA",
		"type": "MW",
		"updated": "07/21/2011"
	},
	{
		"name": "SANGO",
		"latitude": "36-39-49.14 N",
		"longitude": "119-31-11.11 W",
		"state": "CALIFORNIA",
		"artcc": "ZOA",
		"type": "RP",
		"updated": "CZQ*VORTAC*117.79/19.43"
	},
	{
		"name": "SANTY",
		"latitude": "36-58-45.26 N",
		"longitude": "122-4-23.07 W",
		"state": "CALIFORNIA",
		"artcc": "ZOA",
		"type": "RP",
		"updated": "SNS*VORTAC*293.00/29.49"
	},
	{
		"name": "SAPID",
		"latitude": "37-11-28.73 N",
		"longitude": "122-10-47 W",
		"state": "CALIFORNIA",
		"artcc": "ZOA",
		"type": "RP",
		"updated": "SJC*VOR/DME*209.75"
	},
	{
		"name": "SAPLY",
		"latitude": "37-15-27.6 N",
		"longitude": "122-35-17.4 W",
		"state": "CALIFORNIA",
		"artcc": "ZOA",
		"type": "RP",
		"updated": "SJC*VOR/DME*241.37"
	},
	{
		"name": "SARDO",
		"latitude": "36-5-14.13 N",
		"longitude": "120-47-35.5 W",
		"state": "CALIFORNIA",
		"artcc": "ZOA",
		"type": "RP",
		"updated": "ROM*VOR*227.00"
	},
	{
		"name": "SARNE",
		"latitude": "37-18-17.52 N",
		"longitude": "120-29-29.92 W",
		"state": "CALIFORNIA",
		"artcc": "ZOA",
		"type": "RP",
		"updated": "HYP*VOR/DME*304.49/6.74"
	},
	{
		"name": "SARRA",
		"latitude": "39-46-3.56 N",
		"longitude": "120-49-8.01 W",
		"state": "CALIFORNIA",
		"artcc": "ZOA",
		"type": "MR",
		"updated": "ILA*VORTAC*035.00/70.00"
	},
	{
		"name": "SASSU",
		"latitude": "38-22-4.32 N",
		"longitude": "122-23-25.74 W",
		"state": "CALIFORNIA",
		"artcc": "ZOA",
		"type": "RP",
		"updated": "STS*VOR/DME*096.88"
	},
	{
		"name": "SATNE",
		"latitude": "39-58-19.1 N",
		"longitude": "122-5-44.14 W",
		"state": "CALIFORNIA",
		"artcc": "ZOA",
		"type": "RP",
		"updated": "RBL*VORTAC*121.51/10.00"
	},
	{
		"name": "SAVJO",
		"latitude": "39-5-29.9 N",
		"longitude": "123-28-22.69 W",
		"state": "CALIFORNIA",
		"artcc": "ZOA",
		"type": "RNAV",
		"updated": "08/20/2010"
	},
	{
		"name": "SAVPE",
		"latitude": "39-11-14.96 N",
		"longitude": "123-0-33.35 W",
		"state": "CALIFORNIA",
		"artcc": "ZOA",
		"type": "RNAV",
		"updated": "07/05/2009"
	},
	{
		"name": "SAWNA",
		"latitude": "38-52-6.45 N",
		"longitude": "122-24-6.38 W",
		"state": "CALIFORNIA",
		"artcc": "ZOA",
		"type": "RP",
		"updated": "CIC*VOR/DME*189.23/60.97"
	},
	{
		"name": "SAYOC",
		"latitude": "8-42-9.06 N",
		"longitude": "167-40-28.63 E",
		"state": "",
		"artcc": "ZOA",
		"type": "MW",
		"updated": "11/12/2008"
	},
	{
		"name": "SAYTO",
		"latitude": "20-41-49 N",
		"longitude": "151-1-9 W",
		"state": "OFFSHORE PACIFIC",
		"artcc": "ZOA",
		"type": "RNAV",
		"updated": "02/21/2008"
	},
	{
		"name": "SCOLA",
		"latitude": "38-44-3.36 N",
		"longitude": "118-39-7.98 W",
		"state": "NEVADA",
		"artcc": "ZOA",
		"type": "RNAV",
		"updated": "03/10/2010"
	},
	{
		"name": "SCOPR",
		"latitude": "37-9-18.3 N",
		"longitude": "121-37-49.32 W",
		"state": "CALIFORNIA",
		"artcc": "ZOA",
		"type": "RNAV",
		"updated": "02/17/2015"
	},
	{
		"name": "SCTWN",
		"latitude": "38-37-50.57 N",
		"longitude": "121-27-4.47 W",
		"state": "CALIFORNIA",
		"artcc": "ZOA",
		"type": "RNAV",
		"updated": "11/24/2014"
	},
	{
		"name": "SEAPO",
		"latitude": "38-8-48.16 N",
		"longitude": "122-28-13.35 W",
		"state": "CALIFORNIA",
		"artcc": "ZOA",
		"type": "RP",
		"updated": "SGD*VORTAC*229.99/5.00"
	},
	{
		"name": "SEATO",
		"latitude": "38-28-42.84 N",
		"longitude": "121-57-56.88 W",
		"state": "CALIFORNIA",
		"artcc": "ZOA",
		"type": "MR",
		"updated": "SUU*TACAN*339.00/14.00"
	},
	{
		"name": "SEBAE",
		"latitude": "38-26-36.26 N",
		"longitude": "121-33-7.06 W",
		"state": "CALIFORNIA",
		"artcc": "ZOA",
		"type": "RNAV",
		"updated": "10/03/2008"
	},
	{
		"name": "SEDAR",
		"latitude": "45-30-25.61 N",
		"longitude": "126-43-2.86 W",
		"state": "OFFSHORE PACIFIC",
		"artcc": "ZOA",
		"type": "RP",
		"updated": "04/01/2002"
	},
	{
		"name": "SEDOC",
		"latitude": "37-36-24.58 N",
		"longitude": "118-40-48.98 W",
		"state": "CALIFORNIA",
		"artcc": "ZOA",
		"type": "RNAV",
		"updated": "12/23/2014"
	},
	{
		"name": "SEDTO",
		"latitude": "40-7-28.37 N",
		"longitude": "119-49-13.32 W",
		"state": "NEVADA",
		"artcc": "ZOA",
		"type": "RP",
		"updated": "FMG*VORTAC*332.00/36.37"
	},
	{
		"name": "SEEMS",
		"latitude": "37-35-33.77 N",
		"longitude": "122-39-25.74 W",
		"state": "CALIFORNIA",
		"artcc": "ZOA",
		"type": "RP",
		"updated": "PYE*VOR/DME*144.00/30.86"
	},
	{
		"name": "SEGUL",
		"latitude": "36-57-46.93 N",
		"longitude": "122-34-19.67 W",
		"state": "CALIFORNIA",
		"artcc": "ZOA",
		"type": "RP",
		"updated": "PYE*VOR/DME*151.00/68.40"
	},
	{
		"name": "SEKAW",
		"latitude": "39-39-56.28 N",
		"longitude": "119-45-58.9 W",
		"state": "NEVADA",
		"artcc": "ZOA",
		"type": "RNAV",
		"updated": "08/07/2008"
	},
	{
		"name": "SEKKO",
		"latitude": "37-7-46.31 N",
		"longitude": "121-24-3.01 W",
		"state": "CALIFORNIA",
		"artcc": "ZOA",
		"type": "RNAV",
		"updated": "06/25/2015"
	},
	{
		"name": "SEKVE",
		"latitude": "39-11-56.37 N",
		"longitude": "121-59-10.02 W",
		"state": "CALIFORNIA",
		"artcc": "ZOA",
		"type": "RNAV",
		"updated": "02/13/2007"
	},
	{
		"name": "SELMA",
		"latitude": "36-38-57.85 N",
		"longitude": "119-33-43.16 W",
		"state": "CALIFORNIA",
		"artcc": "ZOA",
		"type": "RP",
		"updated": "FRA*VORTAC*159.61"
	},
	{
		"name": "SEMAH",
		"latitude": "36-40-22.91 N",
		"longitude": "119-44-49.19 W",
		"state": "CALIFORNIA",
		"artcc": "ZOA",
		"type": "WP",
		"updated": "02/05/1996"
	},
	{
		"name": "SENZY",
		"latitude": "37-39-59.4 N",
		"longitude": "122-29-6.6 W",
		"state": "CALIFORNIA",
		"artcc": "ZOA",
		"type": "RP",
		"updated": "SFO*VOR/DME*281.02/6.00"
	},
	{
		"name": "SEPDY",
		"latitude": "37-41-8.4 N",
		"longitude": "122-21-49.2 W",
		"state": "CALIFORNIA",
		"artcc": "ZOA",
		"type": "RP",
		"updated": "SFO*VOR/DME*350.00/4.00"
	},
	{
		"name": "SERFR",
		"latitude": "36-4-5.9 N",
		"longitude": "121-21-52.79 W",
		"state": "CALIFORNIA",
		"artcc": "ZOA",
		"type": "RNAV",
		"updated": "01/07/2015"
	},
	{
		"name": "SERVY",
		"latitude": "39-0-15.95 N",
		"longitude": "119-58-26.85 W",
		"state": "CALIFORNIA",
		"artcc": "ZOA",
		"type": "WP",
		"updated": "11/02/1998"
	},
	{
		"name": "SETSE",
		"latitude": "38-11-25.32 N",
		"longitude": "122-0-28.88 W",
		"state": "CALIFORNIA",
		"artcc": "ZOA",
		"type": "RP",
		"updated": "SUU*TACAN*205.00/4.45"
	},
	{
		"name": "SEVUH",
		"latitude": "38-3-3 N",
		"longitude": "121-51-42.2 W",
		"state": "CALIFORNIA",
		"artcc": "ZOA",
		"type": "RP",
		"updated": "CCR*VOR/DME*070.61/8.70"
	},
	{
		"name": "SEWOF",
		"latitude": "36-51-9.23 N",
		"longitude": "121-48-27.12 W",
		"state": "CALIFORNIA",
		"artcc": "ZOA",
		"type": "RP",
		"updated": "SNS*VORTAC*302.00/15.00"
	},
	{
		"name": "SHAKE",
		"latitude": "37-45-14.54 N",
		"longitude": "122-16-58.52 W",
		"state": "CALIFORNIA",
		"artcc": "ZOA",
		"type": "RP",
		"updated": "SAU*VOR/DME*100.95/12.92"
	},
	{
		"name": "SHARR",
		"latitude": "37-47-48.64 N",
		"longitude": "121-16-31.06 W",
		"state": "CALIFORNIA",
		"artcc": "ZOA",
		"type": "RNAV",
		"updated": "05/08/2017"
	},
	{
		"name": "SHATA",
		"latitude": "40-39-12.06 N",
		"longitude": "122-28-2.53 W",
		"state": "CALIFORNIA",
		"artcc": "ZOA",
		"type": "RP",
		"updated": "RBL*VORTAC*324.40/34.89"
	},
	{
		"name": "SHAVY",
		"latitude": "37-9-41.14 N",
		"longitude": "119-19-13.11 W",
		"state": "CALIFORNIA",
		"artcc": "ZOA",
		"type": "RP",
		"updated": "CZQ*VORTAC*039.92/29.00"
	},
	{
		"name": "SHAWS",
		"latitude": "14-43-24 N",
		"longitude": "143-37-12 E",
		"state": "OFFSHORE PACIFIC",
		"artcc": "ZOA",
		"type": "RNAV",
		"updated": "06/27/2007"
	},
	{
		"name": "SHELD",
		"latitude": "38-31-3.17 N",
		"longitude": "121-11-53.01 W",
		"state": "CALIFORNIA",
		"artcc": "ZOA",
		"type": "RP",
		"updated": "LIN*VOR/DME*324.00"
	},
	{
		"name": "SHELI",
		"latitude": "37-36-43.8 N",
		"longitude": "121-5-33.49 W",
		"state": "CALIFORNIA",
		"artcc": "ZOA",
		"type": "RNAV",
		"updated": "04/24/2017"
	},
	{
		"name": "SHENU",
		"latitude": "40-0-23 N",
		"longitude": "127-0-0 W",
		"state": "OFFSHORE PACIFIC",
		"artcc": "ZOA",
		"type": "RP",
		"updated": "08/27/2003"
	},
	{
		"name": "SHERI",
		"latitude": "39-2-44.15 N",
		"longitude": "121-22-56.94 W",
		"state": "CALIFORNIA",
		"artcc": "ZOA",
		"type": "MR",
		"updated": "BAB*TACAN*137.00/6.00"
	},
	{
		"name": "SHIKK",
		"latitude": "37-0-3.89 N",
		"longitude": "121-30-57.39 W",
		"state": "CALIFORNIA",
		"artcc": "ZOA",
		"type": "RNAV",
		"updated": "02/17/2015"
	},
	{
		"name": "SHIMR",
		"latitude": "38-13-59.13 N",
		"longitude": "120-5-47.31 W",
		"state": "CALIFORNIA",
		"artcc": "ZOA",
		"type": "RNAV",
		"updated": "09/19/2017"
	},
	{
		"name": "SHLTR",
		"latitude": "39-23-22.46 N",
		"longitude": "121-16-49.98 W",
		"state": "CALIFORNIA",
		"artcc": "ZOA",
		"type": "MR",
		"updated": "BAB*TACAN*010.00/17.00"
	},
	{
		"name": "SHODA",
		"latitude": "15-8-33.7 N",
		"longitude": "145-47-16.47 E",
		"state": "GUAM",
		"artcc": "ZOA",
		"type": "RNAV",
		"updated": "02/06/2017"
	},
	{
		"name": "SHOEY",
		"latitude": "36-44-45.53 N",
		"longitude": "122-8-9.4 W",
		"state": "CALIFORNIA",
		"artcc": "ZOA",
		"type": "RP",
		"updated": "SNS*VORTAC*264.00/26.17"
	},
	{
		"name": "SHOLE",
		"latitude": "39-4-14.03 N",
		"longitude": "119-57-45.62 W",
		"state": "NEVADA",
		"artcc": "ZOA",
		"type": "RP",
		"updated": "TVL*DD*N CRS/9.70"
	},
	{
		"name": "SHOUT",
		"latitude": "38-48-0 N",
		"longitude": "117-18-30 W",
		"state": "NEVADA",
		"artcc": "ZOA",
		"type": "RNAV",
		"updated": "06/21/2006"
	},
	{
		"name": "SHREE",
		"latitude": "5-39-0 N",
		"longitude": "131-9-24 E",
		"state": "OFFSHORE PACIFIC",
		"artcc": "ZOA",
		"type": "RP",
		"updated": "10/26/1995"
	},
	{
		"name": "SHVVR",
		"latitude": "37-14-23.61 N",
		"longitude": "119-48-48.82 W",
		"state": "CALIFORNIA",
		"artcc": "ZOA",
		"type": "RNAV",
		"updated": "09/21/2014"
	},
	{
		"name": "SIBAE",
		"latitude": "37-14-36.97 N",
		"longitude": "121-52-13.62 W",
		"state": "CALIFORNIA",
		"artcc": "ZOA",
		"type": "RNAV",
		"updated": "01/29/2015"
	},
	{
		"name": "SIBME",
		"latitude": "37-59-5.12 N",
		"longitude": "122-31-37.68 W",
		"state": "CALIFORNIA",
		"artcc": "ZOA",
		"type": "RNAV",
		"updated": "09/08/2003"
	},
	{
		"name": "SIBOC",
		"latitude": "36-43-53.42 N",
		"longitude": "119-24-48.53 W",
		"state": "CALIFORNIA",
		"artcc": "ZOA",
		"type": "RP",
		"updated": "FRA*VORTAC*141.55/24.00"
	},
	{
		"name": "SIDBY",
		"latitude": "37-27-2.56 N",
		"longitude": "122-8-41.09 W",
		"state": "CALIFORNIA",
		"artcc": "ZOA",
		"type": "RNAV",
		"updated": "01/23/2018"
	},
	{
		"name": "SIDMY",
		"latitude": "38-7-21.66 N",
		"longitude": "121-48-19.09 W",
		"state": "CALIFORNIA",
		"artcc": "ZOA",
		"type": "RP",
		"updated": "SAC*VORTAC*194.99/22.67"
	},
	{
		"name": "SIDOY",
		"latitude": "39-49-7.22 N",
		"longitude": "120-28-8.86 W",
		"state": "CALIFORNIA",
		"artcc": "ZOA",
		"type": "RNAV",
		"updated": "05/16/2006"
	},
	{
		"name": "SIGBY",
		"latitude": "37-40-28.24 N",
		"longitude": "121-18-49.01 W",
		"state": "CALIFORNIA",
		"artcc": "ZOA",
		"type": "RP",
		"updated": "MOD*VOR/DME*262.57/17.18"
	},
	{
		"name": "SIGNA",
		"latitude": "39-20-49.57 N",
		"longitude": "120-38-20.84 W",
		"state": "CALIFORNIA",
		"artcc": "ZOA",
		"type": "RP",
		"updated": "SWR*VOR/DME*284.26"
	},
	{
		"name": "SIKEW",
		"latitude": "37-16-16.49 N",
		"longitude": "121-46-13.45 W",
		"state": "CALIFORNIA",
		"artcc": "ZOA",
		"type": "RNAV",
		"updated": "06/14/2010"
	},
	{
		"name": "SILCN",
		"latitude": "36-21-13.12 N",
		"longitude": "121-17-26.83 W",
		"state": "CALIFORNIA",
		"artcc": "ZOA",
		"type": "RNAV",
		"updated": "06/25/2015"
	},
	{
		"name": "SILUE",
		"latitude": "36-5-13 N",
		"longitude": "119-48-32.53 W",
		"state": "CALIFORNIA",
		"artcc": "ZOA",
		"type": "MW",
		"updated": "04/19/2018"
	},
	{
		"name": "SIMMS",
		"latitude": "37-45-36.95 N",
		"longitude": "121-1-7.72 W",
		"state": "CALIFORNIA",
		"artcc": "ZOA",
		"type": "RP",
		"updated": "LIN*VOR/DME*165.16"
	},
	{
		"name": "SINKE",
		"latitude": "36-5-5.38 N",
		"longitude": "119-49-26.95 W",
		"state": "CALIFORNIA",
		"artcc": "ZOA",
		"type": "MW",
		"updated": "NLC*TACAN*142.00/17.00"
	},
	{
		"name": "SIPJY",
		"latitude": "40-23-27 N",
		"longitude": "122-30-26.4 W",
		"state": "CALIFORNIA",
		"artcc": "ZOA",
		"type": "CN",
		"updated": "12/18/2002"
	},
	{
		"name": "SIPLY",
		"latitude": "37-35-7.2 N",
		"longitude": "122-14-0.6 W",
		"state": "CALIFORNIA",
		"artcc": "ZOA",
		"type": "RP",
		"updated": "SFO*VOR/DME*089.96/7.00"
	},
	{
		"name": "SIPZY",
		"latitude": "36-49-53.58 N",
		"longitude": "119-59-34.3 W",
		"state": "CALIFORNIA",
		"artcc": "ZOA",
		"type": "WP",
		"updated": "11/02/1998"
	},
	{
		"name": "SISGY",
		"latitude": "36-15-47.05 N",
		"longitude": "121-24-52.58 W",
		"state": "CALIFORNIA",
		"artcc": "ZOA",
		"type": "RNAV",
		"updated": "07/06/2009"
	},
	{
		"name": "SITJI",
		"latitude": "37-36-14 N",
		"longitude": "122-0-48.11 W",
		"state": "CALIFORNIA",
		"artcc": "ZOA",
		"type": "RP",
		"updated": "OAK*VOR/DME*109.07"
	},
	{
		"name": "SIWBI",
		"latitude": "37-30-17.49 N",
		"longitude": "122-4-33.98 W",
		"state": "CALIFORNIA",
		"artcc": "ZOA",
		"type": "RP",
		"updated": "OAK*VOR/DME*135.00/15.00"
	},
	{
		"name": "SIXDY",
		"latitude": "37-38-49.2 N",
		"longitude": "122-8-45.84 W",
		"state": "CALIFORNIA",
		"artcc": "ZOA",
		"type": "RP",
		"updated": "OAK*VOR/DME*125.00/6.00"
	},
	{
		"name": "SIXTO",
		"latitude": "39-6-5.58 N",
		"longitude": "121-56-16.7 W",
		"state": "CALIFORNIA",
		"artcc": "ZOA",
		"type": "RNAV",
		"updated": "08/04/2017"
	},
	{
		"name": "SIZXO",
		"latitude": "37-21-26.32 N",
		"longitude": "121-58-41.59 W",
		"state": "CALIFORNIA",
		"artcc": "ZOA",
		"type": "RP",
		"updated": "OAK*VOR/DME*135.00/25.00"
	},
	{
		"name": "SKIZM",
		"latitude": "37-7-54.63 N",
		"longitude": "121-15-24.76 W",
		"state": "CALIFORNIA",
		"artcc": "ZOA",
		"type": "RNAV",
		"updated": "09/28/2015"
	},
	{
		"name": "SKUNK",
		"latitude": "37-0-27.34 N",
		"longitude": "122-1-59.62 W",
		"state": "CALIFORNIA",
		"artcc": "ZOA",
		"type": "RP",
		"updated": "OAK*VOR/DME*151.00/44.00"
	},
	{
		"name": "SLABS",
		"latitude": "39-42-24.18 N",
		"longitude": "119-38-29.36 W",
		"state": "NEVADA",
		"artcc": "ZOA",
		"type": "RNAV",
		"updated": "04/20/2016"
	},
	{
		"name": "SLACK",
		"latitude": "36-49-36.48 N",
		"longitude": "119-48-18.66 W",
		"state": "CALIFORNIA",
		"artcc": "ZOA",
		"type": "RP",
		"updated": "CZQ*VORTAC*157.08/3.48"
	},
	{
		"name": "SLADE",
		"latitude": "38-56-15 N",
		"longitude": "117-23-30 W",
		"state": "NEVADA",
		"artcc": "ZOA",
		"type": "RP",
		"updated": "NFL*TACAN*100.71/67.68"
	},
	{
		"name": "SLMMR",
		"latitude": "39-4-27.45 N",
		"longitude": "120-41-23.93 W",
		"state": "CALIFORNIA",
		"artcc": "ZOA",
		"type": "RNAV",
		"updated": "09/17/2014"
	},
	{
		"name": "SMONE",
		"latitude": "37-32-10.45 N",
		"longitude": "121-21-30.65 W",
		"state": "CALIFORNIA",
		"artcc": "ZOA",
		"type": "RNAV",
		"updated": "09/30/2017"
	},
	{
		"name": "SMURA",
		"latitude": "38-7-0.19 N",
		"longitude": "119-59-46.8 W",
		"state": "CALIFORNIA",
		"artcc": "ZOA",
		"type": "RNAV",
		"updated": "04/21/2017"
	},
	{
		"name": "SNKIS",
		"latitude": "38-46-7.57 N",
		"longitude": "119-40-57.18 W",
		"state": "CALIFORNIA",
		"artcc": "ZOA",
		"type": "RNAV",
		"updated": "03/10/2010"
	},
	{
		"name": "SNORA",
		"latitude": "37-38-44 N",
		"longitude": "119-48-22.66 W",
		"state": "CALIFORNIA",
		"artcc": "ZOA",
		"type": "RNAV",
		"updated": "07/11/2005"
	},
	{
		"name": "SNTNA",
		"latitude": "37-50-16.03 N",
		"longitude": "122-26-3.26 W",
		"state": "CALIFORNIA",
		"artcc": "ZOA",
		"type": "RNAV",
		"updated": "09/25/2014"
	},
	{
		"name": "SNUPY",
		"latitude": "38-30-6.16 N",
		"longitude": "122-40-17.43 W",
		"state": "CALIFORNIA",
		"artcc": "ZOA",
		"type": "RP",
		"updated": "SGD*VORTAC*307.00/23.91"
	},
	{
		"name": "SOBTE",
		"latitude": "39-22-45.79 N",
		"longitude": "123-47-50.11 W",
		"state": "CALIFORNIA",
		"artcc": "ZOA",
		"type": "RNAV",
		"updated": "05/04/2009"
	},
	{
		"name": "SOKOY",
		"latitude": "38-26-7.64 N",
		"longitude": "121-50-15.3 W",
		"state": "CALIFORNIA",
		"artcc": "ZOA",
		"type": "RP",
		"updated": "ILA*VORTAC*148.79/39.13"
	},
	{
		"name": "SOKRE",
		"latitude": "36-53-6.22 N",
		"longitude": "120-7-36.33 W",
		"state": "CALIFORNIA",
		"artcc": "ZOA",
		"type": "RP",
		"updated": "HYP*VOR/DME*131.67"
	},
	{
		"name": "SONNY",
		"latitude": "38-20-8.69 N",
		"longitude": "119-29-4.29 W",
		"state": "CALIFORNIA",
		"artcc": "ZOA",
		"type": "RP",
		"updated": "FMG*VORTAC*157.55/72.12"
	},
	{
		"name": "SOOIE",
		"latitude": "37-25-42.86 N",
		"longitude": "121-36-27.5 W",
		"state": "CALIFORNIA",
		"artcc": "ZOA",
		"type": "RNAV",
		"updated": "02/23/2015"
	},
	{
		"name": "SOPEE",
		"latitude": "38-20-3.88 N",
		"longitude": "121-49-29.2 W",
		"state": "CALIFORNIA",
		"artcc": "ZOA",
		"type": "MW",
		"updated": "05/18/2017"
	},
	{
		"name": "SOWEL",
		"latitude": "39-25-15.49 N",
		"longitude": "121-25-33.97 W",
		"state": "CALIFORNIA",
		"artcc": "ZOA",
		"type": "MR",
		"updated": "ILA*VORTAC*035.00/35.00"
	},
	{
		"name": "SOYOK",
		"latitude": "37-44-28.12 N",
		"longitude": "122-15-51.78 W",
		"state": "CALIFORNIA",
		"artcc": "ZOA",
		"type": "RNAV",
		"updated": "06/01/2006"
	},
	{
		"name": "SPAMY",
		"latitude": "39-12-2.38 N",
		"longitude": "122-35-27.75 W",
		"state": "CALIFORNIA",
		"artcc": "ZOA",
		"type": "RNAV",
		"updated": "12/16/2014"
	},
	{
		"name": "SPERS",
		"latitude": "38-32-43.45 N",
		"longitude": "121-41-31.69 W",
		"state": "CALIFORNIA",
		"artcc": "ZOA",
		"type": "RP",
		"updated": "SAC*VORTAC*295.70/9.00"
	},
	{
		"name": "SPLTM",
		"latitude": "39-31-58.91 N",
		"longitude": "119-36-12.19 W",
		"state": "NEVADA",
		"artcc": "ZOA",
		"type": "RNAV",
		"updated": "06/29/2011"
	},
	{
		"name": "SPONJ",
		"latitude": "49-22-0 N",
		"longitude": "130-5-6 W",
		"state": "OFFSHORE PACIFIC",
		"artcc": "ZOA",
		"type": "RP",
		"updated": "03/29/2000"
	},
	{
		"name": "SPOOK",
		"latitude": "38-37-57 N",
		"longitude": "120-15-51.41 W",
		"state": "CALIFORNIA",
		"artcc": "ZOA",
		"type": "RP",
		"updated": "LIN*VOR/DME*029.00/48.34"
	},
	{
		"name": "SPOON",
		"latitude": "39-6-26.2 N",
		"longitude": "119-46-13.12 W",
		"state": "NEVADA",
		"artcc": "ZOA",
		"type": "RP",
		"updated": "RNO*LD*164.12/22.34"
	},
	{
		"name": "SPOTS",
		"latitude": "38-1-20.04 N",
		"longitude": "123-50-8.58 W",
		"state": "CALIFORNIA",
		"artcc": "ZOA",
		"type": "MR",
		"updated": "PYE*VOR/DME*249.00/46.00"
	},
	{
		"name": "SPTNS",
		"latitude": "37-19-39.71 N",
		"longitude": "121-47-12.91 W",
		"state": "CALIFORNIA",
		"artcc": "ZOA",
		"type": "RNAV",
		"updated": "11/24/2014"
	},
	{
		"name": "SPYKE",
		"latitude": "39-10-6 N",
		"longitude": "121-22-6 W",
		"state": "CALIFORNIA",
		"artcc": "ZOA",
		"type": "RNAV",
		"updated": "04/13/2010"
	},
	{
		"name": "SQIRL",
		"latitude": "37-35-39.95 N",
		"longitude": "122-23-20.13 W",
		"state": "CALIFORNIA",
		"artcc": "ZOA",
		"type": "RNAV",
		"updated": "11/21/2016"
	},
	{
		"name": "SRENA",
		"latitude": "36-31-23.21 N",
		"longitude": "120-34-48.24 W",
		"state": "CALIFORNIA",
		"artcc": "ZOA",
		"type": "RP",
		"updated": "PXN*VORTAC*124.17/14.99"
	},
	{
		"name": "SSEBB",
		"latitude": "36-58-26.49 N",
		"longitude": "121-37-55.73 W",
		"state": "CALIFORNIA",
		"artcc": "ZOA",
		"type": "RNAV",
		"updated": "01/12/2015"
	},
	{
		"name": "SSSAM",
		"latitude": "37-36-9.23 N",
		"longitude": "118-45-36.77 W",
		"state": "CALIFORNIA",
		"artcc": "ZOA",
		"type": "RNAV",
		"updated": "09/16/2016"
	},
	{
		"name": "SSTIK",
		"latitude": "37-40-42.04 N",
		"longitude": "122-21-41.97 W",
		"state": "CALIFORNIA",
		"artcc": "ZOA",
		"type": "RNAV",
		"updated": "11/24/2014"
	},
	{
		"name": "STARW",
		"latitude": "39-45-9.65 N",
		"longitude": "121-49-19.75 W",
		"state": "CALIFORNIA",
		"artcc": "ZOA",
		"type": "RNAV",
		"updated": "05/18/2009"
	},
	{
		"name": "STCLR",
		"latitude": "37-23-53.06 N",
		"longitude": "121-58-7.3 W",
		"state": "CALIFORNIA",
		"artcc": "ZOA",
		"type": "RNAV",
		"updated": "11/24/2014"
	},
	{
		"name": "STEEV",
		"latitude": "37-25-35.74 N",
		"longitude": "121-33-2.56 W",
		"state": "CALIFORNIA",
		"artcc": "ZOA",
		"type": "RNAV",
		"updated": "07/11/2005"
	},
	{
		"name": "STEFF",
		"latitude": "6-59-12 N",
		"longitude": "165-15-18 E",
		"state": "OFFSHORE PACIFIC",
		"artcc": "ZOA",
		"type": "RP",
		"updated": "11/17/2008"
	},
	{
		"name": "STENO",
		"latitude": "36-35-38.18 N",
		"longitude": "121-51-53.67 W",
		"state": "CALIFORNIA",
		"artcc": "ZOA",
		"type": "RP",
		"updated": "MRY*LD*277.74/1.70"
	},
	{
		"name": "STIKM",
		"latitude": "38-32-0 N",
		"longitude": "122-39-0 W",
		"state": "CALIFORNIA",
		"artcc": "ZOA",
		"type": "RNAV",
		"updated": "03/12/2018"
	},
	{
		"name": "STINS",
		"latitude": "37-49-25.24 N",
		"longitude": "122-45-24.06 W",
		"state": "CALIFORNIA",
		"artcc": "ZOA",
		"type": "RP",
		"updated": "PYE*VOR/DME*144.00/16.23"
	},
	{
		"name": "STLER",
		"latitude": "37-42-4.91 N",
		"longitude": "122-42-39.83 W",
		"state": "CALIFORNIA",
		"artcc": "ZOA",
		"type": "RNAV",
		"updated": "01/08/2015"
	},
	{
		"name": "STNGR",
		"latitude": "38-41-15.94 N",
		"longitude": "121-3-52.55 W",
		"state": "CALIFORNIA",
		"artcc": "ZOA",
		"type": "RNAV",
		"updated": "10/06/2010"
	},
	{
		"name": "STORI",
		"latitude": "36-43-35.54 N",
		"longitude": "119-37-46.24 W",
		"state": "CALIFORNIA",
		"artcc": "ZOA",
		"type": "RP",
		"updated": "FAT*LD*112.36/6.12"
	},
	{
		"name": "STRAT",
		"latitude": "36-9-14.33 N",
		"longitude": "119-42-22.78 W",
		"state": "CALIFORNIA",
		"artcc": "ZOA",
		"type": "MR",
		"updated": "NLC*TACAN*118.00/17.00"
	},
	{
		"name": "STSHH",
		"latitude": "38-6-36.88 N",
		"longitude": "119-40-16.09 W",
		"state": "CALIFORNIA",
		"artcc": "ZOA",
		"type": "RNAV",
		"updated": "02/17/2015"
	},
	{
		"name": "STUBL",
		"latitude": "37-13-39.9 N",
		"longitude": "119-56-49.16 W",
		"state": "CALIFORNIA",
		"artcc": "ZOA",
		"type": "RNAV",
		"updated": "02/17/2015"
	},
	{
		"name": "SUCOL",
		"latitude": "37-30-13.65 N",
		"longitude": "120-1-36.65 W",
		"state": "CALIFORNIA",
		"artcc": "ZOA",
		"type": "RNAV",
		"updated": "11/09/2004"
	},
	{
		"name": "SUDGE",
		"latitude": "37-34-35.12 N",
		"longitude": "121-56-33.57 W",
		"state": "CALIFORNIA",
		"artcc": "ZOA",
		"type": "RNAV",
		"updated": "10/05/2012"
	},
	{
		"name": "SUGPE",
		"latitude": "36-15-11.08 N",
		"longitude": "121-4-14.42 W",
		"state": "CALIFORNIA",
		"artcc": "ZOA",
		"type": "RNAV",
		"updated": "01/06/2010"
	},
	{
		"name": "SUKOE",
		"latitude": "39-20-52 N",
		"longitude": "121-55-36.3 W",
		"state": "CALIFORNIA",
		"artcc": "ZOA",
		"type": "RNAV",
		"updated": "11/17/2017"
	},
	{
		"name": "SULRR",
		"latitude": "37-51-36.32 N",
		"longitude": "121-23-9.33 W",
		"state": "CALIFORNIA",
		"artcc": "ZOA",
		"type": "RNAV",
		"updated": "03/02/2015"
	},
	{
		"name": "SULUE",
		"latitude": "13-34-18.76 N",
		"longitude": "144-54-31.12 E",
		"state": "GUAM",
		"artcc": "ZOA",
		"type": "MR",
		"updated": "UAM*TACAN*/2.50"
	},
	{
		"name": "SUNGE",
		"latitude": "36-25-13.24 N",
		"longitude": "120-0-29.99 W",
		"state": "CALIFORNIA",
		"artcc": "ZOA",
		"type": "MR",
		"updated": "NLC*TACAN*322.00/5.00"
	},
	{
		"name": "SUNNE",
		"latitude": "37-26-17.63 N",
		"longitude": "122-0-46.1 W",
		"state": "CALIFORNIA",
		"artcc": "ZOA",
		"type": "RP",
		"updated": "SJC*VOR/DME*303.47/5.01"
	},
	{
		"name": "SUNOL",
		"latitude": "37-36-19.91 N",
		"longitude": "121-48-37.01 W",
		"state": "CALIFORNIA",
		"artcc": "ZOA",
		"type": "RP",
		"updated": "LIN*VOR/DME*216.99"
	},
	{
		"name": "SUPER",
		"latitude": "37-18-9.59 N",
		"longitude": "123-48-46.87 W",
		"state": "OFFSHORE PACIFIC",
		"artcc": "ZOA",
		"type": "RP",
		"updated": "OAK*VOR/DME*235.00/80.00"
	},
	{
		"name": "SURAE",
		"latitude": "37-33-5.24 N",
		"longitude": "120-9-57.5 W",
		"state": "CALIFORNIA",
		"artcc": "ZOA",
		"type": "RNAV",
		"updated": "11/09/2004"
	},
	{
		"name": "SUSEY",
		"latitude": "36-25-56.87 N",
		"longitude": "121-3-47.99 W",
		"state": "CALIFORNIA",
		"artcc": "ZOA",
		"type": "RNAV",
		"updated": "11/24/2014"
	},
	{
		"name": "SUTEE",
		"latitude": "39-19-23.72 N",
		"longitude": "119-46-1.97 W",
		"state": "NEVADA",
		"artcc": "ZOA",
		"type": "RNAV",
		"updated": "08/07/2008"
	},
	{
		"name": "SUTHU",
		"latitude": "38-57-20.4 N",
		"longitude": "122-6-48.6 W",
		"state": "CALIFORNIA",
		"artcc": "ZOA",
		"type": "RP",
		"updated": "MYV*VOR/DME*235.43"
	},
	{
		"name": "SUTRO",
		"latitude": "37-42-43.27 N",
		"longitude": "122-32-48.54 W",
		"state": "CALIFORNIA",
		"artcc": "ZOA",
		"type": "RP",
		"updated": "SFO*VOR/DME*287.00/10.00"
	},
	{
		"name": "SUUTR",
		"latitude": "37-28-9.53 N",
		"longitude": "120-23-36.04 W",
		"state": "CALIFORNIA",
		"artcc": "ZOA",
		"type": "RNAV",
		"updated": "03/09/2015"
	},
	{
		"name": "SUYYO",
		"latitude": "39-24-11.52 N",
		"longitude": "120-14-43.82 W",
		"state": "CALIFORNIA",
		"artcc": "ZOA",
		"type": "RNAV",
		"updated": "10/20/2014"
	},
	{
		"name": "SUZIQ",
		"latitude": "36-17-32.18 N",
		"longitude": "119-56-16.16 W",
		"state": "CALIFORNIA",
		"artcc": "ZOA",
		"type": "MR",
		"updated": "NLC*TACAN*142.00/3.40"
	},
	{
		"name": "SUZSU",
		"latitude": "38-22-20.86 N",
		"longitude": "120-47-46.1 W",
		"state": "CALIFORNIA",
		"artcc": "ZOA",
		"type": "WP",
		"updated": "11/02/1998"
	},
	{
		"name": "SWIGS",
		"latitude": "37-12-28.18 N",
		"longitude": "121-38-17.6 W",
		"state": "CALIFORNIA",
		"artcc": "ZOA",
		"type": "RNAV",
		"updated": "02/23/2015"
	},
	{
		"name": "SWOOP",
		"latitude": "36-18-59.78 N",
		"longitude": "118-35-5.06 W",
		"state": "CALIFORNIA",
		"artcc": "ZOA",
		"type": "MR",
		"updated": "NLC*TACAN*075.00/67.00"
	},
	{
		"name": "SYRAH",
		"latitude": "37-59-27.78 N",
		"longitude": "121-6-11.12 W",
		"state": "CALIFORNIA",
		"artcc": "ZOA",
		"type": "RNAV",
		"updated": "09/25/2014"
	},
	{
		"name": "SYSTA",
		"latitude": "21-5-39 N",
		"longitude": "171-59-22 W",
		"state": "OFFSHORE PACIFIC",
		"artcc": "ZOA",
		"type": "RNAV",
		"updated": "03/14/2011"
	}
]
