[
	{
		"name": "UBBEP",
		"latitude": "36-44-13.6 N",
		"longitude": "121-39-48.87 W",
		"state": "CALIFORNIA",
		"artcc": "ZOA",
		"type": "RNAV",
		"updated": "07/06/2009"
	},
	{
		"name": "UBIPE",
		"latitude": "37-13-58.91 N",
		"longitude": "121-44-25.6 W",
		"state": "CALIFORNIA",
		"artcc": "ZOA",
		"type": "RNAV",
		"updated": "06/14/2010"
	},
	{
		"name": "UBIYI",
		"latitude": "38-19-13.07 N",
		"longitude": "121-39-13.17 W",
		"state": "CALIFORNIA",
		"artcc": "ZOA",
		"type": "CN",
		"updated": "10/06/2008"
	},
	{
		"name": "UBKAW",
		"latitude": "36-41-33 N",
		"longitude": "121-53-49.8 W",
		"state": "CALIFORNIA",
		"artcc": "ZOA",
		"type": "CN",
		"updated": "12/22/2003"
	},
	{
		"name": "UBOBY",
		"latitude": "36-39-41.4 N",
		"longitude": "121-54-54 W",
		"state": "CALIFORNIA",
		"artcc": "ZOA",
		"type": "CN",
		"updated": "12/19/2003"
	},
	{
		"name": "UCEVE",
		"latitude": "38-35-0.21 N",
		"longitude": "122-52-31.86 W",
		"state": "CALIFORNIA",
		"artcc": "ZOA",
		"type": "RNAV",
		"updated": "10/06/2014"
	},
	{
		"name": "UCOLE",
		"latitude": "7-34-42.16 N",
		"longitude": "151-57-50.13 E",
		"state": "",
		"artcc": "ZOA",
		"type": "RNAV",
		"updated": "12/05/2017"
	},
	{
		"name": "UCSIJ",
		"latitude": "37-41-26.26 N",
		"longitude": "121-25-21.15 W",
		"state": "CALIFORNIA",
		"artcc": "ZOA",
		"type": "RNAV",
		"updated": "03/30/2017"
	},
	{
		"name": "UDADY",
		"latitude": "39-37-53.5 N",
		"longitude": "119-46-8.05 W",
		"state": "NEVADA",
		"artcc": "ZOA",
		"type": "RNAV",
		"updated": "08/13/2008"
	},
	{
		"name": "UDEXE",
		"latitude": "7-31-12.82 N",
		"longitude": "151-54-12.79 E",
		"state": "",
		"artcc": "ZOA",
		"type": "RNAV",
		"updated": "12/05/2017"
	},
	{
		"name": "UFUZO",
		"latitude": "7-2-32.72 N",
		"longitude": "171-10-48.19 E",
		"state": "",
		"artcc": "ZOA",
		"type": "RNAV",
		"updated": "08/10/2017"
	},
	{
		"name": "UGEVY",
		"latitude": "9-36-18.42 N",
		"longitude": "138-19-2.84 E",
		"state": "",
		"artcc": "ZOA",
		"type": "RNAV",
		"updated": "08/28/2003"
	},
	{
		"name": "UGTAC",
		"latitude": "36-39-1.18 N",
		"longitude": "121-35-44.63 W",
		"state": "CALIFORNIA",
		"artcc": "ZOA",
		"type": "RNAV",
		"updated": "07/06/2009"
	},
	{
		"name": "UGUYA",
		"latitude": "38-43-21.07 N",
		"longitude": "123-23-49.4 W",
		"state": "CALIFORNIA",
		"artcc": "ZOA",
		"type": "RNAV",
		"updated": "05/21/2009"
	},
	{
		"name": "UHHUT",
		"latitude": "37-41-27.38 N",
		"longitude": "121-30-20.69 W",
		"state": "CALIFORNIA",
		"artcc": "ZOA",
		"type": "RP",
		"updated": "LVK*LD*074.58/15.52"
	},
	{
		"name": "UKDOW",
		"latitude": "40-17-24.13 N",
		"longitude": "122-17-42.89 W",
		"state": "CALIFORNIA",
		"artcc": "ZOA",
		"type": "RNAV",
		"updated": "10/16/2006"
	},
	{
		"name": "UKUGY",
		"latitude": "15-15-6.92 N",
		"longitude": "146-0-44.08 E",
		"state": "N MARIANA ISLANDS",
		"artcc": "ZOA",
		"type": "RNAV",
		"updated": "11/22/2010"
	},
	{
		"name": "ULAHY",
		"latitude": "39-13-14.88 N",
		"longitude": "121-5-26.7 W",
		"state": "CALIFORNIA",
		"artcc": "ZOA",
		"type": "RNAV",
		"updated": "01/24/2017"
	},
	{
		"name": "ULENY",
		"latitude": "36-51-41.94 N",
		"longitude": "121-22-5.39 W",
		"state": "CALIFORNIA",
		"artcc": "ZOA",
		"type": "RP",
		"updated": "ROM*VOR*306.00"
	},
	{
		"name": "UNIGE",
		"latitude": "36-52-57 N",
		"longitude": "120-41-10.26 W",
		"state": "CALIFORNIA",
		"artcc": "ZOA",
		"type": "RNAV",
		"updated": "12/08/2008"
	},
	{
		"name": "UNING",
		"latitude": "37-39-36.62 N",
		"longitude": "118-22-5.2 W",
		"state": "CALIFORNIA",
		"artcc": "ZOA",
		"type": "RNAV",
		"updated": "12/23/2014"
	},
	{
		"name": "UNJED",
		"latitude": "39-37-39.01 N",
		"longitude": "121-43-7.88 W",
		"state": "CALIFORNIA",
		"artcc": "ZOA",
		"type": "RP",
		"updated": "CIC*VOR/DME*132.55/11.40"
	},
	{
		"name": "UNTLY",
		"latitude": "38-53-9.12 N",
		"longitude": "119-24-53.99 W",
		"state": "NEVADA",
		"artcc": "ZOA",
		"type": "RNAV",
		"updated": "04/10/2012"
	},
	{
		"name": "UNUWY",
		"latitude": "37-31-31.73 N",
		"longitude": "122-8-54.98 W",
		"state": "CALIFORNIA",
		"artcc": "ZOA",
		"type": "RNAV",
		"updated": "11/28/2001"
	},
	{
		"name": "UNVER",
		"latitude": "40-17-56 N",
		"longitude": "127-0-0 W",
		"state": "OFFSHORE PACIFIC",
		"artcc": "ZOA",
		"type": "RP",
		"updated": "08/27/2003"
	},
	{
		"name": "UNYOR",
		"latitude": "39-16-39.35 N",
		"longitude": "121-56-31.7 W",
		"state": "CALIFORNIA",
		"artcc": "ZOA",
		"type": "RNAV",
		"updated": "11/17/2017"
	},
	{
		"name": "UPCIM",
		"latitude": "37-55-17.73 N",
		"longitude": "120-22-54.35 W",
		"state": "CALIFORNIA",
		"artcc": "ZOA",
		"type": "RNAV",
		"updated": "05/11/2010"
	},
	{
		"name": "UPEND",
		"latitude": "38-1-55.14 N",
		"longitude": "122-5-49.44 W",
		"state": "CALIFORNIA",
		"artcc": "ZOA",
		"type": "RP",
		"updated": "SGD*VORTAC*106.96"
	},
	{
		"name": "UPNAR",
		"latitude": "3-30-0 N",
		"longitude": "142-48-36 W",
		"state": "OFFSHORE PACIFIC",
		"artcc": "ZOA",
		"type": "RP",
		"updated": "12/30/1993"
	},
	{
		"name": "URATE",
		"latitude": "39-33-49.97 N",
		"longitude": "119-45-59.82 W",
		"state": "NEVADA",
		"artcc": "ZOA",
		"type": "RNAV",
		"updated": "09/27/2013"
	},
	{
		"name": "URCIV",
		"latitude": "39-56-0.66 N",
		"longitude": "118-44-58.27 W",
		"state": "NEVADA",
		"artcc": "ZOA",
		"type": "RNAV",
		"updated": "07/28/2017"
	},
	{
		"name": "URFEZ",
		"latitude": "36-42-41.1 N",
		"longitude": "119-38-55.6 W",
		"state": "CALIFORNIA",
		"artcc": "ZOA",
		"type": "RP",
		"updated": "CZQ*VORTAC*127.22/13.10"
	},
	{
		"name": "URRSA",
		"latitude": "37-36-11.2 N",
		"longitude": "122-20-16.23 W",
		"state": "CALIFORNIA",
		"artcc": "ZOA",
		"type": "RNAV",
		"updated": "03/31/2015"
	},
	{
		"name": "URUYU",
		"latitude": "36-37-42.52 N",
		"longitude": "121-58-2.35 W",
		"state": "CALIFORNIA",
		"artcc": "ZOA",
		"type": "RNAV",
		"updated": "03/13/2015"
	},
	{
		"name": "URYKA",
		"latitude": "39-9-47.37 N",
		"longitude": "123-23-17.3 W",
		"state": "CALIFORNIA",
		"artcc": "ZOA",
		"type": "RNAV",
		"updated": "08/28/2014"
	},
	{
		"name": "URZAF",
		"latitude": "37-40-11.82 N",
		"longitude": "122-2-8.82 W",
		"state": "CALIFORNIA",
		"artcc": "ZOA",
		"type": "RP",
		"updated": "OAK*VOR/DME*/9.55"
	},
	{
		"name": "USIKY",
		"latitude": "37-39-11.48 N",
		"longitude": "122-8-30.88 W",
		"state": "CALIFORNIA",
		"artcc": "ZOA",
		"type": "WP",
		"updated": "11/02/1998"
	},
	{
		"name": "USINE",
		"latitude": "39-15-36.11 N",
		"longitude": "119-48-29.49 W",
		"state": "NEVADA",
		"artcc": "ZOA",
		"type": "RNAV",
		"updated": "08/08/2008"
	},
	{
		"name": "USODY",
		"latitude": "9-14-30.17 N",
		"longitude": "137-39-15.52 E",
		"state": "",
		"artcc": "ZOA",
		"type": "RP",
		"updated": "YP*NDB/DME*238.17/30.00"
	},
	{
		"name": "UTNAC",
		"latitude": "39-16-5.26 N",
		"longitude": "121-39-53.05 W",
		"state": "CALIFORNIA",
		"artcc": "ZOA",
		"type": "RNAV",
		"updated": "07/06/2009"
	},
	{
		"name": "UTOCO",
		"latitude": "8-31-19.87 N",
		"longitude": "167-43-40.05 E",
		"state": "",
		"artcc": "ZOA",
		"type": "MW",
		"updated": "11/25/2008"
	},
	{
		"name": "UTOOB",
		"latitude": "37-24-41.75 N",
		"longitude": "122-20-19.98 W",
		"state": "CALIFORNIA",
		"artcc": "ZOA",
		"type": "RNAV",
		"updated": "11/24/2014"
	},
	{
		"name": "UTUYA",
		"latitude": "36-34-48.91 N",
		"longitude": "121-49-27.93 W",
		"state": "CALIFORNIA",
		"artcc": "ZOA",
		"type": "RNAV",
		"updated": "02/20/2015"
	},
	{
		"name": "UUPPP",
		"latitude": "40-3-7.38 N",
		"longitude": "119-10-46.29 W",
		"state": "NEVADA",
		"artcc": "ZOA",
		"type": "RNAV",
		"updated": "07/06/2011"
	},
	{
		"name": "UVIDE",
		"latitude": "37-30-14.15 N",
		"longitude": "122-29-24.04 W",
		"state": "CALIFORNIA",
		"artcc": "ZOA",
		"type": "RNAV",
		"updated": "08/14/2006"
	},
	{
		"name": "UVLEW",
		"latitude": "38-27-12.85 N",
		"longitude": "122-39-34.67 W",
		"state": "CALIFORNIA",
		"artcc": "ZOA",
		"type": "RNAV",
		"updated": "02/09/2018"
	},
	{
		"name": "UVNOQ",
		"latitude": "38-36-49.91 N",
		"longitude": "122-44-31.99 W",
		"state": "CALIFORNIA",
		"artcc": "ZOA",
		"type": "RNAV",
		"updated": "12/17/2013"
	},
	{
		"name": "UVOVY",
		"latitude": "7-25-32.95 N",
		"longitude": "134-47-38.04 E",
		"state": "",
		"artcc": "ZOA",
		"type": "RNAV",
		"updated": "03/07/2003"
	},
	{
		"name": "UVXUZ",
		"latitude": "39-30-7.45 N",
		"longitude": "122-13-8.93 W",
		"state": "CALIFORNIA",
		"artcc": "ZOA",
		"type": "RP",
		"updated": "ILA*VORTAC*322.97/27.34"
	},
	{
		"name": "UWDON",
		"latitude": "38-53-55.2 N",
		"longitude": "123-3-55.8 W",
		"state": "CALIFORNIA",
		"artcc": "ZOA",
		"type": "RNAV",
		"updated": "02/09/2018"
	},
	{
		"name": "UWFUR",
		"latitude": "38-45-38.26 N",
		"longitude": "121-34-44.95 W",
		"state": "CALIFORNIA",
		"artcc": "ZOA",
		"type": "RNAV",
		"updated": "03/24/2015"
	},
	{
		"name": "UYOKA",
		"latitude": "37-13-37.65 N",
		"longitude": "120-9-8.85 W",
		"state": "CALIFORNIA",
		"artcc": "ZOA",
		"type": "RP",
		"updated": "FRA*VORTAC*268.56"
	},
	{
		"name": "UZIZY",
		"latitude": "38-47-50.85 N",
		"longitude": "121-37-29.73 W",
		"state": "CALIFORNIA",
		"artcc": "ZOA",
		"type": "RNAV",
		"updated": "03/24/2015"
	}
]
