[
	{
		"name": "VACIA",
		"latitude": "39-20-52.25 N",
		"longitude": "122-6-51.36 W",
		"state": "CALIFORNIA",
		"artcc": "ZOA",
		"type": "RNAV",
		"updated": "08/04/2017"
	},
	{
		"name": "VACNU",
		"latitude": "38-53-27.66 N",
		"longitude": "119-45-6.8 W",
		"state": "NEVADA",
		"artcc": "ZOA",
		"type": "RNAV",
		"updated": "02/09/2018"
	},
	{
		"name": "VANCE",
		"latitude": "38-37-42.3 N",
		"longitude": "121-10-5.14 W",
		"state": "CALIFORNIA",
		"artcc": "ZOA",
		"type": "RNAV",
		"updated": "07/20/2011"
	},
	{
		"name": "VASPE",
		"latitude": "38-13-4.02 N",
		"longitude": "120-52-31.8 W",
		"state": "CALIFORNIA",
		"artcc": "ZOA",
		"type": "WP",
		"updated": "11/02/1998"
	},
	{
		"name": "VAVEE",
		"latitude": "3-30-0 N",
		"longitude": "172-30-0 E",
		"state": "OFFSHORE PACIFIC",
		"artcc": "ZOA",
		"type": "RP",
		"updated": "03/28/1994"
	},
	{
		"name": "VAYUD",
		"latitude": "8-48-2.01 N",
		"longitude": "167-49-19.24 E",
		"state": "",
		"artcc": "ZOA",
		"type": "MW",
		"updated": "11/12/2008"
	},
	{
		"name": "VEBCU",
		"latitude": "40-11-24.92 N",
		"longitude": "122-15-47.37 W",
		"state": "CALIFORNIA",
		"artcc": "ZOA",
		"type": "RNAV",
		"updated": "10/25/2013"
	},
	{
		"name": "VECEM",
		"latitude": "39-7-52.66 N",
		"longitude": "123-53-12.92 W",
		"state": "CALIFORNIA",
		"artcc": "ZOA",
		"type": "RNAV",
		"updated": "04/12/2010"
	},
	{
		"name": "VEINY",
		"latitude": "39-11-0.8 N",
		"longitude": "123-13-22.67 W",
		"state": "CALIFORNIA",
		"artcc": "ZOA",
		"type": "RNAV",
		"updated": "06/02/2016"
	},
	{
		"name": "VERDI",
		"latitude": "39-28-59.85 N",
		"longitude": "119-55-1.1 W",
		"state": "NEVADA",
		"artcc": "ZOA",
		"type": "RP",
		"updated": "SWR*VOR/DME*026.00"
	},
	{
		"name": "VESPA",
		"latitude": "40-37-31 N",
		"longitude": "127-0-0 W",
		"state": "OFFSHORE PACIFIC",
		"artcc": "ZOA",
		"type": "RP",
		"updated": "08/27/2003"
	},
	{
		"name": "VESTT",
		"latitude": "38-52-13.92 N",
		"longitude": "121-20-18.17 W",
		"state": "CALIFORNIA",
		"artcc": "ZOA",
		"type": "RNAV",
		"updated": "07/07/2010"
	},
	{
		"name": "VICOR",
		"latitude": "39-24-50.23 N",
		"longitude": "123-22-5.82 W",
		"state": "CALIFORNIA",
		"artcc": "ZOA",
		"type": "RNAV",
		"updated": "06/04/2004"
	},
	{
		"name": "VIGCE",
		"latitude": "39-27-8.13 N",
		"longitude": "121-39-14.61 W",
		"state": "CALIFORNIA",
		"artcc": "ZOA",
		"type": "RNAV",
		"updated": "05/11/2017"
	},
	{
		"name": "VIJIX",
		"latitude": "40-3-40.67 N",
		"longitude": "122-13-40.09 W",
		"state": "CALIFORNIA",
		"artcc": "ZOA",
		"type": "RNAV",
		"updated": "08/13/2008"
	},
	{
		"name": "VIKES",
		"latitude": "39-17-26.59 N",
		"longitude": "119-35-21.23 W",
		"state": "NEVADA",
		"artcc": "ZOA",
		"type": "RP",
		"updated": "SWR*VOR/DME*062.00/32.40"
	},
	{
		"name": "VIKSN",
		"latitude": "37-21-2.83 N",
		"longitude": "117-53-36.21 W",
		"state": "CALIFORNIA",
		"artcc": "ZOA",
		"type": "RNAV",
		"updated": "09/19/2014"
	},
	{
		"name": "VIKYU",
		"latitude": "37-42-48.64 N",
		"longitude": "122-35-46.34 W",
		"state": "CALIFORNIA",
		"artcc": "ZOA",
		"type": "RP",
		"updated": "SFO*VOR/DME*281.08/12.00"
	},
	{
		"name": "VILEY",
		"latitude": "25-0-0 N",
		"longitude": "157-30-9 E",
		"state": "OFFSHORE PACIFIC",
		"artcc": "ZOA",
		"type": "RP",
		"updated": "02/07/2005"
	},
	{
		"name": "VILIA",
		"latitude": "36-15-18.72 N",
		"longitude": "119-18-51.31 W",
		"state": "CALIFORNIA",
		"artcc": "ZOA",
		"type": "RP",
		"updated": "VIS*VOR/DME*/10.56"
	},
	{
		"name": "VINCO",
		"latitude": "37-22-35.11 N",
		"longitude": "121-42-59.52 W",
		"state": "CALIFORNIA",
		"artcc": "ZOA",
		"type": "RP",
		"updated": "SJC*VOR/DME*073.39"
	},
	{
		"name": "VINUY",
		"latitude": "39-47-42.81 N",
		"longitude": "120-10-27.34 W",
		"state": "CALIFORNIA",
		"artcc": "ZOA",
		"type": "RNAV",
		"updated": "11/19/2004"
	},
	{
		"name": "VISTO",
		"latitude": "38-11-38.7 N",
		"longitude": "121-37-45.54 W",
		"state": "CALIFORNIA",
		"artcc": "ZOA",
		"type": "RP",
		"updated": "SAC*VORTAC*176.79/15.41"
	},
	{
		"name": "VIVFO",
		"latitude": "38-39-40.64 N",
		"longitude": "123-32-20.54 W",
		"state": "CALIFORNIA",
		"artcc": "ZOA",
		"type": "RNAV",
		"updated": "10/21/2014"
	},
	{
		"name": "VIXGI",
		"latitude": "38-19-30.84 N",
		"longitude": "122-18-46.52 W",
		"state": "CALIFORNIA",
		"artcc": "ZOA",
		"type": "RNAV",
		"updated": "11/14/2014"
	},
	{
		"name": "VIZOR",
		"latitude": "6-59-8.07 N",
		"longitude": "158-6-13.69 E",
		"state": "",
		"artcc": "ZOA",
		"type": "RNAV",
		"updated": "03/06/2017"
	},
	{
		"name": "VLLEY",
		"latitude": "36-29-55.87 N",
		"longitude": "121-25-50.99 W",
		"state": "CALIFORNIA",
		"artcc": "ZOA",
		"type": "RNAV",
		"updated": "01/12/2015"
	},
	{
		"name": "VLREE",
		"latitude": "36-36-35.68 N",
		"longitude": "121-0-24.94 W",
		"state": "CALIFORNIA",
		"artcc": "ZOA",
		"type": "RNAV",
		"updated": "11/24/2014"
	},
	{
		"name": "VODSY",
		"latitude": "37-41-9.24 N",
		"longitude": "122-5-37.89 W",
		"state": "CALIFORNIA",
		"artcc": "ZOA",
		"type": "RNAV",
		"updated": "08/30/2013"
	},
	{
		"name": "VOHBO",
		"latitude": "38-27-30.38 N",
		"longitude": "120-45-6.75 W",
		"state": "CALIFORNIA",
		"artcc": "ZOA",
		"type": "WP",
		"updated": "11/02/1998"
	},
	{
		"name": "VOKXY",
		"latitude": "38-47-57.34 N",
		"longitude": "119-45-6.8 W",
		"state": "CALIFORNIA",
		"artcc": "ZOA",
		"type": "RNAV",
		"updated": "02/09/2018"
	},
	{
		"name": "VOLLE",
		"latitude": "39-11-4.79 N",
		"longitude": "122-53-56.19 W",
		"state": "CALIFORNIA",
		"artcc": "ZOA",
		"type": "RNAV",
		"updated": "02/09/2018"
	},
	{
		"name": "VOLTA",
		"latitude": "37-16-27.21 N",
		"longitude": "120-58-24.35 W",
		"state": "CALIFORNIA",
		"artcc": "ZOA",
		"type": "RP",
		"updated": "HYP*VOR/DME*261.99"
	},
	{
		"name": "VONXI",
		"latitude": "38-23-55.83 N",
		"longitude": "122-30-32.2 W",
		"state": "CALIFORNIA",
		"artcc": "ZOA",
		"type": "RNAV",
		"updated": "12/23/2013"
	},
	{
		"name": "VOXNO",
		"latitude": "38-58-6 N",
		"longitude": "122-17-22 W",
		"state": "CALIFORNIA",
		"artcc": "ZOA",
		"type": "RNAV",
		"updated": "02/09/2018"
	},
	{
		"name": "VPALT",
		"latitude": "37-44-21 N",
		"longitude": "121-35-25 W",
		"state": "CALIFORNIA",
		"artcc": "ZOA",
		"type": "VFR",
		"updated": "06/07/2002"
	},
	{
		"name": "VPANT",
		"latitude": "38-1-26.81 N",
		"longitude": "121-45-1.43 W",
		"state": "CALIFORNIA",
		"artcc": "ZOA",
		"type": "VFR",
		"updated": "06/07/2002"
	},
	{
		"name": "VPBBR",
		"latitude": "38-2-29.71 N",
		"longitude": "122-7-26.87 W",
		"state": "CALIFORNIA",
		"artcc": "ZOA",
		"type": "VFR",
		"updated": "06/07/2002"
	},
	{
		"name": "VPCAL",
		"latitude": "37-28-9.77 N",
		"longitude": "121-48-55.83 W",
		"state": "CALIFORNIA",
		"artcc": "ZOA",
		"type": "VFR",
		"updated": "06/07/2002"
	},
	{
		"name": "VPCBT",
		"latitude": "37-43-41.04 N",
		"longitude": "122-6-56.27 W",
		"state": "CALIFORNIA",
		"artcc": "ZOA",
		"type": "VFR",
		"updated": "06/07/2002"
	},
	{
		"name": "VPCOY",
		"latitude": "37-32-29.77 N",
		"longitude": "122-5-3.86 W",
		"state": "CALIFORNIA",
		"artcc": "ZOA",
		"type": "VFR",
		"updated": "06/07/2002"
	},
	{
		"name": "VPCQZ",
		"latitude": "38-3-39.61 N",
		"longitude": "122-13-31.48 W",
		"state": "CALIFORNIA",
		"artcc": "ZOA",
		"type": "VFR",
		"updated": "06/07/2002"
	},
	{
		"name": "VPCRL",
		"latitude": "37-10-59.79 N",
		"longitude": "121-41-3.8 W",
		"state": "CALIFORNIA",
		"artcc": "ZOA",
		"type": "VFR",
		"updated": "06/07/2002"
	},
	{
		"name": "VPCRY",
		"latitude": "37-30-33.77 N",
		"longitude": "122-21-5.89 W",
		"state": "CALIFORNIA",
		"artcc": "ZOA",
		"type": "VFR",
		"updated": "06/07/2002"
	},
	{
		"name": "VPCSH",
		"latitude": "37-39-31.25 N",
		"longitude": "122-3-31.36 W",
		"state": "CALIFORNIA",
		"artcc": "ZOA",
		"type": "VFR",
		"updated": "06/07/2002"
	},
	{
		"name": "VPDAM",
		"latitude": "37-36-54.45 N",
		"longitude": "121-44-47.02 W",
		"state": "CALIFORNIA",
		"artcc": "ZOA",
		"type": "VFR",
		"updated": "06/07/2002"
	},
	{
		"name": "VPDLR",
		"latitude": "37-6-59.81 N",
		"longitude": "121-47-3.82 W",
		"state": "CALIFORNIA",
		"artcc": "ZOA",
		"type": "VFR",
		"updated": "06/07/2002"
	},
	{
		"name": "VPDUB",
		"latitude": "37-42-3.74 N",
		"longitude": "121-55-21.84 W",
		"state": "CALIFORNIA",
		"artcc": "ZOA",
		"type": "VFR",
		"updated": "06/07/2002"
	},
	{
		"name": "VPEMB",
		"latitude": "37-26-2.78 N",
		"longitude": "121-53-49.84 W",
		"state": "CALIFORNIA",
		"artcc": "ZOA",
		"type": "VFR",
		"updated": "08/26/2003"
	},
	{
		"name": "VPGGF",
		"latitude": "37-53-4.23 N",
		"longitude": "122-18-42.69 W",
		"state": "CALIFORNIA",
		"artcc": "ZOA",
		"type": "VFR",
		"updated": "06/07/2002"
	},
	{
		"name": "VPGIL",
		"latitude": "37-1-21.91 N",
		"longitude": "121-33-59.29 W",
		"state": "CALIFORNIA",
		"artcc": "ZOA",
		"type": "VFR",
		"updated": "06/07/2002"
	},
	{
		"name": "VPKBG",
		"latitude": "38-58-45 N",
		"longitude": "119-53-12 W",
		"state": "NEVADA",
		"artcc": "ZOA",
		"type": "VFR",
		"updated": "09/28/2006"
	},
	{
		"name": "VPKGO",
		"latitude": "37-31-34.57 N",
		"longitude": "122-6-5.96 W",
		"state": "CALIFORNIA",
		"artcc": "ZOA",
		"type": "VFR",
		"updated": "06/07/2002"
	},
	{
		"name": "VPLEX",
		"latitude": "37-11-39.8 N",
		"longitude": "121-59-10.85 W",
		"state": "CALIFORNIA",
		"artcc": "ZOA",
		"type": "VFR",
		"updated": "06/07/2002"
	},
	{
		"name": "VPMID",
		"latitude": "37-36-16.96 N",
		"longitude": "122-11-48.47 W",
		"state": "CALIFORNIA",
		"artcc": "ZOA",
		"type": "VFR",
		"updated": "06/07/2002"
	},
	{
		"name": "VPMOR",
		"latitude": "37-48-27.73 N",
		"longitude": "122-11-56.88 W",
		"state": "CALIFORNIA",
		"artcc": "ZOA",
		"type": "VFR",
		"updated": "06/07/2002"
	},
	{
		"name": "VPNUM",
		"latitude": "37-29-33.77 N",
		"longitude": "121-56-34.85 W",
		"state": "CALIFORNIA",
		"artcc": "ZOA",
		"type": "VFR",
		"updated": "06/07/2002"
	},
	{
		"name": "VPPAC",
		"latitude": "37-37-59.76 N",
		"longitude": "122-32-3.91 W",
		"state": "CALIFORNIA",
		"artcc": "ZOA",
		"type": "VFR",
		"updated": "06/07/2002"
	},
	{
		"name": "VPPRU",
		"latitude": "37-17-19.79 N",
		"longitude": "121-56-0.84 W",
		"state": "CALIFORNIA",
		"artcc": "ZOA",
		"type": "VFR",
		"updated": "06/07/2002"
	},
	{
		"name": "VPSAR",
		"latitude": "37-15-15.79 N",
		"longitude": "122-2-19.85 W",
		"state": "CALIFORNIA",
		"artcc": "ZOA",
		"type": "VFR",
		"updated": "06/07/2002"
	},
	{
		"name": "VPSLA",
		"latitude": "37-24-44.78 N",
		"longitude": "122-14-21.07 W",
		"state": "CALIFORNIA",
		"artcc": "ZOA",
		"type": "VFR",
		"updated": "06/07/2002"
	},
	{
		"name": "VPSTB",
		"latitude": "37-54-27.23 N",
		"longitude": "122-40-24.34 W",
		"state": "CALIFORNIA",
		"artcc": "ZOA",
		"type": "VFR",
		"updated": "06/07/2002"
	},
	{
		"name": "VPSUN",
		"latitude": "37-34-50.76 N",
		"longitude": "121-53-13.84 W",
		"state": "CALIFORNIA",
		"artcc": "ZOA",
		"type": "VFR",
		"updated": "06/07/2002"
	},
	{
		"name": "VPUTC",
		"latitude": "37-13-55.79 N",
		"longitude": "121-41-20.8 W",
		"state": "CALIFORNIA",
		"artcc": "ZOA",
		"type": "VFR",
		"updated": "06/07/2002"
	},
	{
		"name": "VPWAL",
		"latitude": "37-53-46.52 N",
		"longitude": "122-4-17.96 W",
		"state": "CALIFORNIA",
		"artcc": "ZOA",
		"type": "VFR",
		"updated": "06/07/2002"
	},
	{
		"name": "VPWAM",
		"latitude": "37-30-16.79 N",
		"longitude": "122-9-59.99 W",
		"state": "CALIFORNIA",
		"artcc": "ZOA",
		"type": "VFR",
		"updated": "06/07/2002"
	},
	{
		"name": "VPWFR",
		"latitude": "37-30-52.77 N",
		"longitude": "122-12-15.87 W",
		"state": "CALIFORNIA",
		"artcc": "ZOA",
		"type": "VFR",
		"updated": "06/07/2002"
	},
	{
		"name": "VRMIT",
		"latitude": "37-40-7.07 N",
		"longitude": "118-55-51.56 W",
		"state": "CALIFORNIA",
		"artcc": "ZOA",
		"type": "RNAV",
		"updated": "09/16/2016"
	},
	{
		"name": "VRONA",
		"latitude": "38-58-56.57 N",
		"longitude": "121-34-31.59 W",
		"state": "CALIFORNIA",
		"artcc": "ZOA",
		"type": "RP",
		"updated": "ILA*VORTAC*086.00/21.78"
	},
	{
		"name": "VUJOR",
		"latitude": "38-55-14.81 N",
		"longitude": "121-28-24.31 W",
		"state": "CALIFORNIA",
		"artcc": "ZOA",
		"type": "RNAV",
		"updated": "07/06/2009"
	},
	{
		"name": "VYYDA",
		"latitude": "37-32-57.26 N",
		"longitude": "122-4-54.13 W",
		"state": "CALIFORNIA",
		"artcc": "ZOA",
		"type": "RNAV",
		"updated": "11/24/2014"
	}
]
