[
	{
		"name": "WABGA",
		"latitude": "38-12-38.81 N",
		"longitude": "121-59-26.54 W",
		"state": "CALIFORNIA",
		"artcc": "ZOA",
		"type": "MR",
		"updated": "SUU*TACAN*209.00/3.00"
	},
	{
		"name": "WACIZ",
		"latitude": "38-27-47.47 N",
		"longitude": "122-37-18.06 W",
		"state": "CALIFORNIA",
		"artcc": "ZOA",
		"type": "RNAV",
		"updated": "02/09/2018"
	},
	{
		"name": "WACOS",
		"latitude": "1-16-14 S",
		"longitude": "164-0-0 W",
		"state": "OFFSHORE PACIFIC",
		"artcc": "ZOA",
		"type": "RP",
		"updated": "09/02/1993"
	},
	{
		"name": "WADDE",
		"latitude": "36-16-29.27 N",
		"longitude": "120-26-42.45 W",
		"state": "CALIFORNIA",
		"artcc": "ZOA",
		"type": "RNAV",
		"updated": "03/12/2008"
	},
	{
		"name": "WADDS",
		"latitude": "39-42-59.38 N",
		"longitude": "119-19-24.69 W",
		"state": "NEVADA",
		"artcc": "ZOA",
		"type": "RP",
		"updated": "HZN*VORTAC*291.55"
	},
	{
		"name": "WADEN",
		"latitude": "38-24-14.48 N",
		"longitude": "121-43-38.03 W",
		"state": "CALIFORNIA",
		"artcc": "ZOA",
		"type": "MR",
		"updated": "SUU*TACAN*/14.00"
	},
	{
		"name": "WADIL",
		"latitude": "38-14-13.07 N",
		"longitude": "121-57-47.54 W",
		"state": "CALIFORNIA",
		"artcc": "ZOA",
		"type": "MR",
		"updated": "SUU*TACAN*222.00/1.00"
	},
	{
		"name": "WADOL",
		"latitude": "40-15-58.86 N",
		"longitude": "118-38-9.1 W",
		"state": "NEVADA",
		"artcc": "ZOA",
		"type": "RNAV",
		"updated": "07/06/2011"
	},
	{
		"name": "WADRU",
		"latitude": "8-44-42 N",
		"longitude": "167-48-44.51 E",
		"state": "",
		"artcc": "ZOA",
		"type": "MW",
		"updated": "11/25/2008"
	},
	{
		"name": "WADVA",
		"latitude": "37-23-42.04 N",
		"longitude": "122-13-11.62 W",
		"state": "CALIFORNIA",
		"artcc": "ZOA",
		"type": "RNAV",
		"updated": "08/11/2010"
	},
	{
		"name": "WAGER",
		"latitude": "38-10-11.3 N",
		"longitude": "121-22-48.1 W",
		"state": "CALIFORNIA",
		"artcc": "ZOA",
		"type": "RP",
		"updated": "SAC*VORTAC*136.67/18.31"
	},
	{
		"name": "WAGES",
		"latitude": "36-59-27.72 N",
		"longitude": "121-44-13.42 W",
		"state": "CALIFORNIA",
		"artcc": "ZOA",
		"type": "RP",
		"updated": "FLW*VOR/DME*305.86/145.67"
	},
	{
		"name": "WAGGE",
		"latitude": "39-15-42.57 N",
		"longitude": "119-46-11.62 W",
		"state": "NEVADA",
		"artcc": "ZOA",
		"type": "RP",
		"updated": "SWR*VOR/DME*062.00"
	},
	{
		"name": "WAGUP",
		"latitude": "39-20-14.67 N",
		"longitude": "123-7-42.41 W",
		"state": "CALIFORNIA",
		"artcc": "ZOA",
		"type": "RNAV",
		"updated": "08/28/2014"
	},
	{
		"name": "WAKAM",
		"latitude": "36-38-10.93 N",
		"longitude": "121-9-5.17 W",
		"state": "CALIFORNIA",
		"artcc": "ZOA",
		"type": "RNAV",
		"updated": "04/15/2008"
	},
	{
		"name": "WAKLO",
		"latitude": "39-36-30.14 N",
		"longitude": "119-16-52.05 W",
		"state": "NEVADA",
		"artcc": "ZOA",
		"type": "MR",
		"updated": "FMG*VORTAC*059.00/18.00"
	},
	{
		"name": "WAKSO",
		"latitude": "37-48-35.28 N",
		"longitude": "122-21-25.63 W",
		"state": "CALIFORNIA",
		"artcc": "ZOA",
		"type": "RNAV",
		"updated": "01/28/2016"
	},
	{
		"name": "WALAR",
		"latitude": "39-45-40.71 N",
		"longitude": "119-46-6.78 W",
		"state": "NEVADA",
		"artcc": "ZOA",
		"type": "RP",
		"updated": "RNO*LD*344.12/16.86"
	},
	{
		"name": "WALBO",
		"latitude": "40-13-23.23 N",
		"longitude": "121-46-42.53 W",
		"state": "CALIFORNIA",
		"artcc": "ZOA",
		"type": "RNAV",
		"updated": "11/20/2012"
	},
	{
		"name": "WALLE",
		"latitude": "37-18-6.57 N",
		"longitude": "118-22-56.68 W",
		"state": "CALIFORNIA",
		"artcc": "ZOA",
		"type": "RNAV",
		"updated": "03/02/2010"
	},
	{
		"name": "WALTE",
		"latitude": "39-55-55.78 N",
		"longitude": "118-43-2.12 W",
		"state": "NEVADA",
		"artcc": "ZOA",
		"type": "RNAV",
		"updated": "05/15/2003"
	},
	{
		"name": "WAMIK",
		"latitude": "39-19-44.39 N",
		"longitude": "119-46-1.92 W",
		"state": "NEVADA",
		"artcc": "ZOA",
		"type": "RNAV",
		"updated": "08/08/2008"
	},
	{
		"name": "WAMMY",
		"latitude": "37-32-27.83 N",
		"longitude": "122-43-26.6 W",
		"state": "CALIFORNIA",
		"artcc": "ZOA",
		"type": "RP",
		"updated": "PYE*VOR/DME*151.00/33.00"
	},
	{
		"name": "WANUL",
		"latitude": "14-27-40.68 S",
		"longitude": "170-56-14.13 W",
		"state": "AMERICAN SAMOA",
		"artcc": "ZOA",
		"type": "CN",
		"updated": "12/15/2008"
	},
	{
		"name": "WANUS",
		"latitude": "36-25-23.98 N",
		"longitude": "119-41-57.23 W",
		"state": "CALIFORNIA",
		"artcc": "ZOA",
		"type": "RNAV",
		"updated": "06/12/2010"
	},
	{
		"name": "WAPEX",
		"latitude": "38-27-42.13 N",
		"longitude": "122-3-58.39 W",
		"state": "CALIFORNIA",
		"artcc": "ZOA",
		"type": "MR",
		"updated": "CCR*VOR/DME*340.73/25.00"
	},
	{
		"name": "WAPNA",
		"latitude": "39-27-4.67 N",
		"longitude": "123-22-20.22 W",
		"state": "CALIFORNIA",
		"artcc": "ZOA",
		"type": "RNAV",
		"updated": "06/02/2016"
	},
	{
		"name": "WARDA",
		"latitude": "19-17-36.47 N",
		"longitude": "166-24-57.67 E",
		"state": "WAKE ISLAND",
		"artcc": "ZOA",
		"type": "MR",
		"updated": "AWK*VORTAC*266.00/12.00"
	},
	{
		"name": "WARTI",
		"latitude": "40-15-25.71 N",
		"longitude": "120-24-33.55 W",
		"state": "CALIFORNIA",
		"artcc": "ZOA",
		"type": "RNAV",
		"updated": "09/26/2003"
	},
	{
		"name": "WASOP",
		"latitude": "37-31-48.64 N",
		"longitude": "122-7-17.46 W",
		"state": "CALIFORNIA",
		"artcc": "ZOA",
		"type": "RP",
		"updated": "FNP*DD*010.81/12.98"
	},
	{
		"name": "WATAP",
		"latitude": "37-39-1.99 N",
		"longitude": "122-27-3.79 W",
		"state": "CALIFORNIA",
		"artcc": "ZOA",
		"type": "RNAV",
		"updated": "05/07/2002"
	},
	{
		"name": "WATER",
		"latitude": "39-36-59.72 N",
		"longitude": "118-43-23.26 W",
		"state": "NEVADA",
		"artcc": "ZOA",
		"type": "MR",
		"updated": "NFL*TACAN*342.00/12.00"
	},
	{
		"name": "WAVED",
		"latitude": "38-32-6.56 N",
		"longitude": "122-16-39.79 W",
		"state": "CALIFORNIA",
		"artcc": "ZOA",
		"type": "RNAV",
		"updated": "06/04/2010"
	},
	{
		"name": "WAVKI",
		"latitude": "5-19-46.22 N",
		"longitude": "162-43-16.04 E",
		"state": "",
		"artcc": "ZOA",
		"type": "RNAV",
		"updated": "09/04/2003"
	},
	{
		"name": "WAVUR",
		"latitude": "8-44-8.18 N",
		"longitude": "167-36-41.17 E",
		"state": "",
		"artcc": "ZOA",
		"type": "MW",
		"updated": "12/03/2008"
	},
	{
		"name": "WAXIX",
		"latitude": "38-52-39.04 N",
		"longitude": "121-35-53.76 W",
		"state": "CALIFORNIA",
		"artcc": "ZOA",
		"type": "RNAV",
		"updated": "09/12/2012"
	},
	{
		"name": "WAYSE",
		"latitude": "8-8-6 N",
		"longitude": "153-49-20 W",
		"state": "OFFSHORE PACIFIC",
		"artcc": "ZOA",
		"type": "RP",
		"updated": "09/03/1993"
	},
	{
		"name": "WDSTC",
		"latitude": "38-11-41.86 N",
		"longitude": "122-38-26.78 W",
		"state": "CALIFORNIA",
		"artcc": "ZOA",
		"type": "RNAV",
		"updated": "12/03/2008"
	},
	{
		"name": "WEBGO",
		"latitude": "39-28-0 N",
		"longitude": "120-21-0 W",
		"state": "CALIFORNIA",
		"artcc": "ZOA",
		"type": "RNAV",
		"updated": "09/28/2015"
	},
	{
		"name": "WEBMA",
		"latitude": "40-14-50.13 N",
		"longitude": "119-59-50.91 W",
		"state": "CALIFORNIA",
		"artcc": "ZOA",
		"type": "MW",
		"updated": "07/05/2009"
	},
	{
		"name": "WEBRR",
		"latitude": "38-14-37.97 N",
		"longitude": "122-24-43.71 W",
		"state": "CALIFORNIA",
		"artcc": "ZOA",
		"type": "RNAV",
		"updated": "12/16/2014"
	},
	{
		"name": "WEDAL",
		"latitude": "38-20-1.01 N",
		"longitude": "121-49-32.95 W",
		"state": "CALIFORNIA",
		"artcc": "ZOA",
		"type": "MR",
		"updated": "SUU*TACAN*029.83/7.72"
	},
	{
		"name": "WEDES",
		"latitude": "30-40-5 N",
		"longitude": "123-7-28 W",
		"state": "OFFSHORE PACIFIC",
		"artcc": "ZOA",
		"type": "RP",
		"updated": "03/15/2002"
	},
	{
		"name": "WEDMO",
		"latitude": "39-16-39.48 N",
		"longitude": "119-46-2.36 W",
		"state": "NEVADA",
		"artcc": "ZOA",
		"type": "RNAV",
		"updated": "08/08/2008"
	},
	{
		"name": "WEGAD",
		"latitude": "7-53-22 N",
		"longitude": "173-46-3 E",
		"state": "OFFSHORE PACIFIC",
		"artcc": "ZOA",
		"type": "RNAV",
		"updated": "02/14/2011"
	},
	{
		"name": "WEGNA",
		"latitude": "37-56-48.47 N",
		"longitude": "122-26-34.44 W",
		"state": "CALIFORNIA",
		"artcc": "ZOA",
		"type": "RNAV",
		"updated": "03/22/2006"
	},
	{
		"name": "WEKUR",
		"latitude": "39-34-36.71 N",
		"longitude": "121-33-6.49 W",
		"state": "CALIFORNIA",
		"artcc": "ZOA",
		"type": "MR",
		"updated": "BAB*TACAN*333.00/27.00"
	},
	{
		"name": "WELBA",
		"latitude": "38-10-14.73 N",
		"longitude": "122-3-27.8 W",
		"state": "CALIFORNIA",
		"artcc": "ZOA",
		"type": "RNAV",
		"updated": "05/18/2017"
	},
	{
		"name": "WELKU",
		"latitude": "13-39-0.8 N",
		"longitude": "145-13-52.37 E",
		"state": "GUAM",
		"artcc": "ZOA",
		"type": "MR",
		"updated": "UAM*TACAN*076.00/17.00"
	},
	{
		"name": "WELPA",
		"latitude": "38-10-28.76 N",
		"longitude": "122-12-17.53 W",
		"state": "CALIFORNIA",
		"artcc": "ZOA",
		"type": "MR",
		"updated": "SUU*TACAN*234.00/13.00"
	},
	{
		"name": "WEMAK",
		"latitude": "36-19-28.85 N",
		"longitude": "121-4-3.37 W",
		"state": "CALIFORNIA",
		"artcc": "ZOA",
		"type": "RNAV",
		"updated": "01/06/2010"
	},
	{
		"name": "WENIG",
		"latitude": "37-26-21.2 N",
		"longitude": "120-37-40.05 W",
		"state": "CALIFORNIA",
		"artcc": "ZOA",
		"type": "RNAV",
		"updated": "12/08/2008"
	},
	{
		"name": "WENUD",
		"latitude": "38-52-38.63 N",
		"longitude": "121-34-37.81 W",
		"state": "CALIFORNIA",
		"artcc": "ZOA",
		"type": "RNAV",
		"updated": "10/09/2012"
	},
	{
		"name": "WENUG",
		"latitude": "40-21-56.12 N",
		"longitude": "80-38-32.39 W",
		"state": "OHIO",
		"artcc": "ZOB",
		"type": "RNAV",
		"updated": "09/10/2015"
	},
	{
		"name": "WEPLO",
		"latitude": "39-14-15.9 N",
		"longitude": "123-5-38.22 W",
		"state": "CALIFORNIA",
		"artcc": "ZOA",
		"type": "RP",
		"updated": "ENI*VORTAC*021.20/13.90"
	},
	{
		"name": "WEPOX",
		"latitude": "36-47-47.58 N",
		"longitude": "119-45-7.52 W",
		"state": "CALIFORNIA",
		"artcc": "ZOA",
		"type": "RP",
		"updated": "RPW*LE*292.35/1.13"
	},
	{
		"name": "WERVA",
		"latitude": "38-42-45.98 N",
		"longitude": "122-53-44.06 W",
		"state": "CALIFORNIA",
		"artcc": "ZOA",
		"type": "RP",
		"updated": "STS*VOR/DME*325.98/12.90"
	},
	{
		"name": "WESCH",
		"latitude": "37-33-19.49 N",
		"longitude": "121-53-48.83 W",
		"state": "CALIFORNIA",
		"artcc": "ZOA",
		"type": "RNAV",
		"updated": "10/09/2012"
	},
	{
		"name": "WESLA",
		"latitude": "37-39-51.74 N",
		"longitude": "122-28-49.05 W",
		"state": "CALIFORNIA",
		"artcc": "ZOA",
		"type": "RP",
		"updated": "SFO*VOR/DME*280.98/5.74"
	},
	{
		"name": "WESOK",
		"latitude": "13-37-15.38 N",
		"longitude": "145-1-14.37 E",
		"state": "GUAM",
		"artcc": "ZOA",
		"type": "MR",
		"updated": "UAM*TACAN*065.69/4.68"
	},
	{
		"name": "WETEM",
		"latitude": "39-25-7.59 N",
		"longitude": "122-10-54.73 W",
		"state": "CALIFORNIA",
		"artcc": "ZOA",
		"type": "RP",
		"updated": "ILA*VORTAC*322.97/22.05"
	},
	{
		"name": "WETIP",
		"latitude": "37-53-31.32 N",
		"longitude": "122-18-18.68 W",
		"state": "CALIFORNIA",
		"artcc": "ZOA",
		"type": "RNAV",
		"updated": "01/28/2016"
	},
	{
		"name": "WETOR",
		"latitude": "37-29-4.99 N",
		"longitude": "122-3-25.71 W",
		"state": "CALIFORNIA",
		"artcc": "ZOA",
		"type": "RP",
		"updated": "SFO*LD*103.81/18.25"
	},
	{
		"name": "WEVIR",
		"latitude": "36-40-13.12 N",
		"longitude": "119-49-22.12 W",
		"state": "CALIFORNIA",
		"artcc": "ZOA",
		"type": "RP",
		"updated": "CZQ*VORTAC*166.65/12.83"
	},
	{
		"name": "WEXGY",
		"latitude": "7-34-11.01 N",
		"longitude": "134-4-14.38 E",
		"state": "",
		"artcc": "ZOA",
		"type": "RP",
		"updated": "ROR*NDB/DME*291.81/31.00"
	},
	{
		"name": "WEXIM",
		"latitude": "37-59-12.54 N",
		"longitude": "119-14-15.57 W",
		"state": "CALIFORNIA",
		"artcc": "ZOA",
		"type": "RNAV",
		"updated": "05/05/2017"
	},
	{
		"name": "WEXUN",
		"latitude": "7-59-32 N",
		"longitude": "171-58-49 E",
		"state": "OFFSHORE PACIFIC",
		"artcc": "ZOA",
		"type": "RNAV",
		"updated": "02/14/2011"
	},
	{
		"name": "WHATZ",
		"latitude": "40-20-41.26 N",
		"longitude": "118-27-59.11 W",
		"state": "NEVADA",
		"artcc": "ZOA",
		"type": "RNAV",
		"updated": "07/06/2011"
	},
	{
		"name": "WHIMP",
		"latitude": "36-20-55.29 N",
		"longitude": "119-58-7.86 W",
		"state": "CALIFORNIA",
		"artcc": "ZOA",
		"type": "MR",
		"updated": "NLC*TACAN*322.00/0.30"
	},
	{
		"name": "WHTLE",
		"latitude": "38-9-5.56 N",
		"longitude": "122-31-58.09 W",
		"state": "CALIFORNIA",
		"artcc": "ZOA",
		"type": "RNAV",
		"updated": "09/08/2003"
	},
	{
		"name": "WHYEE",
		"latitude": "37-55-14.63 N",
		"longitude": "122-2-36.22 W",
		"state": "CALIFORNIA",
		"artcc": "ZOA",
		"type": "RNAV",
		"updated": "07/11/2016"
	},
	{
		"name": "WIBAG",
		"latitude": "37-39-28.6 N",
		"longitude": "121-11-15.35 W",
		"state": "CALIFORNIA",
		"artcc": "ZOA",
		"type": "RP",
		"updated": "MOD*VOR/DME*262.57/11.10"
	},
	{
		"name": "WIBIG",
		"latitude": "3-30-0 N",
		"longitude": "138-15-18 W",
		"state": "OFFSHORE PACIFIC",
		"artcc": "ZOA",
		"type": "RP",
		"updated": "06/28/1993"
	},
	{
		"name": "WIBNI",
		"latitude": "37-31-0.19 N",
		"longitude": "122-1-52.91 W",
		"state": "CALIFORNIA",
		"artcc": "ZOA",
		"type": "RNAV",
		"updated": "03/13/2015"
	},
	{
		"name": "WIBOK",
		"latitude": "37-16-45.11 N",
		"longitude": "118-47-32.83 W",
		"state": "CALIFORNIA",
		"artcc": "ZOA",
		"type": "RNAV",
		"updated": "12/23/2014"
	},
	{
		"name": "WICKK",
		"latitude": "37-26-19.47 N",
		"longitude": "120-41-5.86 W",
		"state": "CALIFORNIA",
		"artcc": "ZOA",
		"type": "RNAV",
		"updated": "07/20/2011"
	},
	{
		"name": "WIDBO",
		"latitude": "38-56-40.43 N",
		"longitude": "121-21-47.59 W",
		"state": "CALIFORNIA",
		"artcc": "ZOA",
		"type": "RP",
		"updated": "LHM*LD*331.31/2.91"
	},
	{
		"name": "WIDEN",
		"latitude": "46-49-31.8 N",
		"longitude": "127-17-56 W",
		"state": "OFFSHORE PACIFIC",
		"artcc": "ZOA",
		"type": "RNAV",
		"updated": "10/23/2008"
	},
	{
		"name": "WIDIX",
		"latitude": "36-45-24.85 N",
		"longitude": "120-41-15.52 W",
		"state": "CALIFORNIA",
		"artcc": "ZOA",
		"type": "RNAV",
		"updated": "05/23/2011"
	},
	{
		"name": "WIFED",
		"latitude": "36-50-59.64 N",
		"longitude": "119-44-39.74 W",
		"state": "CALIFORNIA",
		"artcc": "ZOA",
		"type": "RNAV",
		"updated": "04/26/2018"
	},
	{
		"name": "WIGAP",
		"latitude": "41-52-46.65 N",
		"longitude": "80-46-42.37 W",
		"state": "OHIO",
		"artcc": "ZOB",
		"type": "RNAV",
		"updated": "09/10/2015"
	},
	{
		"name": "WIGBI",
		"latitude": "37-52-18.94 N",
		"longitude": "121-12-3.74 W",
		"state": "CALIFORNIA",
		"artcc": "ZOA",
		"type": "RP",
		"updated": "LIN*VOR/DME*200.66"
	},
	{
		"name": "WIGGL",
		"latitude": "36-25-17.04 N",
		"longitude": "121-21-41.22 W",
		"state": "CALIFORNIA",
		"artcc": "ZOA",
		"type": "RP",
		"updated": "SNS*VORTAC*124.11/18.64"
	},
	{
		"name": "WIGIK",
		"latitude": "39-32-18.33 N",
		"longitude": "123-24-6.39 W",
		"state": "CALIFORNIA",
		"artcc": "ZOA",
		"type": "RNAV",
		"updated": "06/02/2016"
	},
	{
		"name": "WIHHO",
		"latitude": "7-20-39.1 N",
		"longitude": "151-40-5.52 E",
		"state": "",
		"artcc": "ZOA",
		"type": "WP",
		"updated": "10/28/1998"
	},
	{
		"name": "WIKAN",
		"latitude": "39-24-26.47 N",
		"longitude": "121-20-23.99 W",
		"state": "CALIFORNIA",
		"artcc": "ZOA",
		"type": "MR",
		"updated": "BAB*TACAN*360.00/17.00"
	},
	{
		"name": "WIKEX",
		"latitude": "39-42-14.51 N",
		"longitude": "119-47-12.39 W",
		"state": "NEVADA",
		"artcc": "ZOA",
		"type": "RNAV",
		"updated": "10/21/2014"
	},
	{
		"name": "WILAB",
		"latitude": "36-45-20.93 N",
		"longitude": "119-40-50.57 W",
		"state": "CALIFORNIA",
		"artcc": "ZOA",
		"type": "RP",
		"updated": "FAT*LD*112.36/3.09"
	},
	{
		"name": "WILLD",
		"latitude": "38-56-29.53 N",
		"longitude": "121-21-43.94 W",
		"state": "CALIFORNIA",
		"artcc": "ZOA",
		"type": "RNAV",
		"updated": "07/07/2010"
	},
	{
		"name": "WILLE",
		"latitude": "14-58-27 N",
		"longitude": "145-21-54.31 E",
		"state": "GUAM",
		"artcc": "ZOA",
		"type": "RP",
		"updated": "UNZ*VORTAC*020.00/97.97"
	},
	{
		"name": "WILLO",
		"latitude": "38-47-59.48 N",
		"longitude": "121-23-0.13 W",
		"state": "CALIFORNIA",
		"artcc": "ZOA",
		"type": "MR",
		"updated": "MCC*VOR/DME*350.00/8.00"
	},
	{
		"name": "WILYE",
		"latitude": "19-8-32 N",
		"longitude": "154-29-0 W",
		"state": "OFFSHORE PACIFIC",
		"artcc": "ZOA",
		"type": "RNAV",
		"updated": "02/21/2008"
	},
	{
		"name": "WIMBA",
		"latitude": "38-12-44.17 N",
		"longitude": "121-56-31.65 W",
		"state": "CALIFORNIA",
		"artcc": "ZOA",
		"type": "MR",
		"updated": "SUU*TACAN*159.00/2.00"
	},
	{
		"name": "WIMUK",
		"latitude": "38-57-28.44 N",
		"longitude": "123-23-7.76 W",
		"state": "CALIFORNIA",
		"artcc": "ZOA",
		"type": "RNAV",
		"updated": "06/05/2012"
	},
	{
		"name": "WIMUL",
		"latitude": "39-18-50.01 N",
		"longitude": "122-12-41.52 W",
		"state": "CALIFORNIA",
		"artcc": "ZOA",
		"type": "RNAV",
		"updated": "07/20/2011"
	},
	{
		"name": "WINDY",
		"latitude": "37-17-36.96 N",
		"longitude": "121-11-0.75 W",
		"state": "CALIFORNIA",
		"artcc": "ZOA",
		"type": "RP",
		"updated": "HYP*VOR/DME*261.99/37.78"
	},
	{
		"name": "WINED",
		"latitude": "39-19-37.41 N",
		"longitude": "118-37-0.37 W",
		"state": "NEVADA",
		"artcc": "ZOA",
		"type": "MW",
		"updated": "11/17/2014"
	},
	{
		"name": "WINRO",
		"latitude": "39-22-27.92 N",
		"longitude": "123-19-45.07 W",
		"state": "CALIFORNIA",
		"artcc": "ZOA",
		"type": "RNAV",
		"updated": "06/02/2016"
	},
	{
		"name": "WINRZ",
		"latitude": "39-52-3.36 N",
		"longitude": "119-36-36.92 W",
		"state": "NEVADA",
		"artcc": "ZOA",
		"type": "RNAV",
		"updated": "07/21/2011"
	},
	{
		"name": "WINTY",
		"latitude": "11-32-0 N",
		"longitude": "150-0-0 W",
		"state": "OFFSHORE PACIFIC",
		"artcc": "ZOA",
		"type": "RP",
		"updated": "09/03/1993"
	},
	{
		"name": "WINUB",
		"latitude": "39-20-13.88 N",
		"longitude": "120-7-23.26 W",
		"state": "CALIFORNIA",
		"artcc": "ZOA",
		"type": "RNAV",
		"updated": "10/20/2014"
	},
	{
		"name": "WINZR",
		"latitude": "15-5-36 N",
		"longitude": "144-22-48 E",
		"state": "OFFSHORE PACIFIC",
		"artcc": "ZOA",
		"type": "RNAV",
		"updated": "06/27/2007"
	},
	{
		"name": "WIPEB",
		"latitude": "38-48-38.82 N",
		"longitude": "121-35-57.72 W",
		"state": "CALIFORNIA",
		"artcc": "ZOA",
		"type": "RNAV",
		"updated": "09/12/2012"
	},
	{
		"name": "WIPOM",
		"latitude": "39-42-32.65 N",
		"longitude": "119-53-53.19 W",
		"state": "NEVADA",
		"artcc": "ZOA",
		"type": "RNAV",
		"updated": "07/12/2005"
	},
	{
		"name": "WISVU",
		"latitude": "39-24-15.52 N",
		"longitude": "122-5-13.44 W",
		"state": "CALIFORNIA",
		"artcc": "ZOA",
		"type": "RNAV",
		"updated": "01/20/2015"
	},
	{
		"name": "WITTT",
		"latitude": "39-16-20.56 N",
		"longitude": "119-39-30.93 W",
		"state": "NEVADA",
		"artcc": "ZOA",
		"type": "RNAV",
		"updated": "06/29/2011"
	},
	{
		"name": "WLSSN",
		"latitude": "36-55-30.1 N",
		"longitude": "121-36-40.93 W",
		"state": "CALIFORNIA",
		"artcc": "ZOA",
		"type": "RNAV",
		"updated": "06/25/2015"
	},
	{
		"name": "WNDEL",
		"latitude": "40-23-36.82 N",
		"longitude": "120-18-58.37 W",
		"state": "CALIFORNIA",
		"artcc": "ZOA",
		"type": "RP",
		"updated": "FMG*VORTAC*313.71/60.00"
	},
	{
		"name": "WNDML",
		"latitude": "37-30-18.32 N",
		"longitude": "121-27-56.75 W",
		"state": "CALIFORNIA",
		"artcc": "ZOA",
		"type": "RNAV",
		"updated": "03/02/2015"
	},
	{
		"name": "WNDSR",
		"latitude": "38-40-54.51 N",
		"longitude": "122-28-43.49 W",
		"state": "CALIFORNIA",
		"artcc": "ZOA",
		"type": "RNAV",
		"updated": "12/16/2014"
	},
	{
		"name": "WODUR",
		"latitude": "38-38-57.59 N",
		"longitude": "122-52-8.99 W",
		"state": "CALIFORNIA",
		"artcc": "ZOA",
		"type": "RP",
		"updated": "STS*VOR/DME*325.98/8.90"
	},
	{
		"name": "WOHLI",
		"latitude": "37-24-22.64 N",
		"longitude": "122-22-32.42 W",
		"state": "CALIFORNIA",
		"artcc": "ZOA",
		"type": "WP",
		"updated": "08/14/2006"
	},
	{
		"name": "WOKEV",
		"latitude": "39-11-15.15 N",
		"longitude": "119-42-23.93 W",
		"state": "NEVADA",
		"artcc": "ZOA",
		"type": "RNAV",
		"updated": "07/03/2013"
	},
	{
		"name": "WOLEK",
		"latitude": "8-42-49 N",
		"longitude": "173-18-31 E",
		"state": "OFFSHORE PACIFIC",
		"artcc": "ZOA",
		"type": "RNAV",
		"updated": "02/14/2011"
	},
	{
		"name": "WOMAS",
		"latitude": "38-40-13.46 N",
		"longitude": "122-31-12.02 W",
		"state": "CALIFORNIA",
		"artcc": "ZOA",
		"type": "RNAV",
		"updated": "11/20/2012"
	},
	{
		"name": "WOMAV",
		"latitude": "38-37-49.36 N",
		"longitude": "121-36-8.47 W",
		"state": "CALIFORNIA",
		"artcc": "ZOA",
		"type": "RNAV",
		"updated": "03/24/2015"
	},
	{
		"name": "WONGO",
		"latitude": "35-52-26.07 N",
		"longitude": "121-28-54.67 W",
		"state": "CALIFORNIA",
		"artcc": "ZOA",
		"type": "RP",
		"updated": "BSR*VORTAC*141.00/20.00"
	},
	{
		"name": "WONVO",
		"latitude": "39-27-44.14 N",
		"longitude": "118-43-56.51 W",
		"state": "NEVADA",
		"artcc": "ZOA",
		"type": "MR",
		"updated": "NFL*TACAN*321.00/3.00"
	},
	{
		"name": "WOOBY",
		"latitude": "5-0-0 S",
		"longitude": "168-1-12 W",
		"state": "OFFSHORE PACIFIC",
		"artcc": "ZOA",
		"type": "RP",
		"updated": "09/02/1993"
	},
	{
		"name": "WOODO",
		"latitude": "38-45-11.95 N",
		"longitude": "121-24-1.66 W",
		"state": "CALIFORNIA",
		"artcc": "ZOA",
		"type": "RP",
		"updated": "MCC*VOR/DME*/5.15"
	},
	{
		"name": "WOPEN",
		"latitude": "39-29-18.72 N",
		"longitude": "121-27-4.12 W",
		"state": "CALIFORNIA",
		"artcc": "ZOA",
		"type": "RNAV",
		"updated": "05/27/2008"
	},
	{
		"name": "WOPOD",
		"latitude": "38-26-21.12 N",
		"longitude": "123-9-26.28 W",
		"state": "CALIFORNIA",
		"artcc": "ZOA",
		"type": "RNAV",
		"updated": "05/21/2009"
	},
	{
		"name": "WORTH",
		"latitude": "39-36-19.42 N",
		"longitude": "119-44-9.56 W",
		"state": "NEVADA",
		"artcc": "ZOA",
		"type": "RNAV",
		"updated": "10/16/2013"
	},
	{
		"name": "WOSIM",
		"latitude": "36-53-36.72 N",
		"longitude": "119-55-35.81 W",
		"state": "CALIFORNIA",
		"artcc": "ZOA",
		"type": "RNAV",
		"updated": "07/04/2013"
	},
	{
		"name": "WOSKI",
		"latitude": "38-47-14.23 N",
		"longitude": "121-33-48.41 W",
		"state": "CALIFORNIA",
		"artcc": "ZOA",
		"type": "RNAV",
		"updated": "03/24/2015"
	},
	{
		"name": "WOSLU",
		"latitude": "5-0-0 N",
		"longitude": "157-15-6 W",
		"state": "OFFSHORE PACIFIC",
		"artcc": "ZOA",
		"type": "RP",
		"updated": "09/02/1993"
	},
	{
		"name": "WOSMA",
		"latitude": "37-23-32.86 N",
		"longitude": "119-51-1.85 W",
		"state": "CALIFORNIA",
		"artcc": "ZOA",
		"type": "RNAV",
		"updated": "11/09/2004"
	},
	{
		"name": "WOSOD",
		"latitude": "37-30-44.38 N",
		"longitude": "120-3-0.91 W",
		"state": "CALIFORNIA",
		"artcc": "ZOA",
		"type": "RNAV",
		"updated": "11/09/2004"
	},
	{
		"name": "WOVAB",
		"latitude": "38-55-40.44 N",
		"longitude": "123-46-55.92 W",
		"state": "CALIFORNIA",
		"artcc": "ZOA",
		"type": "RNAV",
		"updated": "05/04/2009"
	},
	{
		"name": "WOVRO",
		"latitude": "36-51-34.12 N",
		"longitude": "120-27-54.87 W",
		"state": "CALIFORNIA",
		"artcc": "ZOA",
		"type": "RP",
		"updated": "PXN*VORTAC*044.17/17.40"
	},
	{
		"name": "WOWAR",
		"latitude": "37-34-23.03 N",
		"longitude": "120-51-18.22 W",
		"state": "CALIFORNIA",
		"artcc": "ZOA",
		"type": "RP",
		"updated": "MOD*VOR/DME*106.55/5.88"
	},
	{
		"name": "WOXAR",
		"latitude": "37-17-51.02 N",
		"longitude": "121-51-30.67 W",
		"state": "CALIFORNIA",
		"artcc": "ZOA",
		"type": "RNAV",
		"updated": "01/27/2015"
	},
	{
		"name": "WOZTI",
		"latitude": "7-16-57.45 N",
		"longitude": "170-49-34.37 E",
		"state": "",
		"artcc": "ZOA",
		"type": "RP",
		"updated": "MAJ*NDB/DME*285.23/30.00"
	},
	{
		"name": "WOZZZ",
		"latitude": "36-13-59.12 N",
		"longitude": "121-48-24.46 W",
		"state": "CALIFORNIA",
		"artcc": "ZOA",
		"type": "RNAV",
		"updated": "04/21/2017"
	},
	{
		"name": "WPOUT",
		"latitude": "37-7-10.15 N",
		"longitude": "122-17-33.87 W",
		"state": "CALIFORNIA",
		"artcc": "ZOA",
		"type": "RNAV",
		"updated": "01/08/2015"
	},
	{
		"name": "WRAPS",
		"latitude": "37-51-28.6 N",
		"longitude": "120-47-1.48 W",
		"state": "CALIFORNIA",
		"artcc": "ZOA",
		"type": "RP",
		"updated": "LIN*VOR/DME*124.12/16.66"
	},
	{
		"name": "WRENS",
		"latitude": "7-7-7.6 N",
		"longitude": "158-16-23.39 E",
		"state": "",
		"artcc": "ZOA",
		"type": "RNAV",
		"updated": "12/30/2015"
	},
	{
		"name": "WRKMN",
		"latitude": "38-54-0.68 N",
		"longitude": "123-12-21.65 W",
		"state": "CALIFORNIA",
		"artcc": "ZOA",
		"type": "RNAV",
		"updated": "08/28/2014"
	},
	{
		"name": "WRNNR",
		"latitude": "11-9-48 N",
		"longitude": "132-28-0 E",
		"state": "OFFSHORE PACIFIC",
		"artcc": "ZOA",
		"type": "RP",
		"updated": "09/15/1993"
	},
	{
		"name": "WUBEB",
		"latitude": "37-59-8.2 N",
		"longitude": "120-27-49.4 W",
		"state": "CALIFORNIA",
		"artcc": "ZOA",
		"type": "RNAV",
		"updated": "08/01/2017"
	},
	{
		"name": "WUBRO",
		"latitude": "37-45-18.71 N",
		"longitude": "120-48-5.8 W",
		"state": "CALIFORNIA",
		"artcc": "ZOA",
		"type": "RP",
		"updated": "MOD*VOR/DME*027.12/10.68"
	},
	{
		"name": "WUBUS",
		"latitude": "38-20-19.98 N",
		"longitude": "121-49-26.37 W",
		"state": "CALIFORNIA",
		"artcc": "ZOA",
		"type": "MR",
		"updated": "SUU*TACAN*028.60/8.00"
	},
	{
		"name": "WUDIN",
		"latitude": "38-32-5.8 N",
		"longitude": "118-18-7.24 W",
		"state": "NEVADA",
		"artcc": "ZOA",
		"type": "RNAV",
		"updated": "08/04/2017"
	},
	{
		"name": "WUDKO",
		"latitude": "38-13-36.58 N",
		"longitude": "122-33-0.97 W",
		"state": "CALIFORNIA",
		"artcc": "ZOA",
		"type": "RNAV",
		"updated": "07/20/2011"
	},
	{
		"name": "WUDVU",
		"latitude": "39-22-38.56 N",
		"longitude": "120-6-31.6 W",
		"state": "CALIFORNIA",
		"artcc": "ZOA",
		"type": "RNAV",
		"updated": "10/20/2014"
	},
	{
		"name": "WUGEB",
		"latitude": "37-58-8.48 N",
		"longitude": "122-23-58.36 W",
		"state": "CALIFORNIA",
		"artcc": "ZOA",
		"type": "CN",
		"updated": "04/25/2012"
	},
	{
		"name": "WUGOP",
		"latitude": "35-48-2.44 N",
		"longitude": "120-32-43.18 W",
		"state": "CALIFORNIA",
		"artcc": "ZOA",
		"type": "RNAV",
		"updated": "12/02/2010"
	},
	{
		"name": "WUKAX",
		"latitude": "39-17-6.05 N",
		"longitude": "123-36-52.97 W",
		"state": "CALIFORNIA",
		"artcc": "ZOA",
		"type": "RNAV",
		"updated": "05/04/2009"
	},
	{
		"name": "WUMKA",
		"latitude": "39-31-15.99 N",
		"longitude": "119-46-9.12 W",
		"state": "NEVADA",
		"artcc": "ZOA",
		"type": "RP",
		"updated": "RNO*LD*344.12/2.46"
	},
	{
		"name": "WUMTA",
		"latitude": "37-41-54.9 N",
		"longitude": "120-38-59.27 W",
		"state": "CALIFORNIA",
		"artcc": "ZOA",
		"type": "RNAV",
		"updated": "07/20/2011"
	},
	{
		"name": "WUMVE",
		"latitude": "7-47-20.98 N",
		"longitude": "151-27-45.32 E",
		"state": "",
		"artcc": "ZOA",
		"type": "RP",
		"updated": "TKK*NDB/DME*306.14/29.99"
	},
	{
		"name": "WUNIP",
		"latitude": "39-18-46.85 N",
		"longitude": "122-8-4.75 W",
		"state": "CALIFORNIA",
		"artcc": "ZOA",
		"type": "RP",
		"updated": "ILA*VORTAC*322.97/15.34"
	},
	{
		"name": "WUNSU",
		"latitude": "38-19-21.44 N",
		"longitude": "121-50-47.45 W",
		"state": "CALIFORNIA",
		"artcc": "ZOA",
		"type": "RNAV",
		"updated": "05/18/2017"
	},
	{
		"name": "WURIL",
		"latitude": "38-0-41.62 N",
		"longitude": "117-33-36.89 W",
		"state": "NEVADA",
		"artcc": "ZOA",
		"type": "RP",
		"updated": "OAL*VORTAC*070.08/9.98"
	},
	{
		"name": "WUSET",
		"latitude": "7-10-6 N",
		"longitude": "172-26-9 E",
		"state": "OFFSHORE PACIFIC",
		"artcc": "ZOA",
		"type": "RNAV",
		"updated": "02/14/2011"
	},
	{
		"name": "WUSVU",
		"latitude": "38-41-40.09 N",
		"longitude": "121-16-3.42 W",
		"state": "CALIFORNIA",
		"artcc": "ZOA",
		"type": "RNAV",
		"updated": "02/13/2007"
	},
	{
		"name": "WUTEN",
		"latitude": "39-15-0.98 N",
		"longitude": "121-55-3.06 W",
		"state": "CALIFORNIA",
		"artcc": "ZOA",
		"type": "RNAV",
		"updated": "11/17/2017"
	},
	{
		"name": "WUTGI",
		"latitude": "37-36-38.85 N",
		"longitude": "118-37-22.03 W",
		"state": "CALIFORNIA",
		"artcc": "ZOA",
		"type": "RNAV",
		"updated": "09/16/2016"
	},
	{
		"name": "WUTOX",
		"latitude": "37-38-4.59 N",
		"longitude": "122-5-12.73 W",
		"state": "CALIFORNIA",
		"artcc": "ZOA",
		"type": "RP",
		"updated": "OAK*VOR/DME*113.00/8.51"
	},
	{
		"name": "WUVON",
		"latitude": "37-36-45.69 N",
		"longitude": "122-4-52.98 W",
		"state": "CALIFORNIA",
		"artcc": "ZOA",
		"type": "RP",
		"updated": "INB*LD*116.01/10.46"
	},
	{
		"name": "WUXUN",
		"latitude": "36-31-2.3 N",
		"longitude": "121-38-20.51 W",
		"state": "CALIFORNIA",
		"artcc": "ZOA",
		"type": "RP",
		"updated": "MTB*LE*097.76/11.49"
	},
	{
		"name": "WWAVS",
		"latitude": "36-44-29.51 N",
		"longitude": "121-53-39.24 W",
		"state": "CALIFORNIA",
		"artcc": "ZOA",
		"type": "RNAV",
		"updated": "01/08/2015"
	},
	{
		"name": "WYSKI",
		"latitude": "40-47-17.08 N",
		"longitude": "122-17-39.79 W",
		"state": "CALIFORNIA",
		"artcc": "ZOA",
		"type": "RP",
		"updated": "RDD*LD*342.08/15.89"
	}
]
