[
	{
		"name": "YACUG",
		"latitude": "39-28-37.04 N",
		"longitude": "122-13-5.26 W",
		"state": "CALIFORNIA",
		"artcc": "ZOA",
		"type": "RNAV",
		"updated": "07/20/2011"
	},
	{
		"name": "YADFY",
		"latitude": "38-56-47.51 N",
		"longitude": "121-11-1.64 W",
		"state": "CALIFORNIA",
		"artcc": "ZOA",
		"type": "RNAV",
		"updated": "12/23/2009"
	},
	{
		"name": "YADUT",
		"latitude": "37-12-14.36 N",
		"longitude": "122-1-23.8 W",
		"state": "CALIFORNIA",
		"artcc": "ZOA",
		"type": "RNAV",
		"updated": "01/27/2015"
	},
	{
		"name": "YAKYU",
		"latitude": "39-23-36.59 N",
		"longitude": "120-6-10.87 W",
		"state": "CALIFORNIA",
		"artcc": "ZOA",
		"type": "RNAV",
		"updated": "10/20/2014"
	},
	{
		"name": "YAPUB",
		"latitude": "38-19-20.19 N",
		"longitude": "122-56-56.67 W",
		"state": "CALIFORNIA",
		"artcc": "ZOA",
		"type": "RNAV",
		"updated": "12/17/2013"
	},
	{
		"name": "YARKU",
		"latitude": "39-8-22.93 N",
		"longitude": "119-40-49.12 W",
		"state": "NEVADA",
		"artcc": "ZOA",
		"type": "RP",
		"updated": "FMG*VORTAC*166.76/23.50"
	},
	{
		"name": "YATBU",
		"latitude": "35-58-50.99 N",
		"longitude": "121-13-19.16 W",
		"state": "CALIFORNIA",
		"artcc": "ZOA",
		"type": "RNAV",
		"updated": "06/19/2008"
	},
	{
		"name": "YATZY",
		"latitude": "10-0-0 N",
		"longitude": "136-30-0 E",
		"state": "OFFSHORE PACIFIC",
		"artcc": "ZOA",
		"type": "RNAV",
		"updated": "07/18/2007"
	},
	{
		"name": "YEGGU",
		"latitude": "37-44-0.83 N",
		"longitude": "122-14-14.52 W",
		"state": "CALIFORNIA",
		"artcc": "ZOA",
		"type": "RP",
		"updated": "OAK*VOR/DME*287.93/0.80"
	},
	{
		"name": "YEKUT",
		"latitude": "36-30-41.07 N",
		"longitude": "119-45-30.72 W",
		"state": "CALIFORNIA",
		"artcc": "ZOA",
		"type": "RNAV",
		"updated": "06/12/2010"
	},
	{
		"name": "YERGU",
		"latitude": "35-52-15.13 N",
		"longitude": "120-42-22.77 W",
		"state": "CALIFORNIA",
		"artcc": "ZOA",
		"type": "RP",
		"updated": "PRB*VORTAC*326.00/12.50"
	},
	{
		"name": "YERIN",
		"latitude": "38-58-46.87 N",
		"longitude": "118-57-41.91 W",
		"state": "NEVADA",
		"artcc": "ZOA",
		"type": "RP",
		"updated": "NFL*TACAN*190.62/28.81"
	},
	{
		"name": "YETNI",
		"latitude": "7-17-59.57 N",
		"longitude": "151-44-21.67 E",
		"state": "",
		"artcc": "ZOA",
		"type": "WP",
		"updated": "11/02/1998"
	},
	{
		"name": "YETUD",
		"latitude": "39-40-55.67 N",
		"longitude": "119-47-34.19 W",
		"state": "NEVADA",
		"artcc": "ZOA",
		"type": "RNAV",
		"updated": "05/25/2011"
	},
	{
		"name": "YEYNU",
		"latitude": "14-58-14.28 N",
		"longitude": "146-2-22.18 E",
		"state": "N MARIANA ISLANDS",
		"artcc": "ZOA",
		"type": "RNAV",
		"updated": "12/21/2010"
	},
	{
		"name": "YICPU",
		"latitude": "37-37-43.02 N",
		"longitude": "122-6-18.58 W",
		"state": "CALIFORNIA",
		"artcc": "ZOA",
		"type": "RNAV",
		"updated": "03/08/2018"
	},
	{
		"name": "YIRUK",
		"latitude": "35-43-33.59 N",
		"longitude": "120-35-43.64 W",
		"state": "CALIFORNIA",
		"artcc": "ZOA",
		"type": "RNAV",
		"updated": "12/02/2010"
	},
	{
		"name": "YITGU",
		"latitude": "38-31-22.85 N",
		"longitude": "122-49-0.32 W",
		"state": "CALIFORNIA",
		"artcc": "ZOA",
		"type": "RP",
		"updated": "STS*VOR/DME*325.98/0.93"
	},
	{
		"name": "YITUD",
		"latitude": "36-29-17.26 N",
		"longitude": "121-33-12.73 W",
		"state": "CALIFORNIA",
		"artcc": "ZOA",
		"type": "RP",
		"updated": "MTB*LE*097.76/15.97"
	},
	{
		"name": "YIYUR",
		"latitude": "38-28-43.54 N",
		"longitude": "118-27-48.99 W",
		"state": "NEVADA",
		"artcc": "ZOA",
		"type": "RNAV",
		"updated": "08/04/2017"
	},
	{
		"name": "YOGAS",
		"latitude": "7-1-5.87 N",
		"longitude": "158-19-51.45 E",
		"state": "",
		"artcc": "ZOA",
		"type": "RNAV",
		"updated": "12/30/2015"
	},
	{
		"name": "YOGIE",
		"latitude": "38-15-49.35 N",
		"longitude": "121-55-35.14 W",
		"state": "CALIFORNIA",
		"artcc": "ZOA",
		"type": "MR",
		"updated": "SUU*TACAN*022.00/1.40"
	},
	{
		"name": "YOGUY",
		"latitude": "36-34-4.39 N",
		"longitude": "121-47-1.05 W",
		"state": "CALIFORNIA",
		"artcc": "ZOA",
		"type": "RNAV",
		"updated": "12/20/2005"
	},
	{
		"name": "YOLOH",
		"latitude": "38-41-6.54 N",
		"longitude": "121-51-21.7 W",
		"state": "CALIFORNIA",
		"artcc": "ZOA",
		"type": "RNAV",
		"updated": "11/01/2011"
	},
	{
		"name": "YOLUS",
		"latitude": "38-11-46.22 N",
		"longitude": "121-39-48.09 W",
		"state": "CALIFORNIA",
		"artcc": "ZOA",
		"type": "RNAV",
		"updated": "06/05/2012"
	},
	{
		"name": "YOSEM",
		"latitude": "37-45-45.87 N",
		"longitude": "118-45-59.8 W",
		"state": "CALIFORNIA",
		"artcc": "ZOA",
		"type": "RNAV",
		"updated": "07/11/2005"
	},
	{
		"name": "YOSHE",
		"latitude": "38-38-53.46 N",
		"longitude": "121-8-1.18 W",
		"state": "CALIFORNIA",
		"artcc": "ZOA",
		"type": "RP",
		"updated": "MHR*LD*036.72/10.74"
	},
	{
		"name": "YOSMT",
		"latitude": "37-36-1.48 N",
		"longitude": "118-44-6.7 W",
		"state": "CALIFORNIA",
		"artcc": "ZOA",
		"type": "RNAV",
		"updated": "09/16/2016"
	},
	{
		"name": "YUBBA",
		"latitude": "39-7-25.78 N",
		"longitude": "121-46-9.77 W",
		"state": "CALIFORNIA",
		"artcc": "ZOA",
		"type": "RP",
		"updated": "MYV*VOR/DME*263.41/9.29"
	},
	{
		"name": "YUGUD",
		"latitude": "38-34-47.94 N",
		"longitude": "121-54-39.85 W",
		"state": "CALIFORNIA",
		"artcc": "ZOA",
		"type": "RNAV",
		"updated": "03/19/2009"
	},
	{
		"name": "YURDO",
		"latitude": "35-59-47.22 N",
		"longitude": "119-29-41.21 W",
		"state": "CALIFORNIA",
		"artcc": "ZOA",
		"type": "RNAV",
		"updated": "09/08/2015"
	},
	{
		"name": "YYUNG",
		"latitude": "35-30-57.9 N",
		"longitude": "121-4-7.27 W",
		"state": "CALIFORNIA",
		"artcc": "ZOA",
		"type": "RNAV",
		"updated": "11/24/2014"
	}
]
