	{
		"name": "ZABGO",
		"latitude": "37-41-34.52 N",
		"longitude": "121-42-30.11 W",
		"state": "CALIFORNIA",
		"artcc": "ZOA",
		"type": "RP",
		"updated": "LVK*LD*074.58/5.87",
	},
	{
		"name": "ZABTI",
		"latitude": "38-54-58.68 N",
		"longitude": "123-3-27.36 W",
		"state": "CALIFORNIA",
		"artcc": "ZOA",
		"type": "RNAV",
		"updated": "05/20/2009",
	},
	{
		"name": "ZADAG",
		"latitude": "38-49-8.76 N",
		"longitude": "123-7-3.36 W",
		"state": "CALIFORNIA",
		"artcc": "ZOA",
		"type": "RNAV",
		"updated": "05/21/2009",
	},
	{
		"name": "ZADBA",
		"latitude": "37-41-16.07 N",
		"longitude": "121-24-55.59 W",
		"state": "CALIFORNIA",
		"artcc": "ZOA",
		"type": "RP",
		"updated": "MOD*VOR/DME*262.57/22.10",
	},
	{
		"name": "ZADES",
		"latitude": "7-3-14.28 N",
		"longitude": "171-14-0.28 E",
		"state": "",
		"artcc": "ZOA",
		"type": "RP",
		"updated": "MAJ*NDB/DME*242.16/2.22",
	},
	{
		"name": "ZADEX",
		"latitude": "38-46-27.12 N",
		"longitude": "123-19-18.48 W",
		"state": "CALIFORNIA",
		"artcc": "ZOA",
		"type": "RNAV",
		"updated": "05/21/2009",
	},
	{
		"name": "ZAGER",
		"latitude": "39-47-34 N",
		"longitude": "138-7-26 W",
		"state": "OFFSHORE PACIFIC",
		"artcc": "ZOA",
		"type": "RNAV",
		"updated": "02/11/2008",
	},
	{
		"name": "ZAGET",
		"latitude": "38-11-0.75 N",
		"longitude": "122-0-56.86 W",
		"state": "CALIFORNIA",
		"artcc": "ZOA",
		"type": "MR",
		"updated": "SUU*TACAN*205.00/5.00",
	},
	{
		"name": "ZAKBI",
		"latitude": "39-22-3.17 N",
		"longitude": "119-46-10.61 W",
		"state": "NEVADA",
		"artcc": "ZOA",
		"type": "RNAV",
		"updated": "08/08/2008",
	},
	{
		"name": "ZAKUL",
		"latitude": "38-54-26.58 N",
		"longitude": "122-4-4.74 W",
		"state": "CALIFORNIA",
		"artcc": "ZOA",
		"type": "RP",
		"updated": "ILA*VORTAC*173.00/10.00",
	},
	{
		"name": "ZALMU",
		"latitude": "37-59-15.04 N",
		"longitude": "121-22-48.24 W",
		"state": "CALIFORNIA",
		"artcc": "ZOA",
		"type": "RNAV",
		"updated": "02/13/2007",
	},
	{
		"name": "ZALNO",
		"latitude": "39-3-55.49 N",
		"longitude": "121-7-55.94 W",
		"state": "CALIFORNIA",
		"artcc": "ZOA",
		"type": "MR",
		"updated": "BAB*TACAN*090.00/15.00",
	},
	{
		"name": "ZALUK",
		"latitude": "39-23-2.49 N",
		"longitude": "84-31-49.87 W",
		"state": "OHIO",
		"artcc": "ZOB",
		"type": "RNAV",
		"updated": "10/22/2015",
	},
	{
		"name": "ZAMES",
		"latitude": "38-24-31.66 N",
		"longitude": "121-43-58.72 W",
		"state": "CALIFORNIA",
		"artcc": "ZOA",
		"type": "MR",
		"updated": "SUU*TACAN*028.60/14.00",
	},
	{
		"name": "ZANNG",
		"latitude": "44-5-36 N",
		"longitude": "129-58-42 W",
		"state": "OFFSHORE PACIFIC",
		"artcc": "ZOA",
		"type": "RP",
		"updated": "04/01/2002",
	},
	{
		"name": "ZANUM",
		"latitude": "39-15-11.8 N",
		"longitude": "123-15-42.22 W",
		"state": "CALIFORNIA",
		"artcc": "ZOA",
		"type": "RNAV",
		"updated": "06/02/2016",
	},
	{
		"name": "ZAPAL",
		"latitude": "39-12-16.87 N",
		"longitude": "122-5-35.04 W",
		"state": "CALIFORNIA",
		"artcc": "ZOA",
		"type": "RNAV",
		"updated": "02/14/2007",
	},
	{
		"name": "ZAPIX",
		"latitude": "38-12-15.95 N",
		"longitude": "122-18-21.95 W",
		"state": "CALIFORNIA",
		"artcc": "ZOA",
		"type": "RNAV",
		"updated": "09/08/2003",
	},
	{
		"name": "ZAPTI",
		"latitude": "39-15-40.96 N",
		"longitude": "120-58-7.44 W",
		"state": "CALIFORNIA",
		"artcc": "ZOA",
		"type": "RNAV",
		"updated": "02/13/2007",
	},
	{
		"name": "ZAPUM",
		"latitude": "9-3-30.7 N",
		"longitude": "167-36-4.97 E",
		"state": "",
		"artcc": "ZOA",
		"type": "MW",
		"updated": "12/03/2008",
	},
	{
		"name": "ZAPUX",
		"latitude": "39-6-44.75 N",
		"longitude": "121-25-34.85 W",
		"state": "CALIFORNIA",
		"artcc": "ZOA",
		"type": "MR",
		"updated": "BAB*TACAN*137.35/1.50",
	},
	{
		"name": "ZARAG",
		"latitude": "39-24-47.34 N",
		"longitude": "121-30-37.84 W",
		"state": "CALIFORNIA",
		"artcc": "ZOA",
		"type": "MR",
		"updated": "BAB*TACAN*333.00/17.00",
	},
	{
		"name": "ZAREL",
		"latitude": "37-25-27.87 N",
		"longitude": "122-10-34.79 W",
		"state": "CALIFORNIA",
		"artcc": "ZOA",
		"type": "RNAV",
		"updated": "11/14/2016",
	},
	{
		"name": "ZASBU",
		"latitude": "38-28-26.49 N",
		"longitude": "122-50-29.94 W",
		"state": "CALIFORNIA",
		"artcc": "ZOA",
		"type": "RNAV",
		"updated": "12/17/2013",
	},
	{
		"name": "ZEBED",
		"latitude": "36-38-41.3 N",
		"longitude": "122-0-56.75 W",
		"state": "CALIFORNIA",
		"artcc": "ZOA",
		"type": "RP",
		"updated": "SNS*VORTAC*249.85/19.95",
	},
	{
		"name": "ZEBTI",
		"latitude": "39-27-49 N",
		"longitude": "121-55-58.87 W",
		"state": "CALIFORNIA",
		"artcc": "ZOA",
		"type": "RNAV",
		"updated": "01/20/2015",
	},
	{
		"name": "ZEDOX",
		"latitude": "36-56-24.43 N",
		"longitude": "121-27-21.18 W",
		"state": "CALIFORNIA",
		"artcc": "ZOA",
		"type": "RNAV",
		"updated": "04/15/2008",
	},
	{
		"name": "ZEFFR",
		"latitude": "39-25-49.66 N",
		"longitude": "119-46-9.6 W",
		"state": "NEVADA",
		"artcc": "ZOA",
		"type": "RNAV",
		"updated": "06/29/2011",
	},
	{
		"name": "ZEGEX",
		"latitude": "38-17-23.84 N",
		"longitude": "120-43-9.47 W",
		"state": "CALIFORNIA",
		"artcc": "ZOA",
		"type": "RNAV",
		"updated": "08/01/2017",
	},
	{
		"name": "ZEGSO",
		"latitude": "39-2-41.6 N",
		"longitude": "121-23-49.76 W",
		"state": "CALIFORNIA",
		"artcc": "ZOA",
		"type": "MR",
		"updated": "ILA*VORTAC*074.86",
	},
	{
		"name": "ZEKEM",
		"latitude": "39-28-38 N",
		"longitude": "119-3-17.1 W",
		"state": "NEVADA",
		"artcc": "ZOA",
		"type": "RNAV",
		"updated": "02/23/2017",
	},
	{
		"name": "ZELAT",
		"latitude": "37-34-20.18 N",
		"longitude": "120-51-12.95 W",
		"state": "CALIFORNIA",
		"artcc": "ZOA",
		"type": "RP",
		"updated": "MOD*VOR/DME*/5.97",
	},
	{
		"name": "ZEMKI",
		"latitude": "36-56-58.09 N",
		"longitude": "121-32-2.48 W",
		"state": "CALIFORNIA",
		"artcc": "ZOA",
		"type": "RNAV",
		"updated": "01/06/2010",
	},
	{
		"name": "ZEMOM",
		"latitude": "30-12-56 N",
		"longitude": "151-7-2 W",
		"state": "OFFSHORE PACIFIC",
		"artcc": "ZOA",
		"type": "RNAV",
		"updated": "02/11/2008",
	},
	{
		"name": "ZENDO",
		"latitude": "39-36-42.43 N",
		"longitude": "119-42-0.75 W",
		"state": "NEVADA",
		"artcc": "ZOA",
		"type": "RNAV",
		"updated": "10/16/2013",
	},
	{
		"name": "ZENUG",
		"latitude": "37-36-5.67 N",
		"longitude": "122-2-15.18 W",
		"state": "CALIFORNIA",
		"artcc": "ZOA",
		"type": "RP",
		"updated": "OAK*VOR/DME*113.00/11.58",
	},
	{
		"name": "ZENUM",
		"latitude": "40-9-14.13 N",
		"longitude": "118-30-8.68 W",
		"state": "NEVADA",
		"artcc": "ZOA",
		"type": "RNAV",
		"updated": "07/28/2017",
	},
	{
		"name": "ZERMO",
		"latitude": "37-46-10.04 N",
		"longitude": "122-20-34.44 W",
		"state": "CALIFORNIA",
		"artcc": "ZOA",
		"type": "RNAV",
		"updated": "08/11/2010",
	},
	{
		"name": "ZESEP",
		"latitude": "38-11-53.04 N",
		"longitude": "122-29-57.17 W",
		"state": "CALIFORNIA",
		"artcc": "ZOA",
		"type": "RNAV",
		"updated": "07/20/2011",
	},
	{
		"name": "ZESUM",
		"latitude": "38-6-1.27 N",
		"longitude": "120-36-32.15 W",
		"state": "CALIFORNIA",
		"artcc": "ZOA",
		"type": "RNAV",
		"updated": "08/01/2017",
	},
	{
		"name": "ZEXIK",
		"latitude": "37-19-11.59 N",
		"longitude": "120-33-10.3 W",
		"state": "CALIFORNIA",
		"artcc": "ZOA",
		"type": "RNAV",
		"updated": "08/14/2008",
	},
	{
		"name": "ZEXUT",
		"latitude": "39-16-39.23 N",
		"longitude": "119-46-11.49 W",
		"state": "NEVADA",
		"artcc": "ZOA",
		"type": "RNAV",
		"updated": "08/08/2008",
	},
	{
		"name": "ZEYCA",
		"latitude": "37-46-41.94 N",
		"longitude": "122-16-0.28 W",
		"state": "CALIFORNIA",
		"artcc": "ZOA",
		"type": "RNAV",
		"updated": "02/09/2018",
	},
	{
		"name": "ZICYO",
		"latitude": "38-51-55 N",
		"longitude": "118-42-59 W",
		"state": "NEVADA",
		"artcc": "ZOA",
		"type": "RNAV",
		"updated": "08/04/2017",
	},
	{
		"name": "ZIDGO",
		"latitude": "39-22-3.16 N",
		"longitude": "119-46-1.57 W",
		"state": "NEVADA",
		"artcc": "ZOA",
		"type": "RNAV",
		"updated": "08/08/2008",
	},
	{
		"name": "ZILED",
		"latitude": "37-29-44.25 N",
		"longitude": "121-57-29.56 W",
		"state": "CALIFORNIA",
		"artcc": "ZOA",
		"type": "RNAV",
		"updated": "01/08/2015",
	},
	{
		"name": "ZILKU",
		"latitude": "36-32-10.12 N",
		"longitude": "121-41-39.83 W",
		"state": "CALIFORNIA",
		"artcc": "ZOA",
		"type": "RP",
		"updated": "MTB*LE*097.76/8.58",
	},
	{
		"name": "ZILUK",
		"latitude": "15-8-5.66 N",
		"longitude": "145-46-10.18 E",
		"state": "N MARIANA ISLANDS",
		"artcc": "ZOA",
		"type": "RNAV",
		"updated": "12/21/2010",
	},
	{
		"name": "ZIMAM",
		"latitude": "38-50-12.04 N",
		"longitude": "121-29-29 W",
		"state": "CALIFORNIA",
		"artcc": "ZOA",
		"type": "RNAV",
		"updated": "09/17/2014",
	},
	{
		"name": "ZIMYU",
		"latitude": "37-37-50.78 N",
		"longitude": "122-21-53.37 W",
		"state": "CALIFORNIA",
		"artcc": "ZOA",
		"type": "RNAV",
		"updated": "05/08/2002",
	},
	{
		"name": "ZINNN",
		"latitude": "38-3-44.51 N",
		"longitude": "122-31-18.92 W",
		"state": "CALIFORNIA",
		"artcc": "ZOA",
		"type": "RNAV",
		"updated": "01/12/2015",
	},
	{
		"name": "ZINNO",
		"latitude": "35-0-0 N",
		"longitude": "145-14-32 W",
		"state": "OFFSHORE PACIFIC",
		"artcc": "ZOA",
		"type": "RNAV",
		"updated": "03/11/2003",
	},
	{
		"name": "ZINUX",
		"latitude": "39-13-47.17 N",
		"longitude": "121-27-52.17 W",
		"state": "CALIFORNIA",
		"artcc": "ZOA",
		"type": "MR",
		"updated": "BAB*TACAN*333.00/5.80",
	},
	{
		"name": "ZIPUG",
		"latitude": "39-21-52.01 N",
		"longitude": "118-39-0.75 W",
		"state": "NEVADA",
		"artcc": "ZOA",
		"type": "MW",
		"updated": "11/17/2014",
	},
	{
		"name": "ZIRES",
		"latitude": "36-23-43.77 N",
		"longitude": "119-29-19.05 W",
		"state": "CALIFORNIA",
		"artcc": "ZOA",
		"type": "RNAV",
		"updated": "07/20/2011",
	},
	{
		"name": "ZIRUP",
		"latitude": "37-59-32.35 N",
		"longitude": "122-30-39.39 W",
		"state": "CALIFORNIA",
		"artcc": "ZOA",
		"type": "RNAV",
		"updated": "03/22/2006",
	},
	{
		"name": "ZISES",
		"latitude": "38-30-20.21 N",
		"longitude": "121-22-52.39 W",
		"state": "CALIFORNIA",
		"artcc": "ZOA",
		"type": "RNAV",
		"updated": "12/18/2006",
	},
	{
		"name": "ZISNO",
		"latitude": "40-11-1.33 N",
		"longitude": "118-26-26.11 W",
		"state": "NEVADA",
		"artcc": "ZOA",
		"type": "RNAV",
		"updated": "07/28/2017",
	},
	{
		"name": "ZITUL",
		"latitude": "38-37-52.84 N",
		"longitude": "121-41-44.58 W",
		"state": "CALIFORNIA",
		"artcc": "ZOA",
		"type": "RNAV",
		"updated": "09/17/2014",
	},
	{
		"name": "ZIVMA",
		"latitude": "38-29-26.51 N",
		"longitude": "122-49-47.34 W",
		"state": "CALIFORNIA",
		"artcc": "ZOA",
		"type": "RNAV",
		"updated": "12/17/2013",
	},
	{
		"name": "ZIVOL",
		"latitude": "35-40-50.06 N",
		"longitude": "120-37-32.57 W",
		"state": "CALIFORNIA",
		"artcc": "ZOA",
		"type": "RP",
		"updated": "PRB*VORTAC*352.00/0.49",
	},
	{
		"name": "ZIVZU",
		"latitude": "7-11-21.79 N",
		"longitude": "171-25-40.49 E",
		"state": "",
		"artcc": "ZOA",
		"type": "RNAV",
		"updated": "07/07/2017",
	},
	{
		"name": "ZNAME",
		"latitude": "37-18-50.93 N",
		"longitude": "118-31-34.73 W",
		"state": "CALIFORNIA",
		"artcc": "ZOA",
		"type": "RNAV",
		"updated": "12/23/2014",
	},
	{
		"name": "ZOKOP",
		"latitude": "39-45-55.26 N",
		"longitude": "122-13-48.08 W",
		"state": "CALIFORNIA",
		"artcc": "ZOA",
		"type": "RP",
		"updated": "RBL*VORTAC*161.16/20.00",
	},
	{
		"name": "ZOLOV",
		"latitude": "38-45-38.44 N",
		"longitude": "121-36-0.69 W",
		"state": "CALIFORNIA",
		"artcc": "ZOA",
		"type": "RNAV",
		"updated": "03/24/2015",
	},
	{
		"name": "ZOLUM",
		"latitude": "37-36-20.55 N",
		"longitude": "122-1-8.67 W",
		"state": "CALIFORNIA",
		"artcc": "ZOA",
		"type": "RNAV",
		"updated": "09/08/2015",
	},
	{
		"name": "ZOMAN",
		"latitude": "36-53-1.36 N",
		"longitude": "120-49-59.17 W",
		"state": "CALIFORNIA",
		"artcc": "ZOA",
		"type": "MR",
		"updated": "SNS*VORTAC*053.23",
	},
	{
		"name": "ZOMER",
		"latitude": "37-32-43.25 N",
		"longitude": "120-37-53.19 W",
		"state": "CALIFORNIA",
		"artcc": "ZOA",
		"type": "RNAV",
		"updated": "07/11/2005",
	},
	{
		"name": "ZOMET",
		"latitude": "38-24-50.36 N",
		"longitude": "121-46-17.72 W",
		"state": "CALIFORNIA",
		"artcc": "ZOA",
		"type": "MR",
		"updated": "SUU*TACAN*022.00/13.00",
	},
	{
		"name": "ZOMPO",
		"latitude": "39-41-33.88 N",
		"longitude": "119-46-7.44 W",
		"state": "NEVADA",
		"artcc": "ZOA",
		"type": "RP",
		"updated": "RNO*LD*344.12/12.75",
	},
	{
		"name": "ZONBI",
		"latitude": "39-46-17.98 N",
		"longitude": "119-56-10.48 W",
		"state": "NEVADA",
		"artcc": "ZOA",
		"type": "RNAV",
		"updated": "04/20/2016",
	},
	{
		"name": "ZONDO",
		"latitude": "38-30-26.14 N",
		"longitude": "121-47-22.28 W",
		"state": "CALIFORNIA",
		"artcc": "ZOA",
		"type": "RNAV",
		"updated": "05/18/2017",
	},
	{
		"name": "ZONOJ",
		"latitude": "39-37-59.2 N",
		"longitude": "123-33-57.67 W",
		"state": "CALIFORNIA",
		"artcc": "ZOA",
		"type": "RNAV",
		"updated": "09/13/2010",
	},
	{
		"name": "ZONSO",
		"latitude": "37-46-17.05 N",
		"longitude": "124-21-44.57 W",
		"state": "OFFSHORE PACIFIC",
		"artcc": "ZOA",
		"type": "RNAV",
		"updated": "11/20/2012",
	},
	{
		"name": "ZOPIS",
		"latitude": "39-25-13.29 N",
		"longitude": "118-25-31.91 W",
		"state": "NEVADA",
		"artcc": "ZOA",
		"type": "MR",
		"updated": "NFL*TACAN*075.00/13.00",
	},
	{
		"name": "ZORIR",
		"latitude": "37-36-40.11 N",
		"longitude": "121-25-46.93 W",
		"state": "CALIFORNIA",
		"artcc": "ZOA",
		"type": "RNAV",
		"updated": "09/30/2017",
	},
	{
		"name": "ZORSA",
		"latitude": "37-21-46.66 N",
		"longitude": "122-3-2.38 W",
		"state": "CALIFORNIA",
		"artcc": "ZOA",
		"type": "RNAV",
		"updated": "07/06/2015",
	},
	{
		"name": "ZORUN",
		"latitude": "39-59-0 N",
		"longitude": "118-55-0 W",
		"state": "NEVADA",
		"artcc": "ZOA",
		"type": "RNAV",
		"updated": "09/26/2014",
	},
	{
		"name": "ZOSON",
		"latitude": "37-47-7.15 N",
		"longitude": "120-53-35.83 W",
		"state": "CALIFORNIA",
		"artcc": "ZOA",
		"type": "RNAV",
		"updated": "07/20/2011",
	},
	{
		"name": "ZOTPI",
		"latitude": "37-42-43.03 N",
		"longitude": "121-28-32.4 W",
		"state": "CALIFORNIA",
		"artcc": "ZOA",
		"type": "RNAV",
		"updated": "03/30/2017",
	},
	{
		"name": "ZOTUX",
		"latitude": "37-44-30.06 N",
		"longitude": "117-32-40.23 W",
		"state": "NEVADA",
		"artcc": "ZOA",
		"type": "RP",
		"updated": "OAL*VORTAC*128.53/19.00",
	},
	{
		"name": "ZOTWY",
		"latitude": "39-59-34.87 N",
		"longitude": "122-1-18.34 W",
		"state": "CALIFORNIA",
		"artcc": "ZOA",
		"type": "RP",
		"updated": "CIC*VOR/DME*310.56/14.61",
	},
	{
		"name": "ZOULU",
		"latitude": "25-11-45 N",
		"longitude": "156-25-16 W",
		"state": "OFFSHORE PACIFIC",
		"artcc": "ZOA",
		"type": "RNAV",
		"updated": "02/11/2008",
	},
	{
		"name": "ZOVAD",
		"latitude": "35-52-27.93 N",
		"longitude": "121-12-34.74 W",
		"state": "CALIFORNIA",
		"artcc": "ZOA",
		"type": "RNAV",
		"updated": "06/18/2008",
	},
	{
		"name": "ZOVAR",
		"latitude": "38-9-49.67 N",
		"longitude": "122-7-1.77 W",
		"state": "CALIFORNIA",
		"artcc": "ZOA",
		"type": "MR",
		"updated": "SUU*TACAN*222.00/9.50",
	},
	{
		"name": "ZUBUD",
		"latitude": "39-26-45.31 N",
		"longitude": "121-45-48.5 W",
		"state": "CALIFORNIA",
		"artcc": "ZOA",
		"type": "RP",
		"updated": "MYV*VOR/DME*/22.63",
	},
	{
		"name": "ZUDAB",
		"latitude": "36-43-38.32 N",
		"longitude": "119-38-5.42 W",
		"state": "CALIFORNIA",
		"artcc": "ZOA",
		"type": "RNAV",
		"updated": "03/06/2018",
	},
	{
		"name": "ZUGEK",
		"latitude": "39-6-27.09 N",
		"longitude": "120-1-38.1 W",
		"state": "CALIFORNIA",
		"artcc": "ZOA",
		"type": "CN",
		"updated": "08/11/2008",
	},
	{
		"name": "ZUGPO",
		"latitude": "35-52-53.94 N",
		"longitude": "120-23-59.72 W",
		"state": "CALIFORNIA",
		"artcc": "ZOA",
		"type": "RNAV",
		"updated": "12/02/2010",
	},
	{
		"name": "ZUKEK",
		"latitude": "37-45-30.21 N",
		"longitude": "122-16-55.81 W",
		"state": "CALIFORNIA",
		"artcc": "ZOA",
		"type": "RP",
		"updated": "SFO*VOR/DME*010.66",
	},
	{
		"name": "ZUKOG",
		"latitude": "37-46-9.09 N",
		"longitude": "122-22-37.81 W",
		"state": "CALIFORNIA",
		"artcc": "ZOA",
		"type": "RNAV",
		"updated": "01/28/2016",
	},
	{
		"name": "ZUKOP",
		"latitude": "38-6-35.89 N",
		"longitude": "122-0-28.17 W",
		"state": "CALIFORNIA",
		"artcc": "ZOA",
		"type": "RP",
		"updated": "CCR*VOR/DME*007.42/4.28",
	},
	{
		"name": "ZULTO",
		"latitude": "6-59-5.31 N",
		"longitude": "158-16-21.28 E",
		"state": "",
		"artcc": "ZOA",
		"type": "RNAV",
		"updated": "12/30/2015",
	},
	{
		"name": "ZULUP",
		"latitude": "37-12-20.41 N",
		"longitude": "121-45-29.88 W",
		"state": "CALIFORNIA",
		"artcc": "ZOA",
		"type": "RP",
		"updated": "SJC*LD*125.82/13.41",
	},
	{
		"name": "ZUNEG",
		"latitude": "38-49-1.08 N",
		"longitude": "121-34-41.49 W",
		"state": "CALIFORNIA",
		"artcc": "ZOA",
		"type": "RNAV",
		"updated": "10/10/2012",
	},
	{
		"name": "ZURET",
		"latitude": "36-30-46.5 N",
		"longitude": "121-19-47.96 W",
		"state": "CALIFORNIA",
		"artcc": "ZOA",
		"type": "RP",
		"updated": "SNS*VORTAC*107.33/16.00",
	},
	{
		"name": "ZUTUK",
		"latitude": "38-53-55.6 N",
		"longitude": "121-20-3.04 W",
		"state": "CALIFORNIA",
		"artcc": "ZOA",
		"type": "MR",
		"updated": "BAB*TACAN*144.56/15.00",
	},
	{
		"name": "ZUTZA",
		"latitude": "39-26-32.14 N",
		"longitude": "119-7-6.69 W",
		"state": "NEVADA",
		"artcc": "ZOA",
		"type": "RNAV",
		"updated": "02/23/2017",
	},
	{
		"name": "ZUVEK",
		"latitude": "36-49-33.92 N",
		"longitude": "119-48-28.49 W",
		"state": "CALIFORNIA",
		"artcc": "ZOA",
		"type": "RNAV",
		"updated": "07/04/2013",
	},
	{
		"name": "ZUXOX",
		"latitude": "37-7-38.78 N",
		"longitude": "121-29-22.49 W",
		"state": "CALIFORNIA",
		"artcc": "ZOA",
		"type": "RNAV",
		"updated": "06/14/2010",
	},
