	{
		"name": "BAASS",
		"latitude": "35-23-54.57 N",
		"longitude": "97-22-54.67 W",
		"state": "OKLAHOMA",
		"artcc": "ZFW",
		"type": "MR",
		"updated": "TIK*TACAN*/2.28",
	},
	{
		"name": "BABYE",
		"latitude": "32-35-11.54 N",
		"longitude": "93-57-15.46 W",
		"state": "LOUISIANA",
		"artcc": "ZFW",
		"type": "RNAV",
		"updated": "12/15/2015",
	},
	{
		"name": "BACHR",
		"latitude": "32-48-39.19 N",
		"longitude": "96-40-43.96 W",
		"state": "TEXAS",
		"artcc": "ZFW",
		"type": "RNAV",
		"updated": "07/07/2014",
	},
	{
		"name": "BACKS",
		"latitude": "32-32-19.72 N",
		"longitude": "96-25-40.16 W",
		"state": "TEXAS",
		"artcc": "ZFW",
		"type": "RP",
		"updated": "CVE*VOR/DME*125.00/32.00",
	},
	{
		"name": "BAETZ",
		"latitude": "33-4-35.62 N",
		"longitude": "96-51-39.52 W",
		"state": "TEXAS",
		"artcc": "ZFW",
		"type": "RNAV",
		"updated": "07/07/2014",
	},
	{
		"name": "BAILE",
		"latitude": "34-2-6.42 N",
		"longitude": "98-30-52.26 W",
		"state": "TEXAS",
		"artcc": "ZFW",
		"type": "MW",
		"updated": "08/24/2011",
	},
	{
		"name": "BAISS",
		"latitude": "35-10-41.41 N",
		"longitude": "97-28-23.98 W",
		"state": "OKLAHOMA",
		"artcc": "ZFW",
		"type": "RNAV",
		"updated": "05/27/2014",
	},
	{
		"name": "BAIYU",
		"latitude": "32-34-29.79 N",
		"longitude": "91-57-41.65 W",
		"state": "LOUISIANA",
		"artcc": "ZFW",
		"type": "RP",
		"updated": "MLU*VORTAC*/5.13",
	},
	{
		"name": "BARES",
		"latitude": "31-12-44.83 N",
		"longitude": "97-12-17.1 W",
		"state": "TEXAS",
		"artcc": "ZFW",
		"type": "RP",
		"updated": "ACT*VORTAC*164.00/27.14",
	},
	{
		"name": "BARGO",
		"latitude": "32-26-8.15 N",
		"longitude": "97-20-17.33 W",
		"state": "TEXAS",
		"artcc": "ZFW",
		"type": "RNAV",
		"updated": "09/11/2014",
	},
	{
		"name": "BARGS",
		"latitude": "32-42-48.85 N",
		"longitude": "93-18-42.4 W",
		"state": "LOUISIANA",
		"artcc": "ZFW",
		"type": "MR",
		"updated": "BAD*TACAN*053.00/22.00",
	},
	{
		"name": "BARYY",
		"latitude": "32-54-33.01 N",
		"longitude": "96-55-4.4 W",
		"state": "TEXAS",
		"artcc": "ZFW",
		"type": "RNAV",
		"updated": "07/01/2015",
	},
	{
		"name": "BASAY",
		"latitude": "35-10-56.05 N",
		"longitude": "95-48-54.43 W",
		"state": "OKLAHOMA",
		"artcc": "ZFW",
		"type": "RP",
		"updated": "MLC*VORTAC*347.37/20.00",
	},
	{
		"name": "BASIN",
		"latitude": "32-47-28.21 N",
		"longitude": "97-3-4.96 W",
		"state": "TEXAS",
		"artcc": "ZFW",
		"type": "RP",
		"updated": "FJN*LD*176.25/7.66",
	},
	{
		"name": "BASSR",
		"latitude": "35-3-5.87 N",
		"longitude": "97-3-25.34 W",
		"state": "OKLAHOMA",
		"artcc": "ZFW",
		"type": "RNAV",
		"updated": "05/27/2014",
	},
	{
		"name": "BASTS",
		"latitude": "35-6-37.99 N",
		"longitude": "97-52-20.92 W",
		"state": "OKLAHOMA",
		"artcc": "ZFW",
		"type": "RP",
		"updated": "IRW*VORTAC*214.12/19.70",
	},
	{
		"name": "BATCA",
		"latitude": "33-56-5.84 N",
		"longitude": "96-23-37.04 W",
		"state": "OKLAHOMA",
		"artcc": "ZFW",
		"type": "RP",
		"updated": "URH*VOR/DME*184.16/0.55",
	},
	{
		"name": "BATIK",
		"latitude": "33-26-56.67 N",
		"longitude": "97-53-35.66 W",
		"state": "TEXAS",
		"artcc": "ZFW",
		"type": "RP",
		"updated": "SPS*VORTAC*122.41/47.61",
	},
	{
		"name": "BAUUM",
		"latitude": "35-8-53.21 N",
		"longitude": "97-22-56.63 W",
		"state": "OKLAHOMA",
		"artcc": "ZFW",
		"type": "RNAV",
		"updated": "01/10/2013",
	},
	{
		"name": "BAVNE",
		"latitude": "32-1-40.51 N",
		"longitude": "102-9-0.13 W",
		"state": "TEXAS",
		"artcc": "ZFW",
		"type": "RNAV",
		"updated": "06/23/2011",
	},
	{
		"name": "BAWTO",
		"latitude": "32-19-15.13 N",
		"longitude": "98-48-47.59 W",
		"state": "TEXAS",
		"artcc": "ZFW",
		"type": "RNAV",
		"updated": "03/10/2011",
	},
	{
		"name": "BAZIL",
		"latitude": "32-26-36.64 N",
		"longitude": "91-59-20.31 W",
		"state": "LOUISIANA",
		"artcc": "ZFW",
		"type": "RP",
		"updated": "MLU*VORTAC*148.47/5.00",
	},
	{
		"name": "BBAKR",
		"latitude": "32-59-54.82 N",
		"longitude": "97-1-45.97 W",
		"state": "TEXAS",
		"artcc": "ZFW",
		"type": "RP",
		"updated": "FUZ*VORTAC*043.17",
	},
	{
		"name": "BBENN",
		"latitude": "34-24-59.6 N",
		"longitude": "98-57-57.23 W",
		"state": "OKLAHOMA",
		"artcc": "ZFW",
		"type": "RNAV",
		"updated": "05/08/2015",
	},
	{
		"name": "BBOBY",
		"latitude": "34-34-59.15 N",
		"longitude": "97-5-38.48 W",
		"state": "OKLAHOMA",
		"artcc": "ZFW",
		"type": "RNAV",
		"updated": "08/18/2011",
	},
	{
		"name": "BDDAY",
		"latitude": "32-18-56.11 N",
		"longitude": "94-10-18.17 W",
		"state": "TEXAS",
		"artcc": "ZFW",
		"type": "RNAV",
		"updated": "07/07/2014",
	},
	{
		"name": "BDEEN",
		"latitude": "33-40-46.52 N",
		"longitude": "97-41-54.99 W",
		"state": "TEXAS",
		"artcc": "ZFW",
		"type": "RNAV",
		"updated": "07/07/2014",
	},
	{
		"name": "BEAVR",
		"latitude": "33-40-44.03 N",
		"longitude": "99-24-52.38 W",
		"state": "TEXAS",
		"artcc": "ZFW",
		"type": "MR",
		"updated": "SPS*VORTAC*236.00/45.00",
	},
	{
		"name": "BEBEW",
		"latitude": "32-56-10.32 N",
		"longitude": "97-29-18.03 W",
		"state": "TEXAS",
		"artcc": "ZFW",
		"type": "RNAV",
		"updated": "11/25/2016",
	},
	{
		"name": "BECAR",
		"latitude": "34-40-2.23 N",
		"longitude": "97-51-42.22 W",
		"state": "OKLAHOMA",
		"artcc": "ZFW",
		"type": "RNAV",
		"updated": "08/21/2003",
	},
	{
		"name": "BECAT",
		"latitude": "34-20-55.45 N",
		"longitude": "99-4-20.53 W",
		"state": "OKLAHOMA",
		"artcc": "ZFW",
		"type": "RNAV",
		"updated": "05/16/2010",
	},
	{
		"name": "BECHL",
		"latitude": "32-9-18.46 N",
		"longitude": "97-47-8.28 W",
		"state": "TEXAS",
		"artcc": "ZFW",
		"type": "RNAV",
		"updated": "07/09/2009",
	},
	{
		"name": "BEDDI",
		"latitude": "32-28-40.68 N",
		"longitude": "94-29-12.09 W",
		"state": "TEXAS",
		"artcc": "ZFW",
		"type": "RP",
		"updated": "GGG*VORTAC*068.00/14.00",
	},
	{
		"name": "BEEDI",
		"latitude": "35-22-11.26 N",
		"longitude": "98-8-7.04 W",
		"state": "OKLAHOMA",
		"artcc": "ZFW",
		"type": "RNAV",
		"updated": "05/27/2014",
	},
	{
		"name": "BEERY",
		"latitude": "35-36-35.8 N",
		"longitude": "97-41-13.83 W",
		"state": "OKLAHOMA",
		"artcc": "ZFW",
		"type": "RNAV",
		"updated": "06/12/2014",
	},
	{
		"name": "BEEVO",
		"latitude": "31-28-59 N",
		"longitude": "98-8-9 W",
		"state": "TEXAS",
		"artcc": "ZFW",
		"type": "RNAV",
		"updated": "10/23/2013",
	},
	{
		"name": "BEFKO",
		"latitude": "32-12-31.9 N",
		"longitude": "98-49-2.64 W",
		"state": "TEXAS",
		"artcc": "ZFW",
		"type": "RNAV",
		"updated": "03/10/2011",
	},
	{
		"name": "BEGCA",
		"latitude": "33-15-54.97 N",
		"longitude": "98-49-14.91 W",
		"state": "TEXAS",
		"artcc": "ZFW",
		"type": "RNAV",
		"updated": "10/29/2012",
	},
	{
		"name": "BEGGO",
		"latitude": "32-47-25.01 N",
		"longitude": "97-1-50 W",
		"state": "TEXAS",
		"artcc": "ZFW",
		"type": "RP",
		"updated": "FUZ*VORTAC*122.24",
	},
	{
		"name": "BEKAW",
		"latitude": "35-11-34.37 N",
		"longitude": "97-58-9.23 W",
		"state": "OKLAHOMA",
		"artcc": "ZFW",
		"type": "RNAV",
		"updated": "10/03/2012",
	},
	{
		"name": "BEKAY",
		"latitude": "32-39-17.2 N",
		"longitude": "97-26-56.19 W",
		"state": "TEXAS",
		"artcc": "ZFW",
		"type": "MR",
		"updated": "NFW*TACAN*180.00/7.00",
	},
	{
		"name": "BEKEN",
		"latitude": "32-24-28.66 N",
		"longitude": "94-1-4.6 W",
		"state": "LOUISIANA",
		"artcc": "ZFW",
		"type": "RP",
		"updated": "EMG*VORTAC*264.32/21.48",
	},
	{
		"name": "BEKLE",
		"latitude": "32-49-15.91 N",
		"longitude": "99-49-55.21 W",
		"state": "TEXAS",
		"artcc": "ZFW",
		"type": "RP",
		"updated": "GTH*VORTAC*146.00/62.68",
	},
	{
		"name": "BELFR",
		"latitude": "33-53-39.35 N",
		"longitude": "98-40-26.06 W",
		"state": "TEXAS",
		"artcc": "ZFW",
		"type": "RNAV",
		"updated": "05/06/2015",
	},
	{
		"name": "BELLS",
		"latitude": "32-29-12 N",
		"longitude": "96-34-0 W",
		"state": "TEXAS",
		"artcc": "ZFW",
		"type": "RP",
		"updated": "CVE*VOR/DME*138.66/29.60",
	},
	{
		"name": "BELYY",
		"latitude": "34-8-55.89 N",
		"longitude": "98-10-49.9 W",
		"state": "OKLAHOMA",
		"artcc": "ZFW",
		"type": "RNAV",
		"updated": "02/08/2016",
	},
	{
		"name": "BEMMR",
		"latitude": "33-0-6.19 N",
		"longitude": "97-16-13.39 W",
		"state": "TEXAS",
		"artcc": "ZFW",
		"type": "RNAV",
		"updated": "05/09/2005",
	},
	{
		"name": "BENJA",
		"latitude": "34-16-16.22 N",
		"longitude": "99-48-41.11 W",
		"state": "TEXAS",
		"artcc": "ZFW",
		"type": "MR",
		"updated": "SPS*VORTAC*276.00/63.00",
	},
	{
		"name": "BENKE",
		"latitude": "35-17-8.37 N",
		"longitude": "97-38-25.07 W",
		"state": "OKLAHOMA",
		"artcc": "ZFW",
		"type": "RNAV",
		"updated": "06/13/2014",
	},
	{
		"name": "BEONE",
		"latitude": "33-11-49.65 N",
		"longitude": "97-9-46.01 W",
		"state": "TEXAS",
		"artcc": "ZFW",
		"type": "RNAV",
		"updated": "05/06/2015",
	},
	{
		"name": "BEREE",
		"latitude": "32-16-37.51 N",
		"longitude": "96-19-32.54 W",
		"state": "TEXAS",
		"artcc": "ZFW",
		"type": "RNAV",
		"updated": "09/12/2016",
	},
	{
		"name": "BERKE",
		"latitude": "32-45-18.2 N",
		"longitude": "93-35-50.03 W",
		"state": "LOUISIANA",
		"artcc": "ZFW",
		"type": "RP",
		"updated": "LFK*VORTAC*025.64/111.43",
	},
	{
		"name": "BERLO",
		"latitude": "34-46-9.31 N",
		"longitude": "98-52-59.96 W",
		"state": "OKLAHOMA",
		"artcc": "ZFW",
		"type": "MR",
		"updated": "SPS*VORTAC*333.00/49.00",
	},
	{
		"name": "BERMS",
		"latitude": "32-29-32.61 N",
		"longitude": "96-40-25.65 W",
		"state": "TEXAS",
		"artcc": "ZFW",
		"type": "RNAV",
		"updated": "05/06/2015",
	},
	{
		"name": "BERUF",
		"latitude": "32-21-25.26 N",
		"longitude": "99-40-28.3 W",
		"state": "TEXAS",
		"artcc": "ZFW",
		"type": "RNAV",
		"updated": "02/10/2010",
	},
	{
		"name": "BESLE",
		"latitude": "33-49-48.53 N",
		"longitude": "98-29-26.12 W",
		"state": "TEXAS",
		"artcc": "ZFW",
		"type": "RNAV",
		"updated": "02/20/2016",
	},
	{
		"name": "BETLY",
		"latitude": "34-43-7.28 N",
		"longitude": "96-40-19.04 W",
		"state": "OKLAHOMA",
		"artcc": "ZFW",
		"type": "RNAV",
		"updated": "05/24/2017",
	},
	{
		"name": "BETSE",
		"latitude": "32-18-33.49 N",
		"longitude": "94-37-4.37 W",
		"state": "TEXAS",
		"artcc": "ZFW",
		"type": "RNAV",
		"updated": "09/16/2008",
	},
	{
		"name": "BEVTE",
		"latitude": "33-56-57.51 N",
		"longitude": "98-20-13.22 W",
		"state": "TEXAS",
		"artcc": "ZFW",
		"type": "MW",
		"updated": "02/26/2010",
	},
	{
		"name": "BEWTS",
		"latitude": "33-20-45.64 N",
		"longitude": "97-35-49.53 W",
		"state": "TEXAS",
		"artcc": "ZFW",
		"type": "RP",
		"updated": "TTT*VOR/DME*309.66",
	},
	{
		"name": "BEZQO",
		"latitude": "32-55-3.85 N",
		"longitude": "94-18-55.56 W",
		"state": "TEXAS",
		"artcc": "ZFW",
		"type": "RNAV",
		"updated": "01/04/2009",
	},
	{
		"name": "BFFFY",
		"latitude": "35-31-42.22 N",
		"longitude": "98-45-16.11 W",
		"state": "OKLAHOMA",
		"artcc": "ZFW",
		"type": "RNAV",
		"updated": "05/27/2014",
	},
	{
		"name": "BGLEY",
		"latitude": "33-17-36 N",
		"longitude": "96-59-54 W",
		"state": "TEXAS",
		"artcc": "ZFW",
		"type": "RNAV",
		"updated": "07/29/2014",
	},
	{
		"name": "BGTEX",
		"latitude": "32-34-6.58 N",
		"longitude": "96-46-36.64 W",
		"state": "TEXAS",
		"artcc": "ZFW",
		"type": "RNAV",
		"updated": "07/07/2014",
	},
	{
		"name": "BGTOE",
		"latitude": "32-11-9.6 N",
		"longitude": "99-50-35.87 W",
		"state": "TEXAS",
		"artcc": "ZFW",
		"type": "RNAV",
		"updated": "09/12/2016",
	},
	{
		"name": "BICAL",
		"latitude": "34-16-37.35 N",
		"longitude": "98-3-27.27 W",
		"state": "OKLAHOMA",
		"artcc": "ZFW",
		"type": "RNAV",
		"updated": "08/21/2003",
	},
	{
		"name": "BICYA",
		"latitude": "32-22-6.48 N",
		"longitude": "93-45-29.87 W",
		"state": "LOUISIANA",
		"artcc": "ZFW",
		"type": "RNAV",
		"updated": "12/17/2015",
	},
	{
		"name": "BIEST",
		"latitude": "31-24-47.24 N",
		"longitude": "98-16-1.61 W",
		"state": "TEXAS",
		"artcc": "ZFW",
		"type": "RNAV",
		"updated": "09/12/2016",
	},
	{
		"name": "BIGAW",
		"latitude": "32-43-50.9 N",
		"longitude": "96-46-26.72 W",
		"state": "TEXAS",
		"artcc": "ZFW",
		"type": "RNAV",
		"updated": "09/03/2010",
	},
	{
		"name": "BIGGD",
		"latitude": "32-51-31.59 N",
		"longitude": "96-48-33.1 W",
		"state": "TEXAS",
		"artcc": "ZFW",
		"type": "RNAV",
		"updated": "07/27/2004",
	},
	{
		"name": "BIGOH",
		"latitude": "35-15-46.81 N",
		"longitude": "96-56-33.85 W",
		"state": "OKLAHOMA",
		"artcc": "ZFW",
		"type": "RNAV",
		"updated": "06/14/2010",
	},
	{
		"name": "BIGPE",
		"latitude": "34-11-24.05 N",
		"longitude": "101-25-59.69 W",
		"state": "TEXAS",
		"artcc": "ZFW",
		"type": "RNAV",
		"updated": "08/26/2009",
	},
	{
		"name": "BIKEW",
		"latitude": "35-12-43.56 N",
		"longitude": "97-36-20 W",
		"state": "OKLAHOMA",
		"artcc": "ZFW",
		"type": "WP",
		"updated": "11/02/1998",
	},
	{
		"name": "BILYA",
		"latitude": "32-51-37.13 N",
		"longitude": "95-52-30.55 W",
		"state": "TEXAS",
		"artcc": "ZFW",
		"type": "RNAV",
		"updated": "06/28/2011",
	},
	{
		"name": "BIMET",
		"latitude": "32-40-3.5 N",
		"longitude": "99-53-16.82 W",
		"state": "TEXAS",
		"artcc": "ZFW",
		"type": "MR",
		"updated": "DYS*TACAN*349.00/15.00",
	},
	{
		"name": "BINAY",
		"latitude": "33-0-40.15 N",
		"longitude": "96-56-34.5 W",
		"state": "TEXAS",
		"artcc": "ZFW",
		"type": "RNAV",
		"updated": "05/11/2007",
	},
	{
		"name": "BINGM",
		"latitude": "32-50-27.25 N",
		"longitude": "97-16-27.44 W",
		"state": "TEXAS",
		"artcc": "ZFW",
		"type": "RNAV",
		"updated": "07/27/2004",
	},
	{
		"name": "BIPGE",
		"latitude": "35-11-57.05 N",
		"longitude": "99-3-12.24 W",
		"state": "OKLAHOMA",
		"artcc": "ZFW",
		"type": "RNAV",
		"updated": "02/14/2010",
	},
	{
		"name": "BIRLE",
		"latitude": "34-17-38.44 N",
		"longitude": "95-26-47 W",
		"state": "OKLAHOMA",
		"artcc": "ZFW",
		"type": "RP",
		"updated": "BYP*VORTAC*034.74/60.00",
	},
	{
		"name": "BIRRD",
		"latitude": "33-15-21.67 N",
		"longitude": "96-30-44.7 W",
		"state": "TEXAS",
		"artcc": "ZFW",
		"type": "RP",
		"updated": "BYP*VORTAC*213.75/21.90",
	},
	{
		"name": "BISNE",
		"latitude": "33-43-39.52 N",
		"longitude": "100-19-2.92 W",
		"state": "TEXAS",
		"artcc": "ZFW",
		"type": "RNAV",
		"updated": "09/01/2015",
	},
	{
		"name": "BISUW",
		"latitude": "33-50-54.23 N",
		"longitude": "102-9-35.51 W",
		"state": "TEXAS",
		"artcc": "ZFW",
		"type": "RP",
		"updated": "LBB*VORTAC*294.01/15.00",
	},
	{
		"name": "BITBE",
		"latitude": "32-9-43.41 N",
		"longitude": "94-39-4.77 W",
		"state": "TEXAS",
		"artcc": "ZFW",
		"type": "RNAV",
		"updated": "05/09/2007",
	},
	{
		"name": "BLAIR",
		"latitude": "34-51-45.97 N",
		"longitude": "99-17-17.22 W",
		"state": "OKLAHOMA",
		"artcc": "ZFW",
		"type": "MR",
		"updated": "LTS*VORTAC*351.00/12.00",
	},
	{
		"name": "BLASS",
		"latitude": "33-54-28.68 N",
		"longitude": "98-26-51.94 W",
		"state": "TEXAS",
		"artcc": "ZFW",
		"type": "MR",
		"updated": "SHP*TACAN*151.00/4.90",
	},
	{
		"name": "BLAZO",
		"latitude": "35-34-44.06 N",
		"longitude": "97-49-27.87 W",
		"state": "OKLAHOMA",
		"artcc": "ZFW",
		"type": "RNAV",
		"updated": "10/14/2009",
	},
	{
		"name": "BLDEE",
		"latitude": "31-33-53.37 N",
		"longitude": "97-19-11.24 W",
		"state": "TEXAS",
		"artcc": "ZFW",
		"type": "RNAV",
		"updated": "12/27/2012",
	},
	{
		"name": "BLECO",
		"latitude": "33-27-2.7 N",
		"longitude": "97-6-32.59 W",
		"state": "TEXAS",
		"artcc": "ZFW",
		"type": "RP",
		"updated": "FUZ*VORTAC*360.00/33.80",
	},
	{
		"name": "BLEWE",
		"latitude": "31-12-27.65 N",
		"longitude": "97-12-32.47 W",
		"state": "TEXAS",
		"artcc": "ZFW",
		"type": "RP",
		"updated": "ACT*VORTAC*164.53/27.39",
	},
	{
		"name": "BLUER",
		"latitude": "33-52-52.7 N",
		"longitude": "98-39-9 W",
		"state": "TEXAS",
		"artcc": "ZFW",
		"type": "RP",
		"updated": "SPS*VORTAC*194.92/7.00",
	},
	{
		"name": "BNYTA",
		"latitude": "33-22-25.34 N",
		"longitude": "97-46-22.43 W",
		"state": "TEXAS",
		"artcc": "ZFW",
		"type": "RNAV",
		"updated": "07/13/2014",
	},
	{
		"name": "BOBIN",
		"latitude": "32-47-30.47 N",
		"longitude": "97-3-19.02 W",
		"state": "TEXAS",
		"artcc": "ZFW",
		"type": "RP",
		"updated": "BXN*LD*176.25/5.05",
	},
	{
		"name": "BOBNE",
		"latitude": "34-44-22.68 N",
		"longitude": "99-11-35.4 W",
		"state": "OKLAHOMA",
		"artcc": "ZFW",
		"type": "MR",
		"updated": "LTS*VORTAC*035.00/6.00",
	},
	{
		"name": "BOBVE",
		"latitude": "33-22-0 N",
		"longitude": "100-30-0 W",
		"state": "TEXAS",
		"artcc": "ZFW",
		"type": "RNAV",
		"updated": "08/12/2005",
	},
	{
		"name": "BOCAR",
		"latitude": "32-17-26.49 N",
		"longitude": "94-56-8.53 W",
		"state": "TEXAS",
		"artcc": "ZFW",
		"type": "RNAV",
		"updated": "03/07/2011",
	},
	{
		"name": "BOKLE",
		"latitude": "32-48-39.58 N",
		"longitude": "96-48-11.54 W",
		"state": "TEXAS",
		"artcc": "ZFW",
		"type": "RP",
		"updated": "OVW*LD*132.64/2.41",
	},
	{
		"name": "BOLRE",
		"latitude": "32-38-1.14 N",
		"longitude": "95-25-2.68 W",
		"state": "TEXAS",
		"artcc": "ZFW",
		"type": "RP",
		"updated": "UIM*VOR/DME*181.83/15.00",
	},
	{
		"name": "BONEZ",
		"latitude": "33-25-16.82 N",
		"longitude": "100-5-6.6 W",
		"state": "TEXAS",
		"artcc": "ZFW",
		"type": "RNAV",
		"updated": "09/24/2012",
	},
	{
		"name": "BONIN",
		"latitude": "32-40-57.55 N",
		"longitude": "96-22-12.77 W",
		"state": "TEXAS",
		"artcc": "ZFW",
		"type": "RNAV",
		"updated": "06/12/2002",
	},
	{
		"name": "BONNY",
		"latitude": "31-11-58.57 N",
		"longitude": "100-39-47.91 W",
		"state": "TEXAS",
		"artcc": "ZFW",
		"type": "RP",
		"updated": "SJT*VORTAC*215.63/15.00",
	},
	{
		"name": "BONOO",
		"latitude": "33-8-46.08 N",
		"longitude": "96-54-51.14 W",
		"state": "TEXAS",
		"artcc": "ZFW",
		"type": "RP",
		"updated": "TTT*VOR/DME*014.98",
	},
	{
		"name": "BOOMR",
		"latitude": "33-35-32.62 N",
		"longitude": "100-42-13.72 W",
		"state": "TEXAS",
		"artcc": "ZFW",
		"type": "RP",
		"updated": "LBB*VORTAC*085.01/60.99",
	},
	{
		"name": "BOOST",
		"latitude": "31-59-20.6 N",
		"longitude": "102-19-40.09 W",
		"state": "TEXAS",
		"artcc": "ZFW",
		"type": "RNAV",
		"updated": "07/27/2012",
	},
	{
		"name": "BOOVE",
		"latitude": "32-22-57.36 N",
		"longitude": "97-37-29.42 W",
		"state": "TEXAS",
		"artcc": "ZFW",
		"type": "RP",
		"updated": "JEN*VORTAC*037.86/18.54",
	},
	{
		"name": "BORDD",
		"latitude": "33-0-49.61 N",
		"longitude": "96-55-21.91 W",
		"state": "TEXAS",
		"artcc": "ZFW",
		"type": "RNAV",
		"updated": "07/07/2014",
	},
	{
		"name": "BORTY",
		"latitude": "31-37-40.87 N",
		"longitude": "103-3-29.91 W",
		"state": "TEXAS",
		"artcc": "ZFW",
		"type": "RNAV",
		"updated": "03/26/2013",
	},
	{
		"name": "BOSEL",
		"latitude": "31-25-48.83 N",
		"longitude": "97-14-8.85 W",
		"state": "TEXAS",
		"artcc": "ZFW",
		"type": "RP",
		"updated": "ACT*VORTAC*164.00/14.00",
	},
	{
		"name": "BOSME",
		"latitude": "32-31-51.74 N",
		"longitude": "94-53-27.36 W",
		"state": "TEXAS",
		"artcc": "ZFW",
		"type": "RNAV",
		"updated": "09/16/2008",
	},
	{
		"name": "BOSSI",
		"latitude": "33-11-54.9 N",
		"longitude": "97-1-27.99 W",
		"state": "TEXAS",
		"artcc": "ZFW",
		"type": "RP",
		"updated": "TTT*VOR/DME*356.35/19.74",
	},
	{
		"name": "BOSTE",
		"latitude": "33-31-34.39 N",
		"longitude": "96-10-56.39 W",
		"state": "TEXAS",
		"artcc": "ZFW",
		"type": "RNAV",
		"updated": "06/28/2011",
	},
	{
		"name": "BOTCH",
		"latitude": "32-49-0.68 N",
		"longitude": "97-29-49.93 W",
		"state": "TEXAS",
		"artcc": "ZFW",
		"type": "RNAV",
		"updated": "07/13/2014",
	},
	{
		"name": "BOVSE",
		"latitude": "35-38-0.8 N",
		"longitude": "96-17-37.57 W",
		"state": "OKLAHOMA",
		"artcc": "ZFW",
		"type": "RNAV",
		"updated": "02/17/2015",
	},
	{
		"name": "BOYAN",
		"latitude": "32-19-37.67 N",
		"longitude": "94-42-54.12 W",
		"state": "TEXAS",
		"artcc": "ZFW",
		"type": "RNAV",
		"updated": "05/09/2007",
	},
	{
		"name": "BPARK",
		"latitude": "32-46-31.76 N",
		"longitude": "97-4-51.51 W",
		"state": "TEXAS",
		"artcc": "ZFW",
		"type": "RNAV",
		"updated": "02/10/2010",
	},
	{
		"name": "BRANE",
		"latitude": "34-57-58.36 N",
		"longitude": "95-46-34.59 W",
		"state": "OKLAHOMA",
		"artcc": "ZFW",
		"type": "RP",
		"updated": "MLC*VORTAC*354.43/7.00",
	},
	{
		"name": "BRAZZ",
		"latitude": "31-41-50.1 N",
		"longitude": "95-54-48.88 W",
		"state": "TEXAS",
		"artcc": "ZFW",
		"type": "RNAV",
		"updated": "09/12/2016",
	},
	{
		"name": "BRDEN",
		"latitude": "31-53-11.46 N",
		"longitude": "96-39-20.96 W",
		"state": "TEXAS",
		"artcc": "ZFW",
		"type": "RP",
		"updated": "TTT*VOR/DME*155.52/62.00",
	},
	{
		"name": "BRDJE",
		"latitude": "33-19-35.59 N",
		"longitude": "96-25-22.28 W",
		"state": "TEXAS",
		"artcc": "ZFW",
		"type": "RP",
		"updated": "TTT*VOR/DME*042.49/41.47",
	},
	{
		"name": "BREES",
		"latitude": "32-22-53.9 N",
		"longitude": "97-14-20.23 W",
		"state": "TEXAS",
		"artcc": "ZFW",
		"type": "RNAV",
		"updated": "07/07/2014",
	},
	{
		"name": "BREWE",
		"latitude": "32-7-32.85 N",
		"longitude": "102-13-20.96 W",
		"state": "TEXAS",
		"artcc": "ZFW",
		"type": "WP",
		"updated": "MAF*VORTAC*335.80/7.16",
	},
	{
		"name": "BRHMA",
		"latitude": "33-31-17.03 N",
		"longitude": "101-2-35.41 W",
		"state": "TEXAS",
		"artcc": "ZFW",
		"type": "RNAV",
		"updated": "07/07/2014",
	},
	{
		"name": "BRIAN",
		"latitude": "32-1-52.26 N",
		"longitude": "97-43-10.25 W",
		"state": "TEXAS",
		"artcc": "ZFW",
		"type": "RP",
		"updated": "FUZ*VORTAC*202.23",
	},
	{
		"name": "BRIGE",
		"latitude": "35-17-26.08 N",
		"longitude": "97-36-20.24 W",
		"state": "OKLAHOMA",
		"artcc": "ZFW",
		"type": "RP",
		"updated": "LIK*LD*175.96/5.07",
	},
	{
		"name": "BRNET",
		"latitude": "31-34-45.38 N",
		"longitude": "102-15-38.93 W",
		"state": "TEXAS",
		"artcc": "ZFW",
		"type": "MR",
		"updated": "MAF*VORTAC*176.98/26.00",
	},
	{
		"name": "BROMA",
		"latitude": "35-15-15.8 N",
		"longitude": "98-30-10.04 W",
		"state": "OKLAHOMA",
		"artcc": "ZFW",
		"type": "RNAV",
		"updated": "05/27/2014",
	},
	{
		"name": "BRONS",
		"latitude": "33-2-40.51 N",
		"longitude": "96-52-10.93 W",
		"state": "TEXAS",
		"artcc": "ZFW",
		"type": "RP",
		"updated": "TTT*VOR/DME*033.33",
	},
	{
		"name": "BROUZ",
		"latitude": "32-35-6.78 N",
		"longitude": "97-6-20.49 W",
		"state": "TEXAS",
		"artcc": "ZFW",
		"type": "RP",
		"updated": "TTT*VOR/DME*185.00/17.32",
	},
	{
		"name": "BRRUS",
		"latitude": "32-26-35.64 N",
		"longitude": "98-2-33.6 W",
		"state": "TEXAS",
		"artcc": "ZFW",
		"type": "RNAV",
		"updated": "07/13/2014",
	},
	{
		"name": "BRUGO",
		"latitude": "31-26-30.95 N",
		"longitude": "97-19-2.23 W",
		"state": "TEXAS",
		"artcc": "ZFW",
		"type": "RNAV",
		"updated": "12/27/2012",
	},
	{
		"name": "BSKAT",
		"latitude": "34-2-30.74 N",
		"longitude": "93-33-35.42 W",
		"state": "ARKANSAS",
		"artcc": "ZFW",
		"type": "RNAV",
		"updated": "07/09/2014",
	},
	{
		"name": "BSRPQ",
		"latitude": "33-59-9.13 N",
		"longitude": "98-29-59.68 W",
		"state": "TEXAS",
		"artcc": "ZFW",
		"type": "CN",
		"updated": "08/24/2011",
	},
	{
		"name": "BUDBE",
		"latitude": "34-47-21.56 N",
		"longitude": "99-16-25.77 W",
		"state": "OKLAHOMA",
		"artcc": "ZFW",
		"type": "MW",
		"updated": "12/14/2017",
	},
	{
		"name": "BUDDD",
		"latitude": "34-22-30.4 N",
		"longitude": "97-26-21.06 W",
		"state": "OKLAHOMA",
		"artcc": "ZFW",
		"type": "RNAV",
		"updated": "05/08/2015",
	},
	{
		"name": "BUDGE",
		"latitude": "32-52-52.82 N",
		"longitude": "97-26-54.29 W",
		"state": "TEXAS",
		"artcc": "ZFW",
		"type": "MR",
		"updated": "NFW*TACAN*352.00/6.60",
	},
	{
		"name": "BUILT",
		"latitude": "31-40-24.45 N",
		"longitude": "98-17-13.63 W",
		"state": "TEXAS",
		"artcc": "ZFW",
		"type": "RP",
		"updated": "JEN*VORTAC*209.80/35.84",
	},
	{
		"name": "BUKSE",
		"latitude": "35-3-15.89 N",
		"longitude": "95-32-37.97 W",
		"state": "OKLAHOMA",
		"artcc": "ZFW",
		"type": "RP",
		"updated": "MLC*VORTAC*035.70/17.00",
	},
	{
		"name": "BULLE",
		"latitude": "32-45-14.58 N",
		"longitude": "93-49-30.67 W",
		"state": "LOUISIANA",
		"artcc": "ZFW",
		"type": "MR",
		"updated": "BAD*TACAN*330.06/17.00",
	},
	{
		"name": "BULME",
		"latitude": "33-50-33.33 N",
		"longitude": "98-25-20.83 W",
		"state": "TEXAS",
		"artcc": "ZFW",
		"type": "MR",
		"updated": "SHP*TACAN*/9.00",
	},
	{
		"name": "BUMIW",
		"latitude": "32-36-36.4 N",
		"longitude": "103-29-26.57 W",
		"state": "NEW MEXICO",
		"artcc": "ZFW",
		"type": "RNAV",
		"updated": "09/11/2014",
	},
	{
		"name": "BUNLE",
		"latitude": "32-55-0.54 N",
		"longitude": "94-49-53.7 W",
		"state": "TEXAS",
		"artcc": "ZFW",
		"type": "RNAV",
		"updated": "11/28/2008",
	},
	{
		"name": "BURGE",
		"latitude": "32-26-45.78 N",
		"longitude": "99-46-27.13 W",
		"state": "TEXAS",
		"artcc": "ZFW",
		"type": "RP",
		"updated": "TQA*VOR/DME*359.74",
	},
	{
		"name": "BUROZ",
		"latitude": "33-53-19.33 N",
		"longitude": "98-25-52.89 W",
		"state": "TEXAS",
		"artcc": "ZFW",
		"type": "RNAV",
		"updated": "02/08/2016",
	},
	{
		"name": "BURSH",
		"latitude": "35-14-58.43 N",
		"longitude": "97-25-38.88 W",
		"state": "OKLAHOMA",
		"artcc": "ZFW",
		"type": "RNAV",
		"updated": "07/11/2011",
	},
	{
		"name": "BURVE",
		"latitude": "35-16-40.61 N",
		"longitude": "97-11-55.83 W",
		"state": "OKLAHOMA",
		"artcc": "ZFW",
		"type": "MR",
		"updated": "TIK*TACAN*/13.00",
	},
	{
		"name": "BUZZU",
		"latitude": "35-28-47.23 N",
		"longitude": "97-49-29.38 W",
		"state": "OKLAHOMA",
		"artcc": "ZFW",
		"type": "WP",
		"updated": "IRW*VORTAC*297.54/12.83",
	},
	{
		"name": "BXCMB",
		"latitude": "33-21-23.11 N",
		"longitude": "92-38-35.81 W",
		"state": "ARKANSAS",
		"artcc": "ZFW",
		"type": "CN",
		"updated": "09/16/2010",
	},
	{
		"name": "BYPAS",
		"latitude": "32-3-26.77 N",
		"longitude": "101-43-27.48 W",
		"state": "TEXAS",
		"artcc": "ZFW",
		"type": "RP",
		"updated": "MAF*VORTAC*071.97/23.95",
	},
