[
	{
		"name": "DABSE",
		"latitude": "35-18-23.46 N",
		"longitude": "97-28-24.52 W",
		"state": "OKLAHOMA",
		"artcc": "ZFW",
		"type": "RNAV",
		"updated": "04/19/2016"
	},
	{
		"name": "DAJCA",
		"latitude": "32-50-37.86 N",
		"longitude": "96-25-18.68 W",
		"state": "TEXAS",
		"artcc": "ZFW",
		"type": "WP",
		"updated": "06/11/2002"
	},
	{
		"name": "DALBY",
		"latitude": "32-36-29.23 N",
		"longitude": "96-58-44.88 W",
		"state": "TEXAS",
		"artcc": "ZFW",
		"type": "RNAV",
		"updated": "07/27/2004"
	},
	{
		"name": "DALLN",
		"latitude": "32-45-3.03 N",
		"longitude": "97-1-50.77 W",
		"state": "TEXAS",
		"artcc": "ZFW",
		"type": "RP",
		"updated": "UWX*LD*176.26/7.50"
	},
	{
		"name": "DANAY",
		"latitude": "32-26-3.14 N",
		"longitude": "94-42-47.74 W",
		"state": "TEXAS",
		"artcc": "ZFW",
		"type": "RNAV",
		"updated": "03/07/2011"
	},
	{
		"name": "DANKS",
		"latitude": "35-37-49.67 N",
		"longitude": "99-19-32.44 W",
		"state": "OKLAHOMA",
		"artcc": "ZFW",
		"type": "RP",
		"updated": "IFI*VORTAC*252.18/65.42"
	},
	{
		"name": "DAPCA",
		"latitude": "31-50-59.48 N",
		"longitude": "102-11-39.75 W",
		"state": "TEXAS",
		"artcc": "ZFW",
		"type": "RNAV",
		"updated": "07/27/2012"
	},
	{
		"name": "DARRB",
		"latitude": "32-22-17.36 N",
		"longitude": "97-54-46.55 W",
		"state": "TEXAS",
		"artcc": "ZFW",
		"type": "RNAV",
		"updated": "09/12/2016"
	},
	{
		"name": "DARTZ",
		"latitude": "32-17-8.72 N",
		"longitude": "96-48-39.78 W",
		"state": "TEXAS",
		"artcc": "ZFW",
		"type": "RP",
		"updated": "TTT*VOR/DME*155.52/36.82"
	},
	{
		"name": "DASTE",
		"latitude": "35-38-2.17 N",
		"longitude": "96-25-21.28 W",
		"state": "OKLAHOMA",
		"artcc": "ZFW",
		"type": "RNAV",
		"updated": "02/17/2015"
	},
	{
		"name": "DATGE",
		"latitude": "32-31-19.55 N",
		"longitude": "97-52-0.24 W",
		"state": "TEXAS",
		"artcc": "ZFW",
		"type": "RP",
		"updated": "MQP*VORTAC*142.00/13.90"
	},
	{
		"name": "DATLE",
		"latitude": "32-46-46.69 N",
		"longitude": "96-46-0.96 W",
		"state": "TEXAS",
		"artcc": "ZFW",
		"type": "RP",
		"updated": "OVW*LD*132.64/5.04"
	},
	{
		"name": "DATTA",
		"latitude": "35-8-41.14 N",
		"longitude": "98-14-58.89 W",
		"state": "OKLAHOMA",
		"artcc": "ZFW",
		"type": "RP",
		"updated": "IRW*VORTAC*241.04/33.98"
	},
	{
		"name": "DAWGZ",
		"latitude": "33-21-31.29 N",
		"longitude": "96-50-20.07 W",
		"state": "TEXAS",
		"artcc": "ZFW",
		"type": "RNAV",
		"updated": "07/13/2014"
	},
	{
		"name": "DAWKS",
		"latitude": "35-34-48.27 N",
		"longitude": "97-59-25.21 W",
		"state": "OKLAHOMA",
		"artcc": "ZFW",
		"type": "RNAV",
		"updated": "05/27/2014"
	},
	{
		"name": "DAXPO",
		"latitude": "33-23-32.67 N",
		"longitude": "93-54-46.71 W",
		"state": "ARKANSAS",
		"artcc": "ZFW",
		"type": "RNAV",
		"updated": "06/08/2006"
	},
	{
		"name": "DAYAY",
		"latitude": "32-17-30.31 N",
		"longitude": "95-28-28.98 W",
		"state": "TEXAS",
		"artcc": "ZFW",
		"type": "RNAV",
		"updated": "02/23/2018"
	},
	{
		"name": "DAYZZ",
		"latitude": "32-45-2.99 N",
		"longitude": "97-1-36.69 W",
		"state": "TEXAS",
		"artcc": "ZFW",
		"type": "RP",
		"updated": "PKQ*LD*176.26/7.50"
	},
	{
		"name": "DBLSS",
		"latitude": "33-3-6.71 N",
		"longitude": "98-13-50.16 W",
		"state": "TEXAS",
		"artcc": "ZFW",
		"type": "RNAV",
		"updated": "05/07/2015"
	},
	{
		"name": "DEBII",
		"latitude": "32-56-56.9 N",
		"longitude": "93-9-20.5 W",
		"state": "LOUISIANA",
		"artcc": "ZFW",
		"type": "RNAV",
		"updated": "03/31/2008"
	},
	{
		"name": "DEBKY",
		"latitude": "32-1-17.69 N",
		"longitude": "94-11-37.03 W",
		"state": "TEXAS",
		"artcc": "ZFW",
		"type": "RNAV",
		"updated": "05/16/2010"
	},
	{
		"name": "DECAP",
		"latitude": "33-35-19.04 N",
		"longitude": "96-3-50.84 W",
		"state": "TEXAS",
		"artcc": "ZFW",
		"type": "RP",
		"updated": "BYP*VORTAC*064.19/9.06"
	},
	{
		"name": "DECKK",
		"latitude": "34-52-22.12 N",
		"longitude": "97-16-51.92 W",
		"state": "OKLAHOMA",
		"artcc": "ZFW",
		"type": "RP",
		"updated": "IRW*VORTAC*143.87"
	},
	{
		"name": "DECOD",
		"latitude": "33-48-58.02 N",
		"longitude": "95-17-44.64 W",
		"state": "TEXAS",
		"artcc": "ZFW",
		"type": "RP",
		"updated": "BYP*VORTAC*064.19/49.86"
	},
	{
		"name": "DECRA",
		"latitude": "32-47-35.25 N",
		"longitude": "97-3-9.71 W",
		"state": "TEXAS",
		"artcc": "ZFW",
		"type": "RP",
		"updated": "BXN*LD*S CRS/4.97"
	},
	{
		"name": "DEDWT",
		"latitude": "34-1-18.1 N",
		"longitude": "99-15-9.24 W",
		"state": "TEXAS",
		"artcc": "ZFW",
		"type": "RNAV",
		"updated": "09/12/2016"
	},
	{
		"name": "DEEEH",
		"latitude": "32-30-10.01 N",
		"longitude": "94-6-54.3 W",
		"state": "TEXAS",
		"artcc": "ZFW",
		"type": "RNAV",
		"updated": "07/12/2013"
	},
	{
		"name": "DEENS",
		"latitude": "34-0-26.75 N",
		"longitude": "94-17-52.65 W",
		"state": "ARKANSAS",
		"artcc": "ZFW",
		"type": "RP",
		"updated": "PRX*VOR/DME*056.85"
	},
	{
		"name": "DEEPS",
		"latitude": "32-12-13.85 N",
		"longitude": "98-23-8.07 W",
		"state": "TEXAS",
		"artcc": "ZFW",
		"type": "RNAV",
		"updated": "09/12/2016"
	},
	{
		"name": "DEKEC",
		"latitude": "32-50-41.17 N",
		"longitude": "103-0-39.19 W",
		"state": "TEXAS",
		"artcc": "ZFW",
		"type": "RP",
		"updated": "HOB*VORTAC*035.53/18.00"
	},
	{
		"name": "DELMO",
		"latitude": "32-46-54.94 N",
		"longitude": "97-10-3.08 W",
		"state": "TEXAS",
		"artcc": "ZFW",
		"type": "RP",
		"updated": "JEN*VORTAC*037.86/51.85"
	},
	{
		"name": "DENIM",
		"latitude": "31-46-1.17 N",
		"longitude": "102-11-9.48 W",
		"state": "TEXAS",
		"artcc": "ZFW",
		"type": "WP",
		"updated": "MAF*VORTAC*169.11/14.51"
	},
	{
		"name": "DENTS",
		"latitude": "31-56-3.37 N",
		"longitude": "102-10-49.55 W",
		"state": "TEXAS",
		"artcc": "ZFW",
		"type": "RNAV",
		"updated": "11/01/2001"
	},
	{
		"name": "DERFF",
		"latitude": "34-53-16.38 N",
		"longitude": "97-58-9 W",
		"state": "OKLAHOMA",
		"artcc": "ZFW",
		"type": "RNAV",
		"updated": "10/03/2012"
	},
	{
		"name": "DERIC",
		"latitude": "31-48-48.81 N",
		"longitude": "101-53-51.42 W",
		"state": "TEXAS",
		"artcc": "ZFW",
		"type": "RP",
		"updated": "MAF*VORTAC*117.02/19.00"
	},
	{
		"name": "DERRY",
		"latitude": "33-54-47.82 N",
		"longitude": "96-8-38.37 W",
		"state": "OKLAHOMA",
		"artcc": "ZFW",
		"type": "WP",
		"updated": "07/13/1995"
	},
	{
		"name": "DESDE",
		"latitude": "34-36-31.79 N",
		"longitude": "95-51-58.56 W",
		"state": "OKLAHOMA",
		"artcc": "ZFW",
		"type": "RP",
		"updated": "MLC*VORTAC*188.10/15.00"
	},
	{
		"name": "DESPE",
		"latitude": "32-51-22.49 N",
		"longitude": "96-52-9.01 W",
		"state": "TEXAS",
		"artcc": "ZFW",
		"type": "RNAV",
		"updated": "05/11/2007"
	},
	{
		"name": "DEVLN",
		"latitude": "35-19-23.04 N",
		"longitude": "97-23-4.28 W",
		"state": "OKLAHOMA",
		"artcc": "ZFW",
		"type": "MR",
		"updated": "TIK*TACAN*179.00/6.80"
	},
	{
		"name": "DEWEY",
		"latitude": "31-45-34.19 N",
		"longitude": "101-29-47.22 W",
		"state": "TEXAS",
		"artcc": "ZFW",
		"type": "RP",
		"updated": "MAF*VORTAC*102.00/38.00"
	},
	{
		"name": "DHART",
		"latitude": "33-23-52.14 N",
		"longitude": "92-25-9.57 W",
		"state": "ARKANSAS",
		"artcc": "ZFW",
		"type": "RP",
		"updated": "SWB*VOR/DME*006.63/86.30"
	},
	{
		"name": "DHOBI",
		"latitude": "33-2-22.94 N",
		"longitude": "97-19-49.92 W",
		"state": "TEXAS",
		"artcc": "ZFW",
		"type": "RNAV",
		"updated": "01/23/2017"
	},
	{
		"name": "DICKA",
		"latitude": "32-29-23.06 N",
		"longitude": "95-7-18.97 W",
		"state": "TEXAS",
		"artcc": "ZFW",
		"type": "RNAV",
		"updated": "07/30/2012"
	},
	{
		"name": "DICKH",
		"latitude": "35-26-58.87 N",
		"longitude": "97-38-24.24 W",
		"state": "OKLAHOMA",
		"artcc": "ZFW",
		"type": "RP",
		"updated": "PWA*VOR/DME*168.01/5.00"
	},
	{
		"name": "DIDCE",
		"latitude": "32-40-30.78 N",
		"longitude": "98-53-26.19 W",
		"state": "TEXAS",
		"artcc": "ZFW",
		"type": "RNAV",
		"updated": "05/24/2012"
	},
	{
		"name": "DIDRE",
		"latitude": "32-12-19.93 N",
		"longitude": "94-50-27.38 W",
		"state": "TEXAS",
		"artcc": "ZFW",
		"type": "RNAV",
		"updated": "05/09/2007"
	},
	{
		"name": "DIETZ",
		"latitude": "32-47-36 N",
		"longitude": "96-54-54 W",
		"state": "TEXAS",
		"artcc": "ZFW",
		"type": "RP",
		"updated": "JEN*VORTAC*045.91"
	},
	{
		"name": "DIGHT",
		"latitude": "35-16-32.73 N",
		"longitude": "97-48-54.79 W",
		"state": "OKLAHOMA",
		"artcc": "ZFW",
		"type": "RNAV",
		"updated": "05/27/2014"
	},
	{
		"name": "DIGSE",
		"latitude": "35-17-41.82 N",
		"longitude": "97-28-50.94 W",
		"state": "OKLAHOMA",
		"artcc": "ZFW",
		"type": "RNAV",
		"updated": "05/27/2014"
	},
	{
		"name": "DILBE",
		"latitude": "31-52-54.63 N",
		"longitude": "102-16-59.32 W",
		"state": "TEXAS",
		"artcc": "ZFW",
		"type": "RNAV",
		"updated": "07/27/2012"
	},
	{
		"name": "DIMPL",
		"latitude": "35-14-55.33 N",
		"longitude": "96-37-42.47 W",
		"state": "OKLAHOMA",
		"artcc": "ZFW",
		"type": "RNAV",
		"updated": "05/27/2014"
	},
	{
		"name": "DIRRK",
		"latitude": "34-8-16.84 N",
		"longitude": "93-46-35.15 W",
		"state": "ARKANSAS",
		"artcc": "ZFW",
		"type": "RNAV",
		"updated": "09/13/2016"
	},
	{
		"name": "DITSY",
		"latitude": "31-24-56.94 N",
		"longitude": "98-3-51.07 W",
		"state": "TEXAS",
		"artcc": "ZFW",
		"type": "RNAV",
		"updated": "02/08/2016"
	},
	{
		"name": "DIVER",
		"latitude": "33-35-40.4 N",
		"longitude": "101-36-4.77 W",
		"state": "TEXAS",
		"artcc": "ZFW",
		"type": "RP",
		"updated": "LBB*VORTAC*101.80/17.00"
	},
	{
		"name": "DIVEY",
		"latitude": "32-26-0 N",
		"longitude": "102-5-0 W",
		"state": "TEXAS",
		"artcc": "ZFW",
		"type": "RNAV",
		"updated": "08/12/2005"
	},
	{
		"name": "DIVVR",
		"latitude": "32-49-48.95 N",
		"longitude": "96-55-30.02 W",
		"state": "TEXAS",
		"artcc": "ZFW",
		"type": "RP",
		"updated": "RRA*LD*SE CRS/6.99"
	},
	{
		"name": "DIYES",
		"latitude": "35-46-22.09 N",
		"longitude": "95-26-33.66 W",
		"state": "OKLAHOMA",
		"artcc": "ZFW",
		"type": "RNAV",
		"updated": "12/26/2007"
	},
	{
		"name": "DMKNU",
		"latitude": "33-44-6.48 N",
		"longitude": "93-39-19.34 W",
		"state": "ARKANSAS",
		"artcc": "ZFW",
		"type": "CN",
		"updated": "07/09/2009"
	},
	{
		"name": "DNBRB",
		"latitude": "35-19-38.02 N",
		"longitude": "97-39-22.94 W",
		"state": "OKLAHOMA",
		"artcc": "ZFW",
		"type": "CN",
		"updated": "07/08/2011"
	},
	{
		"name": "DNBVB",
		"latitude": "35-20-42.81 N",
		"longitude": "97-38-43.64 W",
		"state": "OKLAHOMA",
		"artcc": "ZFW",
		"type": "CN",
		"updated": "03/28/2011"
	},
	{
		"name": "DNGSB",
		"latitude": "35-19-40.35 N",
		"longitude": "97-32-16.37 W",
		"state": "OKLAHOMA",
		"artcc": "ZFW",
		"type": "CN",
		"updated": "07/08/2011"
	},
	{
		"name": "DOBKE",
		"latitude": "34-36-57.07 N",
		"longitude": "99-9-51.07 W",
		"state": "OKLAHOMA",
		"artcc": "ZFW",
		"type": "MR",
		"updated": "LTS*VORTAC*113.00/6.00"
	},
	{
		"name": "DOBYE",
		"latitude": "32-36-16.27 N",
		"longitude": "91-58-43.07 W",
		"state": "LOUISIANA",
		"artcc": "ZFW",
		"type": "RP",
		"updated": "MLU*VORTAC*026.00/6.00"
	},
	{
		"name": "DOCAV",
		"latitude": "32-38-15.01 N",
		"longitude": "96-46-34.57 W",
		"state": "TEXAS",
		"artcc": "ZFW",
		"type": "RNAV",
		"updated": "06/29/2004"
	},
	{
		"name": "DOCEK",
		"latitude": "33-4-43.92 N",
		"longitude": "96-3-54.69 W",
		"state": "TEXAS",
		"artcc": "ZFW",
		"type": "RP",
		"updated": "BYP*VORTAC*156.77/28.75"
	},
	{
		"name": "DOCKK",
		"latitude": "32-21-25.34 N",
		"longitude": "94-1-8.15 W",
		"state": "LOUISIANA",
		"artcc": "ZFW",
		"type": "RNAV",
		"updated": "12/17/2015"
	},
	{
		"name": "DOCTA",
		"latitude": "34-33-56.21 N",
		"longitude": "97-57-40.54 W",
		"state": "OKLAHOMA",
		"artcc": "ZFW",
		"type": "RNAV",
		"updated": "11/08/2017"
	},
	{
		"name": "DODBE",
		"latitude": "33-26-5.87 N",
		"longitude": "92-47-38.43 W",
		"state": "ARKANSAS",
		"artcc": "ZFW",
		"type": "RP",
		"updated": "ELD*VOR/DME*339.79/11.00"
	},
	{
		"name": "DODDY",
		"latitude": "32-24-22.48 N",
		"longitude": "93-54-54.2 W",
		"state": "LOUISIANA",
		"artcc": "ZFW",
		"type": "RP",
		"updated": "MWP*LE*238.90/6.01"
	},
	{
		"name": "DODJE",
		"latitude": "32-17-3.09 N",
		"longitude": "96-34-58.63 W",
		"state": "TEXAS",
		"artcc": "ZFW",
		"type": "RP",
		"updated": "FUZ*VORTAC*134.00/47.20"
	},
	{
		"name": "DOGGE",
		"latitude": "33-14-32.72 N",
		"longitude": "94-14-36.23 W",
		"state": "TEXAS",
		"artcc": "ZFW",
		"type": "RP",
		"updated": "TXK*VORTAC*200.79/18.37"
	},
	{
		"name": "DOJED",
		"latitude": "32-44-1.13 N",
		"longitude": "97-20-46.43 W",
		"state": "TEXAS",
		"artcc": "ZFW",
		"type": "RNAV",
		"updated": "07/28/2014"
	},
	{
		"name": "DOLEY",
		"latitude": "32-11-21 N",
		"longitude": "96-23-5 W",
		"state": "TEXAS",
		"artcc": "ZFW",
		"type": "RP",
		"updated": "ACT*VORTAC*045.83/55.08"
	},
	{
		"name": "DOMCO",
		"latitude": "34-31-43.01 N",
		"longitude": "95-53-39.03 W",
		"state": "OKLAHOMA",
		"artcc": "ZFW",
		"type": "RP",
		"updated": "MLC*VORTAC*188.10/20.00"
	},
	{
		"name": "DOMLE",
		"latitude": "34-47-0.27 N",
		"longitude": "99-3-19.55 W",
		"state": "OKLAHOMA",
		"artcc": "ZFW",
		"type": "RNAV",
		"updated": "02/14/2010"
	},
	{
		"name": "DOMPE",
		"latitude": "32-44-41.12 N",
		"longitude": "97-26-30.51 W",
		"state": "TEXAS",
		"artcc": "ZFW",
		"type": "MR",
		"updated": "MQP*VORTAC*078.58/28.14"
	},
	{
		"name": "DONAW",
		"latitude": "31-59-12.01 N",
		"longitude": "99-59-7.9 W",
		"state": "TEXAS",
		"artcc": "ZFW",
		"type": "RNAV",
		"updated": "06/29/2011"
	},
	{
		"name": "DONIE",
		"latitude": "31-37-4.6 N",
		"longitude": "95-43-19.44 W",
		"state": "TEXAS",
		"artcc": "ZFW",
		"type": "RP",
		"updated": "FUZ*VORTAC*129.36/106.27"
	},
	{
		"name": "DONMO",
		"latitude": "35-31-36.68 N",
		"longitude": "97-36-34.69 W",
		"state": "OKLAHOMA",
		"artcc": "ZFW",
		"type": "RNAV",
		"updated": "06/16/2014"
	},
	{
		"name": "DOPEY",
		"latitude": "33-36-51.27 N",
		"longitude": "97-57-14.97 W",
		"state": "TEXAS",
		"artcc": "ZFW",
		"type": "RP",
		"updated": "SPS*VORTAC*114.77/39.00"
	},
	{
		"name": "DOPME",
		"latitude": "34-45-22.53 N",
		"longitude": "97-13-25.33 W",
		"state": "OKLAHOMA",
		"artcc": "ZFW",
		"type": "RNAV",
		"updated": "04/07/2010"
	},
	{
		"name": "DOSXX",
		"latitude": "32-23-38.17 N",
		"longitude": "99-56-55.9 W",
		"state": "TEXAS",
		"artcc": "ZFW",
		"type": "RNAV",
		"updated": "07/07/2014"
	},
	{
		"name": "DOZME",
		"latitude": "34-0-9.19 N",
		"longitude": "96-28-12.5 W",
		"state": "OKLAHOMA",
		"artcc": "ZFW",
		"type": "WP",
		"updated": "07/26/1995"
	},
	{
		"name": "DRAAK",
		"latitude": "33-8-45.31 N",
		"longitude": "97-0-30.21 W",
		"state": "TEXAS",
		"artcc": "ZFW",
		"type": "RP",
		"updated": "PPZ*LD*356.27/16.41"
	},
	{
		"name": "DRANE",
		"latitude": "33-7-30.78 N",
		"longitude": "92-58-27.37 W",
		"state": "ARKANSAS",
		"artcc": "ZFW",
		"type": "RP",
		"updated": "ELD*VOR/DME*229.00/14.00"
	},
	{
		"name": "DRBOB",
		"latitude": "31-45-5.73 N",
		"longitude": "94-42-52.7 W",
		"state": "TEXAS",
		"artcc": "ZFW",
		"type": "RNAV",
		"updated": "08/28/2000"
	},
	{
		"name": "DRILL",
		"latitude": "31-53-57.26 N",
		"longitude": "96-47-49.16 W",
		"state": "TEXAS",
		"artcc": "ZFW",
		"type": "RP",
		"updated": "ACT*VORTAC*050.44/28.00"
	},
	{
		"name": "DRRTH",
		"latitude": "34-12-2.11 N",
		"longitude": "95-48-4.85 W",
		"state": "OKLAHOMA",
		"artcc": "ZFW",
		"type": "RNAV",
		"updated": "07/14/2014"
	},
	{
		"name": "DRSET",
		"latitude": "32-45-36.47 N",
		"longitude": "96-45-5.03 W",
		"state": "TEXAS",
		"artcc": "ZFW",
		"type": "RNAV",
		"updated": "07/07/2014"
	},
	{
		"name": "DRYYE",
		"latitude": "32-19-54.46 N",
		"longitude": "97-21-45.95 W",
		"state": "TEXAS",
		"artcc": "ZFW",
		"type": "RNAV",
		"updated": "07/07/2014"
	},
	{
		"name": "DSHRT",
		"latitude": "31-48-47.2 N",
		"longitude": "103-13-10.42 W",
		"state": "TEXAS",
		"artcc": "ZFW",
		"type": "RP",
		"updated": "INK*VORTAC*150.46/3.89"
	},
	{
		"name": "DUBBE",
		"latitude": "35-17-10.1 N",
		"longitude": "97-32-16.75 W",
		"state": "OKLAHOMA",
		"artcc": "ZFW",
		"type": "RNAV",
		"updated": "06/16/2014"
	},
	{
		"name": "DUBOW",
		"latitude": "33-15-0.06 N",
		"longitude": "93-58-44.84 W",
		"state": "ARKANSAS",
		"artcc": "ZFW",
		"type": "RP",
		"updated": "TXK*VORTAC*156.31/16.49"
	},
	{
		"name": "DUCAG",
		"latitude": "32-33-25.63 N",
		"longitude": "95-30-17.92 W",
		"state": "TEXAS",
		"artcc": "ZFW",
		"type": "RP",
		"updated": "UIM*VOR/DME*191.91/20.58"
	},
	{
		"name": "DUCAL",
		"latitude": "31-58-59.96 N",
		"longitude": "95-36-22.35 W",
		"state": "TEXAS",
		"artcc": "ZFW",
		"type": "RNAV",
		"updated": "07/21/2004"
	},
	{
		"name": "DUFFA",
		"latitude": "32-3-34.36 N",
		"longitude": "98-10-54.25 W",
		"state": "TEXAS",
		"artcc": "ZFW",
		"type": "RP",
		"updated": "ACT*VORTAC*288.26"
	},
	{
		"name": "DUKLE",
		"latitude": "33-53-13.55 N",
		"longitude": "98-26-2.13 W",
		"state": "TEXAS",
		"artcc": "ZFW",
		"type": "MW",
		"updated": "08/24/2011"
	},
	{
		"name": "DULSE",
		"latitude": "35-3-38.27 N",
		"longitude": "95-42-10.61 W",
		"state": "OKLAHOMA",
		"artcc": "ZFW",
		"type": "RNAV",
		"updated": "05/31/2006"
	},
	{
		"name": "DUMMO",
		"latitude": "32-17-14.29 N",
		"longitude": "101-30-24.19 W",
		"state": "TEXAS",
		"artcc": "ZFW",
		"type": "RP",
		"updated": "BGS*VORTAC*180.26/6.00"
	},
	{
		"name": "DUMPS",
		"latitude": "33-47-32.95 N",
		"longitude": "100-43-13.67 W",
		"state": "TEXAS",
		"artcc": "ZFW",
		"type": "RP",
		"updated": "SPS*VORTAC*254.33/106.87"
	},
	{
		"name": "DUMPY",
		"latitude": "32-39-43.9 N",
		"longitude": "96-30-18.92 W",
		"state": "TEXAS",
		"artcc": "ZFW",
		"type": "RP",
		"updated": "CVE*VOR/DME*118.00/24.36"
	},
	{
		"name": "DUREQ",
		"latitude": "32-25-11.02 N",
		"longitude": "95-19-24 W",
		"state": "TEXAS",
		"artcc": "ZFW",
		"type": "RNAV",
		"updated": "07/30/2012"
	},
	{
		"name": "DUSME",
		"latitude": "32-31-8.42 N",
		"longitude": "96-25-15.24 W",
		"state": "TEXAS",
		"artcc": "ZFW",
		"type": "RNAV",
		"updated": "10/20/2005"
	},
	{
		"name": "DUYAD",
		"latitude": "33-24-35.92 N",
		"longitude": "95-19-13.77 W",
		"state": "TEXAS",
		"artcc": "ZFW",
		"type": "RNAV",
		"updated": "04/12/2005"
	},
	{
		"name": "DUZEE",
		"latitude": "34-18-33.57 N",
		"longitude": "102-44-57.18 W",
		"state": "TEXAS",
		"artcc": "ZFW",
		"type": "RP",
		"updated": "TXO*VORTAC*147.00/12.00"
	},
	{
		"name": "DWINE",
		"latitude": "35-12-29.02 N",
		"longitude": "96-12-58.54 W",
		"state": "OKLAHOMA",
		"artcc": "ZFW",
		"type": "RP",
		"updated": "IRW*VORTAC*090.11/69.02"
	},
	{
		"name": "DWNTN",
		"latitude": "32-41-49.59 N",
		"longitude": "96-47-30.86 W",
		"state": "TEXAS",
		"artcc": "ZFW",
		"type": "RNAV",
		"updated": "07/13/2014"
	},
	{
		"name": "DYETT",
		"latitude": "32-32-47.36 N",
		"longitude": "103-30-6.28 W",
		"state": "NEW MEXICO",
		"artcc": "ZFW",
		"type": "RP",
		"updated": "INK*VORTAC*330.99"
	}
]
