[
	{
		"name": "EAKER",
		"latitude": "34-19-2.72 N",
		"longitude": "96-37-11.52 W",
		"state": "OKLAHOMA",
		"artcc": "ZFW",
		"type": "RP",
		"updated": "FUZ*VORTAC*012.00/90.00"
	},
	{
		"name": "EASYY",
		"latitude": "31-51-9.99 N",
		"longitude": "101-57-44.48 W",
		"state": "TEXAS",
		"artcc": "ZFW",
		"type": "RNAV",
		"updated": "07/27/2012"
	},
	{
		"name": "EBADE",
		"latitude": "33-36-50.97 N",
		"longitude": "92-45-32 W",
		"state": "ARKANSAS",
		"artcc": "ZFW",
		"type": "RP",
		"updated": "ELD*VOR/DME*351.00/21.45"
	},
	{
		"name": "EBARE",
		"latitude": "32-56-11.51 N",
		"longitude": "96-50-3.95 W",
		"state": "TEXAS",
		"artcc": "ZFW",
		"type": "RNAV",
		"updated": "07/13/2014"
	},
	{
		"name": "EBENE",
		"latitude": "32-59-3.85 N",
		"longitude": "96-4-51.16 W",
		"state": "TEXAS",
		"artcc": "ZFW",
		"type": "MR",
		"updated": "MJF*TACAN*186.34/5.00"
	},
	{
		"name": "EBUJE",
		"latitude": "35-27-38.62 N",
		"longitude": "95-5-34.21 W",
		"state": "OKLAHOMA",
		"artcc": "ZFW",
		"type": "RNAV",
		"updated": "05/23/2000"
	},
	{
		"name": "ECEBA",
		"latitude": "31-35-37.58 N",
		"longitude": "95-36-38.73 W",
		"state": "TEXAS",
		"artcc": "ZFW",
		"type": "RNAV",
		"updated": "07/21/2004"
	},
	{
		"name": "ECESA",
		"latitude": "32-43-12.46 N",
		"longitude": "103-10-44.07 W",
		"state": "NEW MEXICO",
		"artcc": "ZFW",
		"type": "RP",
		"updated": "HOB*VORTAC*032.01/6.71"
	},
	{
		"name": "ECIKE",
		"latitude": "33-4-56.27 N",
		"longitude": "103-6-2.34 W",
		"state": "NEW MEXICO",
		"artcc": "ZFW",
		"type": "RNAV",
		"updated": "09/30/2014"
	},
	{
		"name": "ECKEY",
		"latitude": "33-13-0.46 N",
		"longitude": "95-52-39.87 W",
		"state": "TEXAS",
		"artcc": "ZFW",
		"type": "RP",
		"updated": "PRX*VOR/DME*221.02"
	},
	{
		"name": "ECKOR",
		"latitude": "31-16-0 N",
		"longitude": "97-30-0 W",
		"state": "TEXAS",
		"artcc": "ZFW",
		"type": "RNAV",
		"updated": "08/12/2005"
	},
	{
		"name": "ECOTO",
		"latitude": "32-46-38.25 N",
		"longitude": "96-48-9.32 W",
		"state": "TEXAS",
		"artcc": "ZFW",
		"type": "RNAV",
		"updated": "05/11/2007"
	},
	{
		"name": "ECTOR",
		"latitude": "31-58-13.06 N",
		"longitude": "102-16-37.22 W",
		"state": "TEXAS",
		"artcc": "ZFW",
		"type": "RP",
		"updated": "MAF*VORTAC*231.14/5.00"
	},
	{
		"name": "EDDGR",
		"latitude": "32-59-32.58 N",
		"longitude": "95-39-17.89 W",
		"state": "TEXAS",
		"artcc": "ZFW",
		"type": "RNAV",
		"updated": "06/28/2011"
	},
	{
		"name": "EDNAS",
		"latitude": "31-37-7.98 N",
		"longitude": "98-10-3.85 W",
		"state": "TEXAS",
		"artcc": "ZFW",
		"type": "RP",
		"updated": "FUZ*VORTAC*207.73/91.19"
	},
	{
		"name": "EDUCT",
		"latitude": "32-45-2.44 N",
		"longitude": "99-53-54.11 W",
		"state": "TEXAS",
		"artcc": "ZFW",
		"type": "MR",
		"updated": "DYS*TACAN*349.00/20.00"
	},
	{
		"name": "EDUDE",
		"latitude": "32-17-41.95 N",
		"longitude": "94-27-30.56 W",
		"state": "TEXAS",
		"artcc": "ZFW",
		"type": "RNAV",
		"updated": "05/09/2007"
	},
	{
		"name": "EDWAR",
		"latitude": "31-16-46.82 N",
		"longitude": "100-22-33.58 W",
		"state": "TEXAS",
		"artcc": "ZFW",
		"type": "RP",
		"updated": "SJT*VORTAC*134.58/7.00"
	},
	{
		"name": "EDWNN",
		"latitude": "32-39-51.07 N",
		"longitude": "100-39-11.38 W",
		"state": "TEXAS",
		"artcc": "ZFW",
		"type": "RNAV",
		"updated": "09/01/2011"
	},
	{
		"name": "EDWUF",
		"latitude": "32-14-47.12 N",
		"longitude": "94-52-24.46 W",
		"state": "TEXAS",
		"artcc": "ZFW",
		"type": "WP",
		"updated": "11/02/1998"
	},
	{
		"name": "EESAT",
		"latitude": "32-39-53.54 N",
		"longitude": "96-29-14.37 W",
		"state": "TEXAS",
		"artcc": "ZFW",
		"type": "RNAV",
		"updated": "07/13/2014"
	},
	{
		"name": "EFAKU",
		"latitude": "34-23-34.67 N",
		"longitude": "99-9-27.9 W",
		"state": "OKLAHOMA",
		"artcc": "ZFW",
		"type": "RNAV",
		"updated": "05/16/2010"
	},
	{
		"name": "EFIZU",
		"latitude": "32-56-33.45 N",
		"longitude": "99-44-8.58 W",
		"state": "TEXAS",
		"artcc": "ZFW",
		"type": "RNAV",
		"updated": "12/02/2009"
	},
	{
		"name": "EGADS",
		"latitude": "31-39-6.58 N",
		"longitude": "98-6-10.94 W",
		"state": "TEXAS",
		"artcc": "ZFW",
		"type": "RNAV",
		"updated": "09/12/2016"
	},
	{
		"name": "EGGAC",
		"latitude": "35-19-24.53 N",
		"longitude": "97-12-22.29 W",
		"state": "OKLAHOMA",
		"artcc": "ZFW",
		"type": "MR",
		"updated": "PWA*VOR/DME*112.00/25.00"
	},
	{
		"name": "EGMON",
		"latitude": "34-45-13.3 N",
		"longitude": "99-24-56.35 W",
		"state": "OKLAHOMA",
		"artcc": "ZFW",
		"type": "RP",
		"updated": "LTS*VORTAC*302.30/8.98"
	},
	{
		"name": "EGOJO",
		"latitude": "31-37-42.11 N",
		"longitude": "102-58-49.25 W",
		"state": "TEXAS",
		"artcc": "ZFW",
		"type": "RNAV",
		"updated": "12/15/2011"
	},
	{
		"name": "EHHAD",
		"latitude": "32-35-28.32 N",
		"longitude": "99-34-37.37 W",
		"state": "TEXAS",
		"artcc": "ZFW",
		"type": "RNAV",
		"updated": "02/10/2010"
	},
	{
		"name": "EHIPO",
		"latitude": "34-15-35.4 N",
		"longitude": "98-59-21.99 W",
		"state": "OKLAHOMA",
		"artcc": "ZFW",
		"type": "RNAV",
		"updated": "09/01/2010"
	},
	{
		"name": "EHOMO",
		"latitude": "35-37-7.69 N",
		"longitude": "99-23-37.52 W",
		"state": "OKLAHOMA",
		"artcc": "ZFW",
		"type": "RNAV",
		"updated": "03/02/2017"
	},
	{
		"name": "EHOVI",
		"latitude": "34-3-16.52 N",
		"longitude": "101-19-51.47 W",
		"state": "TEXAS",
		"artcc": "ZFW",
		"type": "RNAV",
		"updated": "08/26/2009"
	},
	{
		"name": "EHXIV",
		"latitude": "33-16-4.18 N",
		"longitude": "97-35-1.68 W",
		"state": "TEXAS",
		"artcc": "ZFW",
		"type": "RP",
		"updated": "UKW*VORTAC*137.32/20.00"
	},
	{
		"name": "EJISO",
		"latitude": "35-11-25.18 N",
		"longitude": "97-31-0.19 W",
		"state": "OKLAHOMA",
		"artcc": "ZFW",
		"type": "RNAV",
		"updated": "07/06/2012"
	},
	{
		"name": "EKARE",
		"latitude": "35-34-51.98 N",
		"longitude": "95-5-46.66 W",
		"state": "OKLAHOMA",
		"artcc": "ZFW",
		"type": "RNAV",
		"updated": "06/16/2008"
	},
	{
		"name": "EKGUZ",
		"latitude": "31-42-2.22 N",
		"longitude": "99-9-19.36 W",
		"state": "TEXAS",
		"artcc": "ZFW",
		"type": "RNAV",
		"updated": "10/16/2013"
	},
	{
		"name": "EKOKE",
		"latitude": "35-19-33.54 N",
		"longitude": "98-26-32.93 W",
		"state": "OKLAHOMA",
		"artcc": "ZFW",
		"type": "RNAV",
		"updated": "03/27/2008"
	},
	{
		"name": "EKPOW",
		"latitude": "32-15-0.67 N",
		"longitude": "94-25-10.89 W",
		"state": "TEXAS",
		"artcc": "ZFW",
		"type": "RP",
		"updated": "GGG*VORTAC*113.53/19.70"
	},
	{
		"name": "ELECT",
		"latitude": "33-55-52.13 N",
		"longitude": "99-4-58.68 W",
		"state": "TEXAS",
		"artcc": "ZFW",
		"type": "RP",
		"updated": "SPS*VORTAC*252.30/24.66"
	},
	{
		"name": "ELEYE",
		"latitude": "34-33-8 N",
		"longitude": "98-50-6 W",
		"state": "OKLAHOMA",
		"artcc": "ZFW",
		"type": "RNAV",
		"updated": "08/12/2005"
	},
	{
		"name": "ELISE",
		"latitude": "32-3-34.54 N",
		"longitude": "98-57-39.23 W",
		"state": "TEXAS",
		"artcc": "ZFW",
		"type": "RP",
		"updated": "TQA*VOR/DME*093.37/44.86"
	},
	{
		"name": "ELKVI",
		"latitude": "35-5-52.13 N",
		"longitude": "95-5-42.2 W",
		"state": "OKLAHOMA",
		"artcc": "ZFW",
		"type": "RP",
		"updated": "MLC*VORTAC*058.10/37.01"
	},
	{
		"name": "ELLEN",
		"latitude": "33-29-14.79 N",
		"longitude": "99-15-40.7 W",
		"state": "TEXAS",
		"artcc": "ZFW",
		"type": "RNAV",
		"updated": "02/12/2018"
	},
	{
		"name": "ELLER",
		"latitude": "32-36-27.71 N",
		"longitude": "96-54-1.48 W",
		"state": "TEXAS",
		"artcc": "ZFW",
		"type": "RNAV",
		"updated": "09/11/2014"
	},
	{
		"name": "ELLVR",
		"latitude": "31-42-29.22 N",
		"longitude": "96-50-16.05 W",
		"state": "TEXAS",
		"artcc": "ZFW",
		"type": "RP",
		"updated": "CVE*VOR/DME*171.26/70.87"
	},
	{
		"name": "ELOYE",
		"latitude": "32-53-26.13 N",
		"longitude": "102-57-11.87 W",
		"state": "TEXAS",
		"artcc": "ZFW",
		"type": "RP",
		"updated": "HOB*VORTAC*035.53/22.00"
	},
	{
		"name": "ELUCK",
		"latitude": "35-27-6.08 N",
		"longitude": "97-40-24.02 W",
		"state": "OKLAHOMA",
		"artcc": "ZFW",
		"type": "RNAV",
		"updated": "01/28/2016"
	},
	{
		"name": "ELUGY",
		"latitude": "33-5-53.28 N",
		"longitude": "99-38-6.82 W",
		"state": "TEXAS",
		"artcc": "ZFW",
		"type": "RNAV",
		"updated": "12/02/2009"
	},
	{
		"name": "EMILY",
		"latitude": "33-6-45.07 N",
		"longitude": "95-42-45.64 W",
		"state": "TEXAS",
		"artcc": "ZFW",
		"type": "RP",
		"updated": "SLR*VOR/DME*231.00/10.00"
	},
	{
		"name": "EMJEV",
		"latitude": "33-46-58.9 N",
		"longitude": "96-4-24.25 W",
		"state": "TEXAS",
		"artcc": "ZFW",
		"type": "RNAV",
		"updated": "04/12/2006"
	},
	{
		"name": "EMMTT",
		"latitude": "32-57-56.54 N",
		"longitude": "96-47-29.39 W",
		"state": "TEXAS",
		"artcc": "ZFW",
		"type": "RNAV",
		"updated": "07/08/2014"
	},
	{
		"name": "EMODE",
		"latitude": "32-29-16.86 N",
		"longitude": "94-43-8.54 W",
		"state": "TEXAS",
		"artcc": "ZFW",
		"type": "RNAV",
		"updated": "06/11/2012"
	},
	{
		"name": "EMUDE",
		"latitude": "35-40-46.49 N",
		"longitude": "97-43-18.07 W",
		"state": "OKLAHOMA",
		"artcc": "ZFW",
		"type": "RNAV",
		"updated": "07/31/2006"
	},
	{
		"name": "EMUKE",
		"latitude": "33-3-58.25 N",
		"longitude": "97-26-17.77 W",
		"state": "TEXAS",
		"artcc": "ZFW",
		"type": "MR",
		"updated": "FUZ*VORTAC*303.08/16.81"
	},
	{
		"name": "EMUMY",
		"latitude": "33-28-26.24 N",
		"longitude": "101-37-42.08 W",
		"state": "TEXAS",
		"artcc": "ZFW",
		"type": "RNAV",
		"updated": "07/25/2005"
	},
	{
		"name": "EMUPE",
		"latitude": "32-45-7.84 N",
		"longitude": "91-52-53.86 W",
		"state": "LOUISIANA",
		"artcc": "ZFW",
		"type": "RP",
		"updated": "MLU*VORTAC*026.00/16.11"
	},
	{
		"name": "EMWUK",
		"latitude": "33-52-44.03 N",
		"longitude": "96-45-16.85 W",
		"state": "OKLAHOMA",
		"artcc": "ZFW",
		"type": "RNAV",
		"updated": "07/12/2013"
	},
	{
		"name": "ENAVE",
		"latitude": "32-46-44.77 N",
		"longitude": "96-46-47.38 W",
		"state": "TEXAS",
		"artcc": "ZFW",
		"type": "RNAV",
		"updated": "02/12/2001"
	},
	{
		"name": "ENDUE",
		"latitude": "33-15-6.47 N",
		"longitude": "96-3-45.1 W",
		"state": "TEXAS",
		"artcc": "ZFW",
		"type": "MR",
		"updated": "GVT*LD*355.73/11.90"
	},
	{
		"name": "ENIKE",
		"latitude": "32-33-3.3 N",
		"longitude": "96-59-35.94 W",
		"state": "TEXAS",
		"artcc": "ZFW",
		"type": "RNAV",
		"updated": "08/19/2014"
	},
	{
		"name": "ENTRA",
		"latitude": "32-47-53.56 N",
		"longitude": "96-48-6.97 W",
		"state": "TEXAS",
		"artcc": "ZFW",
		"type": "RP",
		"updated": "LVF*LD*132.63/2.82"
	},
	{
		"name": "ENTUR",
		"latitude": "33-20-5.59 N",
		"longitude": "97-38-34.92 W",
		"state": "TEXAS",
		"artcc": "ZFW",
		"type": "RP",
		"updated": "UKW*VORTAC*137.32/15.00"
	},
	{
		"name": "ENZIE",
		"latitude": "33-37-11.16 N",
		"longitude": "101-49-42.95 W",
		"state": "TEXAS",
		"artcc": "ZFW",
		"type": "RP",
		"updated": "LBB*VORTAC*129.00"
	},
	{
		"name": "ENZUL",
		"latitude": "35-18-8.77 N",
		"longitude": "97-35-43.64 W",
		"state": "OKLAHOMA",
		"artcc": "ZFW",
		"type": "RNAV",
		"updated": "06/16/2014"
	},
	{
		"name": "EPASE",
		"latitude": "35-33-9.52 N",
		"longitude": "96-43-8.24 W",
		"state": "OKLAHOMA",
		"artcc": "ZFW",
		"type": "RNAV",
		"updated": "09/26/2002"
	},
	{
		"name": "EPHOC",
		"latitude": "32-37-53.75 N",
		"longitude": "102-38-52.54 W",
		"state": "TEXAS",
		"artcc": "ZFW",
		"type": "RNAV",
		"updated": "06/11/2010"
	},
	{
		"name": "EQANY",
		"latitude": "32-24-51.63 N",
		"longitude": "95-28-3.92 W",
		"state": "TEXAS",
		"artcc": "ZFW",
		"type": "RNAV",
		"updated": "07/30/2012"
	},
	{
		"name": "ERADE",
		"latitude": "35-5-13.06 N",
		"longitude": "97-15-15.75 W",
		"state": "OKLAHOMA",
		"artcc": "ZFW",
		"type": "RNAV",
		"updated": "09/23/2002"
	},
	{
		"name": "ERGEY",
		"latitude": "32-31-15.16 N",
		"longitude": "97-2-54.88 W",
		"state": "TEXAS",
		"artcc": "ZFW",
		"type": "RNAV",
		"updated": "12/15/2005"
	},
	{
		"name": "ERPIF",
		"latitude": "32-53-20.14 N",
		"longitude": "97-17-51.73 W",
		"state": "TEXAS",
		"artcc": "ZFW",
		"type": "RP",
		"updated": "FUZ*VORTAC*263.73"
	},
	{
		"name": "ESIKE",
		"latitude": "32-29-19.43 N",
		"longitude": "97-3-1.55 W",
		"state": "TEXAS",
		"artcc": "ZFW",
		"type": "RP",
		"updated": "GKY*LD*162.02/11.36"
	},
	{
		"name": "ESKEF",
		"latitude": "32-35-46.9 N",
		"longitude": "97-32-33.32 W",
		"state": "TEXAS",
		"artcc": "ZFW",
		"type": "RP",
		"updated": "JEN*VORTAC*026.98"
	},
	{
		"name": "ESNYE",
		"latitude": "33-8-20.87 N",
		"longitude": "96-51-36.78 W",
		"state": "TEXAS",
		"artcc": "ZFW",
		"type": "RNAV",
		"updated": "07/08/2014"
	},
	{
		"name": "ESOBY",
		"latitude": "31-8-46.72 N",
		"longitude": "100-35-18.29 W",
		"state": "TEXAS",
		"artcc": "ZFW",
		"type": "RNAV",
		"updated": "07/12/2005"
	},
	{
		"name": "ETICO",
		"latitude": "32-59-0 N",
		"longitude": "100-15-0 W",
		"state": "TEXAS",
		"artcc": "ZFW",
		"type": "RNAV",
		"updated": "08/12/2005"
	},
	{
		"name": "ETOHI",
		"latitude": "31-52-25.77 N",
		"longitude": "97-15-32.02 W",
		"state": "TEXAS",
		"artcc": "ZFW",
		"type": "RNAV",
		"updated": "12/27/2010"
	},
	{
		"name": "ETOTE",
		"latitude": "32-39-33.21 N",
		"longitude": "96-31-55.25 W",
		"state": "TEXAS",
		"artcc": "ZFW",
		"type": "RNAV",
		"updated": "04/29/2015"
	},
	{
		"name": "ETROH",
		"latitude": "32-59-0.8 N",
		"longitude": "94-22-34.92 W",
		"state": "TEXAS",
		"artcc": "ZFW",
		"type": "RNAV",
		"updated": "01/04/2009"
	},
	{
		"name": "EVECE",
		"latitude": "32-15-49.11 N",
		"longitude": "97-9-56.71 W",
		"state": "TEXAS",
		"artcc": "ZFW",
		"type": "RNAV",
		"updated": "07/08/2008"
	},
	{
		"name": "EVECI",
		"latitude": "33-59-17.53 N",
		"longitude": "98-28-56.19 W",
		"state": "TEXAS",
		"artcc": "ZFW",
		"type": "MW",
		"updated": "02/26/2010"
	},
	{
		"name": "EVENE",
		"latitude": "33-51-59.47 N",
		"longitude": "101-29-11.09 W",
		"state": "TEXAS",
		"artcc": "ZFW",
		"type": "RNAV",
		"updated": "07/06/2012"
	},
	{
		"name": "EVIJI",
		"latitude": "33-14-37.82 N",
		"longitude": "95-36-14.87 W",
		"state": "TEXAS",
		"artcc": "ZFW",
		"type": "RNAV",
		"updated": "06/28/2011"
	},
	{
		"name": "EVILE",
		"latitude": "31-14-26.69 N",
		"longitude": "100-3-38.38 W",
		"state": "TEXAS",
		"artcc": "ZFW",
		"type": "RP",
		"updated": "SJT*VORTAC*101.53/21.80"
	},
	{
		"name": "EVVIS",
		"latitude": "31-45-29.28 N",
		"longitude": "97-20-13.86 W",
		"state": "TEXAS",
		"artcc": "ZFW",
		"type": "RNAV",
		"updated": "02/09/2018"
	},
	{
		"name": "EWDUF",
		"latitude": "32-14-43.88 N",
		"longitude": "94-52-23.64 W",
		"state": "TEXAS",
		"artcc": "ZFW",
		"type": "RNAV",
		"updated": "12/31/2009"
	},
	{
		"name": "EWUYI",
		"latitude": "31-19-52.04 N",
		"longitude": "100-10-2.71 W",
		"state": "TEXAS",
		"artcc": "ZFW",
		"type": "RP",
		"updated": "SJT*VORTAC*090.00/15.00"
	},
	{
		"name": "EXITE",
		"latitude": "32-0-43.94 N",
		"longitude": "93-57-4.2 W",
		"state": "LOUISIANA",
		"artcc": "ZFW",
		"type": "RP",
		"updated": "EMG*VORTAC*211.04/29.47"
	},
	{
		"name": "EXKOH",
		"latitude": "35-31-4.18 N",
		"longitude": "99-23-39.34 W",
		"state": "OKLAHOMA",
		"artcc": "ZFW",
		"type": "CN",
		"updated": "12/04/2014"
	},
	{
		"name": "EXONE",
		"latitude": "34-12-6.81 N",
		"longitude": "100-42-19.84 W",
		"state": "TEXAS",
		"artcc": "ZFW",
		"type": "RP",
		"updated": "CDS*VORTAC*234.31/23.00"
	},
	{
		"name": "EXTUV",
		"latitude": "32-45-6.95 N",
		"longitude": "97-38-56.91 W",
		"state": "TEXAS",
		"artcc": "ZFW",
		"type": "RNAV",
		"updated": "11/25/2016"
	},
	{
		"name": "EYAFY",
		"latitude": "34-32-26.03 N",
		"longitude": "99-9-2.3 W",
		"state": "OKLAHOMA",
		"artcc": "ZFW",
		"type": "CN",
		"updated": "12/04/2014"
	},
	{
		"name": "EYAHE",
		"latitude": "35-12-43.2 N",
		"longitude": "97-42-26.12 W",
		"state": "OKLAHOMA",
		"artcc": "ZFW",
		"type": "RNAV",
		"updated": "06/22/2001"
	},
	{
		"name": "EYEGA",
		"latitude": "32-6-5.6 N",
		"longitude": "96-27-31.83 W",
		"state": "TEXAS",
		"artcc": "ZFW",
		"type": "RNAV",
		"updated": "08/02/2000"
	},
	{
		"name": "EYEPI",
		"latitude": "32-28-14.81 N",
		"longitude": "94-57-32.67 W",
		"state": "TEXAS",
		"artcc": "ZFW",
		"type": "RNAV",
		"updated": "05/09/2007"
	},
	{
		"name": "EYERI",
		"latitude": "34-7-40.35 N",
		"longitude": "98-27-5.56 W",
		"state": "OKLAHOMA",
		"artcc": "ZFW",
		"type": "MR",
		"updated": "SPS*VORTAC*030.00/11.00"
	},
	{
		"name": "EYIBI",
		"latitude": "32-50-40.01 N",
		"longitude": "96-51-58.92 W",
		"state": "TEXAS",
		"artcc": "ZFW",
		"type": "RNAV",
		"updated": "12/27/2005"
	},
	{
		"name": "EYLEJ",
		"latitude": "32-14-23.29 N",
		"longitude": "92-44-0.81 W",
		"state": "LOUISIANA",
		"artcc": "ZFW",
		"type": "RP",
		"updated": "03/28/2012"
	},
	{
		"name": "EYWEP",
		"latitude": "32-49-43.66 N",
		"longitude": "97-1-49.26 W",
		"state": "TEXAS",
		"artcc": "ZFW",
		"type": "RNAV",
		"updated": "TTT*VOR/DME*162.01/0.00"
	},
	{
		"name": "EZRAV",
		"latitude": "34-2-10.01 N",
		"longitude": "94-30-45.95 W",
		"state": "OKLAHOMA",
		"artcc": "ZFW",
		"type": "RNAV",
		"updated": "09/27/2004"
	}
]
