	{
		"name": "FABIR",
		"latitude": "34-45-23.18 N",
		"longitude": "99-20-19.16 W",
		"state": "OKLAHOMA",
		"artcc": "ZFW",
		"type": "RNAV",
		"updated": "10/29/2014",
	},
	{
		"name": "FABSI",
		"latitude": "32-24-54.99 N",
		"longitude": "99-1-23.13 W",
		"state": "TEXAS",
		"artcc": "ZFW",
		"type": "RNAV",
		"updated": "04/02/2016",
	},
	{
		"name": "FACIA",
		"latitude": "32-40-58.1 N",
		"longitude": "96-39-18.65 W",
		"state": "TEXAS",
		"artcc": "ZFW",
		"type": "RP",
		"updated": "OVW*LD*132.64/13.14",
	},
	{
		"name": "FADOM",
		"latitude": "33-46-49.92 N",
		"longitude": "98-23-34.34 W",
		"state": "TEXAS",
		"artcc": "ZFW",
		"type": "MR",
		"updated": "SHP*TACAN*/13.00",
	},
	{
		"name": "FAKEY",
		"latitude": "35-16-3.24 N",
		"longitude": "97-2-33.14 W",
		"state": "OKLAHOMA",
		"artcc": "ZFW",
		"type": "RNAV",
		"updated": "05/27/2014",
	},
	{
		"name": "FALAB",
		"latitude": "35-16-16.76 N",
		"longitude": "97-54-7.93 W",
		"state": "OKLAHOMA",
		"artcc": "ZFW",
		"type": "RNAV",
		"updated": "05/20/2014",
	},
	{
		"name": "FALIN",
		"latitude": "32-21-50.94 N",
		"longitude": "99-50-33.42 W",
		"state": "TEXAS",
		"artcc": "ZFW",
		"type": "MR",
		"updated": "TQA*VOR/DME*340.31/7.80",
	},
	{
		"name": "FALTU",
		"latitude": "35-40-48.59 N",
		"longitude": "97-55-34.55 W",
		"state": "OKLAHOMA",
		"artcc": "ZFW",
		"type": "RNAV",
		"updated": "07/31/2006",
	},
	{
		"name": "FALUN",
		"latitude": "35-30-37.5 N",
		"longitude": "95-10-59.18 W",
		"state": "OKLAHOMA",
		"artcc": "ZFW",
		"type": "RNAV",
		"updated": "06/16/2008",
	},
	{
		"name": "FAMAL",
		"latitude": "32-49-16.93 N",
		"longitude": "97-26-36.39 W",
		"state": "TEXAS",
		"artcc": "ZFW",
		"type": "MR",
		"updated": "NFW*TACAN*352.00/3.00",
	},
	{
		"name": "FANAD",
		"latitude": "35-6-26.86 N",
		"longitude": "96-37-19.4 W",
		"state": "OKLAHOMA",
		"artcc": "ZFW",
		"type": "RNAV",
		"updated": "09/08/2003",
	},
	{
		"name": "FANAL",
		"latitude": "32-14-5.01 N",
		"longitude": "94-31-35.48 W",
		"state": "TEXAS",
		"artcc": "ZFW",
		"type": "RNAV",
		"updated": "05/09/2007",
	},
	{
		"name": "FANAN",
		"latitude": "33-32-23.93 N",
		"longitude": "92-45-20.82 W",
		"state": "ARKANSAS",
		"artcc": "ZFW",
		"type": "RP",
		"updated": "ELD*VOR/DME*351.00/17.01",
	},
	{
		"name": "FAPRA",
		"latitude": "34-57-23.61 N",
		"longitude": "99-3-23.5 W",
		"state": "OKLAHOMA",
		"artcc": "ZFW",
		"type": "RP",
		"updated": "HBR*VORTAC*353.59/5.40",
	},
	{
		"name": "FAREX",
		"latitude": "32-56-13.68 N",
		"longitude": "91-56-36.79 W",
		"state": "LOUISIANA",
		"artcc": "ZFW",
		"type": "RNAV",
		"updated": "07/16/2008",
	},
	{
		"name": "FARIN",
		"latitude": "33-26-25.89 N",
		"longitude": "96-11-7.04 W",
		"state": "TEXAS",
		"artcc": "ZFW",
		"type": "RNAV",
		"updated": "08/31/2007",
	},
	{
		"name": "FARLY",
		"latitude": "31-59-16.92 N",
		"longitude": "102-19-30.17 W",
		"state": "TEXAS",
		"artcc": "ZFW",
		"type": "RP",
		"updated": "MAF*LD*284.58/7.53",
	},
	{
		"name": "FASRA",
		"latitude": "33-27-38.63 N",
		"longitude": "101-29-2.61 W",
		"state": "TEXAS",
		"artcc": "ZFW",
		"type": "RNAV",
		"updated": "07/06/2012",
	},
	{
		"name": "FATAM",
		"latitude": "35-40-1.08 N",
		"longitude": "98-26-47.57 W",
		"state": "OKLAHOMA",
		"artcc": "ZFW",
		"type": "RNAV",
		"updated": "03/27/2008",
	},
	{
		"name": "FATNA",
		"latitude": "34-8-30.5 N",
		"longitude": "96-29-38.77 W",
		"state": "OKLAHOMA",
		"artcc": "ZFW",
		"type": "RNAV",
		"updated": "05/16/2010",
	},
	{
		"name": "FATYO",
		"latitude": "33-5-24.66 N",
		"longitude": "102-14-26.58 W",
		"state": "TEXAS",
		"artcc": "ZFW",
		"type": "RNAV",
		"updated": "02/12/2018",
	},
	{
		"name": "FAVKU",
		"latitude": "32-47-23.95 N",
		"longitude": "96-47-2.58 W",
		"state": "TEXAS",
		"artcc": "ZFW",
		"type": "RNAV",
		"updated": "05/16/2013",
	},
	{
		"name": "FAVON",
		"latitude": "33-35-0 N",
		"longitude": "102-34-0 W",
		"state": "TEXAS",
		"artcc": "ZFW",
		"type": "RNAV",
		"updated": "08/12/2005",
	},
	{
		"name": "FAWCI",
		"latitude": "34-9-34.17 N",
		"longitude": "98-59-22.37 W",
		"state": "TEXAS",
		"artcc": "ZFW",
		"type": "RNAV",
		"updated": "08/18/2010",
	},
	{
		"name": "FAWNT",
		"latitude": "34-11-16.53 N",
		"longitude": "97-34-27.69 W",
		"state": "OKLAHOMA",
		"artcc": "ZFW",
		"type": "RNAV",
		"updated": "09/13/2016",
	},
	{
		"name": "FAXDO",
		"latitude": "32-19-36.7 N",
		"longitude": "94-12-36.19 W",
		"state": "TEXAS",
		"artcc": "ZFW",
		"type": "RNAV",
		"updated": "12/19/2011",
	},
	{
		"name": "FDUBB",
		"latitude": "31-51-59.46 N",
		"longitude": "97-57-21.36 W",
		"state": "TEXAS",
		"artcc": "ZFW",
		"type": "RNAV",
		"updated": "07/08/2014",
	},
	{
		"name": "FEBIN",
		"latitude": "33-59-12.66 N",
		"longitude": "98-16-22.09 W",
		"state": "TEXAS",
		"artcc": "ZFW",
		"type": "MR",
		"updated": "SPS*VORTAC*080.00/16.00",
	},
	{
		"name": "FEBOM",
		"latitude": "32-22-49.54 N",
		"longitude": "93-35-5.03 W",
		"state": "LOUISIANA",
		"artcc": "ZFW",
		"type": "MR",
		"updated": "EMG*VORTAC*/1.31",
	},
	{
		"name": "FEDER",
		"latitude": "34-8-48.8 N",
		"longitude": "99-16-16.2 W",
		"state": "TEXAS",
		"artcc": "ZFW",
		"type": "MR",
		"updated": "SPS*VORTAC*275.99",
	},
	{
		"name": "FEDIR",
		"latitude": "33-55-46.72 N",
		"longitude": "98-25-52.82 W",
		"state": "TEXAS",
		"artcc": "ZFW",
		"type": "MW",
		"updated": "02/26/2010",
	},
	{
		"name": "FEGEX",
		"latitude": "32-53-11.93 N",
		"longitude": "103-29-16.22 W",
		"state": "NEW MEXICO",
		"artcc": "ZFW",
		"type": "RNAV",
		"updated": "09/30/2014",
	},
	{
		"name": "FEGOT",
		"latitude": "35-13-6.38 N",
		"longitude": "95-54-52.12 W",
		"state": "OKLAHOMA",
		"artcc": "ZFW",
		"type": "RNAV",
		"updated": "05/15/2003",
	},
	{
		"name": "FEGTI",
		"latitude": "32-46-11.93 N",
		"longitude": "99-16-9.26 W",
		"state": "TEXAS",
		"artcc": "ZFW",
		"type": "RNAV",
		"updated": "01/27/2014",
	},
	{
		"name": "FEGUS",
		"latitude": "34-42-45.1 N",
		"longitude": "99-16-25.77 W",
		"state": "OKLAHOMA",
		"artcc": "ZFW",
		"type": "MW",
		"updated": "05/06/2014",
	},
	{
		"name": "FEKON",
		"latitude": "33-4-2.64 N",
		"longitude": "95-0-53.26 W",
		"state": "TEXAS",
		"artcc": "ZFW",
		"type": "RNAV",
		"updated": "08/26/2002",
	},
	{
		"name": "FEKOV",
		"latitude": "32-34-30.59 N",
		"longitude": "91-49-4.37 W",
		"state": "LOUISIANA",
		"artcc": "ZFW",
		"type": "RNAV",
		"updated": "07/16/2008",
	},
	{
		"name": "FEKVO",
		"latitude": "34-59-24.83 N",
		"longitude": "96-40-19.25 W",
		"state": "OKLAHOMA",
		"artcc": "ZFW",
		"type": "RNAV",
		"updated": "03/16/2009",
	},
	{
		"name": "FELIZ",
		"latitude": "32-24-13.17 N",
		"longitude": "95-40-57.57 W",
		"state": "TEXAS",
		"artcc": "ZFW",
		"type": "RNAV",
		"updated": "05/07/2015",
	},
	{
		"name": "FELRA",
		"latitude": "35-9-44.14 N",
		"longitude": "97-53-11.56 W",
		"state": "OKLAHOMA",
		"artcc": "ZFW",
		"type": "RP",
		"updated": "IRW*VORTAC*222.28/18.00",
	},
	{
		"name": "FELVA",
		"latitude": "32-26-21.76 N",
		"longitude": "97-28-19.55 W",
		"state": "TEXAS",
		"artcc": "ZFW",
		"type": "RNAV",
		"updated": "04/24/2013",
	},
	{
		"name": "FEMLI",
		"latitude": "32-59-49.09 N",
		"longitude": "99-44-6.96 W",
		"state": "TEXAS",
		"artcc": "ZFW",
		"type": "RNAV",
		"updated": "12/02/2009",
	},
	{
		"name": "FENDI",
		"latitude": "33-11-12.62 N",
		"longitude": "94-58-36.77 W",
		"state": "TEXAS",
		"artcc": "ZFW",
		"type": "RNAV",
		"updated": "11/28/2008",
	},
	{
		"name": "FENIV",
		"latitude": "31-43-58.06 N",
		"longitude": "98-8-10.55 W",
		"state": "TEXAS",
		"artcc": "ZFW",
		"type": "RNAV",
		"updated": "05/29/2012",
	},
	{
		"name": "FENUP",
		"latitude": "33-24-26.27 N",
		"longitude": "97-45-9.79 W",
		"state": "TEXAS",
		"artcc": "ZFW",
		"type": "RNAV",
		"updated": "01/04/2009",
	},
	{
		"name": "FEPHY",
		"latitude": "31-46-16.56 N",
		"longitude": "97-3-9.76 W",
		"state": "TEXAS",
		"artcc": "ZFW",
		"type": "RP",
		"updated": "ACT*VORTAC*050.44/12.85",
	},
	{
		"name": "FEPLO",
		"latitude": "34-58-23.28 N",
		"longitude": "97-24-10.18 W",
		"state": "OKLAHOMA",
		"artcc": "ZFW",
		"type": "RNAV",
		"updated": "09/23/2002",
	},
	{
		"name": "FERAM",
		"latitude": "32-44-57.68 N",
		"longitude": "97-1-51.29 W",
		"state": "TEXAS",
		"artcc": "ZFW",
		"type": "RP",
		"updated": "PKQ*LD*S CRS/7.59",
	},
	{
		"name": "FERES",
		"latitude": "31-35-40.46 N",
		"longitude": "95-42-29.96 W",
		"state": "TEXAS",
		"artcc": "ZFW",
		"type": "RNAV",
		"updated": "07/21/2004",
	},
	{
		"name": "FERET",
		"latitude": "33-47-53.4 N",
		"longitude": "97-34-9.96 W",
		"state": "TEXAS",
		"artcc": "ZFW",
		"type": "RP",
		"updated": "SPS*VORTAC*092.20/52.39",
	},
	{
		"name": "FERMO",
		"latitude": "32-37-13.25 N",
		"longitude": "96-47-51.08 W",
		"state": "TEXAS",
		"artcc": "ZFW",
		"type": "RP",
		"updated": "07/09/2012",
	},
	{
		"name": "FERRA",
		"latitude": "33-5-28.4 N",
		"longitude": "97-43-59.87 W",
		"state": "TEXAS",
		"artcc": "ZFW",
		"type": "RP",
		"updated": "TTT*VOR/DME*285.01/37.41",
	},
	{
		"name": "FERTH",
		"latitude": "32-0-7.87 N",
		"longitude": "102-20-1.56 W",
		"state": "TEXAS",
		"artcc": "ZFW",
		"type": "RNAV",
		"updated": "05/16/2010",
	},
	{
		"name": "FESAD",
		"latitude": "34-27-33.53 N",
		"longitude": "98-24-9.74 W",
		"state": "OKLAHOMA",
		"artcc": "ZFW",
		"type": "RNAV",
		"updated": "08/04/2008",
	},
	{
		"name": "FESGI",
		"latitude": "32-52-14.36 N",
		"longitude": "99-44-10.72 W",
		"state": "TEXAS",
		"artcc": "ZFW",
		"type": "RNAV",
		"updated": "12/02/2009",
	},
	{
		"name": "FESLI",
		"latitude": "35-54-16.18 N",
		"longitude": "95-56-51.98 W",
		"state": "OKLAHOMA",
		"artcc": "ZFW",
		"type": "CN",
		"updated": "04/25/2005",
	},
	{
		"name": "FESUB",
		"latitude": "33-2-38.59 N",
		"longitude": "98-37-12.79 W",
		"state": "TEXAS",
		"artcc": "ZFW",
		"type": "RNAV",
		"updated": "02/06/2008",
	},
	{
		"name": "FETKA",
		"latitude": "34-5-40.17 N",
		"longitude": "98-26-23.15 W",
		"state": "OKLAHOMA",
		"artcc": "ZFW",
		"type": "MR",
		"updated": "SPS*VORTAC*040.00/10.00",
	},
	{
		"name": "FEVER",
		"latitude": "32-20-24.94 N",
		"longitude": "97-39-44.19 W",
		"state": "TEXAS",
		"artcc": "ZFW",
		"type": "RP",
		"updated": "JEN*VORTAC*039.32/15.40",
	},
	{
		"name": "FEVOL",
		"latitude": "33-30-4.9 N",
		"longitude": "102-22-27.51 W",
		"state": "TEXAS",
		"artcc": "ZFW",
		"type": "RNAV",
		"updated": "03/26/2013",
	},
	{
		"name": "FEVOM",
		"latitude": "31-51-36.6 N",
		"longitude": "103-28-40.83 W",
		"state": "TEXAS",
		"artcc": "ZFW",
		"type": "RP",
		"updated": "INK*VORTAC*254.89/12.00",
	},
	{
		"name": "FEVPO",
		"latitude": "32-21-40.89 N",
		"longitude": "98-21-19.04 W",
		"state": "TEXAS",
		"artcc": "ZFW",
		"type": "RNAV",
		"updated": "10/17/2005",
	},
	{
		"name": "FEVUP",
		"latitude": "35-43-22.81 N",
		"longitude": "95-17-26.49 W",
		"state": "OKLAHOMA",
		"artcc": "ZFW",
		"type": "RNAV",
		"updated": "06/16/2008",
	},
	{
		"name": "FEWWW",
		"latitude": "34-11-44.05 N",
		"longitude": "93-54-8.25 W",
		"state": "ARKANSAS",
		"artcc": "ZFW",
		"type": "RNAV",
		"updated": "09/13/2016",
	},
	{
		"name": "FEXUR",
		"latitude": "33-57-48.79 N",
		"longitude": "98-28-50.31 W",
		"state": "TEXAS",
		"artcc": "ZFW",
		"type": "MR",
		"updated": "SHP*TACAN*158.00/1.20",
	},
	{
		"name": "FEZTR",
		"latitude": "33-4-58.85 N",
		"longitude": "96-56-12.04 W",
		"state": "TEXAS",
		"artcc": "ZFW",
		"type": "RNAV",
		"updated": "07/08/2014",
	},
	{
		"name": "FFILK",
		"latitude": "32-5-50.58 N",
		"longitude": "102-36-46.17 W",
		"state": "TEXAS",
		"artcc": "ZFW",
		"type": "CN",
		"updated": "03/27/2008",
	},
	{
		"name": "FIATT",
		"latitude": "32-3-5.56 N",
		"longitude": "96-21-3.12 W",
		"state": "TEXAS",
		"artcc": "ZFW",
		"type": "RNAV",
		"updated": "07/08/2014",
	},
	{
		"name": "FIBDI",
		"latitude": "34-18-3.74 N",
		"longitude": "96-41-20.63 W",
		"state": "OKLAHOMA",
		"artcc": "ZFW",
		"type": "RNAV",
		"updated": "09/20/2002",
	},
	{
		"name": "FIBEK",
		"latitude": "34-25-1.35 N",
		"longitude": "99-9-1.86 W",
		"state": "OKLAHOMA",
		"artcc": "ZFW",
		"type": "MW",
		"updated": "05/04/2011",
	},
	{
		"name": "FIBGA",
		"latitude": "32-33-38.63 N",
		"longitude": "103-21-56.01 W",
		"state": "NEW MEXICO",
		"artcc": "ZFW",
		"type": "RNAV",
		"updated": "10/31/2005",
	},
	{
		"name": "FIBKI",
		"latitude": "32-34-17.33 N",
		"longitude": "97-27-20.92 W",
		"state": "TEXAS",
		"artcc": "ZFW",
		"type": "MR",
		"updated": "NFW*TACAN*180.00/12.00",
	},
	{
		"name": "FIBVI",
		"latitude": "31-59-38.82 N",
		"longitude": "98-30-52.22 W",
		"state": "TEXAS",
		"artcc": "ZFW",
		"type": "RNAV",
		"updated": "10/17/2005",
	},
	{
		"name": "FICCU",
		"latitude": "31-35-56.99 N",
		"longitude": "99-3-0.04 W",
		"state": "TEXAS",
		"artcc": "ZFW",
		"type": "RNAV",
		"updated": "06/29/2005",
	},
	{
		"name": "FIDLY",
		"latitude": "35-7-36.72 N",
		"longitude": "97-13-38.85 W",
		"state": "OKLAHOMA",
		"artcc": "ZFW",
		"type": "MR",
		"updated": "TIK*TACAN*151.00/20.00",
	},
	{
		"name": "FIDSU",
		"latitude": "32-59-29.55 N",
		"longitude": "97-24-2.44 W",
		"state": "TEXAS",
		"artcc": "ZFW",
		"type": "RNAV",
		"updated": "12/30/2010",
	},
	{
		"name": "FIDUR",
		"latitude": "34-10-39.76 N",
		"longitude": "98-36-7.72 W",
		"state": "TEXAS",
		"artcc": "ZFW",
		"type": "MR",
		"updated": "SHP*TACAN*329.00/13.00",
	},
	{
		"name": "FIFFY",
		"latitude": "32-46-8.33 N",
		"longitude": "97-37-27.11 W",
		"state": "TEXAS",
		"artcc": "ZFW",
		"type": "RNAV",
		"updated": "07/21/2008",
	},
	{
		"name": "FIGET",
		"latitude": "34-46-56 N",
		"longitude": "97-14-42 W",
		"state": "OKLAHOMA",
		"artcc": "ZFW",
		"type": "RNAV",
		"updated": "05/27/2014",
	},
	{
		"name": "FIGPA",
		"latitude": "35-15-25.84 N",
		"longitude": "96-31-6.69 W",
		"state": "OKLAHOMA",
		"artcc": "ZFW",
		"type": "RNAV",
		"updated": "03/06/2003",
	},
	{
		"name": "FIJEC",
		"latitude": "31-38-24.98 N",
		"longitude": "94-7-8.83 W",
		"state": "TEXAS",
		"artcc": "ZFW",
		"type": "RNAV",
		"updated": "05/16/2010",
	},
	{
		"name": "FIJWE",
		"latitude": "33-1-0.65 N",
		"longitude": "96-26-56.5 W",
		"state": "TEXAS",
		"artcc": "ZFW",
		"type": "WP",
		"updated": "06/11/2002",
	},
	{
		"name": "FIKNA",
		"latitude": "33-39-45.89 N",
		"longitude": "101-42-32.36 W",
		"state": "TEXAS",
		"artcc": "ZFW",
		"type": "RNAV",
		"updated": "07/06/2012",
	},
	{
		"name": "FIKSY",
		"latitude": "33-42-12.69 N",
		"longitude": "96-10-39.79 W",
		"state": "TEXAS",
		"artcc": "ZFW",
		"type": "WP",
		"updated": "11/02/1998",
	},
	{
		"name": "FIKTI",
		"latitude": "32-28-59.07 N",
		"longitude": "96-46-7.74 W",
		"state": "TEXAS",
		"artcc": "ZFW",
		"type": "RNAV",
		"updated": "12/27/2005",
	},
	{
		"name": "FIKUR",
		"latitude": "33-48-39.29 N",
		"longitude": "101-25-39.79 W",
		"state": "TEXAS",
		"artcc": "ZFW",
		"type": "RNAV",
		"updated": "08/26/2009",
	},
	{
		"name": "FILED",
		"latitude": "33-35-35.1 N",
		"longitude": "100-21-51.68 W",
		"state": "TEXAS",
		"artcc": "ZFW",
		"type": "RNAV",
		"updated": "08/06/2015",
	},
	{
		"name": "FILEP",
		"latitude": "31-47-10.07 N",
		"longitude": "99-59-13.8 W",
		"state": "TEXAS",
		"artcc": "ZFW",
		"type": "RNAV",
		"updated": "06/29/2011",
	},
	{
		"name": "FILGO",
		"latitude": "34-49-38 N",
		"longitude": "98-57-36 W",
		"state": "OKLAHOMA",
		"artcc": "ZFW",
		"type": "RNAV",
		"updated": "06/24/2016",
	},
	{
		"name": "FILIS",
		"latitude": "32-31-31.16 N",
		"longitude": "93-40-37.99 W",
		"state": "LOUISIANA",
		"artcc": "ZFW",
		"type": "MR",
		"updated": "BAD*TACAN*335.00/1.40",
	},
	{
		"name": "FILMA",
		"latitude": "31-47-19.31 N",
		"longitude": "95-42-22.45 W",
		"state": "TEXAS",
		"artcc": "ZFW",
		"type": "RP",
		"updated": "FZT*VOR/DME*201.67/19.32",
	},
	{
		"name": "FILOT",
		"latitude": "34-31-3.9 N",
		"longitude": "97-19-36.37 W",
		"state": "OKLAHOMA",
		"artcc": "ZFW",
		"type": "RNAV",
		"updated": "03/29/2010",
	},
	{
		"name": "FIMUG",
		"latitude": "32-22-44.66 N",
		"longitude": "92-44-9.17 W",
		"state": "LOUISIANA",
		"artcc": "ZFW",
		"type": "RNAV",
		"updated": "03/28/2012",
	},
	{
		"name": "FINGR",
		"latitude": "33-15-47.65 N",
		"longitude": "96-20-1.79 W",
		"state": "TEXAS",
		"artcc": "ZFW",
		"type": "RP",
		"updated": "CVE*VOR/DME*046.00/36.40",
	},
	{
		"name": "FINYA",
		"latitude": "35-17-9.95 N",
		"longitude": "97-28-36.37 W",
		"state": "OKLAHOMA",
		"artcc": "ZFW",
		"type": "RNAV",
		"updated": "06/16/2014",
	},
	{
		"name": "FIPAL",
		"latitude": "33-6-50.59 N",
		"longitude": "97-49-47.71 W",
		"state": "TEXAS",
		"artcc": "ZFW",
		"type": "RNAV",
		"updated": "11/24/2009",
	},
	{
		"name": "FIPIT",
		"latitude": "34-13-29.47 N",
		"longitude": "100-17-38.24 W",
		"state": "TEXAS",
		"artcc": "ZFW",
		"type": "RNAV",
		"updated": "03/26/2013",
	},
	{
		"name": "FIPKI",
		"latitude": "33-25-29.25 N",
		"longitude": "102-7-51.68 W",
		"state": "TEXAS",
		"artcc": "ZFW",
		"type": "RP",
		"updated": "LBB*VORTAC*202.02/20.00",
	},
	{
		"name": "FIPRI",
		"latitude": "32-24-15.71 N",
		"longitude": "96-48-51.74 W",
		"state": "TEXAS",
		"artcc": "ZFW",
		"type": "RNAV",
		"updated": "10/20/2005",
	},
	{
		"name": "FIRKU",
		"latitude": "32-31-30.37 N",
		"longitude": "93-40-39.1 W",
		"state": "LOUISIANA",
		"artcc": "ZFW",
		"type": "MR",
		"updated": "EIC*VORTAC*/16.20",
	},
	{
		"name": "FIRMN",
		"latitude": "32-46-17.77 N",
		"longitude": "97-14-28.77 W",
		"state": "TEXAS",
		"artcc": "ZFW",
		"type": "RNAV",
		"updated": "05/09/2005",
	},
	{
		"name": "FISEB",
		"latitude": "32-14-16.29 N",
		"longitude": "97-15-33.17 W",
		"state": "TEXAS",
		"artcc": "ZFW",
		"type": "RNAV",
		"updated": "07/08/2008",
	},
	{
		"name": "FITMO",
		"latitude": "33-41-42.82 N",
		"longitude": "98-29-29.16 W",
		"state": "TEXAS",
		"artcc": "ZFW",
		"type": "RNAV",
		"updated": "02/20/2016",
	},
	{
		"name": "FITSO",
		"latitude": "35-25-16.14 N",
		"longitude": "97-38-9.86 W",
		"state": "OKLAHOMA",
		"artcc": "ZFW",
		"type": "RNAV",
		"updated": "06/12/2014",
	},
	{
		"name": "FITUB",
		"latitude": "32-21-33.9 N",
		"longitude": "95-55-39.01 W",
		"state": "TEXAS",
		"artcc": "ZFW",
		"type": "RNAV",
		"updated": "04/07/2010",
	},
	{
		"name": "FIVIS",
		"latitude": "32-49-35.14 N",
		"longitude": "96-55-13.7 W",
		"state": "TEXAS",
		"artcc": "ZFW",
		"type": "RP",
		"updated": "RRA*LD*131.28/7.32",
	},
	{
		"name": "FIVOP",
		"latitude": "33-49-33.84 N",
		"longitude": "98-21-49.03 W",
		"state": "TEXAS",
		"artcc": "ZFW",
		"type": "MR",
		"updated": "SPS*VORTAC*120.00/15.00",
	},
	{
		"name": "FIXIL",
		"latitude": "32-22-33.09 N",
		"longitude": "97-43-10.29 W",
		"state": "TEXAS",
		"artcc": "ZFW",
		"type": "RNAV",
		"updated": "02/22/2017",
	},
	{
		"name": "FIXOX",
		"latitude": "32-34-0.93 N",
		"longitude": "96-32-1.22 W",
		"state": "TEXAS",
		"artcc": "ZFW",
		"type": "RP",
		"updated": "CQY*VORTAC*138.83/27.89",
	},
	{
		"name": "FLAPP",
		"latitude": "35-32-6.78 N",
		"longitude": "97-45-25.66 W",
		"state": "OKLAHOMA",
		"artcc": "ZFW",
		"type": "RNAV",
		"updated": "05/27/2014",
	},
	{
		"name": "FLATT",
		"latitude": "33-39-1.95 N",
		"longitude": "102-20-51.08 W",
		"state": "TEXAS",
		"artcc": "ZFW",
		"type": "RP",
		"updated": "LBB*VORTAC*250.58/21.95",
	},
	{
		"name": "FLECH",
		"latitude": "34-43-24.26 N",
		"longitude": "98-7-7.96 W",
		"state": "OKLAHOMA",
		"artcc": "ZFW",
		"type": "RP",
		"updated": "SPS*VORTAC*018.00/50.00",
	},
	{
		"name": "FLECK",
		"latitude": "32-22-51.74 N",
		"longitude": "99-31-45.51 W",
		"state": "TEXAS",
		"artcc": "ZFW",
		"type": "RP",
		"updated": "TQA*VOR/DME*049.16",
	},
	{
		"name": "FLESH",
		"latitude": "32-43-30.5 N",
		"longitude": "92-14-1.89 W",
		"state": "LOUISIANA",
		"artcc": "ZFW",
		"type": "RP",
		"updated": "MLU*VORTAC*318.25/16.00",
	},
	{
		"name": "FLIPP",
		"latitude": "32-28-1.86 N",
		"longitude": "96-19-53.65 W",
		"state": "TEXAS",
		"artcc": "ZFW",
		"type": "RP",
		"updated": "CVE*VOR/DME*125.00/38.50",
	},
	{
		"name": "FLOPP",
		"latitude": "33-54-57.88 N",
		"longitude": "98-12-7.22 W",
		"state": "TEXAS",
		"artcc": "ZFW",
		"type": "RP",
		"updated": "SPS*VORTAC*092.20/20.00",
	},
	{
		"name": "FLOWN",
		"latitude": "33-51-3.38 N",
		"longitude": "99-33-35.48 W",
		"state": "TEXAS",
		"artcc": "ZFW",
		"type": "RNAV",
		"updated": "09/12/2016",
	},
	{
		"name": "FLOWT",
		"latitude": "32-54-9.84 N",
		"longitude": "96-55-22.97 W",
		"state": "TEXAS",
		"artcc": "ZFW",
		"type": "RNAV",
		"updated": "12/11/2015",
	},
	{
		"name": "FLOYD",
		"latitude": "33-58-34.19 N",
		"longitude": "101-15-36.06 W",
		"state": "TEXAS",
		"artcc": "ZFW",
		"type": "RP",
		"updated": "LBB*VORTAC*052.39/36.50",
	},
	{
		"name": "FLUZE",
		"latitude": "32-50-24.98 N",
		"longitude": "103-2-0 W",
		"state": "TEXAS",
		"artcc": "ZFW",
		"type": "RP",
		"updated": "HOB*VORTAC*/17.00",
	},
	{
		"name": "FLYPI",
		"latitude": "35-29-46.7 N",
		"longitude": "97-49-29.13 W",
		"state": "OKLAHOMA",
		"artcc": "ZFW",
		"type": "WP",
		"updated": "IRW*VORTAC*301.04/13.41",
	},
	{
		"name": "FOBAK",
		"latitude": "34-11-13.17 N",
		"longitude": "102-38-32.2 W",
		"state": "TEXAS",
		"artcc": "ZFW",
		"type": "RP",
		"updated": "TXO*VORTAC*140.96/20.90",
	},
	{
		"name": "FOBNU",
		"latitude": "32-44-17.08 N",
		"longitude": "96-51-59.94 W",
		"state": "TEXAS",
		"artcc": "ZFW",
		"type": "RNAV",
		"updated": "12/27/2005",
	},
	{
		"name": "FOBUM",
		"latitude": "32-10-44.66 N",
		"longitude": "95-24-21.69 W",
		"state": "TEXAS",
		"artcc": "ZFW",
		"type": "RNAV",
		"updated": "08/17/2015",
	},
	{
		"name": "FODAB",
		"latitude": "35-39-45.87 N",
		"longitude": "98-6-24.05 W",
		"state": "OKLAHOMA",
		"artcc": "ZFW",
		"type": "RNAV",
		"updated": "01/31/2008",
	},
	{
		"name": "FODGA",
		"latitude": "31-52-23.37 N",
		"longitude": "102-17-19.92 W",
		"state": "TEXAS",
		"artcc": "ZFW",
		"type": "RNAV",
		"updated": "05/16/2010",
	},
	{
		"name": "FOILE",
		"latitude": "35-11-10.05 N",
		"longitude": "97-22-55.49 W",
		"state": "OKLAHOMA",
		"artcc": "ZFW",
		"type": "RP",
		"updated": "TIK*TACAN*/15.00",
	},
	{
		"name": "FOLON",
		"latitude": "32-15-1.44 N",
		"longitude": "98-12-8.32 W",
		"state": "TEXAS",
		"artcc": "ZFW",
		"type": "RNAV",
		"updated": "08/22/2005",
	},
	{
		"name": "FOLPA",
		"latitude": "34-29-57.33 N",
		"longitude": "99-10-13.66 W",
		"state": "OKLAHOMA",
		"artcc": "ZFW",
		"type": "MR",
		"updated": "LTS*VORTAC*148.00/11.00",
	},
	{
		"name": "FOMOK",
		"latitude": "35-2-2.1 N",
		"longitude": "99-3-15.15 W",
		"state": "OKLAHOMA",
		"artcc": "ZFW",
		"type": "RNAV",
		"updated": "02/14/2010",
	},
	{
		"name": "FONAX",
		"latitude": "31-57-50.18 N",
		"longitude": "102-9-8.43 W",
		"state": "TEXAS",
		"artcc": "ZFW",
		"type": "RNAV",
		"updated": "07/27/2012",
	},
	{
		"name": "FONVO",
		"latitude": "34-58-24.83 N",
		"longitude": "97-13-56.71 W",
		"state": "OKLAHOMA",
		"artcc": "ZFW",
		"type": "MW",
		"updated": "05/30/2008",
	},
	{
		"name": "FOORS",
		"latitude": "33-34-48.38 N",
		"longitude": "96-12-29.04 W",
		"state": "TEXAS",
		"artcc": "ZFW",
		"type": "RNAV",
		"updated": "07/08/2014",
	},
	{
		"name": "FOOTI",
		"latitude": "34-15-38.42 N",
		"longitude": "102-41-22.24 W",
		"state": "TEXAS",
		"artcc": "ZFW",
		"type": "RP",
		"updated": "TXO*VORTAC*140.99/15.90",
	},
	{
		"name": "FORBE",
		"latitude": "32-22-19.37 N",
		"longitude": "93-45-41.34 W",
		"state": "LOUISIANA",
		"artcc": "ZFW",
		"type": "RP",
		"updated": "EMG*VORTAC*251.68",
	},
	{
		"name": "FORCK",
		"latitude": "32-59-47.52 N",
		"longitude": "94-16-11.34 W",
		"state": "TEXAS",
		"artcc": "ZFW",
		"type": "RNAV",
		"updated": "07/08/2014",
	},
	{
		"name": "FORNY",
		"latitude": "32-26-13.1 N",
		"longitude": "96-43-35.89 W",
		"state": "TEXAS",
		"artcc": "ZFW",
		"type": "RNAV",
		"updated": "05/07/2015",
	},
	{
		"name": "FOROB",
		"latitude": "32-20-36.84 N",
		"longitude": "99-50-12.04 W",
		"state": "TEXAS",
		"artcc": "ZFW",
		"type": "MR",
		"updated": "03/01/2018",
	},
	{
		"name": "FORUD",
		"latitude": "31-29-0.91 N",
		"longitude": "95-46-47.69 W",
		"state": "TEXAS",
		"artcc": "ZFW",
		"type": "RNAV",
		"updated": "11/23/2004",
	},
	{
		"name": "FOSMA",
		"latitude": "33-4-41.86 N",
		"longitude": "95-4-58 W",
		"state": "TEXAS",
		"artcc": "ZFW",
		"type": "RNAV",
		"updated": "04/12/2005",
	},
	{
		"name": "FOSSI",
		"latitude": "35-27-2.38 N",
		"longitude": "99-12-4.63 W",
		"state": "OKLAHOMA",
		"artcc": "ZFW",
		"type": "RP",
		"updated": "BFV*VORTAC*/12.81",
	},
	{
		"name": "FOSSL",
		"latitude": "32-14-19.27 N",
		"longitude": "97-52-59.37 W",
		"state": "TEXAS",
		"artcc": "ZFW",
		"type": "RNAV",
		"updated": "07/13/2014",
	},
	{
		"name": "FOURE",
		"latitude": "31-56-55.93 N",
		"longitude": "94-30-19.05 W",
		"state": "TEXAS",
		"artcc": "ZFW",
		"type": "RNAV",
		"updated": "09/12/2016",
	},
	{
		"name": "FOXAB",
		"latitude": "32-30-5.6 N",
		"longitude": "99-52-2.46 W",
		"state": "TEXAS",
		"artcc": "ZFW",
		"type": "MR",
		"updated": "DYS*TACAN*349.00/5.00",
	},
	{
		"name": "FOXEB",
		"latitude": "33-0-22.73 N",
		"longitude": "97-29-32.43 W",
		"state": "TEXAS",
		"artcc": "ZFW",
		"type": "RNAV",
		"updated": "03/19/2009",
	},
	{
		"name": "FOYER",
		"latitude": "34-33-16.78 N",
		"longitude": "98-13-42.66 W",
		"state": "OKLAHOMA",
		"artcc": "ZFW",
		"type": "RP",
		"updated": "SPS*VORTAC*018.00/38.53",
	},
	{
		"name": "FRDDM",
		"latitude": "32-55-35.27 N",
		"longitude": "96-57-2.44 W",
		"state": "TEXAS",
		"artcc": "ZFW",
		"type": "RNAV",
		"updated": "07/13/2014",
	},
	{
		"name": "FREAD",
		"latitude": "34-49-5.52 N",
		"longitude": "98-13-35.66 W",
		"state": "OKLAHOMA",
		"artcc": "ZFW",
		"type": "RNAV",
		"updated": "09/13/2016",
	},
	{
		"name": "FRIER",
		"latitude": "33-34-7.53 N",
		"longitude": "101-49-41.71 W",
		"state": "TEXAS",
		"artcc": "ZFW",
		"type": "RP",
		"updated": "LBB*LD*173.67/4.68",
	},
	{
		"name": "FRITS",
		"latitude": "33-26-55.41 N",
		"longitude": "101-49-39.02 W",
		"state": "TEXAS",
		"artcc": "ZFW",
		"type": "RP",
		"updated": "LBB*LD*S CRS/11.87",
	},
	{
		"name": "FRIZZ",
		"latitude": "32-38-38.94 N",
		"longitude": "97-0-40.3 W",
		"state": "TEXAS",
		"artcc": "ZFW",
		"type": "RP",
		"updated": "AJQ*LD*176.27/13.64",
	},
	{
		"name": "FRMEN",
		"latitude": "33-31-27.47 N",
		"longitude": "95-46-54.98 W",
		"state": "TEXAS",
		"artcc": "ZFW",
		"type": "RNAV",
		"updated": "07/13/2014",
	},
	{
		"name": "FRSCO",
		"latitude": "33-4-39.98 N",
		"longitude": "96-52-10.11 W",
		"state": "TEXAS",
		"artcc": "ZFW",
		"type": "RNAV",
		"updated": "09/05/2014",
	},
	{
		"name": "FRSTI",
		"latitude": "32-1-19.65 N",
		"longitude": "97-40-33.4 W",
		"state": "TEXAS",
		"artcc": "ZFW",
		"type": "RNAV",
		"updated": "09/12/2016",
	},
	{
		"name": "FRUTI",
		"latitude": "32-41-46.15 N",
		"longitude": "95-48-0.66 W",
		"state": "TEXAS",
		"artcc": "ZFW",
		"type": "RP",
		"updated": "TYR*VOR/DME*309.45/28.64",
	},
	{
		"name": "FSHEN",
		"latitude": "33-49-47.54 N",
		"longitude": "96-5-44 W",
		"state": "TEXAS",
		"artcc": "ZFW",
		"type": "RNAV",
		"updated": "07/13/2014",
	},
	{
		"name": "FTRAP",
		"latitude": "32-6-31.47 N",
		"longitude": "97-47-24.66 W",
		"state": "TEXAS",
		"artcc": "ZFW",
		"type": "RNAV",
		"updated": "07/09/2009",
	},
	{
		"name": "FUEWL",
		"latitude": "32-35-38.43 N",
		"longitude": "97-9-38.88 W",
		"state": "TEXAS",
		"artcc": "ZFW",
		"type": "RNAV",
		"updated": "05/07/2015",
	},
	{
		"name": "FUJET",
		"latitude": "32-35-0.22 N",
		"longitude": "96-45-14.74 W",
		"state": "TEXAS",
		"artcc": "ZFW",
		"type": "RADAR",
		"updated": "RBD*LS*129.08",
	},
	{
		"name": "FUMED",
		"latitude": "32-40-59.54 N",
		"longitude": "98-13-32.78 W",
		"state": "TEXAS",
		"artcc": "ZFW",
		"type": "RNAV",
		"updated": "05/07/2015",
	},
	{
		"name": "FUNGO",
		"latitude": "33-16-20.67 N",
		"longitude": "97-27-58.78 W",
		"state": "TEXAS",
		"artcc": "ZFW",
		"type": "RNAV",
		"updated": "10/22/2015",
	},
	{
		"name": "FUNKY",
		"latitude": "33-4-44.85 N",
		"longitude": "96-45-29.85 W",
		"state": "TEXAS",
		"artcc": "ZFW",
		"type": "RP",
		"updated": "TTT*VOR/DME*042.49/19.00",
	},
	{
		"name": "FUNNL",
		"latitude": "35-24-12.93 N",
		"longitude": "96-50-19.59 W",
		"state": "OKLAHOMA",
		"artcc": "ZFW",
		"type": "RNAV",
		"updated": "05/27/2014",
	},
	{
		"name": "FUSCO",
		"latitude": "31-10-36.94 N",
		"longitude": "101-19-45 W",
		"state": "TEXAS",
		"artcc": "ZFW",
		"type": "RP",
		"updated": "BGS*VORTAC*162.73",
	},
