	{
		"name": "GAATZ",
		"latitude": "33-54-13.61 N",
		"longitude": "95-51-18.39 W",
		"state": "OKLAHOMA",
		"artcc": "ZFW",
		"type": "RP",
		"updated": "PRX*VOR/DME*309.87",
	},
	{
		"name": "GACEB",
		"latitude": "33-3-47.35 N",
		"longitude": "98-45-3.49 W",
		"state": "TEXAS",
		"artcc": "ZFW",
		"type": "RP",
		"updated": "UKW*VORTAC*233.06/54.66",
	},
	{
		"name": "GACHO",
		"latitude": "32-42-58.57 N",
		"longitude": "96-47-30.13 W",
		"state": "TEXAS",
		"artcc": "ZFW",
		"type": "RP",
		"updated": "RRA*LD*131.28/16.59",
	},
	{
		"name": "GADTE",
		"latitude": "32-15-55.05 N",
		"longitude": "96-49-47.33 W",
		"state": "TEXAS",
		"artcc": "ZFW",
		"type": "RNAV",
		"updated": "07/10/2009",
	},
	{
		"name": "GAINS",
		"latitude": "31-57-7.2 N",
		"longitude": "97-37-20.46 W",
		"state": "TEXAS",
		"artcc": "ZFW",
		"type": "RP",
		"updated": "JEN*VORTAC*127.60/18.00",
	},
	{
		"name": "GALIO",
		"latitude": "32-42-48.78 N",
		"longitude": "91-49-58.52 W",
		"state": "LOUISIANA",
		"artcc": "ZFW",
		"type": "RP",
		"updated": "MLU*VORTAC*038.10/15.64",
	},
	{
		"name": "GALOP",
		"latitude": "32-35-35.27 N",
		"longitude": "97-0-41.32 W",
		"state": "TEXAS",
		"artcc": "ZFW",
		"type": "RP",
		"updated": "AJQ*LD*176.27/16.69",
	},
	{
		"name": "GAMMS",
		"latitude": "32-36-43.04 N",
		"longitude": "92-40-38.41 W",
		"state": "LOUISIANA",
		"artcc": "ZFW",
		"type": "RP",
		"updated": "ELD*VOR/DME*168.00",
	},
	{
		"name": "GAMRE",
		"latitude": "35-26-22.79 N",
		"longitude": "95-16-11.15 W",
		"state": "OKLAHOMA",
		"artcc": "ZFW",
		"type": "RNAV",
		"updated": "07/11/2008",
	},
	{
		"name": "GANJA",
		"latitude": "34-12-15.08 N",
		"longitude": "100-15-16.3 W",
		"state": "TEXAS",
		"artcc": "ZFW",
		"type": "RP",
		"updated": "GTH*VORTAC*359.05",
	},
	{
		"name": "GAREE",
		"latitude": "32-37-39.59 N",
		"longitude": "96-35-38.01 W",
		"state": "TEXAS",
		"artcc": "ZFW",
		"type": "RNAV",
		"updated": "07/08/2014",
	},
	{
		"name": "GARZA",
		"latitude": "33-8-45.59 N",
		"longitude": "97-1-43.11 W",
		"state": "TEXAS",
		"artcc": "ZFW",
		"type": "RP",
		"updated": "JHZ*LD*356.26/16.17",
	},
	{
		"name": "GASSR",
		"latitude": "32-24-41.67 N",
		"longitude": "93-54-13.62 W",
		"state": "LOUISIANA",
		"artcc": "ZFW",
		"type": "RNAV",
		"updated": "12/17/2015",
	},
	{
		"name": "GATER",
		"latitude": "34-11-28.6 N",
		"longitude": "99-27-45.41 W",
		"state": "TEXAS",
		"artcc": "ZFW",
		"type": "MR",
		"updated": "SPS*VORTAC*276.00/45.00",
	},
	{
		"name": "GATIS",
		"latitude": "32-31-39.49 N",
		"longitude": "97-27-33.92 W",
		"state": "TEXAS",
		"artcc": "ZFW",
		"type": "MR",
		"updated": "JEN*VORTAC*037.86/30.60",
	},
	{
		"name": "GAVVN",
		"latitude": "32-41-45.49 N",
		"longitude": "95-7-19.48 W",
		"state": "TEXAS",
		"artcc": "ZFW",
		"type": "RNAV",
		"updated": "03/07/2011",
	},
	{
		"name": "GAWDO",
		"latitude": "32-42-37.99 N",
		"longitude": "94-24-17.98 W",
		"state": "TEXAS",
		"artcc": "ZFW",
		"type": "RNAV",
		"updated": "12/19/2011",
	},
	{
		"name": "GBEAR",
		"latitude": "32-34-6.37 N",
		"longitude": "96-28-17.34 W",
		"state": "TEXAS",
		"artcc": "ZFW",
		"type": "RNAV",
		"updated": "07/08/2014",
	},
	{
		"name": "GBUSH",
		"latitude": "32-59-18.72 N",
		"longitude": "97-0-33.38 W",
		"state": "TEXAS",
		"artcc": "ZFW",
		"type": "RP",
		"updated": "FUZ*VORTAC*049.33",
	},
	{
		"name": "GEBCE",
		"latitude": "33-1-15.07 N",
		"longitude": "95-9-17.03 W",
		"state": "TEXAS",
		"artcc": "ZFW",
		"type": "RNAV",
		"updated": "04/12/2005",
	},
	{
		"name": "GECKE",
		"latitude": "32-28-42.37 N",
		"longitude": "102-59-32 W",
		"state": "TEXAS",
		"artcc": "ZFW",
		"type": "RP",
		"updated": "HOB*VORTAC*113.18/17.00",
	},
	{
		"name": "GEEKY",
		"latitude": "32-16-46.32 N",
		"longitude": "99-53-1.09 W",
		"state": "TEXAS",
		"artcc": "ZFW",
		"type": "RNAV",
		"updated": "09/12/2016",
	},
	{
		"name": "GEEMC",
		"latitude": "31-56-10.07 N",
		"longitude": "96-25-47.36 W",
		"state": "TEXAS",
		"artcc": "ZFW",
		"type": "RNAV",
		"updated": "07/13/2014",
	},
	{
		"name": "GEENI",
		"latitude": "32-12-19.72 N",
		"longitude": "98-57-11.05 W",
		"state": "TEXAS",
		"artcc": "ZFW",
		"type": "RP",
		"updated": "JEN*VORTAC*267.16/54.83",
	},
	{
		"name": "GEGPE",
		"latitude": "32-19-56.57 N",
		"longitude": "98-15-46.92 W",
		"state": "TEXAS",
		"artcc": "ZFW",
		"type": "RNAV",
		"updated": "10/17/2005",
	},
	{
		"name": "GEGRE",
		"latitude": "32-40-51.31 N",
		"longitude": "97-2-0.73 W",
		"state": "TEXAS",
		"artcc": "ZFW",
		"type": "RP",
		"updated": "PKQ*LD*S CRS/11.69",
	},
	{
		"name": "GENLY",
		"latitude": "31-32-12.17 N",
		"longitude": "102-50-14.13 W",
		"state": "TEXAS",
		"artcc": "ZFW",
		"type": "RNAV",
		"updated": "12/15/2011",
	},
	{
		"name": "GENOA",
		"latitude": "33-20-0 N",
		"longitude": "94-0-0 W",
		"state": "ARKANSAS",
		"artcc": "ZFW",
		"type": "RNAV",
		"updated": "03/31/2008",
	},
	{
		"name": "GEREC",
		"latitude": "32-1-29.02 N",
		"longitude": "99-59-6.77 W",
		"state": "TEXAS",
		"artcc": "ZFW",
		"type": "RNAV",
		"updated": "06/30/2011",
	},
	{
		"name": "GESKE",
		"latitude": "32-53-10.17 N",
		"longitude": "96-6-15.14 W",
		"state": "TEXAS",
		"artcc": "ZFW",
		"type": "MR",
		"updated": "MJF*TACAN*186.34/11.00",
	},
	{
		"name": "GEVME",
		"latitude": "32-37-24.04 N",
		"longitude": "96-35-11.75 W",
		"state": "TEXAS",
		"artcc": "ZFW",
		"type": "RNAV",
		"updated": "02/12/2001",
	},
	{
		"name": "GEVNE",
		"latitude": "35-14-36.69 N",
		"longitude": "97-46-26.9 W",
		"state": "OKLAHOMA",
		"artcc": "ZFW",
		"type": "RNAV",
		"updated": "05/27/2014",
	},
	{
		"name": "GEYEG",
		"latitude": "33-56-1.53 N",
		"longitude": "96-39-53.4 W",
		"state": "OKLAHOMA",
		"artcc": "ZFW",
		"type": "RNAV",
		"updated": "04/06/2012",
	},
	{
		"name": "GEYEP",
		"latitude": "31-57-54.89 N",
		"longitude": "98-25-21.26 W",
		"state": "TEXAS",
		"artcc": "ZFW",
		"type": "RNAV",
		"updated": "10/17/2005",
	},
	{
		"name": "GGOLD",
		"latitude": "34-56-36.65 N",
		"longitude": "97-49-23.2 W",
		"state": "OKLAHOMA",
		"artcc": "ZFW",
		"type": "RNAV",
		"updated": "05/27/2014",
	},
	{
		"name": "GHAUT",
		"latitude": "33-52-22.73 N",
		"longitude": "97-53-46.78 W",
		"state": "OKLAHOMA",
		"artcc": "ZFW",
		"type": "RNAV",
		"updated": "07/09/2014",
	},
	{
		"name": "GHOST",
		"latitude": "35-15-21.09 N",
		"longitude": "98-12-49.73 W",
		"state": "OKLAHOMA",
		"artcc": "ZFW",
		"type": "RNAV",
		"updated": "05/27/2014",
	},
	{
		"name": "GIBAR",
		"latitude": "32-5-36.14 N",
		"longitude": "102-18-44.51 W",
		"state": "TEXAS",
		"artcc": "ZFW",
		"type": "MR",
		"updated": "MAF*VORTAC*298.00/8.00",
	},
	{
		"name": "GIBBI",
		"latitude": "33-9-31.16 N",
		"longitude": "97-10-19.05 W",
		"state": "TEXAS",
		"artcc": "ZFW",
		"type": "RP",
		"updated": "CVE*VOR/DME*314.00/21.00",
	},
	{
		"name": "GIBLT",
		"latitude": "32-21-20.45 N",
		"longitude": "98-18-27.19 W",
		"state": "TEXAS",
		"artcc": "ZFW",
		"type": "RNAV",
		"updated": "09/12/2016",
	},
	{
		"name": "GIDER",
		"latitude": "32-24-40.67 N",
		"longitude": "94-14-0.83 W",
		"state": "TEXAS",
		"artcc": "ZFW",
		"type": "RP",
		"updated": "EIC*VORTAC*218.00/30.43",
	},
	{
		"name": "GIGEM",
		"latitude": "32-41-27.7 N",
		"longitude": "97-8-14.4 W",
		"state": "TEXAS",
		"artcc": "ZFW",
		"type": "RNAV",
		"updated": "08/22/2005",
	},
	{
		"name": "GIGGS",
		"latitude": "32-21-26.65 N",
		"longitude": "94-1-5.4 W",
		"state": "LOUISIANA",
		"artcc": "ZFW",
		"type": "RP",
		"updated": "MWP*LE*238.90/12.01",
	},
	{
		"name": "GIGVE",
		"latitude": "33-31-5.22 N",
		"longitude": "94-14-17.72 W",
		"state": "TEXAS",
		"artcc": "ZFW",
		"type": "RP",
		"updated": "TXK*VORTAC*264.80/8.28",
	},
	{
		"name": "GIHYO",
		"latitude": "32-41-4.07 N",
		"longitude": "99-15-58.79 W",
		"state": "TEXAS",
		"artcc": "ZFW",
		"type": "RNAV",
		"updated": "02/01/2010",
	},
	{
		"name": "GIMLE",
		"latitude": "33-59-15 N",
		"longitude": "98-35-36.5 W",
		"state": "TEXAS",
		"artcc": "ZFW",
		"type": "RNAV",
		"updated": "05/27/2014",
	},
	{
		"name": "GIREW",
		"latitude": "32-43-6.25 N",
		"longitude": "99-38-19.65 W",
		"state": "TEXAS",
		"artcc": "ZFW",
		"type": "RNAV",
		"updated": "12/02/2009",
	},
	{
		"name": "GIRRO",
		"latitude": "33-13-18.09 N",
		"longitude": "93-13-1.93 W",
		"state": "ARKANSAS",
		"artcc": "ZFW",
		"type": "WP",
		"updated": "12/28/1995",
	},
	{
		"name": "GIYET",
		"latitude": "32-47-40.66 N",
		"longitude": "96-47-52.05 W",
		"state": "TEXAS",
		"artcc": "ZFW",
		"type": "RNAV",
		"updated": "06/13/2008",
	},
	{
		"name": "GLARY",
		"latitude": "34-11-18.5 N",
		"longitude": "96-41-30.37 W",
		"state": "OKLAHOMA",
		"artcc": "ZFW",
		"type": "RNAV",
		"updated": "08/18/2011",
	},
	{
		"name": "GLINT",
		"latitude": "32-11-27.63 N",
		"longitude": "98-3-37.93 W",
		"state": "TEXAS",
		"artcc": "ZFW",
		"type": "RP",
		"updated": "JEN*VORTAC*275.47/9.50",
	},
	{
		"name": "GLOKK",
		"latitude": "33-33-50.21 N",
		"longitude": "98-11-58.22 W",
		"state": "TEXAS",
		"artcc": "ZFW",
		"type": "RNAV",
		"updated": "09/12/2016",
	},
	{
		"name": "GLOPS",
		"latitude": "35-0-34.08 N",
		"longitude": "97-33-32.96 W",
		"state": "OKLAHOMA",
		"artcc": "ZFW",
		"type": "RNAV",
		"updated": "05/27/2014",
	},
	{
		"name": "GLOVE",
		"latitude": "33-52-18.83 N",
		"longitude": "95-6-15.02 W",
		"state": "TEXAS",
		"artcc": "ZFW",
		"type": "RP",
		"updated": "TXK*VORTAC*285.85/55.89",
	},
	{
		"name": "GOBBI",
		"latitude": "34-57-59.92 N",
		"longitude": "95-44-43.66 W",
		"state": "OKLAHOMA",
		"artcc": "ZFW",
		"type": "RNAV",
		"updated": "05/31/2006",
	},
	{
		"name": "GOCEP",
		"latitude": "31-39-46.67 N",
		"longitude": "95-45-4.9 W",
		"state": "TEXAS",
		"artcc": "ZFW",
		"type": "RNAV",
		"updated": "11/23/2004",
	},
	{
		"name": "GOCTE",
		"latitude": "32-28-30.9 N",
		"longitude": "93-40-52.56 W",
		"state": "LOUISIANA",
		"artcc": "ZFW",
		"type": "RNAV",
		"updated": "12/17/2015",
	},
	{
		"name": "GODHO",
		"latitude": "32-23-17.22 N",
		"longitude": "94-56-48.94 W",
		"state": "TEXAS",
		"artcc": "ZFW",
		"type": "RP",
		"updated": "GGG*VORTAC*252.83/10.00",
	},
	{
		"name": "GODNE",
		"latitude": "33-41-58.71 N",
		"longitude": "97-11-54.87 W",
		"state": "TEXAS",
		"artcc": "ZFW",
		"type": "RNAV",
		"updated": "11/02/2016",
	},
	{
		"name": "GOFDO",
		"latitude": "32-29-20.46 N",
		"longitude": "99-40-30.64 W",
		"state": "TEXAS",
		"artcc": "ZFW",
		"type": "RNAV",
		"updated": "02/10/2010",
	},
	{
		"name": "GOKEC",
		"latitude": "32-34-29.16 N",
		"longitude": "95-3-20.15 W",
		"state": "TEXAS",
		"artcc": "ZFW",
		"type": "RP",
		"updated": "GGG*VORTAC*294.58/18.00",
	},
	{
		"name": "GOKNE",
		"latitude": "32-32-5.85 N",
		"longitude": "97-30-54.01 W",
		"state": "TEXAS",
		"artcc": "ZFW",
		"type": "RNAV",
		"updated": "12/28/2007",
	},
	{
		"name": "GOLGY",
		"latitude": "35-5-28.2 N",
		"longitude": "97-23-52.69 W",
		"state": "OKLAHOMA",
		"artcc": "ZFW",
		"type": "RNAV",
		"updated": "09/23/2002",
	},
	{
		"name": "GOMIT",
		"latitude": "32-5-45.98 N",
		"longitude": "102-39-21.55 W",
		"state": "TEXAS",
		"artcc": "ZFW",
		"type": "RP",
		"updated": "INK*VORTAC*055.01/32.79",
	},
	{
		"name": "GONTE",
		"latitude": "34-19-18.76 N",
		"longitude": "98-12-55.69 W",
		"state": "OKLAHOMA",
		"artcc": "ZFW",
		"type": "MW",
		"updated": "02/26/2010",
	},
	{
		"name": "GOOPY",
		"latitude": "33-37-4.98 N",
		"longitude": "97-12-1.77 W",
		"state": "TEXAS",
		"artcc": "ZFW",
		"type": "RNAV",
		"updated": "11/01/2016",
	},
	{
		"name": "GORDE",
		"latitude": "32-32-2.48 N",
		"longitude": "94-53-40.63 W",
		"state": "TEXAS",
		"artcc": "ZFW",
		"type": "RP",
		"updated": "GGG*VORTAC*/10.00",
	},
	{
		"name": "GORES",
		"latitude": "35-27-54.25 N",
		"longitude": "95-3-39.14 W",
		"state": "OKLAHOMA",
		"artcc": "ZFW",
		"type": "RP",
		"updated": "FSM*VORTAC*270.00/38.98",
	},
	{
		"name": "GOVEC",
		"latitude": "32-20-58.69 N",
		"longitude": "95-23-42.07 W",
		"state": "TEXAS",
		"artcc": "ZFW",
		"type": "RP",
		"updated": "TYR*VOR/DME*124.99/0.57",
	},
	{
		"name": "GOVTY",
		"latitude": "33-44-31.06 N",
		"longitude": "102-27-16.77 W",
		"state": "TEXAS",
		"artcc": "ZFW",
		"type": "RNAV",
		"updated": "05/21/2013",
	},
	{
		"name": "GOWON",
		"latitude": "33-19-4.1 N",
		"longitude": "93-12-49.19 W",
		"state": "ARKANSAS",
		"artcc": "ZFW",
		"type": "WP",
		"updated": "12/28/1995",
	},
	{
		"name": "GRABE",
		"latitude": "33-27-5.25 N",
		"longitude": "96-57-41.5 W",
		"state": "TEXAS",
		"artcc": "ZFW",
		"type": "RP",
		"updated": "FUZ*VORTAC*012.00/35.40",
	},
	{
		"name": "GRAZN",
		"latitude": "34-15-0 N",
		"longitude": "94-21-29 W",
		"state": "ARKANSAS",
		"artcc": "ZFW",
		"type": "RNAV",
		"updated": "02/17/2006",
	},
	{
		"name": "GRCIA",
		"latitude": "32-22-31.36 N",
		"longitude": "97-48-50.97 W",
		"state": "TEXAS",
		"artcc": "ZFW",
		"type": "RNAV",
		"updated": "07/01/2015",
	},
	{
		"name": "GREGS",
		"latitude": "33-27-2.19 N",
		"longitude": "97-27-57.8 W",
		"state": "TEXAS",
		"artcc": "ZFW",
		"type": "RP",
		"updated": "CVE*VOR/DME*314.00/43.90",
	},
	{
		"name": "GREKE",
		"latitude": "33-19-36.44 N",
		"longitude": "97-55-7.07 W",
		"state": "TEXAS",
		"artcc": "ZFW",
		"type": "RNAV",
		"updated": "07/13/2014",
	},
	{
		"name": "GROFF",
		"latitude": "32-10-23.36 N",
		"longitude": "99-1-33.51 W",
		"state": "TEXAS",
		"artcc": "ZFW",
		"type": "RNAV",
		"updated": "12/19/2017",
	},
	{
		"name": "GRUCH",
		"latitude": "33-11-55.24 N",
		"longitude": "97-2-57.36 W",
		"state": "TEXAS",
		"artcc": "ZFW",
		"type": "RP",
		"updated": "CIX*LD*356.25/16.74",
	},
	{
		"name": "GRUPE",
		"latitude": "31-41-31.94 N",
		"longitude": "98-57-9.64 W",
		"state": "TEXAS",
		"artcc": "ZFW",
		"type": "RP",
		"updated": "BWD*VOR/DME*170.83/12.00",
	},
	{
		"name": "GRUVN",
		"latitude": "35-22-30 N",
		"longitude": "98-24-52 W",
		"state": "OKLAHOMA",
		"artcc": "ZFW",
		"type": "RNAV",
		"updated": "05/27/2014",
	},
	{
		"name": "GUCES",
		"latitude": "32-40-19.16 N",
		"longitude": "91-51-5.02 W",
		"state": "LOUISIANA",
		"artcc": "ZFW",
		"type": "RNAV",
		"updated": "07/16/2008",
	},
	{
		"name": "GUDEC",
		"latitude": "33-27-20.19 N",
		"longitude": "94-11-38.98 W",
		"state": "TEXAS",
		"artcc": "ZFW",
		"type": "RP",
		"updated": "TXK*VORTAC*233.13/7.00",
	},
	{
		"name": "GUFCO",
		"latitude": "34-4-21.87 N",
		"longitude": "98-32-25.6 W",
		"state": "TEXAS",
		"artcc": "ZFW",
		"type": "MR",
		"updated": "SHP*TACAN*329.00/6.00",
	},
	{
		"name": "GUKSE",
		"latitude": "32-52-34.43 N",
		"longitude": "96-58-43.83 W",
		"state": "TEXAS",
		"artcc": "ZFW",
		"type": "RP",
		"updated": "RRA*LD*131.28/3.12",
	},
	{
		"name": "GULRE",
		"latitude": "34-22-46.39 N",
		"longitude": "98-24-15.22 W",
		"state": "OKLAHOMA",
		"artcc": "ZFW",
		"type": "RP",
		"updated": "LAW*VOR/DME*167.39/7.00",
	},
	{
		"name": "GUNFE",
		"latitude": "32-31-9.7 N",
		"longitude": "97-55-7.73 W",
		"state": "TEXAS",
		"artcc": "ZFW",
		"type": "RNAV",
		"updated": "10/03/2016",
	},
	{
		"name": "GUTEC",
		"latitude": "34-47-38 N",
		"longitude": "98-31-42 W",
		"state": "OKLAHOMA",
		"artcc": "ZFW",
		"type": "RNAV",
		"updated": "08/12/2005",
	},
	{
		"name": "GUTWO",
		"latitude": "33-56-33.74 N",
		"longitude": "100-18-5.07 W",
		"state": "TEXAS",
		"artcc": "ZFW",
		"type": "CN",
		"updated": "02/06/2012",
	},
	{
		"name": "GUTZZ",
		"latitude": "31-24-44.83 N",
		"longitude": "98-8-20.43 W",
		"state": "TEXAS",
		"artcc": "ZFW",
		"type": "RNAV",
		"updated": "04/02/2016",
	},
	{
		"name": "GUUCH",
		"latitude": "33-19-40.01 N",
		"longitude": "97-11-29.93 W",
		"state": "TEXAS",
		"artcc": "ZFW",
		"type": "RNAV",
		"updated": "05/07/2015",
	},
	{
		"name": "GUUDE",
		"latitude": "32-58-17.56 N",
		"longitude": "97-8-49.22 W",
		"state": "TEXAS",
		"artcc": "ZFW",
		"type": "RP",
		"updated": "LWN*LD*NW CRS/6.60",
	},
	{
		"name": "GUVEC",
		"latitude": "35-45-12.59 N",
		"longitude": "98-46-19.73 W",
		"state": "OKLAHOMA",
		"artcc": "ZFW",
		"type": "RNAV",
		"updated": "06/15/2011",
	},
	{
		"name": "GUYSE",
		"latitude": "32-58-22.76 N",
		"longitude": "96-4-0.32 W",
		"state": "TEXAS",
		"artcc": "ZFW",
		"type": "RNAV",
		"updated": "07/17/2008",
	},
	{
		"name": "GVINE",
		"latitude": "33-0-43.5 N",
		"longitude": "97-4-53.56 W",
		"state": "TEXAS",
		"artcc": "ZFW",
		"type": "RNAV",
		"updated": "07/27/2004",
	},
	{
		"name": "GYROE",
		"latitude": "34-22-49.02 N",
		"longitude": "97-57-30.69 W",
		"state": "OKLAHOMA",
		"artcc": "ZFW",
		"type": "RNAV",
		"updated": "12/07/2017",
	},
	{
		"name": "GZNTA",
		"latitude": "34-5-8 N",
		"longitude": "98-6-54.34 W",
		"state": "OKLAHOMA",
		"artcc": "ZFW",
		"type": "RNAV",
		"updated": "05/11/2015",
	},
