	{
		"name": "HABEK",
		"latitude": "34-6-3.23 N",
		"longitude": "98-12-58.68 W",
		"state": "TEXAS",
		"artcc": "ZFW",
		"type": "MR",
		"updated": "SPS*VORTAC*060.00/20.00",
	},
	{
		"name": "HABUN",
		"latitude": "34-6-8.38 N",
		"longitude": "98-22-22.05 W",
		"state": "TEXAS",
		"artcc": "ZFW",
		"type": "MW",
		"updated": "02/26/2010",
	},
	{
		"name": "HADMA",
		"latitude": "35-19-36.32 N",
		"longitude": "98-20-26.31 W",
		"state": "OKLAHOMA",
		"artcc": "ZFW",
		"type": "RNAV",
		"updated": "03/27/2008",
	},
	{
		"name": "HAFLU",
		"latitude": "32-49-40.46 N",
		"longitude": "95-29-33.05 W",
		"state": "TEXAS",
		"artcc": "ZFW",
		"type": "RP",
		"updated": "UIM*VOR/DME*235.72/7.09",
	},
	{
		"name": "HAGRE",
		"latitude": "32-48-5.13 N",
		"longitude": "95-26-23.26 W",
		"state": "TEXAS",
		"artcc": "ZFW",
		"type": "RP",
		"updated": "UIM*VOR/DME*210.00/6.00",
	},
	{
		"name": "HAKAR",
		"latitude": "35-1-48.25 N",
		"longitude": "97-19-43.15 W",
		"state": "OKLAHOMA",
		"artcc": "ZFW",
		"type": "RNAV",
		"updated": "09/23/2002",
	},
	{
		"name": "HAKIN",
		"latitude": "33-43-11.39 N",
		"longitude": "95-37-24.44 W",
		"state": "TEXAS",
		"artcc": "ZFW",
		"type": "RP",
		"updated": "PRX*VOR/DME*313.50",
	},
	{
		"name": "HALAN",
		"latitude": "32-50-25.25 N",
		"longitude": "91-54-35.45 W",
		"state": "LOUISIANA",
		"artcc": "ZFW",
		"type": "RNAV",
		"updated": "07/16/2008",
	},
	{
		"name": "HALIV",
		"latitude": "35-3-29.9 N",
		"longitude": "99-31-40.42 W",
		"state": "OKLAHOMA",
		"artcc": "ZFW",
		"type": "RNAV",
		"updated": "11/07/2016",
	},
	{
		"name": "HALTI",
		"latitude": "33-2-54.91 N",
		"longitude": "96-3-56.19 W",
		"state": "TEXAS",
		"artcc": "ZFW",
		"type": "MR",
		"updated": "MJF*TACAN*186.34/1.08",
	},
	{
		"name": "HALTO",
		"latitude": "35-19-40.37 N",
		"longitude": "97-29-12.75 W",
		"state": "OKLAHOMA",
		"artcc": "ZFW",
		"type": "RNAV",
		"updated": "05/27/2014",
	},
	{
		"name": "HALUD",
		"latitude": "32-47-45.42 N",
		"longitude": "96-45-38.69 W",
		"state": "TEXAS",
		"artcc": "ZFW",
		"type": "RNAV",
		"updated": "10/17/2005",
	},
	{
		"name": "HAMDO",
		"latitude": "35-29-14.45 N",
		"longitude": "97-34-14.13 W",
		"state": "OKLAHOMA",
		"artcc": "ZFW",
		"type": "RNAV",
		"updated": "06/16/2014",
	},
	{
		"name": "HAMLO",
		"latitude": "33-51-52.99 N",
		"longitude": "98-20-23.45 W",
		"state": "TEXAS",
		"artcc": "ZFW",
		"type": "MW",
		"updated": "02/26/2010",
	},
	{
		"name": "HANAS",
		"latitude": "32-18-31.41 N",
		"longitude": "95-24-20.16 W",
		"state": "TEXAS",
		"artcc": "ZFW",
		"type": "RNAV",
		"updated": "08/17/2015",
	},
	{
		"name": "HANGS",
		"latitude": "35-29-30.84 N",
		"longitude": "97-35-20.47 W",
		"state": "OKLAHOMA",
		"artcc": "ZFW",
		"type": "RP",
		"updated": "PWA*VOR/DME*122.78",
	},
	{
		"name": "HANIG",
		"latitude": "35-32-53.33 N",
		"longitude": "95-5-32 W",
		"state": "OKLAHOMA",
		"artcc": "ZFW",
		"type": "RP",
		"updated": "OKM*VOR/DME*094.70/38.83",
	},
	{
		"name": "HANOF",
		"latitude": "32-30-2.72 N",
		"longitude": "94-56-46.1 W",
		"state": "TEXAS",
		"artcc": "ZFW",
		"type": "RNAV",
		"updated": "03/07/2011",
	},
	{
		"name": "HANOM",
		"latitude": "33-46-45.64 N",
		"longitude": "96-25-25.2 W",
		"state": "TEXAS",
		"artcc": "ZFW",
		"type": "RP",
		"updated": "URH*VOR/DME*184.16/10.00",
	},
	{
		"name": "HANUH",
		"latitude": "32-47-49.14 N",
		"longitude": "96-20-0.18 W",
		"state": "TEXAS",
		"artcc": "ZFW",
		"type": "RNAV",
		"updated": "07/08/2014",
	},
	{
		"name": "HAPNS",
		"latitude": "31-43-46.49 N",
		"longitude": "95-41-8.78 W",
		"state": "TEXAS",
		"artcc": "ZFW",
		"type": "RNAV",
		"updated": "09/12/2016",
	},
	{
		"name": "HAPUN",
		"latitude": "33-26-22.94 N",
		"longitude": "92-45-5.73 W",
		"state": "ARKANSAS",
		"artcc": "ZFW",
		"type": "RP",
		"updated": "ELD*VOR/DME*351.00/11.00",
	},
	{
		"name": "HARAT",
		"latitude": "32-46-56.64 N",
		"longitude": "93-24-31.53 W",
		"state": "LOUISIANA",
		"artcc": "ZFW",
		"type": "RNAV",
		"updated": "07/05/2011",
	},
	{
		"name": "HAREB",
		"latitude": "32-17-46.36 N",
		"longitude": "99-49-32.5 W",
		"state": "TEXAS",
		"artcc": "ZFW",
		"type": "MR",
		"updated": "06/02/2017",
	},
	{
		"name": "HASLT",
		"latitude": "33-5-11.15 N",
		"longitude": "97-20-17.31 W",
		"state": "TEXAS",
		"artcc": "ZFW",
		"type": "RP",
		"updated": "UPE*LD*N CRS/6.82",
	},
	{
		"name": "HASNA",
		"latitude": "33-59-10.77 N",
		"longitude": "98-6-44.85 W",
		"state": "TEXAS",
		"artcc": "ZFW",
		"type": "MR",
		"updated": "SPS*VORTAC*080.00/24.00",
	},
	{
		"name": "HASTY",
		"latitude": "33-0-7.18 N",
		"longitude": "97-3-1.04 W",
		"state": "TEXAS",
		"artcc": "ZFW",
		"type": "RP",
		"updated": "CIX*LD*356.25/4.97",
	},
	{
		"name": "HATUB",
		"latitude": "35-6-12.33 N",
		"longitude": "97-58-9.16 W",
		"state": "OKLAHOMA",
		"artcc": "ZFW",
		"type": "RP",
		"updated": "IRW*VORTAC*222.28/23.38",
	},
	{
		"name": "HAVAK",
		"latitude": "35-10-40.67 N",
		"longitude": "97-32-20.17 W",
		"state": "OKLAHOMA",
		"artcc": "ZFW",
		"type": "RP",
		"updated": "IRW*VORTAC*155.28/11.36",
	},
	{
		"name": "HAVEB",
		"latitude": "34-19-10.95 N",
		"longitude": "96-53-20.43 W",
		"state": "OKLAHOMA",
		"artcc": "ZFW",
		"type": "RNAV",
		"updated": "09/20/2002",
	},
	{
		"name": "HAVPU",
		"latitude": "32-32-2.01 N",
		"longitude": "99-15-40.47 W",
		"state": "TEXAS",
		"artcc": "ZFW",
		"type": "RNAV",
		"updated": "02/01/2010",
	},
	{
		"name": "HAVUS",
		"latitude": "32-17-34.88 N",
		"longitude": "98-13-56.19 W",
		"state": "TEXAS",
		"artcc": "ZFW",
		"type": "RNAV",
		"updated": "08/22/2005",
	},
	{
		"name": "HAWES",
		"latitude": "32-57-43.23 N",
		"longitude": "92-50-28.36 W",
		"state": "LOUISIANA",
		"artcc": "ZFW",
		"type": "RNAV",
		"updated": "09/02/2016",
	},
	{
		"name": "HAXEB",
		"latitude": "33-17-53.36 N",
		"longitude": "101-41-35.07 W",
		"state": "TEXAS",
		"artcc": "ZFW",
		"type": "RNAV",
		"updated": "11/17/2016",
	},
	{
		"name": "HAXIV",
		"latitude": "34-34-49.92 N",
		"longitude": "99-15-34.07 W",
		"state": "OKLAHOMA",
		"artcc": "ZFW",
		"type": "MR",
		"updated": "LTS*VORTAC*/4.97",
	},
	{
		"name": "HAXOG",
		"latitude": "32-31-31.11 N",
		"longitude": "93-40-37.95 W",
		"state": "LOUISIANA",
		"artcc": "ZFW",
		"type": "MR",
		"updated": "BAD*TACAN*338.00/1.40",
	},
	{
		"name": "HAXOS",
		"latitude": "32-51-17.76 N",
		"longitude": "95-56-59.34 W",
		"state": "TEXAS",
		"artcc": "ZFW",
		"type": "RNAV",
		"updated": "07/17/2008",
	},
	{
		"name": "HAYZZ",
		"latitude": "32-42-43.89 N",
		"longitude": "96-41-45.62 W",
		"state": "TEXAS",
		"artcc": "ZFW",
		"type": "RNAV",
		"updated": "07/08/2014",
	},
	{
		"name": "HAZKL",
		"latitude": "33-4-15.04 N",
		"longitude": "97-3-11.58 W",
		"state": "TEXAS",
		"artcc": "ZFW",
		"type": "RNAV",
		"updated": "07/27/2004",
	},
	{
		"name": "HAZLE",
		"latitude": "34-0-53.38 N",
		"longitude": "99-19-22.36 W",
		"state": "TEXAS",
		"artcc": "ZFW",
		"type": "RNAV",
		"updated": "05/16/2010",
	},
	{
		"name": "HEART",
		"latitude": "31-26-42.28 N",
		"longitude": "97-7-23.9 W",
		"state": "TEXAS",
		"artcc": "ZFW",
		"type": "RP",
		"updated": "ACT*VORTAC*141.09/15.00",
	},
	{
		"name": "HEAST",
		"latitude": "32-37-58.06 N",
		"longitude": "97-53-7.56 W",
		"state": "TEXAS",
		"artcc": "ZFW",
		"type": "RNAV",
		"updated": "10/03/2016",
	},
	{
		"name": "HEATR",
		"latitude": "34-49-28.31 N",
		"longitude": "99-50-56.52 W",
		"state": "OKLAHOMA",
		"artcc": "ZFW",
		"type": "RP",
		"updated": "CDS*VORTAC*028.49",
	},
	{
		"name": "HEBAB",
		"latitude": "33-56-29.72 N",
		"longitude": "94-37-14.97 W",
		"state": "OKLAHOMA",
		"artcc": "ZFW",
		"type": "RNAV",
		"updated": "09/27/2004",
	},
	{
		"name": "HEBIP",
		"latitude": "33-5-31.2 N",
		"longitude": "94-56-23.05 W",
		"state": "TEXAS",
		"artcc": "ZFW",
		"type": "RP",
		"updated": "SLR*VOR/DME*093.71",
	},
	{
		"name": "HEBIX",
		"latitude": "32-43-13.34 N",
		"longitude": "103-35-26.32 W",
		"state": "NEW MEXICO",
		"artcc": "ZFW",
		"type": "RP",
		"updated": "HOB*VORTAC*275.90/17.00",
	},
	{
		"name": "HEBOG",
		"latitude": "35-23-9.78 N",
		"longitude": "98-0-15.46 W",
		"state": "OKLAHOMA",
		"artcc": "ZFW",
		"type": "RNAV",
		"updated": "02/04/2008",
	},
	{
		"name": "HEBOM",
		"latitude": "31-32-35.46 N",
		"longitude": "95-59-52.74 W",
		"state": "TEXAS",
		"artcc": "ZFW",
		"type": "RNAV",
		"updated": "12/03/2010",
	},
	{
		"name": "HEBOP",
		"latitude": "32-37-9.09 N",
		"longitude": "96-25-22.67 W",
		"state": "TEXAS",
		"artcc": "ZFW",
		"type": "RNAV",
		"updated": "10/20/2005",
	},
	{
		"name": "HEDEK",
		"latitude": "35-14-55.32 N",
		"longitude": "96-56-33.7 W",
		"state": "OKLAHOMA",
		"artcc": "ZFW",
		"type": "RNAV",
		"updated": "08/17/2010",
	},
	{
		"name": "HEDIP",
		"latitude": "35-34-40.31 N",
		"longitude": "97-47-12.59 W",
		"state": "OKLAHOMA",
		"artcc": "ZFW",
		"type": "RNAV",
		"updated": "05/20/2014",
	},
	{
		"name": "HEDMN",
		"latitude": "33-11-45.9 N",
		"longitude": "96-54-44.67 W",
		"state": "TEXAS",
		"artcc": "ZFW",
		"type": "RNAV",
		"updated": "05/07/2015",
	},
	{
		"name": "HEERE",
		"latitude": "32-0-15.71 N",
		"longitude": "95-50-56.92 W",
		"state": "TEXAS",
		"artcc": "ZFW",
		"type": "RNAV",
		"updated": "05/07/2015",
	},
	{
		"name": "HEGTA",
		"latitude": "33-20-35.62 N",
		"longitude": "102-22-45.98 W",
		"state": "TEXAS",
		"artcc": "ZFW",
		"type": "RP",
		"updated": "LBB*VORTAC*216.27/31.85",
	},
	{
		"name": "HEKBA",
		"latitude": "32-26-29.72 N",
		"longitude": "96-46-29.42 W",
		"state": "TEXAS",
		"artcc": "ZFW",
		"type": "RNAV",
		"updated": "10/20/2005",
	},
	{
		"name": "HEKET",
		"latitude": "31-38-33.37 N",
		"longitude": "93-40-31.71 W",
		"state": "LOUISIANA",
		"artcc": "ZFW",
		"type": "RNAV",
		"updated": "08/07/2009",
	},
	{
		"name": "HEKEV",
		"latitude": "32-21-35.04 N",
		"longitude": "95-49-44.84 W",
		"state": "TEXAS",
		"artcc": "ZFW",
		"type": "RNAV",
		"updated": "04/07/2010",
	},
	{
		"name": "HEKMA",
		"latitude": "32-49-17.3 N",
		"longitude": "97-26-27.45 W",
		"state": "TEXAS",
		"artcc": "ZFW",
		"type": "MR",
		"updated": "FUZ*VORTAC*246.95/13.85",
	},
	{
		"name": "HELAV",
		"latitude": "32-46-57.72 N",
		"longitude": "96-52-9.52 W",
		"state": "TEXAS",
		"artcc": "ZFW",
		"type": "RP",
		"updated": "RRA*LD*SE CRS/11.00",
	},
	{
		"name": "HELBI",
		"latitude": "32-33-37.57 N",
		"longitude": "100-28-49.99 W",
		"state": "TEXAS",
		"artcc": "ZFW",
		"type": "RNAV",
		"updated": "09/20/2011",
	},
	{
		"name": "HELKU",
		"latitude": "34-36-59.9 N",
		"longitude": "96-50-0.54 W",
		"state": "OKLAHOMA",
		"artcc": "ZFW",
		"type": "RNAV",
		"updated": "05/24/2017",
	},
	{
		"name": "HELRA",
		"latitude": "34-2-22.34 N",
		"longitude": "96-23-39.8 W",
		"state": "OKLAHOMA",
		"artcc": "ZFW",
		"type": "RNAV",
		"updated": "05/16/2010",
	},
	{
		"name": "HELUS",
		"latitude": "34-13-20.61 N",
		"longitude": "102-39-53.53 W",
		"state": "TEXAS",
		"artcc": "ZFW",
		"type": "RP",
		"updated": "TXO*VORTAC*140.96/18.50",
	},
	{
		"name": "HEMDU",
		"latitude": "35-13-7.33 N",
		"longitude": "96-7-4.42 W",
		"state": "OKLAHOMA",
		"artcc": "ZFW",
		"type": "RNAV",
		"updated": "05/15/2003",
	},
	{
		"name": "HEMLA",
		"latitude": "35-17-41.09 N",
		"longitude": "97-55-38.73 W",
		"state": "OKLAHOMA",
		"artcc": "ZFW",
		"type": "RNAV",
		"updated": "07/31/2006",
	},
	{
		"name": "HEMON",
		"latitude": "34-30-59.28 N",
		"longitude": "97-7-30.28 W",
		"state": "OKLAHOMA",
		"artcc": "ZFW",
		"type": "RNAV",
		"updated": "03/29/2010",
	},
	{
		"name": "HENAK",
		"latitude": "33-54-39.62 N",
		"longitude": "98-27-16.78 W",
		"state": "TEXAS",
		"artcc": "ZFW",
		"type": "MR",
		"updated": "SHP*TACAN*154.00/4.60",
	},
	{
		"name": "HENBI",
		"latitude": "35-41-46.66 N",
		"longitude": "95-24-38.22 W",
		"state": "OKLAHOMA",
		"artcc": "ZFW",
		"type": "RNAV",
		"updated": "06/16/2008",
	},
	{
		"name": "HEPEK",
		"latitude": "33-59-10.29 N",
		"longitude": "98-44-53.48 W",
		"state": "TEXAS",
		"artcc": "ZFW",
		"type": "MR",
		"updated": "SHP*TACAN*265.99/13.00",
	},
	{
		"name": "HEPEM",
		"latitude": "32-23-40.31 N",
		"longitude": "99-50-54.64 W",
		"state": "TEXAS",
		"artcc": "ZFW",
		"type": "MR",
		"updated": "DYS*TACAN*/1.50",
	},
	{
		"name": "HEPER",
		"latitude": "34-54-50.04 N",
		"longitude": "96-24-59.59 W",
		"state": "OKLAHOMA",
		"artcc": "ZFW",
		"type": "RNAV",
		"updated": "03/06/2003",
	},
	{
		"name": "HEPEX",
		"latitude": "31-41-41.2 N",
		"longitude": "95-42-26.14 W",
		"state": "TEXAS",
		"artcc": "ZFW",
		"type": "RNAV",
		"updated": "07/21/2004",
	},
	{
		"name": "HEPLO",
		"latitude": "32-26-45.93 N",
		"longitude": "98-47-28.95 W",
		"state": "TEXAS",
		"artcc": "ZFW",
		"type": "RNAV",
		"updated": "05/24/2012",
	},
	{
		"name": "HEPTA",
		"latitude": "32-19-24.46 N",
		"longitude": "99-1-27.07 W",
		"state": "TEXAS",
		"artcc": "ZFW",
		"type": "RNAV",
		"updated": "04/02/2016",
	},
	{
		"name": "HERAM",
		"latitude": "33-23-56.69 N",
		"longitude": "97-51-6.4 W",
		"state": "TEXAS",
		"artcc": "ZFW",
		"type": "RNAV",
		"updated": "01/04/2009",
	},
	{
		"name": "HERMR",
		"latitude": "32-38-4.61 N",
		"longitude": "93-59-51.58 W",
		"state": "LOUISIANA",
		"artcc": "ZFW",
		"type": "RP",
		"updated": "EIC*VORTAC*222.30/12.55",
	},
	{
		"name": "HERNO",
		"latitude": "32-16-16 N",
		"longitude": "96-55-40.29 W",
		"state": "TEXAS",
		"artcc": "ZFW",
		"type": "RNAV",
		"updated": "07/10/2009",
	},
	{
		"name": "HERRI",
		"latitude": "31-56-37.96 N",
		"longitude": "95-1-27.42 W",
		"state": "TEXAS",
		"artcc": "ZFW",
		"type": "RP",
		"updated": "GGG*VORTAC*199.02",
	},
	{
		"name": "HERUX",
		"latitude": "32-39-26.08 N",
		"longitude": "95-30-1.36 W",
		"state": "TEXAS",
		"artcc": "ZFW",
		"type": "RNAV",
		"updated": "01/14/2005",
	},
	{
		"name": "HESEM",
		"latitude": "32-23-40.4 N",
		"longitude": "99-50-54.3 W",
		"state": "TEXAS",
		"artcc": "ZFW",
		"type": "MR",
		"updated": "DYS*TACAN*158.00/1.50",
	},
	{
		"name": "HESSS",
		"latitude": "34-27-48.06 N",
		"longitude": "99-17-32.08 W",
		"state": "OKLAHOMA",
		"artcc": "ZFW",
		"type": "MR",
		"updated": "LTS*VORTAC*180.00/12.00",
	},
	{
		"name": "HESVA",
		"latitude": "35-32-52.98 N",
		"longitude": "97-49-28.34 W",
		"state": "OKLAHOMA",
		"artcc": "ZFW",
		"type": "RNAV",
		"updated": "10/14/2009",
	},
	{
		"name": "HETBI",
		"latitude": "32-17-21.68 N",
		"longitude": "97-4-20.06 W",
		"state": "TEXAS",
		"artcc": "ZFW",
		"type": "RNAV",
		"updated": "07/08/2008",
	},
	{
		"name": "HETIK",
		"latitude": "33-5-38.6 N",
		"longitude": "94-57-51.66 W",
		"state": "TEXAS",
		"artcc": "ZFW",
		"type": "RNAV",
		"updated": "08/26/2002",
	},
	{
		"name": "HETKI",
		"latitude": "32-23-24.96 N",
		"longitude": "98-26-51.37 W",
		"state": "TEXAS",
		"artcc": "ZFW",
		"type": "RNAV",
		"updated": "10/17/2005",
	},
	{
		"name": "HEXAS",
		"latitude": "32-5-59.53 N",
		"longitude": "95-41-5.65 W",
		"state": "TEXAS",
		"artcc": "ZFW",
		"type": "RP",
		"updated": "FZT*VOR/DME*274.94/8.00",
	},
	{
		"name": "HEXOV",
		"latitude": "32-55-30.64 N",
		"longitude": "96-52-57.91 W",
		"state": "TEXAS",
		"artcc": "ZFW",
		"type": "RNAV",
		"updated": "07/13/2014",
	},
	{
		"name": "HEXPE",
		"latitude": "31-12-12.12 N",
		"longitude": "100-39-33.67 W",
		"state": "TEXAS",
		"artcc": "ZFW",
		"type": "RNAV",
		"updated": "07/12/2005",
	},
	{
		"name": "HHULL",
		"latitude": "33-49-31.87 N",
		"longitude": "98-32-3.65 W",
		"state": "TEXAS",
		"artcc": "ZFW",
		"type": "RNAV",
		"updated": "09/12/2016",
	},
	{
		"name": "HIBED",
		"latitude": "32-37-39.03 N",
		"longitude": "97-2-8.1 W",
		"state": "TEXAS",
		"artcc": "ZFW",
		"type": "RP",
		"updated": "PKQ*LD*S CRS/14.89",
	},
	{
		"name": "HIBEM",
		"latitude": "33-46-48.02 N",
		"longitude": "98-23-40.24 W",
		"state": "TEXAS",
		"artcc": "ZFW",
		"type": "MR",
		"updated": "SHP*TACAN*154.00/13.00",
	},
	{
		"name": "HIBIL",
		"latitude": "33-4-2.8 N",
		"longitude": "96-39-10.57 W",
		"state": "TEXAS",
		"artcc": "ZFW",
		"type": "RNAV",
		"updated": "07/08/2014",
	},
	{
		"name": "HIBIS",
		"latitude": "33-22-22.93 N",
		"longitude": "98-8-39.27 W",
		"state": "TEXAS",
		"artcc": "ZFW",
		"type": "RP",
		"updated": "MQP*VORTAC*340.22",
	},
	{
		"name": "HIBIX",
		"latitude": "31-59-5.41 N",
		"longitude": "95-48-7.77 W",
		"state": "TEXAS",
		"artcc": "ZFW",
		"type": "RNAV",
		"updated": "07/21/2004",
	},
	{
		"name": "HIBMA",
		"latitude": "31-56-37.48 N",
		"longitude": "102-4-21.8 W",
		"state": "TEXAS",
		"artcc": "ZFW",
		"type": "RNAV",
		"updated": "06/01/2012",
	},
	{
		"name": "HIBOS",
		"latitude": "33-18-0.96 N",
		"longitude": "94-53-44.12 W",
		"state": "TEXAS",
		"artcc": "ZFW",
		"type": "RNAV",
		"updated": "11/28/2008",
	},
	{
		"name": "HICNY",
		"latitude": "32-30-57.99 N",
		"longitude": "92-29-21.71 W",
		"state": "LOUISIANA",
		"artcc": "ZFW",
		"type": "RP",
		"updated": "MLU*VORTAC*267.00/23.00",
	},
	{
		"name": "HICOE",
		"latitude": "31-56-17.23 N",
		"longitude": "98-7-8.33 W",
		"state": "TEXAS",
		"artcc": "ZFW",
		"type": "RP",
		"updated": "ACT*VORTAC*282.00/46.00",
	},
	{
		"name": "HIDOB",
		"latitude": "32-13-13.56 N",
		"longitude": "95-7-23.68 W",
		"state": "TEXAS",
		"artcc": "ZFW",
		"type": "RNAV",
		"updated": "07/30/2012",
	},
	{
		"name": "HIDUM",
		"latitude": "32-39-53.06 N",
		"longitude": "99-54-41.28 W",
		"state": "TEXAS",
		"artcc": "ZFW",
		"type": "MR",
		"updated": "DYS*TACAN*/15.00",
	},
	{
		"name": "HIDUX",
		"latitude": "32-44-41.05 N",
		"longitude": "97-26-29.43 W",
		"state": "TEXAS",
		"artcc": "ZFW",
		"type": "MR",
		"updated": "NFW*TACAN*180.00/1.60",
	},
	{
		"name": "HIGER",
		"latitude": "32-24-13.2 N",
		"longitude": "91-46-31.87 W",
		"state": "LOUISIANA",
		"artcc": "ZFW",
		"type": "RNAV",
		"updated": "07/16/2013",
	},
	{
		"name": "HIGIR",
		"latitude": "33-49-55.05 N",
		"longitude": "96-40-7.08 W",
		"state": "TEXAS",
		"artcc": "ZFW",
		"type": "RNAV",
		"updated": "04/09/2012",
	},
	{
		"name": "HIGIT",
		"latitude": "34-47-27.01 N",
		"longitude": "97-13-24.17 W",
		"state": "OKLAHOMA",
		"artcc": "ZFW",
		"type": "RNAV",
		"updated": "04/07/2010",
	},
	{
		"name": "HIKAY",
		"latitude": "33-11-42.83 N",
		"longitude": "97-25-12.56 W",
		"state": "TEXAS",
		"artcc": "ZFW",
		"type": "RP",
		"updated": "TTT*VOR/DME*309.66/27.35",
	},
	{
		"name": "HIKDI",
		"latitude": "32-47-40.97 N",
		"longitude": "97-26-28.44 W",
		"state": "TEXAS",
		"artcc": "ZFW",
		"type": "MR",
		"updated": "NFW*TACAN*352.00/1.40",
	},
	{
		"name": "HIKOT",
		"latitude": "33-18-30.4 N",
		"longitude": "98-29-19.82 W",
		"state": "TEXAS",
		"artcc": "ZFW",
		"type": "RNAV",
		"updated": "02/06/2008",
	},
	{
		"name": "HIKTU",
		"latitude": "33-9-36.29 N",
		"longitude": "98-49-17.27 W",
		"state": "TEXAS",
		"artcc": "ZFW",
		"type": "RNAV",
		"updated": "10/29/2012",
	},
	{
		"name": "HIKUG",
		"latitude": "32-10-22.75 N",
		"longitude": "101-37-12.57 W",
		"state": "TEXAS",
		"artcc": "ZFW",
		"type": "RNAV",
		"updated": "05/06/2013",
	},
	{
		"name": "HIMRY",
		"latitude": "35-14-12.13 N",
		"longitude": "99-12-5.96 W",
		"state": "OKLAHOMA",
		"artcc": "ZFW",
		"type": "RNAV",
		"updated": "03/01/2017",
	},
	{
		"name": "HINAM",
		"latitude": "32-1-22.51 N",
		"longitude": "98-36-23.39 W",
		"state": "TEXAS",
		"artcc": "ZFW",
		"type": "RNAV",
		"updated": "10/17/2005",
	},
	{
		"name": "HINEL",
		"latitude": "34-11-7 N",
		"longitude": "98-34-52.54 W",
		"state": "TEXAS",
		"artcc": "ZFW",
		"type": "MR",
		"updated": "SHP*TACAN*334.00/13.00",
	},
	{
		"name": "HINTA",
		"latitude": "32-43-8.49 N",
		"longitude": "99-44-15.23 W",
		"state": "TEXAS",
		"artcc": "ZFW",
		"type": "RNAV",
		"updated": "12/02/2009",
	},
	{
		"name": "HINZE",
		"latitude": "32-21-30.43 N",
		"longitude": "95-42-34.04 W",
		"state": "TEXAS",
		"artcc": "ZFW",
		"type": "RNAV",
		"updated": "09/12/2016",
	},
	{
		"name": "HIPAN",
		"latitude": "33-41-0.09 N",
		"longitude": "96-35-35.24 W",
		"state": "TEXAS",
		"artcc": "ZFW",
		"type": "RP",
		"updated": "BYP*VORTAC*290.00/20.00",
	},
	{
		"name": "HIPIM",
		"latitude": "32-43-32.89 N",
		"longitude": "96-31-50.89 W",
		"state": "TEXAS",
		"artcc": "ZFW",
		"type": "RP",
		"updated": "HQZ*LD*357.88/0.49",
	},
	{
		"name": "HIPKI",
		"latitude": "34-7-21.88 N",
		"longitude": "98-33-10.98 W",
		"state": "OKLAHOMA",
		"artcc": "ZFW",
		"type": "MR",
		"updated": "SHP*TACAN*/9.00",
	},
	{
		"name": "HIPKO",
		"latitude": "32-50-23.2 N",
		"longitude": "101-56-34.31 W",
		"state": "TEXAS",
		"artcc": "ZFW",
		"type": "RNAV",
		"updated": "11/02/2011",
	},
	{
		"name": "HIPLA",
		"latitude": "33-7-36.01 N",
		"longitude": "98-24-34.56 W",
		"state": "TEXAS",
		"artcc": "ZFW",
		"type": "RNAV",
		"updated": "12/20/2009",
	},
	{
		"name": "HIPOC",
		"latitude": "32-39-58.27 N",
		"longitude": "102-47-53.25 W",
		"state": "TEXAS",
		"artcc": "ZFW",
		"type": "WP",
		"updated": "11/02/1998",
	},
	{
		"name": "HIPOL",
		"latitude": "32-57-20.95 N",
		"longitude": "97-31-55.83 W",
		"state": "TEXAS",
		"artcc": "ZFW",
		"type": "MR",
		"updated": "FUZ*VORTAC*276.67/18.25",
	},
	{
		"name": "HIRBE",
		"latitude": "31-58-4.47 N",
		"longitude": "96-21-36.65 W",
		"state": "TEXAS",
		"artcc": "ZFW",
		"type": "CN",
		"updated": "02/06/2012",
	},
	{
		"name": "HIRGO",
		"latitude": "33-4-28.92 N",
		"longitude": "97-33-8 W",
		"state": "TEXAS",
		"artcc": "ZFW",
		"type": "RNAV",
		"updated": "03/31/2008",
	},
	{
		"name": "HISLA",
		"latitude": "35-32-51.03 N",
		"longitude": "98-33-16.11 W",
		"state": "OKLAHOMA",
		"artcc": "ZFW",
		"type": "RP",
		"updated": "IRW*VORTAC*277.00",
	},
	{
		"name": "HISNI",
		"latitude": "31-20-34.54 N",
		"longitude": "97-18-54.98 W",
		"state": "TEXAS",
		"artcc": "ZFW",
		"type": "RNAV",
		"updated": "12/27/2012",
	},
	{
		"name": "HISPI",
		"latitude": "31-24-26.29 N",
		"longitude": "101-25-9.21 W",
		"state": "TEXAS",
		"artcc": "ZFW",
		"type": "RNAV",
		"updated": "09/18/2006",
	},
	{
		"name": "HITIB",
		"latitude": "32-51-35.63 N",
		"longitude": "94-13-57.64 W",
		"state": "TEXAS",
		"artcc": "ZFW",
		"type": "RNAV",
		"updated": "01/30/2009",
	},
	{
		"name": "HITUG",
		"latitude": "35-54-45.26 N",
		"longitude": "95-29-19.73 W",
		"state": "OKLAHOMA",
		"artcc": "ZFW",
		"type": "RNAV",
		"updated": "09/27/2016",
	},
	{
		"name": "HIXEL",
		"latitude": "33-46-58.47 N",
		"longitude": "97-41-47.41 W",
		"state": "TEXAS",
		"artcc": "ZFW",
		"type": "RNAV",
		"updated": "01/08/2003",
	},
	{
		"name": "HIXOP",
		"latitude": "33-54-27.6 N",
		"longitude": "98-27-36.56 W",
		"state": "TEXAS",
		"artcc": "ZFW",
		"type": "MR",
		"updated": "SHP*TACAN*158.00/4.70",
	},
	{
		"name": "HIYZE",
		"latitude": "32-37-12.68 N",
		"longitude": "97-2-56.69 W",
		"state": "TEXAS",
		"artcc": "ZFW",
		"type": "RP",
		"updated": "TTT*VOR/DME*175.67/14.92",
	},
	{
		"name": "HIZSU",
		"latitude": "32-35-27.2 N",
		"longitude": "99-40-32.45 W",
		"state": "TEXAS",
		"artcc": "ZFW",
		"type": "RNAV",
		"updated": "02/10/2010",
	},
	{
		"name": "HLLZZ",
		"latitude": "32-29-59.04 N",
		"longitude": "96-48-1.92 W",
		"state": "TEXAS",
		"artcc": "ZFW",
		"type": "RNAV",
		"updated": "05/07/2015",
	},
	{
		"name": "HNKER",
		"latitude": "33-46-35.42 N",
		"longitude": "100-20-40.46 W",
		"state": "TEXAS",
		"artcc": "ZFW",
		"type": "RNAV",
		"updated": "07/08/2014",
	},
	{
		"name": "HOBDO",
		"latitude": "32-38-24.03 N",
		"longitude": "103-16-18.26 W",
		"state": "NEW MEXICO",
		"artcc": "ZFW",
		"type": "RP",
		"updated": "HOB*LD*218.10/4.61",
	},
	{
		"name": "HOBKU",
		"latitude": "32-32-2.64 N",
		"longitude": "100-23-21.41 W",
		"state": "TEXAS",
		"artcc": "ZFW",
		"type": "RNAV",
		"updated": "09/01/2011",
	},
	{
		"name": "HOBMI",
		"latitude": "32-28-59.89 N",
		"longitude": "96-52-2.4 W",
		"state": "TEXAS",
		"artcc": "ZFW",
		"type": "RNAV",
		"updated": "12/22/2005",
	},
	{
		"name": "HODAX",
		"latitude": "32-58-30.21 N",
		"longitude": "97-9-2.13 W",
		"state": "TEXAS",
		"artcc": "ZFW",
		"type": "RP",
		"updated": "LWN*LD*315.04/6.88",
	},
	{
		"name": "HODGA",
		"latitude": "34-45-31 N",
		"longitude": "99-15-34.63 W",
		"state": "OKLAHOMA",
		"artcc": "ZFW",
		"type": "MR",
		"updated": "LTS*VORTAC*/5.76",
	},
	{
		"name": "HODUK",
		"latitude": "33-46-2.27 N",
		"longitude": "93-34-15.72 W",
		"state": "ARKANSAS",
		"artcc": "ZFW",
		"type": "RP",
		"updated": "TXK*VORTAC*051.76/29.38",
	},
	{
		"name": "HOFFE",
		"latitude": "35-26-43.63 N",
		"longitude": "95-50-28.5 W",
		"state": "OKLAHOMA",
		"artcc": "ZFW",
		"type": "RP",
		"updated": "OKM*VOR/DME*167.33/14.89",
	},
	{
		"name": "HOFFF",
		"latitude": "34-54-8.63 N",
		"longitude": "98-55-22.14 W",
		"state": "OKLAHOMA",
		"artcc": "ZFW",
		"type": "RNAV",
		"updated": "05/11/2015",
	},
	{
		"name": "HOFOB",
		"latitude": "33-50-19.59 N",
		"longitude": "101-37-48.09 W",
		"state": "TEXAS",
		"artcc": "ZFW",
		"type": "RNAV",
		"updated": "08/17/2010",
	},
	{
		"name": "HOGES",
		"latitude": "32-44-48.5 N",
		"longitude": "99-55-46.86 W",
		"state": "TEXAS",
		"artcc": "ZFW",
		"type": "MR",
		"updated": "DYS*TACAN*344.41/20.00",
	},
	{
		"name": "HOGIX",
		"latitude": "33-50-32.73 N",
		"longitude": "102-25-2.35 W",
		"state": "TEXAS",
		"artcc": "ZFW",
		"type": "RNAV",
		"updated": "05/21/2013",
	},
	{
		"name": "HOGRU",
		"latitude": "34-48-31.3 N",
		"longitude": "99-15-34.79 W",
		"state": "OKLAHOMA",
		"artcc": "ZFW",
		"type": "MW",
		"updated": "01/13/2016",
	},
	{
		"name": "HOKAG",
		"latitude": "32-34-15.7 N",
		"longitude": "97-26-37.33 W",
		"state": "TEXAS",
		"artcc": "ZFW",
		"type": "MR",
		"updated": "NFW*TACAN*177.07/12.00",
	},
	{
		"name": "HOLDR",
		"latitude": "33-59-12.26 N",
		"longitude": "98-13-57.78 W",
		"state": "TEXAS",
		"artcc": "ZFW",
		"type": "MR",
		"updated": "SPS*VORTAC*080.00/18.00",
	},
	{
		"name": "HOLEK",
		"latitude": "32-24-29.6 N",
		"longitude": "99-1-23.43 W",
		"state": "TEXAS",
		"artcc": "ZFW",
		"type": "RNAV",
		"updated": "04/02/2016",
	},
	{
		"name": "HOLEV",
		"latitude": "31-52-44.62 N",
		"longitude": "98-35-53.09 W",
		"state": "TEXAS",
		"artcc": "ZFW",
		"type": "RNAV",
		"updated": "10/22/2014",
	},
	{
		"name": "HOLIW",
		"latitude": "33-17-45.64 N",
		"longitude": "97-11-45.15 W",
		"state": "TEXAS",
		"artcc": "ZFW",
		"type": "RNAV",
		"updated": "12/30/2010",
	},
	{
		"name": "HOLLE",
		"latitude": "35-0-53.39 N",
		"longitude": "96-28-11.03 W",
		"state": "OKLAHOMA",
		"artcc": "ZFW",
		"type": "RP",
		"updated": "OKM*VOR/DME*208.28",
	},
	{
		"name": "HOLOB",
		"latitude": "33-26-33.38 N",
		"longitude": "95-33-2.06 W",
		"state": "TEXAS",
		"artcc": "ZFW",
		"type": "RNAV",
		"updated": "09/18/2006",
	},
	{
		"name": "HOMET",
		"latitude": "33-7-0 N",
		"longitude": "102-5-0 W",
		"state": "TEXAS",
		"artcc": "ZFW",
		"type": "RNAV",
		"updated": "08/12/2005",
	},
	{
		"name": "HOMEX",
		"latitude": "32-23-58.7 N",
		"longitude": "103-52-13.99 W",
		"state": "NEW MEXICO",
		"artcc": "ZFW",
		"type": "RP",
		"updated": "CNM*VORTAC*052.55/20.00",
	},
	{
		"name": "HOMOM",
		"latitude": "32-47-42.16 N",
		"longitude": "94-56-54 W",
		"state": "TEXAS",
		"artcc": "ZFW",
		"type": "RNAV",
		"updated": "07/29/2013",
	},
	{
		"name": "HONEN",
		"latitude": "34-5-4.96 N",
		"longitude": "98-32-50.93 W",
		"state": "TEXAS",
		"artcc": "ZFW",
		"type": "MR",
		"updated": "SHP*TACAN*329.00/6.80",
	},
	{
		"name": "HONOB",
		"latitude": "31-32-44.18 N",
		"longitude": "100-28-15.69 W",
		"state": "TEXAS",
		"artcc": "ZFW",
		"type": "RNAV",
		"updated": "08/07/2006",
	},
	{
		"name": "HONUN",
		"latitude": "32-30-18.16 N",
		"longitude": "99-41-7.08 W",
		"state": "TEXAS",
		"artcc": "ZFW",
		"type": "RP",
		"updated": "TQA*VOR/DME*012.47",
	},
	{
		"name": "HOOFS",
		"latitude": "32-16-33.22 N",
		"longitude": "99-1-29.11 W",
		"state": "TEXAS",
		"artcc": "ZFW",
		"type": "RNAV",
		"updated": "04/02/2016",
	},
	{
		"name": "HOOTZ",
		"latitude": "31-19-22.55 N",
		"longitude": "96-26-26.53 W",
		"state": "TEXAS",
		"artcc": "ZFW",
		"type": "RP",
		"updated": "TNV*VOR/DME*334.40/65.00",
	},
	{
		"name": "HOPIV",
		"latitude": "31-48-24.22 N",
		"longitude": "99-23-5.81 W",
		"state": "TEXAS",
		"artcc": "ZFW",
		"type": "RNAV",
		"updated": "10/16/2013",
	},
	{
		"name": "HOPOS",
		"latitude": "32-14-39.47 N",
		"longitude": "100-35-50.33 W",
		"state": "TEXAS",
		"artcc": "ZFW",
		"type": "RNAV",
		"updated": "09/01/2011",
	},
	{
		"name": "HORDA",
		"latitude": "32-26-46.42 N",
		"longitude": "95-24-18.54 W",
		"state": "TEXAS",
		"artcc": "ZFW",
		"type": "RNAV",
		"updated": "08/17/2015",
	},
	{
		"name": "HORKO",
		"latitude": "32-5-42.22 N",
		"longitude": "95-33-32.38 W",
		"state": "TEXAS",
		"artcc": "ZFW",
		"type": "RNAV",
		"updated": "09/12/2016",
	},
	{
		"name": "HORNS",
		"latitude": "31-28-52.2 N",
		"longitude": "95-48-11.1 W",
		"state": "TEXAS",
		"artcc": "ZFW",
		"type": "RP",
		"updated": "LOA*VORTAC*014.00/23.00",
	},
	{
		"name": "HORNZ",
		"latitude": "33-26-48 N",
		"longitude": "96-54-43 W",
		"state": "TEXAS",
		"artcc": "ZFW",
		"type": "RNAV",
		"updated": "10/27/2003",
	},
	{
		"name": "HOSDO",
		"latitude": "34-38-36.92 N",
		"longitude": "99-15-33.27 W",
		"state": "OKLAHOMA",
		"artcc": "ZFW",
		"type": "MR",
		"updated": "LTS*VORTAC*148.00/1.30",
	},
	{
		"name": "HOSES",
		"latitude": "33-39-5.85 N",
		"longitude": "93-40-50.31 W",
		"state": "ARKANSAS",
		"artcc": "ZFW",
		"type": "RP",
		"updated": "TXK*VORTAC*060.15/21.34",
	},
	{
		"name": "HOTEX",
		"latitude": "34-9-33.3 N",
		"longitude": "98-49-7.64 W",
		"state": "OKLAHOMA",
		"artcc": "ZFW",
		"type": "RNAV",
		"updated": "08/18/2010",
	},
	{
		"name": "HOVAS",
		"latitude": "31-44-47.09 N",
		"longitude": "98-57-15.67 W",
		"state": "TEXAS",
		"artcc": "ZFW",
		"type": "RNAV",
		"updated": "07/01/2015",
	},
	{
		"name": "HOVIR",
		"latitude": "32-2-59.89 N",
		"longitude": "98-3-42.76 W",
		"state": "TEXAS",
		"artcc": "ZFW",
		"type": "RNAV",
		"updated": "08/22/2005",
	},
	{
		"name": "HOVUX",
		"latitude": "32-28-43.37 N",
		"longitude": "93-38-50.74 W",
		"state": "LOUISIANA",
		"artcc": "ZFW",
		"type": "MR",
		"updated": "BAD*TACAN*143.00/1.80",
	},
	{
		"name": "HOWDY",
		"latitude": "32-23-6.24 N",
		"longitude": "96-26-42.72 W",
		"state": "TEXAS",
		"artcc": "ZFW",
		"type": "RP",
		"updated": "ACT*VORTAC*034.94",
	},
	{
		"name": "HOWFA",
		"latitude": "33-3-42.88 N",
		"longitude": "94-58-51.66 W",
		"state": "TEXAS",
		"artcc": "ZFW",
		"type": "CN",
		"updated": "02/06/2012",
	},
	{
		"name": "HOXCE",
		"latitude": "33-6-6.24 N",
		"longitude": "95-1-7.68 W",
		"state": "TEXAS",
		"artcc": "ZFW",
		"type": "CN",
		"updated": "02/06/2012",
	},
	{
		"name": "HOXDE",
		"latitude": "31-57-18.01 N",
		"longitude": "96-9-47.67 W",
		"state": "TEXAS",
		"artcc": "ZFW",
		"type": "RP",
		"updated": "CQY*VORTAC*162.54/14.09",
	},
	{
		"name": "HOXUT",
		"latitude": "34-14-39.41 N",
		"longitude": "98-13-25.97 W",
		"state": "OKLAHOMA",
		"artcc": "ZFW",
		"type": "MR",
		"updated": "SPS*VORTAC*040.00/24.00",
	},
	{
		"name": "HOZGI",
		"latitude": "32-28-58.86 N",
		"longitude": "102-32-50.91 W",
		"state": "TEXAS",
		"artcc": "ZFW",
		"type": "RNAV",
		"updated": "06/11/2010",
	},
	{
		"name": "HOZKI",
		"latitude": "33-24-58.67 N",
		"longitude": "98-50-2.73 W",
		"state": "TEXAS",
		"artcc": "ZFW",
		"type": "CN",
		"updated": "02/06/2012",
	},
	{
		"name": "HRLIP",
		"latitude": "31-32-51.21 N",
		"longitude": "98-20-33.79 W",
		"state": "TEXAS",
		"artcc": "ZFW",
		"type": "RNAV",
		"updated": "09/12/2016",
	},
	{
		"name": "HRPER",
		"latitude": "33-27-46.5 N",
		"longitude": "99-31-0.93 W",
		"state": "TEXAS",
		"artcc": "ZFW",
		"type": "RNAV",
		"updated": "07/08/2014",
	},
	{
		"name": "HUBMI",
		"latitude": "32-38-45.57 N",
		"longitude": "93-17-53.23 W",
		"state": "LOUISIANA",
		"artcc": "ZFW",
		"type": "RP",
		"updated": "EIC*VORTAC*099.02/26.98",
	},
	{
		"name": "HUDAD",
		"latitude": "33-36-52.04 N",
		"longitude": "99-25-55.62 W",
		"state": "TEXAS",
		"artcc": "ZFW",
		"type": "RNAV",
		"updated": "07/08/2014",
	},
	{
		"name": "HUDEL",
		"latitude": "35-13-49.18 N",
		"longitude": "97-31-43.83 W",
		"state": "OKLAHOMA",
		"artcc": "ZFW",
		"type": "RNAV",
		"updated": "06/16/2014",
	},
	{
		"name": "HUDIL",
		"latitude": "32-55-58.92 N",
		"longitude": "96-31-37.31 W",
		"state": "TEXAS",
		"artcc": "ZFW",
		"type": "RNAV",
		"updated": "07/27/2006",
	},
	{
		"name": "HUDIN",
		"latitude": "33-59-13.31 N",
		"longitude": "98-21-10.72 W",
		"state": "TEXAS",
		"artcc": "ZFW",
		"type": "RP",
		"updated": "SPS*VORTAC*080.01/12.00",
	},
	{
		"name": "HUDUP",
		"latitude": "31-54-1.87 N",
		"longitude": "102-20-33.79 W",
		"state": "TEXAS",
		"artcc": "ZFW",
		"type": "RNAV",
		"updated": "05/16/2010",
	},
	{
		"name": "HUGBI",
		"latitude": "32-4-10.87 N",
		"longitude": "95-49-40.77 W",
		"state": "TEXAS",
		"artcc": "ZFW",
		"type": "RNAV",
		"updated": "04/07/2010",
	},
	{
		"name": "HUGOE",
		"latitude": "32-10-44.09 N",
		"longitude": "99-46-15.34 W",
		"state": "TEXAS",
		"artcc": "ZFW",
		"type": "MR",
		"updated": "DYS*TACAN*158.00/15.00",
	},
	{
		"name": "HUGUX",
		"latitude": "35-35-16.28 N",
		"longitude": "98-40-7.01 W",
		"state": "OKLAHOMA",
		"artcc": "ZFW",
		"type": "RNAV",
		"updated": "03/01/2013",
	},
	{
		"name": "HUGZO",
		"latitude": "32-36-42.66 N",
		"longitude": "96-51-11.99 W",
		"state": "TEXAS",
		"artcc": "ZFW",
		"type": "CN",
		"updated": "02/06/2012",
	},
	{
		"name": "HUKIT",
		"latitude": "34-5-9.23 N",
		"longitude": "95-32-31.95 W",
		"state": "OKLAHOMA",
		"artcc": "ZFW",
		"type": "RNAV",
		"updated": "10/05/2016",
	},
	{
		"name": "HULZE",
		"latitude": "33-39-27.59 N",
		"longitude": "100-13-18.11 W",
		"state": "TEXAS",
		"artcc": "ZFW",
		"type": "RNAV",
		"updated": "05/07/2015",
	},
	{
		"name": "HUMEX",
		"latitude": "32-19-33.33 N",
		"longitude": "99-49-57.34 W",
		"state": "TEXAS",
		"artcc": "ZFW",
		"type": "MR",
		"updated": "DYS*TACAN*/5.68",
	},
	{
		"name": "HUMUG",
		"latitude": "31-17-9.37 N",
		"longitude": "100-30-35.66 W",
		"state": "TEXAS",
		"artcc": "ZFW",
		"type": "RNAV",
		"updated": "08/07/2006",
	},
	{
		"name": "HUNBI",
		"latitude": "34-26-11.37 N",
		"longitude": "98-49-4.71 W",
		"state": "OKLAHOMA",
		"artcc": "ZFW",
		"type": "RNAV",
		"updated": "08/18/2010",
	},
	{
		"name": "HUNEP",
		"latitude": "33-54-4.85 N",
		"longitude": "98-28-14.84 W",
		"state": "TEXAS",
		"artcc": "ZFW",
		"type": "MR",
		"updated": "SPS*VORTAC*120.00/8.00",
	},
	{
		"name": "HUNKI",
		"latitude": "33-46-38.1 N",
		"longitude": "98-13-55.79 W",
		"state": "TEXAS",
		"artcc": "ZFW",
		"type": "RP",
		"updated": "SPS*VORTAC*114.78/22.00",
	},
	{
		"name": "HUNKS",
		"latitude": "32-10-3.81 N",
		"longitude": "97-29-6.4 W",
		"state": "TEXAS",
		"artcc": "ZFW",
		"type": "RNAV",
		"updated": "02/22/2017",
	},
	{
		"name": "HUNNT",
		"latitude": "33-3-53.42 N",
		"longitude": "97-15-54.86 W",
		"state": "TEXAS",
		"artcc": "ZFW",
		"type": "RNAV",
		"updated": "12/11/2015",
	},
	{
		"name": "HUPHA",
		"latitude": "31-37-35.49 N",
		"longitude": "94-12-55.43 W",
		"state": "TEXAS",
		"artcc": "ZFW",
		"type": "RNAV",
		"updated": "05/16/2010",
	},
	{
		"name": "HUPIN",
		"latitude": "32-0-13.48 N",
		"longitude": "98-36-5.31 W",
		"state": "TEXAS",
		"artcc": "ZFW",
		"type": "RNAV",
		"updated": "10/22/2014",
	},
	{
		"name": "HUPMO",
		"latitude": "32-28-12.31 N",
		"longitude": "99-51-57.85 W",
		"state": "TEXAS",
		"artcc": "ZFW",
		"type": "MR",
		"updated": "03/01/2018",
	},
	{
		"name": "HURBS",
		"latitude": "32-56-32.81 N",
		"longitude": "97-0-22.86 W",
		"state": "TEXAS",
		"artcc": "ZFW",
		"type": "RP",
		"updated": "FUZ*VORTAC*064.00/9.30",
	},
	{
		"name": "HUREL",
		"latitude": "35-28-21.79 N",
		"longitude": "97-36-20.81 W",
		"state": "OKLAHOMA",
		"artcc": "ZFW",
		"type": "RNAV",
		"updated": "09/03/2010",
	},
	{
		"name": "HURIK",
		"latitude": "34-11-36.55 N",
		"longitude": "102-3-44.42 W",
		"state": "TEXAS",
		"artcc": "ZFW",
		"type": "RP",
		"updated": "PVW*VOR/DME*284.44/15.00",
	},
	{
		"name": "HURMO",
		"latitude": "31-24-35.44 N",
		"longitude": "96-55-51.49 W",
		"state": "TEXAS",
		"artcc": "ZFW",
		"type": "CN",
		"updated": "02/06/2012",
	},
	{
		"name": "HUSDO",
		"latitude": "32-30-15.35 N",
		"longitude": "100-28-23.41 W",
		"state": "TEXAS",
		"artcc": "ZFW",
		"type": "RNAV",
		"updated": "09/01/2011",
	},
	{
		"name": "HUSEN",
		"latitude": "32-15-23.9 N",
		"longitude": "93-50-33.3 W",
		"state": "LOUISIANA",
		"artcc": "ZFW",
		"type": "RNAV",
		"updated": "07/08/2003",
	},
	{
		"name": "HUSIG",
		"latitude": "35-14-8.17 N",
		"longitude": "97-7-22.09 W",
		"state": "OKLAHOMA",
		"artcc": "ZFW",
		"type": "MR",
		"updated": "IRW*VORTAC*100.00/25.00",
	},
	{
		"name": "HUSIP",
		"latitude": "35-12-13.29 N",
		"longitude": "97-28-21.84 W",
		"state": "OKLAHOMA",
		"artcc": "ZFW",
		"type": "RNAV",
		"updated": "05/12/2011",
	},
	{
		"name": "HUSLA",
		"latitude": "34-41-28.46 N",
		"longitude": "99-16-24.82 W",
		"state": "OKLAHOMA",
		"artcc": "ZFW",
		"type": "MR",
		"updated": "LTS*VORTAC*351.00/1.70",
	},
	{
		"name": "HUSNI",
		"latitude": "32-26-42.09 N",
		"longitude": "98-59-10.84 W",
		"state": "TEXAS",
		"artcc": "ZFW",
		"type": "RNAV",
		"updated": "05/24/2012",
	},
	{
		"name": "HUSOK",
		"latitude": "35-20-18.08 N",
		"longitude": "97-44-50.34 W",
		"state": "OKLAHOMA",
		"artcc": "ZFW",
		"type": "RNAV",
		"updated": "05/16/2010",
	},
	{
		"name": "HUSPA",
		"latitude": "32-47-24.77 N",
		"longitude": "96-46-2.8 W",
		"state": "TEXAS",
		"artcc": "ZFW",
		"type": "RNAV",
		"updated": "09/03/2010",
	},
	{
		"name": "HUTEN",
		"latitude": "32-38-45.26 N",
		"longitude": "97-3-21.75 W",
		"state": "TEXAS",
		"artcc": "ZFW",
		"type": "RP",
		"updated": "BXN*LD*176.25/13.79",
	},
	{
		"name": "HUTOM",
		"latitude": "34-9-24.6 N",
		"longitude": "100-10-16.73 W",
		"state": "TEXAS",
		"artcc": "ZFW",
		"type": "RNAV",
		"updated": "03/26/2013",
	},
	{
		"name": "HUVIL",
		"latitude": "32-53-33.19 N",
		"longitude": "93-24-32.34 W",
		"state": "LOUISIANA",
		"artcc": "ZFW",
		"type": "RNAV",
		"updated": "07/05/2011",
	},
	{
		"name": "HUVIV",
		"latitude": "35-19-14.12 N",
		"longitude": "99-4-14.97 W",
		"state": "OKLAHOMA",
		"artcc": "ZFW",
		"type": "RNAV",
		"updated": "06/15/2011",
	},
	{
		"name": "HUVOP",
		"latitude": "32-0-1.41 N",
		"longitude": "97-3-56.35 W",
		"state": "TEXAS",
		"artcc": "ZFW",
		"type": "RNAV",
		"updated": "07/08/2008",
	},
	{
		"name": "HUWHA",
		"latitude": "35-8-11.56 N",
		"longitude": "99-12-6.57 W",
		"state": "OKLAHOMA",
		"artcc": "ZFW",
		"type": "RNAV",
		"updated": "03/02/2017",
	},
	{
		"name": "HUXZE",
		"latitude": "33-46-43.37 N",
		"longitude": "98-29-27.28 W",
		"state": "TEXAS",
		"artcc": "ZFW",
		"type": "RNAV",
		"updated": "02/20/2016",
	},
	{
		"name": "HWSER",
		"latitude": "32-31-1.57 N",
		"longitude": "102-35-31.14 W",
		"state": "TEXAS",
		"artcc": "ZFW",
		"type": "RNAV",
		"updated": "06/02/2009",
	},
	{
		"name": "HYDES",
		"latitude": "34-21-54.28 N",
		"longitude": "98-24-18.19 W",
		"state": "OKLAHOMA",
		"artcc": "ZFW",
		"type": "RP",
		"updated": "CVE*VOR/DME*314.00/116.00",
	},
	{
		"name": "HYDRO",
		"latitude": "33-34-10.25 N",
		"longitude": "101-40-52.84 W",
		"state": "TEXAS",
		"artcc": "ZFW",
		"type": "RP",
		"updated": "LBB*VORTAC*113.77/14.20",
	},
	{
		"name": "HYMAN",
		"latitude": "32-6-34.1 N",
		"longitude": "101-11-58.18 W",
		"state": "TEXAS",
		"artcc": "ZFW",
		"type": "RP",
		"updated": "MAF*VORTAC*071.97/50.88",
	},
