	{
		"name": "IAGER",
		"latitude": "31-41-10.78 N",
		"longitude": "97-17-13.59 W",
		"state": "TEXAS",
		"artcc": "ZFW",
		"type": "RNAV",
		"updated": "12/27/2010",
	},
	{
		"name": "IBAKE",
		"latitude": "35-1-23.62 N",
		"longitude": "97-30-11.87 W",
		"state": "OKLAHOMA",
		"artcc": "ZFW",
		"type": "RNAV",
		"updated": "05/11/2015",
	},
	{
		"name": "IBECE",
		"latitude": "33-15-58.75 N",
		"longitude": "96-8-2.41 W",
		"state": "TEXAS",
		"artcc": "ZFW",
		"type": "RP",
		"updated": "BYP*VORTAC*156.77/17.00",
	},
	{
		"name": "IBECI",
		"latitude": "32-34-35.89 N",
		"longitude": "91-57-34.43 W",
		"state": "LOUISIANA",
		"artcc": "ZFW",
		"type": "RNAV",
		"updated": "09/26/2012",
	},
	{
		"name": "IBOCO",
		"latitude": "32-51-45.99 N",
		"longitude": "102-59-17.83 W",
		"state": "TEXAS",
		"artcc": "ZFW",
		"type": "RP",
		"updated": "HOB*VORTAC*035.53/19.57",
	},
	{
		"name": "IBRIF",
		"latitude": "32-18-27.7 N",
		"longitude": "99-40-27.42 W",
		"state": "TEXAS",
		"artcc": "ZFW",
		"type": "RNAV",
		"updated": "02/10/2010",
	},
	{
		"name": "ICEDA",
		"latitude": "32-51-38.58 N",
		"longitude": "94-6-47.35 W",
		"state": "TEXAS",
		"artcc": "ZFW",
		"type": "RNAV",
		"updated": "01/04/2009",
	},
	{
		"name": "ICIDE",
		"latitude": "31-13-55.09 N",
		"longitude": "97-18-46.87 W",
		"state": "TEXAS",
		"artcc": "ZFW",
		"type": "RNAV",
		"updated": "12/27/2012",
	},
	{
		"name": "ICKEL",
		"latitude": "33-11-55.29 N",
		"longitude": "97-3-11.43 W",
		"state": "TEXAS",
		"artcc": "ZFW",
		"type": "RP",
		"updated": "VYN*LD*356.25/19.32",
	},
	{
		"name": "ICORO",
		"latitude": "31-43-43.39 N",
		"longitude": "102-10-55.51 W",
		"state": "TEXAS",
		"artcc": "ZFW",
		"type": "RNAV",
		"updated": "07/27/2012",
	},
	{
		"name": "ICUKA",
		"latitude": "33-16-40.85 N",
		"longitude": "95-18-29.6 W",
		"state": "TEXAS",
		"artcc": "ZFW",
		"type": "RNAV",
		"updated": "04/12/2005",
	},
	{
		"name": "IDAPE",
		"latitude": "32-29-29.98 N",
		"longitude": "96-46-21.99 W",
		"state": "TEXAS",
		"artcc": "ZFW",
		"type": "RNAV",
		"updated": "10/20/2005",
	},
	{
		"name": "IDDAS",
		"latitude": "32-58-10.26 N",
		"longitude": "93-52-47.08 W",
		"state": "LOUISIANA",
		"artcc": "ZFW",
		"type": "RP",
		"updated": "EIC*VORTAC*336.46/12.38",
	},
	{
		"name": "IDOHY",
		"latitude": "35-29-11.89 N",
		"longitude": "97-49-6.51 W",
		"state": "OKLAHOMA",
		"artcc": "ZFW",
		"type": "RP",
		"updated": "IRW*VORTAC*299.84/12.81",
	},
	{
		"name": "IDOPY",
		"latitude": "32-30-40.37 N",
		"longitude": "97-51-47.07 W",
		"state": "TEXAS",
		"artcc": "ZFW",
		"type": "RNAV",
		"updated": "06/11/2010",
	},
	{
		"name": "IDUXE",
		"latitude": "35-26-37.54 N",
		"longitude": "96-56-34.57 W",
		"state": "OKLAHOMA",
		"artcc": "ZFW",
		"type": "WP",
		"updated": "11/02/1998",
	},
	{
		"name": "IDYAZ",
		"latitude": "32-12-45.95 N",
		"longitude": "95-49-42.77 W",
		"state": "TEXAS",
		"artcc": "ZFW",
		"type": "RNAV",
		"updated": "04/07/2010",
	},
	{
		"name": "IFDOH",
		"latitude": "31-14-33.1 N",
		"longitude": "97-26-32.09 W",
		"state": "TEXAS",
		"artcc": "ZFW",
		"type": "RNAV",
		"updated": "08/18/2010",
	},
	{
		"name": "IFNOF",
		"latitude": "32-25-36.55 N",
		"longitude": "103-2-42.59 W",
		"state": "TEXAS",
		"artcc": "ZFW",
		"type": "RNAV",
		"updated": "09/11/2014",
	},
	{
		"name": "IGATE",
		"latitude": "33-7-48.71 N",
		"longitude": "96-14-35.16 W",
		"state": "TEXAS",
		"artcc": "ZFW",
		"type": "RNAV",
		"updated": "03/01/2005",
	},
	{
		"name": "IGIPY",
		"latitude": "35-4-58.24 N",
		"longitude": "99-3-14.29 W",
		"state": "OKLAHOMA",
		"artcc": "ZFW",
		"type": "RNAV",
		"updated": "02/14/2010",
	},
	{
		"name": "IGORR",
		"latitude": "31-49-27.87 N",
		"longitude": "97-27-58.55 W",
		"state": "TEXAS",
		"artcc": "ZFW",
		"type": "RP",
		"updated": "CVE*VOR/DME*198.27",
	},
	{
		"name": "IGURE",
		"latitude": "34-51-8.35 N",
		"longitude": "99-11-31.37 W",
		"state": "OKLAHOMA",
		"artcc": "ZFW",
		"type": "MR",
		"updated": "LTS*VORTAC*014.00/12.00",
	},
	{
		"name": "IHSAZ",
		"latitude": "31-20-18.62 N",
		"longitude": "97-28-38.3 W",
		"state": "TEXAS",
		"artcc": "ZFW",
		"type": "RNAV",
		"updated": "07/27/2006",
	},
	{
		"name": "IHZOP",
		"latitude": "33-24-43.38 N",
		"longitude": "97-21-45.29 W",
		"state": "TEXAS",
		"artcc": "ZFW",
		"type": "RNAV",
		"updated": "12/30/2010",
	},
	{
		"name": "IJEQU",
		"latitude": "32-29-6.27 N",
		"longitude": "95-33-3.35 W",
		"state": "TEXAS",
		"artcc": "ZFW",
		"type": "RNAV",
		"updated": "07/21/2006",
	},
	{
		"name": "IJETE",
		"latitude": "32-13-4.24 N",
		"longitude": "96-26-4.73 W",
		"state": "TEXAS",
		"artcc": "ZFW",
		"type": "RNAV",
		"updated": "08/02/2000",
	},
	{
		"name": "IKACE",
		"latitude": "34-12-42.93 N",
		"longitude": "98-33-4.48 W",
		"state": "OKLAHOMA",
		"artcc": "ZFW",
		"type": "MW",
		"updated": "02/26/2010",
	},
	{
		"name": "IKAZE",
		"latitude": "35-30-46.36 N",
		"longitude": "97-42-8.28 W",
		"state": "OKLAHOMA",
		"artcc": "ZFW",
		"type": "RNAV",
		"updated": "06/15/2011",
	},
	{
		"name": "IKITY",
		"latitude": "32-29-34.07 N",
		"longitude": "97-34-29.87 W",
		"state": "TEXAS",
		"artcc": "ZFW",
		"type": "RNAV",
		"updated": "08/06/2013",
	},
	{
		"name": "IKOTY",
		"latitude": "33-16-27.84 N",
		"longitude": "96-35-4.12 W",
		"state": "TEXAS",
		"artcc": "ZFW",
		"type": "RNAV",
		"updated": "06/14/2012",
	},
	{
		"name": "IKOYA",
		"latitude": "33-16-53.17 N",
		"longitude": "96-13-51.63 W",
		"state": "TEXAS",
		"artcc": "ZFW",
		"type": "RP",
		"updated": "BYP*VORTAC*173.42/15.33",
	},
	{
		"name": "IKUSE",
		"latitude": "32-39-37.26 N",
		"longitude": "96-31-55.17 W",
		"state": "TEXAS",
		"artcc": "ZFW",
		"type": "RNAV",
		"updated": "07/14/2008",
	},
	{
		"name": "ILEBE",
		"latitude": "32-23-59.1 N",
		"longitude": "101-30-50.89 W",
		"state": "TEXAS",
		"artcc": "ZFW",
		"type": "RNAV",
		"updated": "10/22/2008",
	},
	{
		"name": "ILECI",
		"latitude": "34-30-47.82 N",
		"longitude": "98-24-46.47 W",
		"state": "OKLAHOMA",
		"artcc": "ZFW",
		"type": "RNAV",
		"updated": "05/24/2017",
	},
	{
		"name": "ILEZY",
		"latitude": "33-5-46.05 N",
		"longitude": "96-35-32.32 W",
		"state": "TEXAS",
		"artcc": "ZFW",
		"type": "RNAV",
		"updated": "06/14/2012",
	},
	{
		"name": "ILIAC",
		"latitude": "33-27-20.76 N",
		"longitude": "97-12-15.45 W",
		"state": "TEXAS",
		"artcc": "ZFW",
		"type": "RNAV",
		"updated": "11/01/2016",
	},
	{
		"name": "ILIMY",
		"latitude": "31-16-37.19 N",
		"longitude": "100-34-45.1 W",
		"state": "TEXAS",
		"artcc": "ZFW",
		"type": "RNAV",
		"updated": "07/12/2005",
	},
	{
		"name": "ILINI",
		"latitude": "31-26-23.73 N",
		"longitude": "97-6-57.38 W",
		"state": "TEXAS",
		"artcc": "ZFW",
		"type": "RNAV",
		"updated": "12/27/2010",
	},
	{
		"name": "ILOPY",
		"latitude": "33-50-41.57 N",
		"longitude": "97-11-42.63 W",
		"state": "TEXAS",
		"artcc": "ZFW",
		"type": "RNAV",
		"updated": "03/31/2009",
	},
	{
		"name": "ILRUH",
		"latitude": "31-17-38.2 N",
		"longitude": "100-35-18.03 W",
		"state": "TEXAS",
		"artcc": "ZFW",
		"type": "RP",
		"updated": "SJT*VORTAC*224.77/8.40",
	},
	{
		"name": "ILUCU",
		"latitude": "31-54-12.87 N",
		"longitude": "97-1-44.36 W",
		"state": "TEXAS",
		"artcc": "ZFW",
		"type": "RNAV",
		"updated": "07/08/2008",
	},
	{
		"name": "IMAGE",
		"latitude": "35-24-40.86 N",
		"longitude": "97-29-13.03 W",
		"state": "OKLAHOMA",
		"artcc": "ZFW",
		"type": "RNAV",
		"updated": "05/27/2014",
	},
	{
		"name": "IMELE",
		"latitude": "32-50-44.07 N",
		"longitude": "97-3-3.95 W",
		"state": "TEXAS",
		"artcc": "ZFW",
		"type": "RNAV",
		"updated": "03/19/2002",
	},
	{
		"name": "IMENE",
		"latitude": "32-29-57.7 N",
		"longitude": "96-54-32.96 W",
		"state": "TEXAS",
		"artcc": "ZFW",
		"type": "RNAV",
		"updated": "07/10/2009",
	},
	{
		"name": "IMGOY",
		"latitude": "31-27-43.46 N",
		"longitude": "97-22-20.28 W",
		"state": "TEXAS",
		"artcc": "ZFW",
		"type": "RNAV",
		"updated": "02/09/2018",
	},
	{
		"name": "IMIDE",
		"latitude": "32-40-49.88 N",
		"longitude": "97-11-10.27 W",
		"state": "TEXAS",
		"artcc": "ZFW",
		"type": "RNAV",
		"updated": "09/03/2010",
	},
	{
		"name": "IMIME",
		"latitude": "35-7-43.2 N",
		"longitude": "97-10-8.83 W",
		"state": "OKLAHOMA",
		"artcc": "ZFW",
		"type": "MW",
		"updated": "05/30/2008",
	},
	{
		"name": "IMIPE",
		"latitude": "31-47-22.07 N",
		"longitude": "97-0-59.21 W",
		"state": "TEXAS",
		"artcc": "ZFW",
		"type": "RP",
		"updated": "ACT*VORTAC*050.44/15.00",
	},
	{
		"name": "IMJUC",
		"latitude": "31-39-55.69 N",
		"longitude": "97-19-18.64 W",
		"state": "TEXAS",
		"artcc": "ZFW",
		"type": "RNAV",
		"updated": "12/27/2012",
	},
	{
		"name": "IMOPY",
		"latitude": "32-46-48.48 N",
		"longitude": "96-13-30.45 W",
		"state": "TEXAS",
		"artcc": "ZFW",
		"type": "RNAV",
		"updated": "03/01/2005",
	},
	{
		"name": "IMPCO",
		"latitude": "34-54-14.43 N",
		"longitude": "96-56-51.37 W",
		"state": "OKLAHOMA",
		"artcc": "ZFW",
		"type": "RP",
		"updated": "IRW*VORTAC*122.72",
	},
	{
		"name": "INAPT",
		"latitude": "32-53-37.65 N",
		"longitude": "96-54-11.37 W",
		"state": "TEXAS",
		"artcc": "ZFW",
		"type": "RNAV",
		"updated": "02/23/2016",
	},
	{
		"name": "INDOO",
		"latitude": "32-24-56.26 N",
		"longitude": "95-28-9.36 W",
		"state": "TEXAS",
		"artcc": "ZFW",
		"type": "RP",
		"updated": "TYR*VOR/DME*310.96/4.90",
	},
	{
		"name": "INECO",
		"latitude": "32-12-19.55 N",
		"longitude": "99-46-19.2 W",
		"state": "TEXAS",
		"artcc": "ZFW",
		"type": "RNAV",
		"updated": "02/10/2010",
	},
	{
		"name": "INECU",
		"latitude": "31-46-26.98 N",
		"longitude": "102-5-18.86 W",
		"state": "TEXAS",
		"artcc": "ZFW",
		"type": "RP",
		"updated": "MAF*VORTAC*148.70/15.01",
	},
	{
		"name": "INHOF",
		"latitude": "35-50-25.7 N",
		"longitude": "96-2-38.14 W",
		"state": "OKLAHOMA",
		"artcc": "ZFW",
		"type": "RP",
		"updated": "GNP*VOR/DME*211.32",
	},
	{
		"name": "INIBE",
		"latitude": "34-18-37.89 N",
		"longitude": "98-26-29.48 W",
		"state": "OKLAHOMA",
		"artcc": "ZFW",
		"type": "RNAV",
		"updated": "05/24/2017",
	},
	{
		"name": "INIVE",
		"latitude": "32-36-45.68 N",
		"longitude": "98-55-14.83 W",
		"state": "TEXAS",
		"artcc": "ZFW",
		"type": "RNAV",
		"updated": "03/10/2011",
	},
	{
		"name": "INNUP",
		"latitude": "33-49-29.31 N",
		"longitude": "93-40-57.59 W",
		"state": "ARKANSAS",
		"artcc": "ZFW",
		"type": "WP",
		"updated": "01/16/2002",
	},
	{
		"name": "INOXE",
		"latitude": "32-22-44.39 N",
		"longitude": "97-46-18.4 W",
		"state": "TEXAS",
		"artcc": "ZFW",
		"type": "RNAV",
		"updated": "06/11/2010",
	},
	{
		"name": "INUWE",
		"latitude": "31-52-57.83 N",
		"longitude": "98-57-22.09 W",
		"state": "TEXAS",
		"artcc": "ZFW",
		"type": "RNAV",
		"updated": "06/29/2005",
	},
	{
		"name": "INWAM",
		"latitude": "32-51-41.55 N",
		"longitude": "93-8-21.43 W",
		"state": "LOUISIANA",
		"artcc": "ZFW",
		"type": "RP",
		"updated": "EMG*VORTAC*032.79/36.00",
	},
	{
		"name": "INWOD",
		"latitude": "33-2-27.19 N",
		"longitude": "97-0-32.33 W",
		"state": "TEXAS",
		"artcc": "ZFW",
		"type": "RP",
		"updated": "PPZ*LD*356.27/10.12",
	},
	{
		"name": "IPEME",
		"latitude": "32-12-58.31 N",
		"longitude": "95-33-49.64 W",
		"state": "TEXAS",
		"artcc": "ZFW",
		"type": "RNAV",
		"updated": "06/29/2005",
	},
	{
		"name": "IPOYE",
		"latitude": "31-49-5.31 N",
		"longitude": "93-7-17.72 W",
		"state": "LOUISIANA",
		"artcc": "ZFW",
		"type": "RNAV",
		"updated": "04/20/2012",
	},
	{
		"name": "IREZO",
		"latitude": "31-55-50.39 N",
		"longitude": "99-27-8.02 W",
		"state": "TEXAS",
		"artcc": "ZFW",
		"type": "RNAV",
		"updated": "06/04/2012",
	},
	{
		"name": "IRIYE",
		"latitude": "31-57-59.61 N",
		"longitude": "98-36-1.66 W",
		"state": "TEXAS",
		"artcc": "ZFW",
		"type": "RNAV",
		"updated": "10/22/2014",
	},
	{
		"name": "IROTE",
		"latitude": "33-11-44.58 N",
		"longitude": "98-28-15.49 W",
		"state": "TEXAS",
		"artcc": "ZFW",
		"type": "RNAV",
		"updated": "02/06/2008",
	},
	{
		"name": "ISABL",
		"latitude": "32-28-37.14 N",
		"longitude": "97-31-2.22 W",
		"state": "TEXAS",
		"artcc": "ZFW",
		"type": "RP",
		"updated": "JEN*VORTAC*037.86/26.40",
	},
	{
		"name": "ISAKE",
		"latitude": "35-27-18.89 N",
		"longitude": "97-29-12.54 W",
		"state": "OKLAHOMA",
		"artcc": "ZFW",
		"type": "RNAV",
		"updated": "05/27/2014",
	},
	{
		"name": "ISOBE",
		"latitude": "35-17-2.9 N",
		"longitude": "98-6-21.74 W",
		"state": "OKLAHOMA",
		"artcc": "ZFW",
		"type": "RNAV",
		"updated": "02/04/2008",
	},
	{
		"name": "ISOBY",
		"latitude": "31-58-14.99 N",
		"longitude": "102-28-53.28 W",
		"state": "TEXAS",
		"artcc": "ZFW",
		"type": "RNAV",
		"updated": "05/16/2010",
	},
	{
		"name": "ISSUE",
		"latitude": "32-48-7.74 N",
		"longitude": "97-1-38.86 W",
		"state": "TEXAS",
		"artcc": "ZFW",
		"type": "RP",
		"updated": "PKQ*LD*S CRS/4.41",
	},
	{
		"name": "ITCHY",
		"latitude": "34-54-30.07 N",
		"longitude": "99-20-20.89 W",
		"state": "OKLAHOMA",
		"artcc": "ZFW",
		"type": "RNAV",
		"updated": "10/29/2014",
	},
	{
		"name": "ITECO",
		"latitude": "32-24-5.74 N",
		"longitude": "93-35-53.83 W",
		"state": "LOUISIANA",
		"artcc": "ZFW",
		"type": "MR",
		"updated": "BAD*TACAN*/7.04",
	},
	{
		"name": "ITHIM",
		"latitude": "33-39-42.01 N",
		"longitude": "101-55-43.59 W",
		"state": "TEXAS",
		"artcc": "ZFW",
		"type": "WP",
		"updated": "11/02/1998",
	},
	{
		"name": "ITOKE",
		"latitude": "32-33-11.54 N",
		"longitude": "92-35-18.2 W",
		"state": "LOUISIANA",
		"artcc": "ZFW",
		"type": "RNAV",
		"updated": "05/17/2011",
	},
	{
		"name": "ITOVE",
		"latitude": "34-33-38.78 N",
		"longitude": "98-24-8.74 W",
		"state": "OKLAHOMA",
		"artcc": "ZFW",
		"type": "RNAV",
		"updated": "08/04/2008",
	},
	{
		"name": "ITTTT",
		"latitude": "33-7-35.25 N",
		"longitude": "96-59-55.61 W",
		"state": "TEXAS",
		"artcc": "ZFW",
		"type": "RNAV",
		"updated": "07/08/2014",
	},
	{
		"name": "ITUDE",
		"latitude": "34-49-17 N",
		"longitude": "98-13-49 W",
		"state": "OKLAHOMA",
		"artcc": "ZFW",
		"type": "RNAV",
		"updated": "08/12/2005",
	},
	{
		"name": "ITUHY",
		"latitude": "32-46-2.81 N",
		"longitude": "97-28-20.2 W",
		"state": "TEXAS",
		"artcc": "ZFW",
		"type": "RNAV",
		"updated": "11/25/2016",
	},
	{
		"name": "IVCUP",
		"latitude": "35-34-56.82 N",
		"longitude": "95-16-15.91 W",
		"state": "OKLAHOMA",
		"artcc": "ZFW",
		"type": "RNAV",
		"updated": "06/16/2008",
	},
	{
		"name": "IVEYI",
		"latitude": "35-29-35.25 N",
		"longitude": "97-36-20.87 W",
		"state": "OKLAHOMA",
		"artcc": "ZFW",
		"type": "RP",
		"updated": "PWA*VOR/DME*131.63",
	},
	{
		"name": "IVICE",
		"latitude": "35-18-54.46 N",
		"longitude": "96-56-34.05 W",
		"state": "OKLAHOMA",
		"artcc": "ZFW",
		"type": "RNAV",
		"updated": "06/18/2010",
	},
	{
		"name": "IVIDE",
		"latitude": "31-23-30.65 N",
		"longitude": "101-30-53.68 W",
		"state": "TEXAS",
		"artcc": "ZFW",
		"type": "RNAV",
		"updated": "09/21/2006",
	},
	{
		"name": "IVOVE",
		"latitude": "33-34-0.01 N",
		"longitude": "96-33-5.95 W",
		"state": "TEXAS",
		"artcc": "ZFW",
		"type": "RNAV",
		"updated": "10/20/2005",
	},
	{
		"name": "IWAHU",
		"latitude": "31-42-16.41 N",
		"longitude": "98-57-13.71 W",
		"state": "TEXAS",
		"artcc": "ZFW",
		"type": "RNAV",
		"updated": "06/29/2005",
	},
	{
		"name": "IWIFY",
		"latitude": "31-34-39.96 N",
		"longitude": "97-12-41.63 W",
		"state": "TEXAS",
		"artcc": "ZFW",
		"type": "RNAV",
		"updated": "12/27/2010",
	},
	{
		"name": "IWOHO",
		"latitude": "31-32-24.4 N",
		"longitude": "97-11-13.02 W",
		"state": "TEXAS",
		"artcc": "ZFW",
		"type": "RP",
		"updated": "ACT*VORTAC*141.09/8.44",
	},
	{
		"name": "IXODE",
		"latitude": "33-59-13.87 N",
		"longitude": "98-27-11.5 W",
		"state": "TEXAS",
		"artcc": "ZFW",
		"type": "MR",
		"updated": "SPS*VORTAC*080.01/7.00",
	},
	{
		"name": "IYFEL",
		"latitude": "32-7-19.42 N",
		"longitude": "95-15-41.65 W",
		"state": "TEXAS",
		"artcc": "ZFW",
		"type": "RNAV",
		"updated": "07/30/2012",
	},
	{
		"name": "IYLAL",
		"latitude": "33-4-27.68 N",
		"longitude": "92-34-9.05 W",
		"state": "ARKANSAS",
		"artcc": "ZFW",
		"type": "RP",
		"updated": "ELD*VOR/DME*134.00/14.00",
	},
	{
		"name": "IYOCU",
		"latitude": "35-23-29.2 N",
		"longitude": "97-38-57.1 W",
		"state": "OKLAHOMA",
		"artcc": "ZFW",
		"type": "RNAV",
		"updated": "08/03/2015",
	},
	{
		"name": "IYWIY",
		"latitude": "34-9-41.68 N",
		"longitude": "96-50-51.96 W",
		"state": "OKLAHOMA",
		"artcc": "ZFW",
		"type": "RNAV",
		"updated": "08/30/2011",
	},
	{
		"name": "IZANO",
		"latitude": "33-37-17.59 N",
		"longitude": "93-51-29.72 W",
		"state": "ARKANSAS",
		"artcc": "ZFW",
		"type": "RP",
		"updated": "TXK*VORTAC*052.05/12.56",
	},
	{
		"name": "IZORO",
		"latitude": "31-30-42.98 N",
		"longitude": "98-1-5.71 W",
		"state": "TEXAS",
		"artcc": "ZFW",
		"type": "RP",
		"updated": "ACT*VORTAC*248.00",
	},
	{
		"name": "IZWID",
		"latitude": "35-10-25.68 N",
		"longitude": "96-25-0.18 W",
		"state": "OKLAHOMA",
		"artcc": "ZFW",
		"type": "WP",
		"updated": "11/02/1998",
	},
