[
	{
		"name": "JABAB",
		"latitude": "32-39-37.1 N",
		"longitude": "97-26-33.83 W",
		"state": "TEXAS",
		"artcc": "ZFW",
		"type": "MR",
		"updated": "MQP*VORTAC*088.84"
	},
	{
		"name": "JABEV",
		"latitude": "33-46-29.08 N",
		"longitude": "97-47-45.59 W",
		"state": "TEXAS",
		"artcc": "ZFW",
		"type": "RNAV",
		"updated": "01/08/2003"
	},
	{
		"name": "JABVA",
		"latitude": "35-40-6.33 N",
		"longitude": "98-14-31.22 W",
		"state": "OKLAHOMA",
		"artcc": "ZFW",
		"type": "RNAV",
		"updated": "03/27/2008"
	},
	{
		"name": "JADBO",
		"latitude": "32-48-16.52 N",
		"longitude": "96-43-21.17 W",
		"state": "TEXAS",
		"artcc": "ZFW",
		"type": "RNAV",
		"updated": "10/17/2005"
	},
	{
		"name": "JAGID",
		"latitude": "32-44-46.26 N",
		"longitude": "98-13-31.98 W",
		"state": "TEXAS",
		"artcc": "ZFW",
		"type": "RNAV",
		"updated": "07/08/2014"
	},
	{
		"name": "JAGUG",
		"latitude": "34-42-46.67 N",
		"longitude": "99-16-25.77 W",
		"state": "OKLAHOMA",
		"artcc": "ZFW",
		"type": "MR",
		"updated": "LTS*VORTAC*/3.00"
	},
	{
		"name": "JAIMS",
		"latitude": "32-45-35.62 N",
		"longitude": "103-7-48.87 W",
		"state": "NEW MEXICO",
		"artcc": "ZFW",
		"type": "RP",
		"updated": "HOB*VORTAC*/10.13"
	},
	{
		"name": "JAKCY",
		"latitude": "32-13-43.65 N",
		"longitude": "96-7-2.43 W",
		"state": "TEXAS",
		"artcc": "ZFW",
		"type": "RNAV",
		"updated": "05/07/2015"
	},
	{
		"name": "JAKID",
		"latitude": "32-46-23.1 N",
		"longitude": "96-46-22.32 W",
		"state": "TEXAS",
		"artcc": "ZFW",
		"type": "RP",
		"updated": "LVF*LD*132.63/4.93"
	},
	{
		"name": "JALIM",
		"latitude": "32-53-28.32 N",
		"longitude": "96-44-12.15 W",
		"state": "TEXAS",
		"artcc": "ZFW",
		"type": "RNAV",
		"updated": "02/08/2016"
	},
	{
		"name": "JALOM",
		"latitude": "33-36-5.23 N",
		"longitude": "96-30-30.9 W",
		"state": "TEXAS",
		"artcc": "ZFW",
		"type": "RNAV",
		"updated": "10/20/2005"
	},
	{
		"name": "JAMAK",
		"latitude": "32-53-22.37 N",
		"longitude": "97-26-24.78 W",
		"state": "TEXAS",
		"artcc": "ZFW",
		"type": "MW",
		"updated": "08/07/2014"
	},
	{
		"name": "JAMGU",
		"latitude": "32-50-59.97 N",
		"longitude": "98-29-17.11 W",
		"state": "TEXAS",
		"artcc": "ZFW",
		"type": "RNAV",
		"updated": "12/20/2009"
	},
	{
		"name": "JAMKU",
		"latitude": "32-54-36.72 N",
		"longitude": "99-16-26.36 W",
		"state": "TEXAS",
		"artcc": "ZFW",
		"type": "RNAV",
		"updated": "02/01/2010"
	},
	{
		"name": "JAMMZ",
		"latitude": "34-35-28.8 N",
		"longitude": "99-44-49.31 W",
		"state": "OKLAHOMA",
		"artcc": "ZFW",
		"type": "RP",
		"updated": "CDS*VORTAC*053.50/30.00"
	},
	{
		"name": "JANOR",
		"latitude": "34-9-27.07 N",
		"longitude": "98-5-34.59 W",
		"state": "OKLAHOMA",
		"artcc": "ZFW",
		"type": "MW",
		"updated": "02/26/2010"
	},
	{
		"name": "JANUX",
		"latitude": "35-52-2.22 N",
		"longitude": "95-26-48.94 W",
		"state": "OKLAHOMA",
		"artcc": "ZFW",
		"type": "RNAV",
		"updated": "06/16/2008"
	},
	{
		"name": "JAPEP",
		"latitude": "33-5-3.2 N",
		"longitude": "98-19-27.02 W",
		"state": "TEXAS",
		"artcc": "ZFW",
		"type": "RNAV",
		"updated": "12/20/2009"
	},
	{
		"name": "JAPUX",
		"latitude": "34-28-49.78 N",
		"longitude": "100-1-6.18 W",
		"state": "TEXAS",
		"artcc": "ZFW",
		"type": "RP",
		"updated": "CDS*VORTAC*053.50/15.00"
	},
	{
		"name": "JARTA",
		"latitude": "32-14-17.37 N",
		"longitude": "99-3-34.3 W",
		"state": "TEXAS",
		"artcc": "ZFW",
		"type": "RNAV",
		"updated": "04/02/2016"
	},
	{
		"name": "JASGU",
		"latitude": "34-13-21.49 N",
		"longitude": "95-32-33.32 W",
		"state": "OKLAHOMA",
		"artcc": "ZFW",
		"type": "RNAV",
		"updated": "02/13/2018"
	},
	{
		"name": "JASIK",
		"latitude": "33-38-5.23 N",
		"longitude": "97-9-56.8 W",
		"state": "TEXAS",
		"artcc": "ZFW",
		"type": "RNAV",
		"updated": "05/22/2009"
	},
	{
		"name": "JASPA",
		"latitude": "32-17-6.11 N",
		"longitude": "97-3-32.37 W",
		"state": "TEXAS",
		"artcc": "ZFW",
		"type": "RP",
		"updated": "JEN*VORTAC*073.56"
	},
	{
		"name": "JASUB",
		"latitude": "34-57-29.07 N",
		"longitude": "99-31-41.11 W",
		"state": "OKLAHOMA",
		"artcc": "ZFW",
		"type": "RNAV",
		"updated": "11/07/2016"
	},
	{
		"name": "JATMI",
		"latitude": "33-48-11.17 N",
		"longitude": "102-29-58.62 W",
		"state": "TEXAS",
		"artcc": "ZFW",
		"type": "RNAV",
		"updated": "03/26/2013"
	},
	{
		"name": "JATTU",
		"latitude": "34-48-58.64 N",
		"longitude": "99-6-54.09 W",
		"state": "OKLAHOMA",
		"artcc": "ZFW",
		"type": "MR",
		"updated": "LTS*VORTAC*035.00/12.00"
	},
	{
		"name": "JAVAB",
		"latitude": "33-34-15.97 N",
		"longitude": "92-46-23.71 W",
		"state": "ARKANSAS",
		"artcc": "ZFW",
		"type": "RNAV",
		"updated": "03/16/2012"
	},
	{
		"name": "JAVEE",
		"latitude": "32-30-12.78 N",
		"longitude": "93-52-46.41 W",
		"state": "LOUISIANA",
		"artcc": "ZFW",
		"type": "RP",
		"updated": "EIC*VORTAC*185.43"
	},
	{
		"name": "JAVMU",
		"latitude": "33-32-40.58 N",
		"longitude": "95-27-9.78 W",
		"state": "TEXAS",
		"artcc": "ZFW",
		"type": "RNAV",
		"updated": "09/21/2006"
	},
	{
		"name": "JAVOT",
		"latitude": "32-54-18.69 N",
		"longitude": "94-55-46.59 W",
		"state": "TEXAS",
		"artcc": "ZFW",
		"type": "RNAV",
		"updated": "11/28/2008"
	},
	{
		"name": "JAVXE",
		"latitude": "35-9-57.47 N",
		"longitude": "97-35-19.47 W",
		"state": "OKLAHOMA",
		"artcc": "ZFW",
		"type": "RP",
		"updated": "IRW*VORTAC*168.01/11.58"
	},
	{
		"name": "JAXAB",
		"latitude": "33-13-40.86 N",
		"longitude": "95-24-33.92 W",
		"state": "TEXAS",
		"artcc": "ZFW",
		"type": "RP",
		"updated": "SLR*VOR/DME*067.22"
	},
	{
		"name": "JAXEB",
		"latitude": "33-34-6.64 N",
		"longitude": "96-10-51.12 W",
		"state": "TEXAS",
		"artcc": "ZFW",
		"type": "RNAV",
		"updated": "04/12/2006"
	},
	{
		"name": "JAYXX",
		"latitude": "33-3-24.5 N",
		"longitude": "95-50-21.3 W",
		"state": "TEXAS",
		"artcc": "ZFW",
		"type": "RNAV",
		"updated": "07/08/2014"
	},
	{
		"name": "JAZDE",
		"latitude": "33-45-46.9 N",
		"longitude": "101-50-31.95 W",
		"state": "TEXAS",
		"artcc": "ZFW",
		"type": "RP",
		"updated": "LBB*VORTAC*034.91/5.00"
	},
	{
		"name": "JEBGO",
		"latitude": "35-17-40.2 N",
		"longitude": "97-49-32.24 W",
		"state": "OKLAHOMA",
		"artcc": "ZFW",
		"type": "RNAV",
		"updated": "07/31/2006"
	},
	{
		"name": "JEBOM",
		"latitude": "33-44-25.12 N",
		"longitude": "93-37-29.45 W",
		"state": "ARKANSAS",
		"artcc": "ZFW",
		"type": "RP",
		"updated": "TXK*VORTAC*051.76/26.24"
	},
	{
		"name": "JEDMO",
		"latitude": "31-51-14.01 N",
		"longitude": "99-58-33.85 W",
		"state": "TEXAS",
		"artcc": "ZFW",
		"type": "RNAV",
		"updated": "11/29/2012"
	},
	{
		"name": "JEDSI",
		"latitude": "33-44-47.17 N",
		"longitude": "93-37-40.44 W",
		"state": "ARKANSAS",
		"artcc": "ZFW",
		"type": "RNAV",
		"updated": "12/02/2014"
	},
	{
		"name": "JEDUB",
		"latitude": "32-10-50.26 N",
		"longitude": "94-51-35.15 W",
		"state": "TEXAS",
		"artcc": "ZFW",
		"type": "RNAV",
		"updated": "12/31/2009"
	},
	{
		"name": "JEGAK",
		"latitude": "32-39-18.98 N",
		"longitude": "97-5-22.73 W",
		"state": "TEXAS",
		"artcc": "ZFW",
		"type": "RP",
		"updated": "TTT*VOR/DME*185.00/13.05"
	},
	{
		"name": "JEGIN",
		"latitude": "32-27-30.54 N",
		"longitude": "97-12-14.42 W",
		"state": "TEXAS",
		"artcc": "ZFW",
		"type": "RNAV",
		"updated": "09/19/2010"
	},
	{
		"name": "JEGLU",
		"latitude": "34-9-13.01 N",
		"longitude": "98-38-54.23 W",
		"state": "TEXAS",
		"artcc": "ZFW",
		"type": "MR",
		"updated": "SHP*TACAN*317.00/13.00"
	},
	{
		"name": "JEKAL",
		"latitude": "35-11-30.91 N",
		"longitude": "97-50-24.64 W",
		"state": "OKLAHOMA",
		"artcc": "ZFW",
		"type": "RNAV",
		"updated": "05/20/2014"
	},
	{
		"name": "JEKIL",
		"latitude": "32-35-38.23 N",
		"longitude": "96-54-56.61 W",
		"state": "TEXAS",
		"artcc": "ZFW",
		"type": "RNAV",
		"updated": "05/07/2015"
	},
	{
		"name": "JEKOX",
		"latitude": "33-15-55.44 N",
		"longitude": "95-47-18.07 W",
		"state": "TEXAS",
		"artcc": "ZFW",
		"type": "RP",
		"updated": "SLR*VOR/DME*280.00/13.00"
	},
	{
		"name": "JEKUT",
		"latitude": "34-2-34.18 N",
		"longitude": "101-54-4.88 W",
		"state": "TEXAS",
		"artcc": "ZFW",
		"type": "RNAV",
		"updated": "07/27/2006"
	},
	{
		"name": "JELFE",
		"latitude": "31-57-33.85 N",
		"longitude": "102-12-19.87 W",
		"state": "TEXAS",
		"artcc": "ZFW",
		"type": "WP",
		"updated": "MAF*VORTAC*183.48/3.09"
	},
	{
		"name": "JELGA",
		"latitude": "33-35-29.61 N",
		"longitude": "94-9-3.29 W",
		"state": "ARKANSAS",
		"artcc": "ZFW",
		"type": "RNAV",
		"updated": "06/08/2006"
	},
	{
		"name": "JELUV",
		"latitude": "33-24-44.08 N",
		"longitude": "97-1-27.38 W",
		"state": "TEXAS",
		"artcc": "ZFW",
		"type": "RNAV",
		"updated": "12/30/2010"
	},
	{
		"name": "JEMAV",
		"latitude": "32-39-23.82 N",
		"longitude": "97-21-37.93 W",
		"state": "TEXAS",
		"artcc": "ZFW",
		"type": "RNAV",
		"updated": "09/03/2010"
	},
	{
		"name": "JEMBI",
		"latitude": "31-49-15.55 N",
		"longitude": "102-11-11 W",
		"state": "TEXAS",
		"artcc": "ZFW",
		"type": "RNAV",
		"updated": "05/16/2010"
	},
	{
		"name": "JEMEM",
		"latitude": "35-22-30.95 N",
		"longitude": "97-17-15.14 W",
		"state": "OKLAHOMA",
		"artcc": "ZFW",
		"type": "MR",
		"updated": "PWA*VOR/DME*110.08/20.00"
	},
	{
		"name": "JEMEX",
		"latitude": "35-18-26.01 N",
		"longitude": "97-34-55.94 W",
		"state": "OKLAHOMA",
		"artcc": "ZFW",
		"type": "RNAV",
		"updated": "06/16/2014"
	},
	{
		"name": "JEMMO",
		"latitude": "32-2-15.87 N",
		"longitude": "102-27-33.5 W",
		"state": "TEXAS",
		"artcc": "ZFW",
		"type": "RNAV",
		"updated": "07/27/2012"
	},
	{
		"name": "JEMTA",
		"latitude": "32-9-0 N",
		"longitude": "98-11-0 W",
		"state": "TEXAS",
		"artcc": "ZFW",
		"type": "RNAV",
		"updated": "08/12/2005"
	},
	{
		"name": "JENNA",
		"latitude": "32-25-30.01 N",
		"longitude": "93-17-11.48 W",
		"state": "LOUISIANA",
		"artcc": "ZFW",
		"type": "RP",
		"updated": "EMG*VORTAC*077.55/15.74"
	},
	{
		"name": "JENUM",
		"latitude": "35-45-5.94 N",
		"longitude": "98-56-9.4 W",
		"state": "OKLAHOMA",
		"artcc": "ZFW",
		"type": "RNAV",
		"updated": "06/15/2011"
	},
	{
		"name": "JEPIN",
		"latitude": "32-20-58.98 N",
		"longitude": "94-39-59.39 W",
		"state": "TEXAS",
		"artcc": "ZFW",
		"type": "RP",
		"updated": "GGG*VORTAC*125.74/6.00"
	},
	{
		"name": "JEPKI",
		"latitude": "34-51-45.71 N",
		"longitude": "99-15-34.89 W",
		"state": "OKLAHOMA",
		"artcc": "ZFW",
		"type": "MR",
		"updated": "LTS*VORTAC*357.71/11.98"
	},
	{
		"name": "JERBL",
		"latitude": "35-3-58.12 N",
		"longitude": "96-48-20.63 W",
		"state": "OKLAHOMA",
		"artcc": "ZFW",
		"type": "RNAV",
		"updated": "09/27/2016"
	},
	{
		"name": "JERGO",
		"latitude": "32-32-22.08 N",
		"longitude": "102-29-49.27 W",
		"state": "TEXAS",
		"artcc": "ZFW",
		"type": "RNAV",
		"updated": "06/02/2009"
	},
	{
		"name": "JERIG",
		"latitude": "31-45-44.21 N",
		"longitude": "95-44-7.82 W",
		"state": "TEXAS",
		"artcc": "ZFW",
		"type": "RNAV",
		"updated": "11/23/2004"
	},
	{
		"name": "JERIT",
		"latitude": "33-2-21.33 N",
		"longitude": "96-52-2.53 W",
		"state": "TEXAS",
		"artcc": "ZFW",
		"type": "RP",
		"updated": "TTT*VOR/DME*034.59"
	},
	{
		"name": "JERJI",
		"latitude": "31-27-37.27 N",
		"longitude": "100-10-48.76 W",
		"state": "TEXAS",
		"artcc": "ZFW",
		"type": "RP",
		"updated": "SJT*VORTAC*060.00/15.00"
	},
	{
		"name": "JESAB",
		"latitude": "34-37-0.07 N",
		"longitude": "96-30-37.38 W",
		"state": "OKLAHOMA",
		"artcc": "ZFW",
		"type": "RNAV",
		"updated": "05/24/2017"
	},
	{
		"name": "JESKE",
		"latitude": "35-21-31.36 N",
		"longitude": "97-51-12.35 W",
		"state": "OKLAHOMA",
		"artcc": "ZFW",
		"type": "RP",
		"updated": "IRW*VORTAC*263.10/11.98"
	},
	{
		"name": "JESSA",
		"latitude": "31-59-6.68 N",
		"longitude": "99-46-53.89 W",
		"state": "TEXAS",
		"artcc": "ZFW",
		"type": "MR",
		"updated": "ABI*VORTAC*162.00/30.00"
	},
	{
		"name": "JETBI",
		"latitude": "34-8-28.97 N",
		"longitude": "96-23-37.34 W",
		"state": "OKLAHOMA",
		"artcc": "ZFW",
		"type": "RNAV",
		"updated": "05/16/2010"
	},
	{
		"name": "JETDE",
		"latitude": "31-8-0.41 N",
		"longitude": "100-51-5.15 W",
		"state": "TEXAS",
		"artcc": "ZFW",
		"type": "MR",
		"updated": "SJT*VORTAC*224.77/25.00"
	},
	{
		"name": "JETOT",
		"latitude": "34-42-46.4 N",
		"longitude": "99-16-31.42 W",
		"state": "OKLAHOMA",
		"artcc": "ZFW",
		"type": "MR",
		"updated": "LTS*VORTAC*351.00/3.00"
	},
	{
		"name": "JETPO",
		"latitude": "32-14-53.8 N",
		"longitude": "93-44-41.34 W",
		"state": "LOUISIANA",
		"artcc": "ZFW",
		"type": "RNAV",
		"updated": "07/08/2003"
	},
	{
		"name": "JETTT",
		"latitude": "33-46-16.9 N",
		"longitude": "94-52-40.41 W",
		"state": "OKLAHOMA",
		"artcc": "ZFW",
		"type": "RNAV",
		"updated": "09/27/2016"
	},
	{
		"name": "JETVE",
		"latitude": "35-33-49.54 N",
		"longitude": "99-12-3.93 W",
		"state": "OKLAHOMA",
		"artcc": "ZFW",
		"type": "RNAV",
		"updated": "03/02/2017"
	},
	{
		"name": "JEVAL",
		"latitude": "33-37-11.63 N",
		"longitude": "96-10-55.59 W",
		"state": "TEXAS",
		"artcc": "ZFW",
		"type": "RP",
		"updated": "BYP*VORTAC*021.82/5.58"
	},
	{
		"name": "JEVBA",
		"latitude": "31-55-36.77 N",
		"longitude": "93-9-8.36 W",
		"state": "LOUISIANA",
		"artcc": "ZFW",
		"type": "RNAV",
		"updated": "04/20/2012"
	},
	{
		"name": "JEVOT",
		"latitude": "32-20-19.15 N",
		"longitude": "99-49-41.85 W",
		"state": "TEXAS",
		"artcc": "ZFW",
		"type": "MR",
		"updated": "DYS*TACAN*158.00/5.00"
	},
	{
		"name": "JEVRA",
		"latitude": "31-55-45.05 N",
		"longitude": "96-56-8.87 W",
		"state": "TEXAS",
		"artcc": "ZFW",
		"type": "RNAV",
		"updated": "07/08/2008"
	},
	{
		"name": "JEYAR",
		"latitude": "33-33-24 N",
		"longitude": "97-51-36 W",
		"state": "TEXAS",
		"artcc": "ZFW",
		"type": "RNAV",
		"updated": "07/08/2014"
	},
	{
		"name": "JEYYE",
		"latitude": "32-22-44.3 N",
		"longitude": "95-25-34.45 W",
		"state": "TEXAS",
		"artcc": "ZFW",
		"type": "RP",
		"updated": "TYR*VOR/DME*/1.80"
	},
	{
		"name": "JFRYE",
		"latitude": "33-23-22.04 N",
		"longitude": "96-49-56.04 W",
		"state": "TEXAS",
		"artcc": "ZFW",
		"type": "RNAV",
		"updated": "07/08/2014"
	},
	{
		"name": "JGIRL",
		"latitude": "32-45-54.36 N",
		"longitude": "96-56-21.63 W",
		"state": "TEXAS",
		"artcc": "ZFW",
		"type": "RNAV",
		"updated": "07/27/2004"
	},
	{
		"name": "JIBEM",
		"latitude": "32-2-58.49 N",
		"longitude": "102-3-19.28 W",
		"state": "TEXAS",
		"artcc": "ZFW",
		"type": "RNAV",
		"updated": "06/23/2011"
	},
	{
		"name": "JIDGU",
		"latitude": "34-42-45.12 N",
		"longitude": "99-15-34.48 W",
		"state": "OKLAHOMA",
		"artcc": "ZFW",
		"type": "MW",
		"updated": "05/06/2014"
	},
	{
		"name": "JIDIV",
		"latitude": "32-15-19.57 N",
		"longitude": "93-30-17.02 W",
		"state": "LOUISIANA",
		"artcc": "ZFW",
		"type": "MR",
		"updated": "BAD*TACAN*145.79/17.00"
	},
	{
		"name": "JIDOS",
		"latitude": "33-24-34.34 N",
		"longitude": "97-11-36.13 W",
		"state": "TEXAS",
		"artcc": "ZFW",
		"type": "RNAV",
		"updated": "12/30/2010"
	},
	{
		"name": "JIDRI",
		"latitude": "33-57-49.02 N",
		"longitude": "98-28-48.98 W",
		"state": "TEXAS",
		"artcc": "ZFW",
		"type": "MR",
		"updated": "SHP*TACAN*/1.20"
	},
	{
		"name": "JIDSA",
		"latitude": "32-55-38.81 N",
		"longitude": "103-26-22.44 W",
		"state": "NEW MEXICO",
		"artcc": "ZFW",
		"type": "RNAV",
		"updated": "09/30/2014"
	},
	{
		"name": "JIFFY",
		"latitude": "33-0-13.71 N",
		"longitude": "97-1-31.78 W",
		"state": "TEXAS",
		"artcc": "ZFW",
		"type": "RP",
		"updated": "CVE*VOR/DME*311.96"
	},
	{
		"name": "JIGAM",
		"latitude": "32-10-7.19 N",
		"longitude": "95-20-13.44 W",
		"state": "TEXAS",
		"artcc": "ZFW",
		"type": "RNAV",
		"updated": "05/07/2015"
	},
	{
		"name": "JIGAR",
		"latitude": "34-56-31.21 N",
		"longitude": "99-3-16.77 W",
		"state": "OKLAHOMA",
		"artcc": "ZFW",
		"type": "RNAV",
		"updated": "05/29/2008"
	},
	{
		"name": "JIGEM",
		"latitude": "31-33-52.92 N",
		"longitude": "100-38-44.5 W",
		"state": "TEXAS",
		"artcc": "ZFW",
		"type": "RP",
		"updated": "SJT*VORTAC*309.29/15.00"
	},
	{
		"name": "JIJHO",
		"latitude": "31-24-19.4 N",
		"longitude": "96-56-8.11 W",
		"state": "TEXAS",
		"artcc": "ZFW",
		"type": "RP",
		"updated": "ACT*VORTAC*122.89/23.00"
	},
	{
		"name": "JILDI",
		"latitude": "35-27-23.17 N",
		"longitude": "97-36-20.76 W",
		"state": "OKLAHOMA",
		"artcc": "ZFW",
		"type": "RNAV",
		"updated": "07/06/2011"
	},
	{
		"name": "JILIB",
		"latitude": "32-13-42.67 N",
		"longitude": "97-44-5.03 W",
		"state": "TEXAS",
		"artcc": "ZFW",
		"type": "RNAV",
		"updated": "10/20/2005"
	},
	{
		"name": "JILKA",
		"latitude": "32-46-27.23 N",
		"longitude": "96-47-3.01 W",
		"state": "TEXAS",
		"artcc": "ZFW",
		"type": "RNAV",
		"updated": "09/03/2010"
	},
	{
		"name": "JILTT",
		"latitude": "32-29-32.9 N",
		"longitude": "97-39-6.91 W",
		"state": "TEXAS",
		"artcc": "ZFW",
		"type": "RP",
		"updated": "JEN*VORTAC*023.88/23.00"
	},
	{
		"name": "JIMAM",
		"latitude": "32-18-35.31 N",
		"longitude": "101-31-3.49 W",
		"state": "TEXAS",
		"artcc": "ZFW",
		"type": "RNAV",
		"updated": "10/28/2008"
	},
	{
		"name": "JIMEP",
		"latitude": "33-19-41.75 N",
		"longitude": "95-53-40.06 W",
		"state": "TEXAS",
		"artcc": "ZFW",
		"type": "RNAV",
		"updated": "02/05/2013"
	},
	{
		"name": "JIMIB",
		"latitude": "32-51-44.48 N",
		"longitude": "93-47-15.43 W",
		"state": "LOUISIANA",
		"artcc": "ZFW",
		"type": "RNAV",
		"updated": "01/03/2009"
	},
	{
		"name": "JIMMZ",
		"latitude": "32-40-9.4 N",
		"longitude": "93-23-32.74 W",
		"state": "LOUISIANA",
		"artcc": "ZFW",
		"type": "RP",
		"updated": "EIC*VORTAC*099.02/22.00"
	},
	{
		"name": "JINAL",
		"latitude": "33-17-38.44 N",
		"longitude": "95-53-39.2 W",
		"state": "TEXAS",
		"artcc": "ZFW",
		"type": "RP",
		"updated": "SLR*VOR/DME*280.00/18.59"
	},
	{
		"name": "JINEK",
		"latitude": "32-31-14.47 N",
		"longitude": "98-36-48.06 W",
		"state": "TEXAS",
		"artcc": "ZFW",
		"type": "RNAV",
		"updated": "05/11/2011"
	},
	{
		"name": "JINRA",
		"latitude": "33-46-43.25 N",
		"longitude": "98-34-35.64 W",
		"state": "TEXAS",
		"artcc": "ZFW",
		"type": "MR",
		"updated": "SHP*TACAN*195.00/13.00"
	},
	{
		"name": "JINTA",
		"latitude": "35-32-7.16 N",
		"longitude": "97-38-26.47 W",
		"state": "OKLAHOMA",
		"artcc": "ZFW",
		"type": "RNAV",
		"updated": "06/16/2014"
	},
	{
		"name": "JIPBI",
		"latitude": "31-23-51.18 N",
		"longitude": "100-26-51.28 W",
		"state": "TEXAS",
		"artcc": "ZFW",
		"type": "RNAV",
		"updated": "05/12/2003"
	},
	{
		"name": "JIPED",
		"latitude": "32-39-43.82 N",
		"longitude": "97-2-51.49 W",
		"state": "TEXAS",
		"artcc": "ZFW",
		"type": "RP",
		"updated": "TTT*VOR/DME*175.67/12.40"
	},
	{
		"name": "JIPIT",
		"latitude": "34-54-50.05 N",
		"longitude": "96-18-54.79 W",
		"state": "OKLAHOMA",
		"artcc": "ZFW",
		"type": "RNAV",
		"updated": "03/06/2003"
	},
	{
		"name": "JIPOG",
		"latitude": "33-15-18.49 N",
		"longitude": "98-24-44.4 W",
		"state": "TEXAS",
		"artcc": "ZFW",
		"type": "RNAV",
		"updated": "02/06/2008"
	},
	{
		"name": "JIPPU",
		"latitude": "32-26-3.29 N",
		"longitude": "94-15-51.96 W",
		"state": "TEXAS",
		"artcc": "ZFW",
		"type": "RNAV",
		"updated": "12/19/2011"
	},
	{
		"name": "JIPRI",
		"latitude": "31-55-54.25 N",
		"longitude": "94-17-15.76 W",
		"state": "TEXAS",
		"artcc": "ZFW",
		"type": "RP",
		"updated": "LFK*VORTAC*020.43/51.05"
	},
	{
		"name": "JIPUN",
		"latitude": "32-48-8.82 N",
		"longitude": "97-1-43.96 W",
		"state": "TEXAS",
		"artcc": "ZFW",
		"type": "RP",
		"updated": "PKQ*LD*S CRS/4.41"
	},
	{
		"name": "JIRSO",
		"latitude": "33-24-55.56 N",
		"longitude": "97-39-13.11 W",
		"state": "TEXAS",
		"artcc": "ZFW",
		"type": "RNAV",
		"updated": "01/04/2009"
	},
	{
		"name": "JIRVI",
		"latitude": "32-20-51.92 N",
		"longitude": "98-34-38.09 W",
		"state": "TEXAS",
		"artcc": "ZFW",
		"type": "RNAV",
		"updated": "05/11/2011"
	},
	{
		"name": "JISKY",
		"latitude": "32-38-16.75 N",
		"longitude": "103-16-26.89 W",
		"state": "NEW MEXICO",
		"artcc": "ZFW",
		"type": "RNAV",
		"updated": "09/11/2014"
	},
	{
		"name": "JISOD",
		"latitude": "35-9-40.39 N",
		"longitude": "96-56-33.46 W",
		"state": "OKLAHOMA",
		"artcc": "ZFW",
		"type": "RNAV",
		"updated": "06/18/2010"
	},
	{
		"name": "JITIN",
		"latitude": "35-29-35.25 N",
		"longitude": "97-36-20.87 W",
		"state": "OKLAHOMA",
		"artcc": "ZFW",
		"type": "RNAV",
		"updated": "09/03/2010"
	},
	{
		"name": "JIVDU",
		"latitude": "31-56-36.14 N",
		"longitude": "102-25-38.01 W",
		"state": "TEXAS",
		"artcc": "ZFW",
		"type": "RNAV",
		"updated": "05/16/2010"
	},
	{
		"name": "JIVIT",
		"latitude": "33-50-29.25 N",
		"longitude": "98-25-33.86 W",
		"state": "TEXAS",
		"artcc": "ZFW",
		"type": "MR",
		"updated": "SHP*TACAN*155.00/9.00"
	},
	{
		"name": "JIVSU",
		"latitude": "32-28-44.63 N",
		"longitude": "93-38-51.49 W",
		"state": "LOUISIANA",
		"artcc": "ZFW",
		"type": "MR",
		"updated": "EMG*VORTAC*323.51/5.41"
	},
	{
		"name": "JIVUG",
		"latitude": "34-26-12.25 N",
		"longitude": "98-59-21.31 W",
		"state": "OKLAHOMA",
		"artcc": "ZFW",
		"type": "RNAV",
		"updated": "08/18/2010"
	},
	{
		"name": "JIXIM",
		"latitude": "32-36-34.35 N",
		"longitude": "98-48-8.47 W",
		"state": "TEXAS",
		"artcc": "ZFW",
		"type": "RNAV",
		"updated": "03/10/2011"
	},
	{
		"name": "JIXPU",
		"latitude": "35-17-23.37 N",
		"longitude": "97-28-24.08 W",
		"state": "OKLAHOMA",
		"artcc": "ZFW",
		"type": "RP",
		"updated": "IRW*VORTAC*114.66"
	},
	{
		"name": "JJANE",
		"latitude": "32-39-48.54 N",
		"longitude": "95-50-17.67 W",
		"state": "TEXAS",
		"artcc": "ZFW",
		"type": "RNAV",
		"updated": "07/08/2014"
	},
	{
		"name": "JJEEP",
		"latitude": "32-0-32.74 N",
		"longitude": "95-46-10.53 W",
		"state": "TEXAS",
		"artcc": "ZFW",
		"type": "RNAV",
		"updated": "09/12/2016"
	},
	{
		"name": "JKIID",
		"latitude": "34-9-16.84 N",
		"longitude": "95-38-58.97 W",
		"state": "OKLAHOMA",
		"artcc": "ZFW",
		"type": "RNAV",
		"updated": "05/14/2012"
	},
	{
		"name": "JOBBS",
		"latitude": "32-48-4.85 N",
		"longitude": "97-1-35.72 W",
		"state": "TEXAS",
		"artcc": "ZFW",
		"type": "RP",
		"updated": "CVE*VOR/DME*223.35"
	},
	{
		"name": "JOBIG",
		"latitude": "34-7-22.62 N",
		"longitude": "98-33-8.69 W",
		"state": "TEXAS",
		"artcc": "ZFW",
		"type": "MR",
		"updated": "SHP*TACAN*334.00/9.00"
	},
	{
		"name": "JOBSU",
		"latitude": "33-24-44.81 N",
		"longitude": "101-4-28.39 W",
		"state": "TEXAS",
		"artcc": "ZFW",
		"type": "RNAV",
		"updated": "06/20/2011"
	},
	{
		"name": "JODDY",
		"latitude": "32-36-24.86 N",
		"longitude": "93-42-44.31 W",
		"state": "LOUISIANA",
		"artcc": "ZFW",
		"type": "MR",
		"updated": "BAD*TACAN*338.00/6.60"
	},
	{
		"name": "JOGAB",
		"latitude": "32-28-42.9 N",
		"longitude": "93-38-51.53 W",
		"state": "LOUISIANA",
		"artcc": "ZFW",
		"type": "MR",
		"updated": "BAD*TACAN*/1.80"
	},
	{
		"name": "JOJOS",
		"latitude": "31-59-18.21 N",
		"longitude": "102-19-33.67 W",
		"state": "TEXAS",
		"artcc": "ZFW",
		"type": "RNAV",
		"updated": "10/28/2008"
	},
	{
		"name": "JOKES",
		"latitude": "31-53-12.94 N",
		"longitude": "101-50-54.63 W",
		"state": "TEXAS",
		"artcc": "ZFW",
		"type": "RP",
		"updated": "MAF*VORTAC*101.69/18.93"
	},
	{
		"name": "JOKOX",
		"latitude": "32-37-11.98 N",
		"longitude": "91-49-59.07 W",
		"state": "LOUISIANA",
		"artcc": "ZFW",
		"type": "RP",
		"updated": "MLU*VORTAC*055.98/12.00"
	},
	{
		"name": "JOKPI",
		"latitude": "32-28-57.14 N",
		"longitude": "99-35-55.58 W",
		"state": "TEXAS",
		"artcc": "ZFW",
		"type": "RNAV",
		"updated": "11/20/2008"
	},
	{
		"name": "JOLEN",
		"latitude": "32-41-17.63 N",
		"longitude": "96-56-17.68 W",
		"state": "TEXAS",
		"artcc": "ZFW",
		"type": "RNAV",
		"updated": "05/09/2005"
	},
	{
		"name": "JOLLY",
		"latitude": "31-52-2.85 N",
		"longitude": "95-39-28.91 W",
		"state": "TEXAS",
		"artcc": "ZFW",
		"type": "RP",
		"updated": "FZT*VOR/DME*201.67/14.00"
	},
	{
		"name": "JONAA",
		"latitude": "34-56-25.96 N",
		"longitude": "99-24-2.29 W",
		"state": "OKLAHOMA",
		"artcc": "ZFW",
		"type": "RNAV",
		"updated": "01/13/2016"
	},
	{
		"name": "JONEZ",
		"latitude": "34-30-57.12 N",
		"longitude": "95-27-33.78 W",
		"state": "OKLAHOMA",
		"artcc": "ZFW",
		"type": "RNAV",
		"updated": "09/30/2014"
	},
	{
		"name": "JONKA",
		"latitude": "34-3-58.47 N",
		"longitude": "98-31-33.28 W",
		"state": "TEXAS",
		"artcc": "ZFW",
		"type": "MR",
		"updated": "SHP*TACAN*/5.35"
	},
	{
		"name": "JONON",
		"latitude": "33-40-14.07 N",
		"longitude": "101-37-43.37 W",
		"state": "TEXAS",
		"artcc": "ZFW",
		"type": "RNAV",
		"updated": "11/17/2016"
	},
	{
		"name": "JOPSA",
		"latitude": "32-10-19.51 N",
		"longitude": "98-54-29.39 W",
		"state": "TEXAS",
		"artcc": "ZFW",
		"type": "RNAV",
		"updated": "04/02/2016"
	},
	{
		"name": "JOSDU",
		"latitude": "32-11-41.77 N",
		"longitude": "101-33-35.27 W",
		"state": "TEXAS",
		"artcc": "ZFW",
		"type": "RNAV",
		"updated": "05/06/2013"
	},
	{
		"name": "JOSGA",
		"latitude": "34-42-48.38 N",
		"longitude": "99-15-0.36 W",
		"state": "OKLAHOMA",
		"artcc": "ZFW",
		"type": "MR",
		"updated": "LTS*VORTAC*014.00/3.20"
	},
	{
		"name": "JOSIL",
		"latitude": "35-17-39 N",
		"longitude": "97-43-25.75 W",
		"state": "OKLAHOMA",
		"artcc": "ZFW",
		"type": "RNAV",
		"updated": "07/31/2006"
	},
	{
		"name": "JOSOT",
		"latitude": "32-23-7.64 N",
		"longitude": "97-49-2.2 W",
		"state": "TEXAS",
		"artcc": "ZFW",
		"type": "RNAV",
		"updated": "02/22/2017"
	},
	{
		"name": "JOTRA",
		"latitude": "32-22-40.1 N",
		"longitude": "100-27-23.68 W",
		"state": "TEXAS",
		"artcc": "ZFW",
		"type": "RNAV",
		"updated": "09/01/2011"
	},
	{
		"name": "JOVEM",
		"latitude": "33-16-42.2 N",
		"longitude": "97-31-3.36 W",
		"state": "TEXAS",
		"artcc": "ZFW",
		"type": "RP",
		"updated": "TTT*VOR/DME*309.66/34.34"
	},
	{
		"name": "JOVOG",
		"latitude": "32-21-48.63 N",
		"longitude": "94-49-22.81 W",
		"state": "TEXAS",
		"artcc": "ZFW",
		"type": "RNAV",
		"updated": "03/07/2011"
	},
	{
		"name": "JOXUL",
		"latitude": "33-30-43.52 N",
		"longitude": "102-9-46.54 W",
		"state": "TEXAS",
		"artcc": "ZFW",
		"type": "RP",
		"updated": "LBB*VORTAC*216.27/17.00"
	},
	{
		"name": "JRHED",
		"latitude": "33-48-18.19 N",
		"longitude": "94-24-31.9 W",
		"state": "ARKANSAS",
		"artcc": "ZFW",
		"type": "RNAV",
		"updated": "09/13/2016"
	},
	{
		"name": "JROAM",
		"latitude": "31-37-12.48 N",
		"longitude": "95-14-7.8 W",
		"state": "TEXAS",
		"artcc": "ZFW",
		"type": "RNAV",
		"updated": "09/12/2016"
	},
	{
		"name": "JTROE",
		"latitude": "33-57-11.91 N",
		"longitude": "97-58-43.79 W",
		"state": "TEXAS",
		"artcc": "ZFW",
		"type": "RNAV",
		"updated": "07/08/2014"
	},
	{
		"name": "JUBDO",
		"latitude": "32-39-46.57 N",
		"longitude": "97-26-33.71 W",
		"state": "TEXAS",
		"artcc": "ZFW",
		"type": "MW",
		"updated": "08/07/2014"
	},
	{
		"name": "JUDKU",
		"latitude": "31-52-40.45 N",
		"longitude": "97-7-19.66 W",
		"state": "TEXAS",
		"artcc": "ZFW",
		"type": "RNAV",
		"updated": "07/08/2008"
	},
	{
		"name": "JUDOE",
		"latitude": "34-56-32.35 N",
		"longitude": "99-8-5.89 W",
		"state": "OKLAHOMA",
		"artcc": "ZFW",
		"type": "RNAV",
		"updated": "01/13/2016"
	},
	{
		"name": "JUGEB",
		"latitude": "32-56-36.21 N",
		"longitude": "94-14-0.75 W",
		"state": "TEXAS",
		"artcc": "ZFW",
		"type": "RNAV",
		"updated": "01/04/2009"
	},
	{
		"name": "JUGEL",
		"latitude": "32-32-26.99 N",
		"longitude": "97-3-22.1 W",
		"state": "TEXAS",
		"artcc": "ZFW",
		"type": "RNAV",
		"updated": "07/08/2014"
	},
	{
		"name": "JUGIR",
		"latitude": "34-4-34.69 N",
		"longitude": "98-31-28.21 W",
		"state": "TEXAS",
		"artcc": "ZFW",
		"type": "MW",
		"updated": "02/26/2010"
	},
	{
		"name": "JUGIS",
		"latitude": "35-12-15.46 N",
		"longitude": "97-15-55.47 W",
		"state": "OKLAHOMA",
		"artcc": "ZFW",
		"type": "RP",
		"updated": "TIK*TACAN*155.00/15.00"
	},
	{
		"name": "JUGUD",
		"latitude": "31-57-21.92 N",
		"longitude": "103-1-44.46 W",
		"state": "TEXAS",
		"artcc": "ZFW",
		"type": "RP",
		"updated": "INK*VORTAC*055.00/12.00"
	},
	{
		"name": "JUHWO",
		"latitude": "32-13-14.7 N",
		"longitude": "95-14-28.04 W",
		"state": "TEXAS",
		"artcc": "ZFW",
		"type": "RNAV",
		"updated": "07/21/2006"
	},
	{
		"name": "JULKU",
		"latitude": "34-24-51.83 N",
		"longitude": "96-59-36.38 W",
		"state": "OKLAHOMA",
		"artcc": "ZFW",
		"type": "RP",
		"updated": "ADM*VORTAC*029.52/14.93"
	},
	{
		"name": "JULMO",
		"latitude": "32-35-12.09 N",
		"longitude": "96-19-42.97 W",
		"state": "TEXAS",
		"artcc": "ZFW",
		"type": "RNAV",
		"updated": "10/20/2005"
	},
	{
		"name": "JULUV",
		"latitude": "34-7-3.77 N",
		"longitude": "98-34-0.71 W",
		"state": "TEXAS",
		"artcc": "ZFW",
		"type": "MR",
		"updated": "SHP*TACAN*329.00/9.00"
	},
	{
		"name": "JUMBO",
		"latitude": "31-32-10.42 N",
		"longitude": "98-10-48.46 W",
		"state": "TEXAS",
		"artcc": "ZFW",
		"type": "RP",
		"updated": "JEN*VORTAC*196.58/40.40"
	},
	{
		"name": "JUMEK",
		"latitude": "34-40-47.81 N",
		"longitude": "99-31-42.71 W",
		"state": "OKLAHOMA",
		"artcc": "ZFW",
		"type": "RP",
		"updated": "HBR*VORTAC*234.20/25.56"
	},
	{
		"name": "JUMOS",
		"latitude": "33-10-20.13 N",
		"longitude": "96-22-35.22 W",
		"state": "TEXAS",
		"artcc": "ZFW",
		"type": "RNAV",
		"updated": "06/12/2002"
	},
	{
		"name": "JUNGO",
		"latitude": "34-48-13.68 N",
		"longitude": "99-7-40.19 W",
		"state": "OKLAHOMA",
		"artcc": "ZFW",
		"type": "RNAV",
		"updated": "12/14/2017"
	},
	{
		"name": "JUNVA",
		"latitude": "33-21-15.53 N",
		"longitude": "101-58-19.42 W",
		"state": "TEXAS",
		"artcc": "ZFW",
		"type": "RP",
		"updated": "LBB*VORTAC*176.91/21.20"
	},
	{
		"name": "JUPAT",
		"latitude": "32-20-40.67 N",
		"longitude": "94-39-40.44 W",
		"state": "TEXAS",
		"artcc": "ZFW",
		"type": "RNAV",
		"updated": "07/30/2008"
	},
	{
		"name": "JUPOX",
		"latitude": "35-33-14.2 N",
		"longitude": "99-11-38.07 W",
		"state": "OKLAHOMA",
		"artcc": "ZFW",
		"type": "MR",
		"updated": "BFV*VORTAC*356.81/19.00"
	},
	{
		"name": "JURAV",
		"latitude": "33-54-30.79 N",
		"longitude": "93-51-38.66 W",
		"state": "ARKANSAS",
		"artcc": "ZFW",
		"type": "RNAV",
		"updated": "11/30/2011"
	},
	{
		"name": "JUSST",
		"latitude": "34-5-23.97 N",
		"longitude": "95-37-18.53 W",
		"state": "OKLAHOMA",
		"artcc": "ZFW",
		"type": "RNAV",
		"updated": "07/14/2014"
	},
	{
		"name": "JUSUB",
		"latitude": "33-1-36.31 N",
		"longitude": "96-3-57.4 W",
		"state": "TEXAS",
		"artcc": "ZFW",
		"type": "RNAV",
		"updated": "07/17/2008"
	},
	{
		"name": "JUSUG",
		"latitude": "34-35-18.76 N",
		"longitude": "99-13-31.23 W",
		"state": "OKLAHOMA",
		"artcc": "ZFW",
		"type": "MR",
		"updated": "LTS*VORTAC*148.00/5.00"
	},
	{
		"name": "JUTON",
		"latitude": "32-31-11.39 N",
		"longitude": "96-39-39.29 W",
		"state": "TEXAS",
		"artcc": "ZFW",
		"type": "RNAV",
		"updated": "10/04/2010"
	},
	{
		"name": "JUVAL",
		"latitude": "33-24-34.97 N",
		"longitude": "102-8-55.4 W",
		"state": "TEXAS",
		"artcc": "ZFW",
		"type": "RNAV",
		"updated": "06/04/2012"
	},
	{
		"name": "JUVES",
		"latitude": "32-40-36.01 N",
		"longitude": "93-52-42.97 W",
		"state": "LOUISIANA",
		"artcc": "ZFW",
		"type": "RNAV",
		"updated": "12/30/2005"
	},
	{
		"name": "JUVOT",
		"latitude": "31-45-38.39 N",
		"longitude": "96-29-29.88 W",
		"state": "TEXAS",
		"artcc": "ZFW",
		"type": "RNAV",
		"updated": "02/15/2012"
	},
	{
		"name": "JYMME",
		"latitude": "33-0-33 N",
		"longitude": "96-51-43.09 W",
		"state": "TEXAS",
		"artcc": "ZFW",
		"type": "RNAV",
		"updated": "07/08/2014"
	}
]
