	{
		"name": "MABCU",
		"latitude": "35-31-17.76 N",
		"longitude": "97-37-9.6 W",
		"state": "OKLAHOMA",
		"artcc": "ZFW",
		"type": "RNAV",
		"updated": "06/16/2014",
	},
	{
		"name": "MACAP",
		"latitude": "33-7-34.39 N",
		"longitude": "94-58-48.37 W",
		"state": "TEXAS",
		"artcc": "ZFW",
		"type": "CN",
		"updated": "02/06/2012",
	},
	{
		"name": "MADND",
		"latitude": "32-57-34.29 N",
		"longitude": "96-52-43.76 W",
		"state": "TEXAS",
		"artcc": "ZFW",
		"type": "RNAV",
		"updated": "07/09/2014",
	},
	{
		"name": "MADTU",
		"latitude": "31-20-53.64 N",
		"longitude": "96-50-56.15 W",
		"state": "TEXAS",
		"artcc": "ZFW",
		"type": "CN",
		"updated": "02/06/2012",
	},
	{
		"name": "MAFAG",
		"latitude": "33-27-37.22 N",
		"longitude": "93-59-39.04 W",
		"state": "ARKANSAS",
		"artcc": "ZFW",
		"type": "CN",
		"updated": "02/06/2012",
	},
	{
		"name": "MAGAS",
		"latitude": "32-38-48.78 N",
		"longitude": "99-54-8.91 W",
		"state": "TEXAS",
		"artcc": "ZFW",
		"type": "MR",
		"updated": "TQA*VOR/DME*340.00/25.00",
	},
	{
		"name": "MAGOZ",
		"latitude": "32-44-41.63 N",
		"longitude": "95-29-31.09 W",
		"state": "TEXAS",
		"artcc": "ZFW",
		"type": "RP",
		"updated": "UIM*VOR/DME*210.00/10.29",
	},
	{
		"name": "MAJAK",
		"latitude": "32-51-33.91 N",
		"longitude": "94-0-23.35 W",
		"state": "LOUISIANA",
		"artcc": "ZFW",
		"type": "RP",
		"updated": "EIC*VORTAC*291.00/11.25",
	},
	{
		"name": "MAJER",
		"latitude": "31-48-57.79 N",
		"longitude": "97-20-43.68 W",
		"state": "TEXAS",
		"artcc": "ZFW",
		"type": "RP",
		"updated": "ACT*VORTAC*328.00/10.00",
	},
	{
		"name": "MAJKK",
		"latitude": "31-31-3.9 N",
		"longitude": "95-33-41.25 W",
		"state": "TEXAS",
		"artcc": "ZFW",
		"type": "RNAV",
		"updated": "03/30/2016",
	},
	{
		"name": "MAJOR",
		"latitude": "33-9-22.61 N",
		"longitude": "96-3-50.34 W",
		"state": "TEXAS",
		"artcc": "ZFW",
		"type": "RNAV",
		"updated": "02/26/2014",
	},
	{
		"name": "MAJSI",
		"latitude": "34-52-27.32 N",
		"longitude": "95-47-11.48 W",
		"state": "OKLAHOMA",
		"artcc": "ZFW",
		"type": "CN",
		"updated": "02/06/2012",
	},
	{
		"name": "MAMEE",
		"latitude": "34-28-56.4 N",
		"longitude": "95-14-50.16 W",
		"state": "OKLAHOMA",
		"artcc": "ZFW",
		"type": "RP",
		"updated": "BYP*VORTAC*034.74/75.00",
	},
	{
		"name": "MAMRE",
		"latitude": "32-46-0.86 N",
		"longitude": "95-0-43.73 W",
		"state": "TEXAS",
		"artcc": "ZFW",
		"type": "RNAV",
		"updated": "03/07/2011",
	},
	{
		"name": "MANCK",
		"latitude": "34-42-20.25 N",
		"longitude": "99-20-21.43 W",
		"state": "OKLAHOMA",
		"artcc": "ZFW",
		"type": "RP",
		"updated": "LTS*VORTAC*302.30/4.23",
	},
	{
		"name": "MANIC",
		"latitude": "33-21-10.63 N",
		"longitude": "102-22-1.77 W",
		"state": "TEXAS",
		"artcc": "ZFW",
		"type": "RP",
		"updated": "LBB*VORTAC*216.28/31.00",
	},
	{
		"name": "MANKI",
		"latitude": "33-15-15.79 N",
		"longitude": "99-33-52.62 W",
		"state": "TEXAS",
		"artcc": "ZFW",
		"type": "RP",
		"updated": "GTH*VORTAC*118.81/49.83",
	},
	{
		"name": "MANOS",
		"latitude": "33-6-57.67 N",
		"longitude": "96-33-35.83 W",
		"state": "TEXAS",
		"artcc": "ZFW",
		"type": "RP",
		"updated": "CVE*VOR/DME*046.00/22.00",
	},
	{
		"name": "MAPCY",
		"latitude": "34-1-23.76 N",
		"longitude": "100-17-3.54 W",
		"state": "TEXAS",
		"artcc": "ZFW",
		"type": "CN",
		"updated": "05/16/2003",
	},
	{
		"name": "MAPDD",
		"latitude": "32-1-55.3 N",
		"longitude": "102-6-30.04 W",
		"state": "TEXAS",
		"artcc": "ZFW",
		"type": "RP",
		"updated": "MAF*VORTAC*061.00/4.40",
	},
	{
		"name": "MAPLL",
		"latitude": "32-49-48.32 N",
		"longitude": "97-21-49.13 W",
		"state": "TEXAS",
		"artcc": "ZFW",
		"type": "CN",
		"updated": "05/16/2003",
	},
	{
		"name": "MARDY",
		"latitude": "33-49-55.52 N",
		"longitude": "97-51-15.84 W",
		"state": "TEXAS",
		"artcc": "ZFW",
		"type": "RP",
		"updated": "SPS*VORTAC*093.93/38.06",
	},
	{
		"name": "MARIE",
		"latitude": "33-23-14.38 N",
		"longitude": "94-4-17.4 W",
		"state": "TEXAS",
		"artcc": "ZFW",
		"type": "RP",
		"updated": "TXK*VORTAC*172.34",
	},
	{
		"name": "MARLN",
		"latitude": "31-24-4.51 N",
		"longitude": "96-43-20.49 W",
		"state": "TEXAS",
		"artcc": "ZFW",
		"type": "RP",
		"updated": "ACT*VORTAC*110.00/32.10",
	},
	{
		"name": "MARSN",
		"latitude": "32-59-59.38 N",
		"longitude": "97-14-24.03 W",
		"state": "TEXAS",
		"artcc": "ZFW",
		"type": "RNAV",
		"updated": "07/27/2004",
	},
	{
		"name": "MARTA",
		"latitude": "31-47-34.83 N",
		"longitude": "93-31-27.91 W",
		"state": "LOUISIANA",
		"artcc": "ZFW",
		"type": "RP",
		"updated": "EIC*VORTAC*159.00/60.35",
	},
	{
		"name": "MARXS",
		"latitude": "33-30-55.01 N",
		"longitude": "101-32-17.57 W",
		"state": "TEXAS",
		"artcc": "ZFW",
		"type": "MR",
		"updated": "LBB*VORTAC*110.00/22.00",
	},
	{
		"name": "MARYE",
		"latitude": "32-48-24.41 N",
		"longitude": "99-57-8.7 W",
		"state": "TEXAS",
		"artcc": "ZFW",
		"type": "MR",
		"updated": "ABI*VORTAC*337.00/20.00",
	},
	{
		"name": "MARYV",
		"latitude": "34-23-17.23 N",
		"longitude": "97-6-59.57 W",
		"state": "OKLAHOMA",
		"artcc": "ZFW",
		"type": "RNAV",
		"updated": "08/18/2011",
	},
	{
		"name": "MASKE",
		"latitude": "34-44-35.61 N",
		"longitude": "95-59-49.27 W",
		"state": "OKLAHOMA",
		"artcc": "ZFW",
		"type": "RNAV",
		"updated": "05/31/2006",
	},
	{
		"name": "MASTY",
		"latitude": "33-43-8.32 N",
		"longitude": "97-44-19.62 W",
		"state": "TEXAS",
		"artcc": "ZFW",
		"type": "RP",
		"updated": "CVE*VOR/DME*314.00/65.00",
	},
	{
		"name": "MATCH",
		"latitude": "32-24-22.46 N",
		"longitude": "100-15-1.95 W",
		"state": "TEXAS",
		"artcc": "ZFW",
		"type": "MR",
		"updated": "DYS*TACAN*263.00/20.00",
	},
	{
		"name": "MAVVS",
		"latitude": "33-0-44.31 N",
		"longitude": "96-53-55.67 W",
		"state": "TEXAS",
		"artcc": "ZFW",
		"type": "RNAV",
		"updated": "07/27/2004",
	},
	{
		"name": "MAZES",
		"latitude": "32-33-29.45 N",
		"longitude": "99-8-22.94 W",
		"state": "TEXAS",
		"artcc": "ZFW",
		"type": "RNAV",
		"updated": "12/22/2017",
	},
	{
		"name": "MBRTO",
		"latitude": "33-44-42.83 N",
		"longitude": "98-33-10.42 W",
		"state": "TEXAS",
		"artcc": "ZFW",
		"type": "RNAV",
		"updated": "09/13/2016",
	},
	{
		"name": "MCNEL",
		"latitude": "32-43-17.47 N",
		"longitude": "92-43-35.16 W",
		"state": "LOUISIANA",
		"artcc": "ZFW",
		"type": "RNAV",
		"updated": "04/21/2011",
	},
	{
		"name": "MCOIN",
		"latitude": "32-48-57.63 N",
		"longitude": "97-16-58.11 W",
		"state": "TEXAS",
		"artcc": "ZFW",
		"type": "RP",
		"updated": "JVX*LD*S CRS/9.61",
	},
	{
		"name": "MDANO",
		"latitude": "34-19-39.92 N",
		"longitude": "99-34-36.83 W",
		"state": "TEXAS",
		"artcc": "ZFW",
		"type": "RNAV",
		"updated": "07/09/2014",
	},
	{
		"name": "MECHL",
		"latitude": "33-1-13 N",
		"longitude": "96-59-51 W",
		"state": "TEXAS",
		"artcc": "ZFW",
		"type": "RNAV",
		"updated": "07/27/2004",
	},
	{
		"name": "MEDII",
		"latitude": "33-43-24.95 N",
		"longitude": "93-39-25.89 W",
		"state": "ARKANSAS",
		"artcc": "ZFW",
		"type": "RP",
		"updated": "TXK*VORTAC*051.76/24.34",
	},
	{
		"name": "MEDLY",
		"latitude": "32-13-33.95 N",
		"longitude": "99-31-20.18 W",
		"state": "TEXAS",
		"artcc": "ZFW",
		"type": "RP",
		"updated": "TQA*VOR/DME*082.13/15.00",
	},
	{
		"name": "MEDSE",
		"latitude": "34-7-25.93 N",
		"longitude": "98-32-58.06 W",
		"state": "OKLAHOMA",
		"artcc": "ZFW",
		"type": "MR",
		"updated": "SHP*TACAN*335.00/9.00",
	},
	{
		"name": "MEERS",
		"latitude": "34-52-58.13 N",
		"longitude": "99-15-35.04 W",
		"state": "OKLAHOMA",
		"artcc": "ZFW",
		"type": "RNAV",
		"updated": "01/13/2016",
	},
	{
		"name": "MEERZ",
		"latitude": "32-55-41.73 N",
		"longitude": "96-56-18.8 W",
		"state": "TEXAS",
		"artcc": "ZFW",
		"type": "RNAV",
		"updated": "12/14/2015",
	},
	{
		"name": "MEGGA",
		"latitude": "33-36-20.35 N",
		"longitude": "98-47-45.85 W",
		"state": "TEXAS",
		"artcc": "ZFW",
		"type": "RP",
		"updated": "SPS*VORTAC*193.96/25.00",
	},
	{
		"name": "MEHUF",
		"latitude": "35-20-18.29 N",
		"longitude": "97-38-43.65 W",
		"state": "OKLAHOMA",
		"artcc": "ZFW",
		"type": "RNAV",
		"updated": "05/16/2010",
	},
	{
		"name": "MEKLE",
		"latitude": "35-31-41.87 N",
		"longitude": "95-31-43.78 W",
		"state": "OKLAHOMA",
		"artcc": "ZFW",
		"type": "RNAV",
		"updated": "06/16/2008",
	},
	{
		"name": "MELIE",
		"latitude": "34-53-53.06 N",
		"longitude": "97-13-20.57 W",
		"state": "OKLAHOMA",
		"artcc": "ZFW",
		"type": "RNAV",
		"updated": "03/29/2010",
	},
	{
		"name": "MELTE",
		"latitude": "33-52-52.9 N",
		"longitude": "95-30-54.4 W",
		"state": "TEXAS",
		"artcc": "ZFW",
		"type": "RNAV",
		"updated": "07/13/2014",
	},
	{
		"name": "MEPKE",
		"latitude": "35-25-50.07 N",
		"longitude": "97-24-47.71 W",
		"state": "OKLAHOMA",
		"artcc": "ZFW",
		"type": "MR",
		"updated": "PWA*VOR/DME*110.00/13.00",
	},
	{
		"name": "MERGE",
		"latitude": "32-17-6.22 N",
		"longitude": "102-8-46.5 W",
		"state": "TEXAS",
		"artcc": "ZFW",
		"type": "RP",
		"updated": "MAF*VORTAC*356.74/16.66",
	},
	{
		"name": "MERKE",
		"latitude": "32-28-20.03 N",
		"longitude": "100-2-5.74 W",
		"state": "TEXAS",
		"artcc": "ZFW",
		"type": "RP",
		"updated": "TQA*VOR/DME*312.00",
	},
	{
		"name": "MERKK",
		"latitude": "31-47-57.5 N",
		"longitude": "94-54-29.48 W",
		"state": "TEXAS",
		"artcc": "ZFW",
		"type": "RNAV",
		"updated": "09/13/2016",
	},
	{
		"name": "MERTE",
		"latitude": "35-32-7.13 N",
		"longitude": "97-39-26.82 W",
		"state": "OKLAHOMA",
		"artcc": "ZFW",
		"type": "RNAV",
		"updated": "06/16/2014",
	},
	{
		"name": "MESDE",
		"latitude": "32-55-7.82 N",
		"longitude": "97-22-38.81 W",
		"state": "TEXAS",
		"artcc": "ZFW",
		"type": "RNAV",
		"updated": "03/19/2009",
	},
	{
		"name": "METGE",
		"latitude": "34-42-27.64 N",
		"longitude": "99-13-32.46 W",
		"state": "OKLAHOMA",
		"artcc": "ZFW",
		"type": "MR",
		"updated": "LTS*VORTAC*035.00/3.50",
	},
	{
		"name": "MEWGI",
		"latitude": "34-54-30.8 N",
		"longitude": "99-13-3.17 W",
		"state": "OKLAHOMA",
		"artcc": "ZFW",
		"type": "RNAV",
		"updated": "10/29/2014",
	},
	{
		"name": "MEZXI",
		"latitude": "31-49-57.64 N",
		"longitude": "98-0-45.9 W",
		"state": "TEXAS",
		"artcc": "ZFW",
		"type": "RNAV",
		"updated": "05/24/2012",
	},
	{
		"name": "MIDEE",
		"latitude": "35-13-6 N",
		"longitude": "96-7-4 W",
		"state": "OKLAHOMA",
		"artcc": "ZFW",
		"type": "RNAV",
		"updated": "08/19/2005",
	},
	{
		"name": "MIGDE",
		"latitude": "31-58-7.21 N",
		"longitude": "95-26-6.78 W",
		"state": "TEXAS",
		"artcc": "ZFW",
		"type": "RP",
		"updated": "FZT*VOR/DME*136.43/8.00",
	},
	{
		"name": "MIGTE",
		"latitude": "35-57-4.88 N",
		"longitude": "95-43-26.72 W",
		"state": "OKLAHOMA",
		"artcc": "ZFW",
		"type": "MR",
		"updated": "TUL*VORTAC*160.00/15.00",
	},
	{
		"name": "MIKEC",
		"latitude": "35-19-38.16 N",
		"longitude": "97-36-20.35 W",
		"state": "OKLAHOMA",
		"artcc": "ZFW",
		"type": "RNAV",
		"updated": "07/06/2011",
	},
	{
		"name": "MIKKE",
		"latitude": "33-48-59.86 N",
		"longitude": "99-3-1.3 W",
		"state": "TEXAS",
		"artcc": "ZFW",
		"type": "MR",
		"updated": "SPS*VORTAC*236.00/25.00",
	},
	{
		"name": "MIKKL",
		"latitude": "32-28-35.2 N",
		"longitude": "97-18-35.54 W",
		"state": "TEXAS",
		"artcc": "ZFW",
		"type": "RP",
		"updated": "JZW*LS*000.00",
	},
	{
		"name": "MIKME",
		"latitude": "32-23-36.58 N",
		"longitude": "96-51-5.76 W",
		"state": "TEXAS",
		"artcc": "ZFW",
		"type": "RNAV",
		"updated": "10/20/2005",
	},
	{
		"name": "MILOA",
		"latitude": "33-40-51.09 N",
		"longitude": "97-41-59.65 W",
		"state": "TEXAS",
		"artcc": "ZFW",
		"type": "RP",
		"updated": "CVE*VOR/DME*314.00/62.00",
	},
	{
		"name": "MIMUW",
		"latitude": "34-59-50.53 N",
		"longitude": "96-24-59.78 W",
		"state": "OKLAHOMA",
		"artcc": "ZFW",
		"type": "RNAV",
		"updated": "03/06/2003",
	},
	{
		"name": "MINGG",
		"latitude": "35-7-43.87 N",
		"longitude": "96-57-19.68 W",
		"state": "OKLAHOMA",
		"artcc": "ZFW",
		"type": "RP",
		"updated": "IRW*VORTAC*106.00/34.95",
	},
	{
		"name": "MIPDE",
		"latitude": "32-16-4.23 N",
		"longitude": "93-28-51.31 W",
		"state": "LOUISIANA",
		"artcc": "ZFW",
		"type": "MR",
		"updated": "BAD*TACAN*141.00/17.00",
	},
	{
		"name": "MIPEE",
		"latitude": "31-55-54.65 N",
		"longitude": "101-58-24.82 W",
		"state": "TEXAS",
		"artcc": "ZFW",
		"type": "RP",
		"updated": "MAF*VORTAC*101.69/12.00",
	},
	{
		"name": "MISBE",
		"latitude": "32-40-47.9 N",
		"longitude": "95-30-30.62 W",
		"state": "TEXAS",
		"artcc": "ZFW",
		"type": "RP",
		"updated": "UIM*VOR/DME*202.86/13.98",
	},
	{
		"name": "MISDE",
		"latitude": "34-0-45.49 N",
		"longitude": "98-30-0.72 W",
		"state": "TEXAS",
		"artcc": "ZFW",
		"type": "MR",
		"updated": "SHP*TACAN*/1.90",
	},
	{
		"name": "MITRA",
		"latitude": "31-30-21.73 N",
		"longitude": "97-3-57.04 W",
		"state": "TEXAS",
		"artcc": "ZFW",
		"type": "RP",
		"updated": "ACT*VORTAC*122.89/14.00",
	},
	{
		"name": "MITZI",
		"latitude": "35-20-51 N",
		"longitude": "98-40-4.78 W",
		"state": "OKLAHOMA",
		"artcc": "ZFW",
		"type": "RNAV",
		"updated": "03/27/2007",
	},
	{
		"name": "MIVLE",
		"latitude": "33-27-54.62 N",
		"longitude": "101-49-39.16 W",
		"state": "TEXAS",
		"artcc": "ZFW",
		"type": "RP",
		"updated": "LBB*VORTAC*152.18/15.00",
	},
	{
		"name": "MIXDI",
		"latitude": "31-31-42.22 N",
		"longitude": "100-26-16.67 W",
		"state": "TEXAS",
		"artcc": "ZFW",
		"type": "RNAV",
		"updated": "07/12/2005",
	},
	{
		"name": "MIXIE",
		"latitude": "32-43-19.4 N",
		"longitude": "93-10-51.57 W",
		"state": "LOUISIANA",
		"artcc": "ZFW",
		"type": "RP",
		"updated": "ELD*VOR/DME*207.71/38.06",
	},
	{
		"name": "MIXTO",
		"latitude": "32-22-23.64 N",
		"longitude": "96-55-10.2 W",
		"state": "TEXAS",
		"artcc": "ZFW",
		"type": "RNAV",
		"updated": "07/10/2009",
	},
	{
		"name": "MMANN",
		"latitude": "34-4-30.31 N",
		"longitude": "95-59-18.97 W",
		"state": "OKLAHOMA",
		"artcc": "ZFW",
		"type": "RNAV",
		"updated": "07/14/2014",
	},
	{
		"name": "MMIKE",
		"latitude": "32-32-59.15 N",
		"longitude": "93-36-37.68 W",
		"state": "LOUISIANA",
		"artcc": "ZFW",
		"type": "RNAV",
		"updated": "12/17/2015",
	},
	{
		"name": "MNKEE",
		"latitude": "33-25-45.42 N",
		"longitude": "96-55-2.85 W",
		"state": "TEXAS",
		"artcc": "ZFW",
		"type": "RNAV",
		"updated": "05/10/2015",
	},
	{
		"name": "MNNDO",
		"latitude": "32-36-13.46 N",
		"longitude": "96-33-58.85 W",
		"state": "TEXAS",
		"artcc": "ZFW",
		"type": "RNAV",
		"updated": "07/09/2014",
	},
	{
		"name": "MODNE",
		"latitude": "33-12-6.41 N",
		"longitude": "98-20-9.32 W",
		"state": "TEXAS",
		"artcc": "ZFW",
		"type": "RNAV",
		"updated": "02/06/2008",
	},
	{
		"name": "MODVE",
		"latitude": "35-43-31.19 N",
		"longitude": "95-37-13.36 W",
		"state": "OKLAHOMA",
		"artcc": "ZFW",
		"type": "RNAV",
		"updated": "06/16/2008",
	},
	{
		"name": "MOFYU",
		"latitude": "31-45-46.69 N",
		"longitude": "99-58-34.41 W",
		"state": "TEXAS",
		"artcc": "ZFW",
		"type": "WP",
		"updated": "11/02/1998",
	},
	{
		"name": "MOKPE",
		"latitude": "32-9-42.28 N",
		"longitude": "93-48-52.18 W",
		"state": "LOUISIANA",
		"artcc": "ZFW",
		"type": "RP",
		"updated": "EMG*VORTAC*211.04/18.13",
	},
	{
		"name": "MOLES",
		"latitude": "32-31-38.71 N",
		"longitude": "96-50-10.04 W",
		"state": "TEXAS",
		"artcc": "ZFW",
		"type": "RP",
		"updated": "CVE*VOR/DME*165.00/22.00",
	},
	{
		"name": "MOLKE",
		"latitude": "32-35-19.18 N",
		"longitude": "97-31-19.2 W",
		"state": "TEXAS",
		"artcc": "ZFW",
		"type": "MR",
		"updated": "FUZ*VORTAC*218.00/25.00",
	},
	{
		"name": "MOLTE",
		"latitude": "32-47-42.89 N",
		"longitude": "96-50-22.2 W",
		"state": "TEXAS",
		"artcc": "ZFW",
		"type": "RNAV",
		"updated": "09/03/2010",
	},
	{
		"name": "MONAJ",
		"latitude": "33-2-46.94 N",
		"longitude": "94-16-50.86 W",
		"state": "TEXAS",
		"artcc": "ZFW",
		"type": "RNAV",
		"updated": "01/04/2009",
	},
	{
		"name": "MONTE",
		"latitude": "33-32-24.69 N",
		"longitude": "95-53-42.5 W",
		"state": "TEXAS",
		"artcc": "ZFW",
		"type": "RP",
		"updated": "PRX*VOR/DME*262.79",
	},
	{
		"name": "MOODY",
		"latitude": "31-22-42.83 N",
		"longitude": "97-29-31.12 W",
		"state": "TEXAS",
		"artcc": "ZFW",
		"type": "RP",
		"updated": "ACT*VORTAC*205.00",
	},
	{
		"name": "MOOSE",
		"latitude": "34-18-53.07 N",
		"longitude": "97-27-38.7 W",
		"state": "OKLAHOMA",
		"artcc": "ZFW",
		"type": "RP",
		"updated": "IRW*VORTAC*166.27/62.96",
	},
	{
		"name": "MORGE",
		"latitude": "34-24-53.9 N",
		"longitude": "99-23-29.45 W",
		"state": "OKLAHOMA",
		"artcc": "ZFW",
		"type": "MR",
		"updated": "05/04/2011",
	},
	{
		"name": "MORRY",
		"latitude": "33-3-53 N",
		"longitude": "97-14-35.5 W",
		"state": "TEXAS",
		"artcc": "ZFW",
		"type": "RP",
		"updated": "LWN*LD*315.04/14.00",
	},
	{
		"name": "MOTZA",
		"latitude": "33-15-58.12 N",
		"longitude": "97-44-0.12 W",
		"state": "TEXAS",
		"artcc": "ZFW",
		"type": "RP",
		"updated": "FUZ*VORTAC*303.08/35.90",
	},
	{
		"name": "MOUAT",
		"latitude": "32-10-11.9 N",
		"longitude": "96-30-54.4 W",
		"state": "TEXAS",
		"artcc": "ZFW",
		"type": "RNAV",
		"updated": "08/02/2000",
	},
	{
		"name": "MOWWW",
		"latitude": "32-40-7.01 N",
		"longitude": "97-17-52.36 W",
		"state": "TEXAS",
		"artcc": "ZFW",
		"type": "RP",
		"updated": "JEN*VORTAC*037.86/42.38",
	},
	{
		"name": "MOYPE",
		"latitude": "35-19-7.8 N",
		"longitude": "96-0-57.59 W",
		"state": "OKLAHOMA",
		"artcc": "ZFW",
		"type": "RNAV",
		"updated": "05/15/2003",
	},
	{
		"name": "MREEK",
		"latitude": "32-48-16.19 N",
		"longitude": "98-38-4.17 W",
		"state": "TEXAS",
		"artcc": "ZFW",
		"type": "RNAV",
		"updated": "12/20/2009",
	},
	{
		"name": "MRGIE",
		"latitude": "34-22-18.19 N",
		"longitude": "97-21-7.05 W",
		"state": "OKLAHOMA",
		"artcc": "ZFW",
		"type": "RNAV",
		"updated": "08/18/2011",
	},
	{
		"name": "MRMAC",
		"latitude": "34-50-28.82 N",
		"longitude": "98-6-34.32 W",
		"state": "OKLAHOMA",
		"artcc": "ZFW",
		"type": "RP",
		"updated": "IRW*VORTAC*211.63",
	},
	{
		"name": "MRPHI",
		"latitude": "32-24-56.52 N",
		"longitude": "94-36-9.47 W",
		"state": "TEXAS",
		"artcc": "ZFW",
		"type": "RNAV",
		"updated": "02/28/2015",
	},
	{
		"name": "MRSSH",
		"latitude": "32-35-7.07 N",
		"longitude": "94-46-27.83 W",
		"state": "TEXAS",
		"artcc": "ZFW",
		"type": "RNAV",
		"updated": "07/09/2014",
	},
	{
		"name": "MRTHA",
		"latitude": "34-51-44.67 N",
		"longitude": "99-16-25.77 W",
		"state": "OKLAHOMA",
		"artcc": "ZFW",
		"type": "RP",
		"updated": "LTS*VORTAC*354.37/11.95",
	},
	{
		"name": "MSSLE",
		"latitude": "33-7-19.91 N",
		"longitude": "97-20-5.46 W",
		"state": "TEXAS",
		"artcc": "ZFW",
		"type": "RNAV",
		"updated": "07/09/2014",
	},
	{
		"name": "MUDDE",
		"latitude": "34-56-5.44 N",
		"longitude": "97-32-54.63 W",
		"state": "OKLAHOMA",
		"artcc": "ZFW",
		"type": "RP",
		"updated": "IRW*VORTAC*166.27/25.56",
	},
	{
		"name": "MUFIN",
		"latitude": "32-53-34.97 N",
		"longitude": "97-22-23.15 W",
		"state": "TEXAS",
		"artcc": "ZFW",
		"type": "RP",
		"updated": "TTT*VOR/DME*268.96",
	},
	{
		"name": "MUGAE",
		"latitude": "33-10-32.62 N",
		"longitude": "97-34-5.21 W",
		"state": "TEXAS",
		"artcc": "ZFW",
		"type": "RNAV",
		"updated": "03/31/2008",
	},
	{
		"name": "MUGYA",
		"latitude": "34-5-20.3 N",
		"longitude": "95-38-58.03 W",
		"state": "OKLAHOMA",
		"artcc": "ZFW",
		"type": "RNAV",
		"updated": "05/14/2012",
	},
	{
		"name": "MULVE",
		"latitude": "32-36-11.39 N",
		"longitude": "94-21-0.92 W",
		"state": "TEXAS",
		"artcc": "ZFW",
		"type": "RNAV",
		"updated": "12/19/2011",
	},
	{
		"name": "MUMBE",
		"latitude": "33-14-3.67 N",
		"longitude": "93-13-0.25 W",
		"state": "ARKANSAS",
		"artcc": "ZFW",
		"type": "WP",
		"updated": "12/28/1995",
	},
	{
		"name": "MUMGE",
		"latitude": "32-59-55.08 N",
		"longitude": "96-14-45.96 W",
		"state": "TEXAS",
		"artcc": "ZFW",
		"type": "RNAV",
		"updated": "03/01/2005",
	},
	{
		"name": "MUSKS",
		"latitude": "34-50-48.23 N",
		"longitude": "97-24-39.22 W",
		"state": "OKLAHOMA",
		"artcc": "ZFW",
		"type": "RP",
		"updated": "IRW*VORTAC*155.28/32.18",
	},
	{
		"name": "MUSRE",
		"latitude": "31-59-17.77 N",
		"longitude": "98-57-27.07 W",
		"state": "TEXAS",
		"artcc": "ZFW",
		"type": "RNAV",
		"updated": "06/29/2005",
	},
	{
		"name": "MUTEE",
		"latitude": "33-10-31.45 N",
		"longitude": "98-13-48.54 W",
		"state": "TEXAS",
		"artcc": "ZFW",
		"type": "RNAV",
		"updated": "05/14/2015",
	},
	{
		"name": "MUTTS",
		"latitude": "35-28-37.46 N",
		"longitude": "97-43-22.81 W",
		"state": "OKLAHOMA",
		"artcc": "ZFW",
		"type": "RP",
		"updated": "IRW*VORTAC*314.87/9.03",
	},
	{
		"name": "MUZZO",
		"latitude": "33-15-5.7 N",
		"longitude": "98-14-36.52 W",
		"state": "TEXAS",
		"artcc": "ZFW",
		"type": "RP",
		"updated": "TTT*VOR/DME*285.01/64.84",
	},
	{
		"name": "MUZZY",
		"latitude": "32-11-23.41 N",
		"longitude": "95-56-46.92 W",
		"state": "TEXAS",
		"artcc": "ZFW",
		"type": "RNAV",
		"updated": "09/13/2016",
	},
	{
		"name": "MXICO",
		"latitude": "32-36-31.56 N",
		"longitude": "100-4-15.5 W",
		"state": "TEXAS",
		"artcc": "ZFW",
		"type": "RP",
		"updated": "ABI*VORTAC*296.00/13.00",
	},
	{
		"name": "MYGAL",
		"latitude": "32-46-47.91 N",
		"longitude": "97-17-4.53 W",
		"state": "TEXAS",
		"artcc": "ZFW",
		"type": "RNAV",
		"updated": "07/27/2004",
	},
	{
		"name": "MYKES",
		"latitude": "32-35-12.45 N",
		"longitude": "97-4-29.86 W",
		"state": "TEXAS",
		"artcc": "ZFW",
		"type": "RP",
		"updated": "GKY*LD*162.02/5.35",
	},
	{
		"name": "MYLES",
		"latitude": "32-39-16.19 N",
		"longitude": "96-38-9.61 W",
		"state": "TEXAS",
		"artcc": "ZFW",
		"type": "RP",
		"updated": "LVF*LD*SE CRS/14.85",
	},
	{
		"name": "MYRTS",
		"latitude": "32-6-21.65 N",
		"longitude": "101-32-30.82 W",
		"state": "TEXAS",
		"artcc": "ZFW",
		"type": "RP",
		"updated": "BGS*VORTAC*179.05/17.00",
	},
