[
	{
		"name": "NABIE",
		"latitude": "32-39-53.81 N",
		"longitude": "97-45-9.3 W",
		"state": "TEXAS",
		"artcc": "ZFW",
		"type": "RNAV",
		"updated": "10/03/2016"
	},
	{
		"name": "NACIR",
		"latitude": "32-37-26.67 N",
		"longitude": "96-16-0.86 W",
		"state": "TEXAS",
		"artcc": "ZFW",
		"type": "RNAV",
		"updated": "12/15/2005"
	},
	{
		"name": "NADOE",
		"latitude": "35-35-13.84 N",
		"longitude": "95-36-4.37 W",
		"state": "OKLAHOMA",
		"artcc": "ZFW",
		"type": "RNAV",
		"updated": "06/16/2008"
	},
	{
		"name": "NAHMU",
		"latitude": "32-32-13.15 N",
		"longitude": "97-4-54.18 W",
		"state": "TEXAS",
		"artcc": "ZFW",
		"type": "RP",
		"updated": "TTT*VOR/DME*180.00/20.00"
	},
	{
		"name": "NAILS",
		"latitude": "32-40-34.6 N",
		"longitude": "93-53-21.85 W",
		"state": "LOUISIANA",
		"artcc": "ZFW",
		"type": "RP",
		"updated": "EIC*VORTAC*208.26"
	},
	{
		"name": "NAKFA",
		"latitude": "32-47-37.12 N",
		"longitude": "96-42-35.01 W",
		"state": "TEXAS",
		"artcc": "ZFW",
		"type": "RNAV",
		"updated": "07/13/2014"
	},
	{
		"name": "NALIY",
		"latitude": "35-45-33.57 N",
		"longitude": "95-56-53.66 W",
		"state": "OKLAHOMA",
		"artcc": "ZFW",
		"type": "RNAV",
		"updated": "04/25/2005"
	},
	{
		"name": "NALRE",
		"latitude": "33-25-0.98 N",
		"longitude": "92-42-42.65 W",
		"state": "ARKANSAS",
		"artcc": "ZFW",
		"type": "RNAV",
		"updated": "12/01/2005"
	},
	{
		"name": "NAMTE",
		"latitude": "34-29-20.65 N",
		"longitude": "99-20-16.11 W",
		"state": "OKLAHOMA",
		"artcc": "ZFW",
		"type": "RNAV",
		"updated": "10/29/2014"
	},
	{
		"name": "NANDR",
		"latitude": "33-18-6.7 N",
		"longitude": "97-8-2.44 W",
		"state": "TEXAS",
		"artcc": "ZFW",
		"type": "RNAV",
		"updated": "05/10/2015"
	},
	{
		"name": "NAPLY",
		"latitude": "32-23-45.27 N",
		"longitude": "94-59-51.04 W",
		"state": "TEXAS",
		"artcc": "ZFW",
		"type": "RNAV",
		"updated": "09/13/2016"
	},
	{
		"name": "NARCS",
		"latitude": "31-48-33.74 N",
		"longitude": "96-7-43.54 W",
		"state": "TEXAS",
		"artcc": "ZFW",
		"type": "RP",
		"updated": "FUZ*VORTAC*134.17/83.87"
	},
	{
		"name": "NARZM",
		"latitude": "32-56-51 N",
		"longitude": "97-58-17 W",
		"state": "TEXAS",
		"artcc": "ZFW",
		"type": "RNAV",
		"updated": "07/16/2012"
	},
	{
		"name": "NASUE",
		"latitude": "32-11-19.79 N",
		"longitude": "97-37-48.52 W",
		"state": "TEXAS",
		"artcc": "ZFW",
		"type": "RNAV",
		"updated": "10/20/2005"
	},
	{
		"name": "NAVYS",
		"latitude": "31-23-17.45 N",
		"longitude": "96-18-49.26 W",
		"state": "TEXAS",
		"artcc": "ZFW",
		"type": "RP",
		"updated": "LOA*VORTAC*303.74"
	},
	{
		"name": "NAWXY",
		"latitude": "32-37-15.87 N",
		"longitude": "97-2-50.72 W",
		"state": "TEXAS",
		"artcc": "ZFW",
		"type": "RNAV",
		"updated": "12/15/2005"
	},
	{
		"name": "NCONA",
		"latitude": "33-14-20.5 N",
		"longitude": "97-28-17.1 W",
		"state": "TEXAS",
		"artcc": "ZFW",
		"type": "RP",
		"updated": "TTT*VOR/DME*309.66"
	},
	{
		"name": "NDRUS",
		"latitude": "32-23-54.89 N",
		"longitude": "95-17-20.23 W",
		"state": "TEXAS",
		"artcc": "ZFW",
		"type": "RNAV",
		"updated": "09/13/2016"
	},
	{
		"name": "NEADS",
		"latitude": "34-56-38.15 N",
		"longitude": "97-58-29.1 W",
		"state": "OKLAHOMA",
		"artcc": "ZFW",
		"type": "RP",
		"updated": "IRW*VORTAC*209.01/30.67"
	},
	{
		"name": "NEAPS",
		"latitude": "32-33-0.03 N",
		"longitude": "96-58-18.08 W",
		"state": "TEXAS",
		"artcc": "ZFW",
		"type": "RNAV",
		"updated": "07/09/2014"
	},
	{
		"name": "NEBEE",
		"latitude": "35-18-35.03 N",
		"longitude": "97-58-9.32 W",
		"state": "OKLAHOMA",
		"artcc": "ZFW",
		"type": "RNAV",
		"updated": "10/03/2012"
	},
	{
		"name": "NECKK",
		"latitude": "33-41-23.05 N",
		"longitude": "95-30-54.38 W",
		"state": "TEXAS",
		"artcc": "ZFW",
		"type": "RNAV",
		"updated": "09/13/2016"
	},
	{
		"name": "NECRA",
		"latitude": "34-44-18.53 N",
		"longitude": "99-16-24.6 W",
		"state": "OKLAHOMA",
		"artcc": "ZFW",
		"type": "RP",
		"updated": "LTS*VORTAC*350.54"
	},
	{
		"name": "NEGCI",
		"latitude": "32-1-10.7 N",
		"longitude": "101-31-44.01 W",
		"state": "TEXAS",
		"artcc": "ZFW",
		"type": "RNAV",
		"updated": "10/28/2008"
	},
	{
		"name": "NELYN",
		"latitude": "32-17-5.86 N",
		"longitude": "97-11-9.28 W",
		"state": "TEXAS",
		"artcc": "ZFW",
		"type": "RP",
		"updated": "JEN*VORTAC*071.78"
	},
	{
		"name": "NERBE",
		"latitude": "32-15-45.28 N",
		"longitude": "95-24-20.71 W",
		"state": "TEXAS",
		"artcc": "ZFW",
		"type": "RNAV",
		"updated": "08/17/2015"
	},
	{
		"name": "NESIY",
		"latitude": "35-27-7.18 N",
		"longitude": "96-56-34.64 W",
		"state": "OKLAHOMA",
		"artcc": "ZFW",
		"type": "RNAV",
		"updated": "08/17/2010"
	},
	{
		"name": "NESME",
		"latitude": "32-48-16.43 N",
		"longitude": "96-36-28.57 W",
		"state": "TEXAS",
		"artcc": "ZFW",
		"type": "RNAV",
		"updated": "10/17/2005"
	},
	{
		"name": "NETEE",
		"latitude": "33-0-24.4 N",
		"longitude": "97-3-15.01 W",
		"state": "TEXAS",
		"artcc": "ZFW",
		"type": "RP",
		"updated": "FUZ*VORTAC*035.96"
	},
	{
		"name": "NETFE",
		"latitude": "33-41-58.8 N",
		"longitude": "96-10-34.76 W",
		"state": "TEXAS",
		"artcc": "ZFW",
		"type": "RNAV",
		"updated": "06/28/2011"
	},
	{
		"name": "NETNE",
		"latitude": "32-58-41.8 N",
		"longitude": "96-54-42.53 W",
		"state": "TEXAS",
		"artcc": "ZFW",
		"type": "RNAV",
		"updated": "07/13/2014"
	},
	{
		"name": "NETTS",
		"latitude": "33-11-54.96 N",
		"longitude": "97-1-42.08 W",
		"state": "TEXAS",
		"artcc": "ZFW",
		"type": "RP",
		"updated": "JHZ*LD*356.26/19.32"
	},
	{
		"name": "NEVER",
		"latitude": "32-38-8.1 N",
		"longitude": "94-37-10.54 W",
		"state": "TEXAS",
		"artcc": "ZFW",
		"type": "RP",
		"updated": "EIC*VORTAC*252.00"
	},
	{
		"name": "NIBUW",
		"latitude": "32-26-24.99 N",
		"longitude": "97-28-20.96 W",
		"state": "TEXAS",
		"artcc": "ZFW",
		"type": "RP",
		"updated": "JEN*VORTAC*044.69/26.59"
	},
	{
		"name": "NICIR",
		"latitude": "34-50-25.2 N",
		"longitude": "98-24-5.97 W",
		"state": "OKLAHOMA",
		"artcc": "ZFW",
		"type": "RNAV",
		"updated": "08/04/2008"
	},
	{
		"name": "NICOM",
		"latitude": "35-19-37.87 N",
		"longitude": "97-42-25.52 W",
		"state": "OKLAHOMA",
		"artcc": "ZFW",
		"type": "RNAV",
		"updated": "05/27/2014"
	},
	{
		"name": "NIDUE",
		"latitude": "35-11-10.57 N",
		"longitude": "97-23-25.2 W",
		"state": "OKLAHOMA",
		"artcc": "ZFW",
		"type": "MR",
		"updated": "TIK*TACAN*179.00/15.00"
	},
	{
		"name": "NIFDE",
		"latitude": "33-39-41.2 N",
		"longitude": "99-3-23.85 W",
		"state": "TEXAS",
		"artcc": "ZFW",
		"type": "RP",
		"updated": "GTH*VORTAC*085.88/64.42"
	},
	{
		"name": "NIFYE",
		"latitude": "33-19-1.78 N",
		"longitude": "98-49-13.75 W",
		"state": "TEXAS",
		"artcc": "ZFW",
		"type": "RNAV",
		"updated": "10/30/2012"
	},
	{
		"name": "NILOE",
		"latitude": "32-15-19.35 N",
		"longitude": "93-30-17.35 W",
		"state": "LOUISIANA",
		"artcc": "ZFW",
		"type": "MR",
		"updated": "BAD*TACAN*148.81/17.00"
	},
	{
		"name": "NILSE",
		"latitude": "32-12-20.95 N",
		"longitude": "99-40-25.62 W",
		"state": "TEXAS",
		"artcc": "ZFW",
		"type": "RNAV",
		"updated": "02/10/2010"
	},
	{
		"name": "NITCH",
		"latitude": "32-13-33.45 N",
		"longitude": "94-49-18 W",
		"state": "TEXAS",
		"artcc": "ZFW",
		"type": "RP",
		"updated": "GGG*VORTAC*189.90/12.00"
	},
	{
		"name": "NITER",
		"latitude": "32-54-29.47 N",
		"longitude": "96-54-57.1 W",
		"state": "TEXAS",
		"artcc": "ZFW",
		"type": "RP",
		"updated": "TTT*VOR/DME*063.61"
	},
	{
		"name": "NIVCI",
		"latitude": "32-32-49.07 N",
		"longitude": "96-42-40.54 W",
		"state": "TEXAS",
		"artcc": "ZFW",
		"type": "RNAV",
		"updated": "12/30/2005"
	},
	{
		"name": "NIXHE",
		"latitude": "34-8-21.91 N",
		"longitude": "96-49-17.73 W",
		"state": "OKLAHOMA",
		"artcc": "ZFW",
		"type": "RNAV",
		"updated": "08/18/2011"
	},
	{
		"name": "NIYGO",
		"latitude": "31-13-48.71 N",
		"longitude": "100-41-34.98 W",
		"state": "TEXAS",
		"artcc": "ZFW",
		"type": "RP",
		"updated": "SJT*VORTAC*224.77/15.00"
	},
	{
		"name": "NKORT",
		"latitude": "32-46-14.69 N",
		"longitude": "96-56-26.22 W",
		"state": "TEXAS",
		"artcc": "ZFW",
		"type": "RNAV",
		"updated": "12/27/2013"
	},
	{
		"name": "NNJUH",
		"latitude": "32-20-34.24 N",
		"longitude": "98-36-6.57 W",
		"state": "TEXAS",
		"artcc": "ZFW",
		"type": "RNAV",
		"updated": "09/13/2016"
	},
	{
		"name": "NNOLN",
		"latitude": "32-55-30.54 N",
		"longitude": "96-56-55.15 W",
		"state": "TEXAS",
		"artcc": "ZFW",
		"type": "RNAV",
		"updated": "12/11/2015"
	},
	{
		"name": "NOBBL",
		"latitude": "31-44-30.78 N",
		"longitude": "93-49-24.42 W",
		"state": "LOUISIANA",
		"artcc": "ZFW",
		"type": "RP",
		"updated": "DAS*VORTAC*019.31"
	},
	{
		"name": "NOBLY",
		"latitude": "33-4-56.63 N",
		"longitude": "96-19-57.66 W",
		"state": "TEXAS",
		"artcc": "ZFW",
		"type": "RP",
		"updated": "BYP*VORTAC*184.34"
	},
	{
		"name": "NOCID",
		"latitude": "32-57-50.89 N",
		"longitude": "98-41-54.9 W",
		"state": "TEXAS",
		"artcc": "ZFW",
		"type": "RNAV",
		"updated": "02/06/2008"
	},
	{
		"name": "NOING",
		"latitude": "32-5-24.62 N",
		"longitude": "102-16-29.33 W",
		"state": "TEXAS",
		"artcc": "ZFW",
		"type": "RNAV",
		"updated": "05/16/2010"
	},
	{
		"name": "NOJUP",
		"latitude": "32-44-17.35 N",
		"longitude": "93-15-59.34 W",
		"state": "LOUISIANA",
		"artcc": "ZFW",
		"type": "RNAV",
		"updated": "01/07/2011"
	},
	{
		"name": "NOKEE",
		"latitude": "33-5-4.47 N",
		"longitude": "97-27-55.14 W",
		"state": "TEXAS",
		"artcc": "ZFW",
		"type": "MR",
		"updated": "FUZ*VORTAC*303.08/18.60"
	},
	{
		"name": "NOKME",
		"latitude": "32-53-1.82 N",
		"longitude": "96-45-26.17 W",
		"state": "TEXAS",
		"artcc": "ZFW",
		"type": "RNAV",
		"updated": "07/13/2014"
	},
	{
		"name": "NOLAN",
		"latitude": "32-24-16.22 N",
		"longitude": "100-8-40.63 W",
		"state": "TEXAS",
		"artcc": "ZFW",
		"type": "RP",
		"updated": "TQA*VOR/DME*291.31/19.49"
	},
	{
		"name": "NOLOE",
		"latitude": "33-38-19.54 N",
		"longitude": "101-49-43.45 W",
		"state": "TEXAS",
		"artcc": "ZFW",
		"type": "RP",
		"updated": "LBB*LD*173.67/0.49"
	},
	{
		"name": "NOOGA",
		"latitude": "34-26-9.24 N",
		"longitude": "98-36-44.69 W",
		"state": "OKLAHOMA",
		"artcc": "ZFW",
		"type": "RP",
		"updated": "SPS*VORTAC*347.99"
	},
	{
		"name": "NOOGY",
		"latitude": "34-25-39.22 N",
		"longitude": "96-59-3.44 W",
		"state": "OKLAHOMA",
		"artcc": "ZFW",
		"type": "RP",
		"updated": "IRW*VORTAC*143.88/63.73"
	},
	{
		"name": "NOOTL",
		"latitude": "32-36-31.72 N",
		"longitude": "100-4-15.45 W",
		"state": "TEXAS",
		"artcc": "ZFW",
		"type": "RP",
		"updated": "ABI*VORTAC*296.00/13.00"
	},
	{
		"name": "NOPCI",
		"latitude": "31-43-32.84 N",
		"longitude": "95-4-36.82 W",
		"state": "TEXAS",
		"artcc": "ZFW",
		"type": "RNAV",
		"updated": "06/04/2012"
	},
	{
		"name": "NOPOX",
		"latitude": "34-45-27.47 N",
		"longitude": "99-13-53.94 W",
		"state": "OKLAHOMA",
		"artcc": "ZFW",
		"type": "MR",
		"updated": "LTS*VORTAC*014.00/6.00"
	},
	{
		"name": "NORRM",
		"latitude": "35-26-43.17 N",
		"longitude": "97-38-43.73 W",
		"state": "OKLAHOMA",
		"artcc": "ZFW",
		"type": "RP",
		"updated": "IRW*VORTAC*334.12"
	},
	{
		"name": "NOSAW",
		"latitude": "32-24-40.55 N",
		"longitude": "92-35-18.93 W",
		"state": "LOUISIANA",
		"artcc": "ZFW",
		"type": "RNAV",
		"updated": "04/21/2011"
	},
	{
		"name": "NOVAK",
		"latitude": "33-38-22.95 N",
		"longitude": "96-29-7.04 W",
		"state": "TEXAS",
		"artcc": "ZFW",
		"type": "RP",
		"updated": "BYP*VORTAC*290.00/14.00"
	},
	{
		"name": "NUCHA",
		"latitude": "32-1-41.21 N",
		"longitude": "97-51-56.28 W",
		"state": "TEXAS",
		"artcc": "ZFW",
		"type": "RNAV",
		"updated": "02/22/2017"
	},
	{
		"name": "NUFAD",
		"latitude": "35-23-45.98 N",
		"longitude": "97-41-50.08 W",
		"state": "OKLAHOMA",
		"artcc": "ZFW",
		"type": "RNAV",
		"updated": "06/15/2011"
	},
	{
		"name": "NUGEN",
		"latitude": "32-42-0.44 N",
		"longitude": "99-40-55.9 W",
		"state": "TEXAS",
		"artcc": "ZFW",
		"type": "RP",
		"updated": "ABI*VORTAC*025.00/16.00"
	},
	{
		"name": "NUGSE",
		"latitude": "32-12-12.17 N",
		"longitude": "102-7-53.22 W",
		"state": "TEXAS",
		"artcc": "ZFW",
		"type": "RP",
		"updated": "MAF*VORTAC*003.48/12.00"
	},
	{
		"name": "NUKIC",
		"latitude": "33-49-39.26 N",
		"longitude": "95-33-27.38 W",
		"state": "TEXAS",
		"artcc": "ZFW",
		"type": "RNAV",
		"updated": "09/22/2006"
	},
	{
		"name": "NUKLZ",
		"latitude": "34-16-55.49 N",
		"longitude": "97-26-2.62 W",
		"state": "OKLAHOMA",
		"artcc": "ZFW",
		"type": "RNAV",
		"updated": "09/27/2016"
	},
	{
		"name": "NUKTY",
		"latitude": "31-55-32.51 N",
		"longitude": "102-22-32.32 W",
		"state": "TEXAS",
		"artcc": "ZFW",
		"type": "RP",
		"updated": "MAF*VORTAC*231.14/10.70"
	},
	{
		"name": "NULUX",
		"latitude": "33-7-24.2 N",
		"longitude": "97-11-58.89 W",
		"state": "TEXAS",
		"artcc": "ZFW",
		"type": "RNAV",
		"updated": "12/15/2011"
	},
	{
		"name": "NUPKE",
		"latitude": "33-40-25.46 N",
		"longitude": "93-45-12.83 W",
		"state": "ARKANSAS",
		"artcc": "ZFW",
		"type": "RP",
		"updated": "TXK*VORTAC*052.05/18.66"
	},
	{
		"name": "NUSNE",
		"latitude": "33-42-20.64 N",
		"longitude": "101-49-45.11 W",
		"state": "TEXAS",
		"artcc": "ZFW",
		"type": "RP",
		"updated": "LBB*LD*N CRS/3.52"
	},
	{
		"name": "NUSSS",
		"latitude": "33-17-13.83 N",
		"longitude": "96-33-47.69 W",
		"state": "TEXAS",
		"artcc": "ZFW",
		"type": "RNAV",
		"updated": "11/13/2016"
	},
	{
		"name": "NUTRE",
		"latitude": "35-13-25.7 N",
		"longitude": "97-36-20.09 W",
		"state": "OKLAHOMA",
		"artcc": "ZFW",
		"type": "RP",
		"updated": "LIK*LD*175.96/9.07"
	},
	{
		"name": "NUTTY",
		"latitude": "35-15-15.21 N",
		"longitude": "99-0-13.59 W",
		"state": "OKLAHOMA",
		"artcc": "ZFW",
		"type": "RNAV",
		"updated": "12/14/2017"
	},
	{
		"name": "NUWMN",
		"latitude": "32-35-56.76 N",
		"longitude": "97-55-26.04 W",
		"state": "TEXAS",
		"artcc": "ZFW",
		"type": "RNAV",
		"updated": "06/11/2010"
	}
]
