	{
		"name": "OBLON",
		"latitude": "33-8-29.6 N",
		"longitude": "97-32-57.21 W",
		"state": "TEXAS",
		"artcc": "ZFW",
		"type": "RP",
		"updated": "FUZ*VORTAC*303.08/24.00",
	},
	{
		"name": "OBOWI",
		"latitude": "31-43-4 N",
		"longitude": "97-25-22.07 W",
		"state": "TEXAS",
		"artcc": "ZFW",
		"type": "RNAV",
		"updated": "02/09/2018",
	},
	{
		"name": "OBRUE",
		"latitude": "34-45-23.16 N",
		"longitude": "96-40-19.07 W",
		"state": "OKLAHOMA",
		"artcc": "ZFW",
		"type": "RNAV",
		"updated": "05/24/2017",
	},
	{
		"name": "OBUDE",
		"latitude": "32-54-54.34 N",
		"longitude": "96-55-9.42 W",
		"state": "TEXAS",
		"artcc": "ZFW",
		"type": "RNAV",
		"updated": "07/13/2014",
	},
	{
		"name": "OCIFY",
		"latitude": "32-28-28.26 N",
		"longitude": "93-21-24.2 W",
		"state": "LOUISIANA",
		"artcc": "ZFW",
		"type": "RNAV",
		"updated": "01/07/2011",
	},
	{
		"name": "OCINO",
		"latitude": "33-6-38.72 N",
		"longitude": "96-4-36.75 W",
		"state": "TEXAS",
		"artcc": "ZFW",
		"type": "RP",
		"updated": "BYP*VORTAC*156.77/26.75",
	},
	{
		"name": "OCOSA",
		"latitude": "33-10-0 N",
		"longitude": "94-0-0 W",
		"state": "ARKANSAS",
		"artcc": "ZFW",
		"type": "RNAV",
		"updated": "04/01/2008",
	},
	{
		"name": "OCPUB",
		"latitude": "32-29-13.91 N",
		"longitude": "94-17-28.68 W",
		"state": "TEXAS",
		"artcc": "ZFW",
		"type": "RNAV",
		"updated": "12/19/2011",
	},
	{
		"name": "ODDLE",
		"latitude": "31-50-38.18 N",
		"longitude": "102-13-3.19 W",
		"state": "TEXAS",
		"artcc": "ZFW",
		"type": "RP",
		"updated": "MAF*VORTAC*176.98/10.00",
	},
	{
		"name": "ODEEN",
		"latitude": "33-17-56.36 N",
		"longitude": "97-18-46.71 W",
		"state": "TEXAS",
		"artcc": "ZFW",
		"type": "RP",
		"updated": "CVE*VOR/DME*314.00/32.00",
	},
	{
		"name": "ODGOY",
		"latitude": "33-11-22.93 N",
		"longitude": "97-30-45.3 W",
		"state": "TEXAS",
		"artcc": "ZFW",
		"type": "RNAV",
		"updated": "11/25/2016",
	},
	{
		"name": "ODILL",
		"latitude": "34-21-53.38 N",
		"longitude": "99-16-16.19 W",
		"state": "TEXAS",
		"artcc": "ZFW",
		"type": "MR",
		"updated": "CDS*VORTAC*080.00/50.56",
	},
	{
		"name": "ODINS",
		"latitude": "35-42-4.36 N",
		"longitude": "98-22-53.54 W",
		"state": "OKLAHOMA",
		"artcc": "ZFW",
		"type": "RP",
		"updated": "IRW*VORTAC*291.71/43.03",
	},
	{
		"name": "ODIRY",
		"latitude": "33-17-14.19 N",
		"longitude": "92-43-42.78 W",
		"state": "ARKANSAS",
		"artcc": "ZFW",
		"type": "RNAV",
		"updated": "12/01/2005",
	},
	{
		"name": "ODNEE",
		"latitude": "33-17-5.84 N",
		"longitude": "102-45-31.92 W",
		"state": "TEXAS",
		"artcc": "ZFW",
		"type": "RNAV",
		"updated": "06/23/2013",
	},
	{
		"name": "ODORE",
		"latitude": "32-33-22.15 N",
		"longitude": "98-54-11.11 W",
		"state": "TEXAS",
		"artcc": "ZFW",
		"type": "RNAV",
		"updated": "12/26/2017",
	},
	{
		"name": "ODOUR",
		"latitude": "35-16-12.56 N",
		"longitude": "97-56-41.18 W",
		"state": "OKLAHOMA",
		"artcc": "ZFW",
		"type": "RNAV",
		"updated": "05/27/2014",
	},
	{
		"name": "ODOYU",
		"latitude": "34-51-0 N",
		"longitude": "100-18-0 W",
		"state": "TEXAS",
		"artcc": "ZFW",
		"type": "RNAV",
		"updated": "08/12/2005",
	},
	{
		"name": "ODPEE",
		"latitude": "33-31-24.24 N",
		"longitude": "97-13-56.36 W",
		"state": "TEXAS",
		"artcc": "ZFW",
		"type": "RNAV",
		"updated": "05/22/2009",
	},
	{
		"name": "ODYIY",
		"latitude": "33-56-22.4 N",
		"longitude": "93-42-47.61 W",
		"state": "ARKANSAS",
		"artcc": "ZFW",
		"type": "RNAV",
		"updated": "01/16/2002",
	},
	{
		"name": "OFMIM",
		"latitude": "32-15-55.89 N",
		"longitude": "98-33-36.47 W",
		"state": "TEXAS",
		"artcc": "ZFW",
		"type": "RNAV",
		"updated": "05/11/2011",
	},
	{
		"name": "OGAIN",
		"latitude": "34-31-0.27 N",
		"longitude": "98-24-36.18 W",
		"state": "OKLAHOMA",
		"artcc": "ZFW",
		"type": "RP",
		"updated": "SPS*VORTAC*006.00/33.00",
	},
	{
		"name": "OGBOE",
		"latitude": "32-43-11.42 N",
		"longitude": "98-27-50.84 W",
		"state": "TEXAS",
		"artcc": "ZFW",
		"type": "RNAV",
		"updated": "12/20/2009",
	},
	{
		"name": "OGDOE",
		"latitude": "34-38-21.85 N",
		"longitude": "99-13-3.57 W",
		"state": "OKLAHOMA",
		"artcc": "ZFW",
		"type": "MR",
		"updated": "LTS*VORTAC*113.00/3.00",
	},
	{
		"name": "OGHUS",
		"latitude": "33-28-20.39 N",
		"longitude": "102-1-58.93 W",
		"state": "TEXAS",
		"artcc": "ZFW",
		"type": "RNAV",
		"updated": "07/26/2005",
	},
	{
		"name": "OGLOE",
		"latitude": "34-44-16.46 N",
		"longitude": "98-24-6.96 W",
		"state": "OKLAHOMA",
		"artcc": "ZFW",
		"type": "RNAV",
		"updated": "08/04/2008",
	},
	{
		"name": "OHAGU",
		"latitude": "35-36-1.59 N",
		"longitude": "95-26-26.87 W",
		"state": "OKLAHOMA",
		"artcc": "ZFW",
		"type": "RNAV",
		"updated": "06/16/2008",
	},
	{
		"name": "OHARA",
		"latitude": "31-39-51.98 N",
		"longitude": "102-26-56.2 W",
		"state": "TEXAS",
		"artcc": "ZFW",
		"type": "RP",
		"updated": "MAF*VORTAC*201.69/24.52",
	},
	{
		"name": "OHSOJ",
		"latitude": "31-59-14.28 N",
		"longitude": "99-3-19.79 W",
		"state": "TEXAS",
		"artcc": "ZFW",
		"type": "RNAV",
		"updated": "06/29/2005",
	},
	{
		"name": "OHYOU",
		"latitude": "35-7-2.82 N",
		"longitude": "96-57-21.14 W",
		"state": "OKLAHOMA",
		"artcc": "ZFW",
		"type": "RNAV",
		"updated": "05/27/2014",
	},
	{
		"name": "OJIRO",
		"latitude": "32-36-52.79 N",
		"longitude": "103-7-40.95 W",
		"state": "NEW MEXICO",
		"artcc": "ZFW",
		"type": "RNAV",
		"updated": "09/11/2014",
	},
	{
		"name": "OKICU",
		"latitude": "31-28-48.84 N",
		"longitude": "100-4-31.82 W",
		"state": "TEXAS",
		"artcc": "ZFW",
		"type": "RNAV",
		"updated": "12/14/2005",
	},
	{
		"name": "OKKIE",
		"latitude": "34-27-45.36 N",
		"longitude": "99-16-25.76 W",
		"state": "OKLAHOMA",
		"artcc": "ZFW",
		"type": "RP",
		"updated": "LTS*VORTAC*175.63/12.00",
	},
	{
		"name": "OKUCI",
		"latitude": "33-32-18.21 N",
		"longitude": "96-7-58.83 W",
		"state": "TEXAS",
		"artcc": "ZFW",
		"type": "RP",
		"updated": "BYP*VORTAC*083.36/5.07",
	},
	{
		"name": "OKUTY",
		"latitude": "31-36-3.7 N",
		"longitude": "98-51-17.55 W",
		"state": "TEXAS",
		"artcc": "ZFW",
		"type": "RNAV",
		"updated": "06/29/2005",
	},
	{
		"name": "OKWOR",
		"latitude": "32-18-56.76 N",
		"longitude": "100-37-57.58 W",
		"state": "TEXAS",
		"artcc": "ZFW",
		"type": "RNAV",
		"updated": "09/02/2011",
	},
	{
		"name": "OLACK",
		"latitude": "32-58-18.31 N",
		"longitude": "97-26-36.43 W",
		"state": "TEXAS",
		"artcc": "ZFW",
		"type": "MR",
		"updated": "NFW*TACAN*352.00/12.00",
	},
	{
		"name": "OLEGE",
		"latitude": "32-31-4.5 N",
		"longitude": "96-15-59.99 W",
		"state": "TEXAS",
		"artcc": "ZFW",
		"type": "RNAV",
		"updated": "12/15/2005",
	},
	{
		"name": "OLFAD",
		"latitude": "33-39-42.37 N",
		"longitude": "101-54-32.1 W",
		"state": "TEXAS",
		"artcc": "ZFW",
		"type": "RP",
		"updated": "LBB*VORTAC*163.27",
	},
	{
		"name": "OLFRD",
		"latitude": "34-12-41.71 N",
		"longitude": "97-10-6 W",
		"state": "OKLAHOMA",
		"artcc": "ZFW",
		"type": "RNAV",
		"updated": "06/10/2014",
	},
	{
		"name": "OLGUY",
		"latitude": "35-22-16.82 N",
		"longitude": "98-13-0.17 W",
		"state": "OKLAHOMA",
		"artcc": "ZFW",
		"type": "RNAV",
		"updated": "05/28/2014",
	},
	{
		"name": "OLHUF",
		"latitude": "31-35-40.57 N",
		"longitude": "97-4-15.46 W",
		"state": "TEXAS",
		"artcc": "ZFW",
		"type": "RNAV",
		"updated": "02/23/2011",
	},
	{
		"name": "OLIRY",
		"latitude": "34-34-7.27 N",
		"longitude": "99-3-26.38 W",
		"state": "OKLAHOMA",
		"artcc": "ZFW",
		"type": "MR",
		"updated": "LTS*VORTAC*113.00/12.00",
	},
	{
		"name": "OLKAE",
		"latitude": "35-26-55.81 N",
		"longitude": "99-11-52.74 W",
		"state": "OKLAHOMA",
		"artcc": "ZFW",
		"type": "MR",
		"updated": "BFV*VORTAC*356.81/12.70",
	},
	{
		"name": "OLMPC",
		"latitude": "35-0-37.79 N",
		"longitude": "97-43-57.34 W",
		"state": "OKLAHOMA",
		"artcc": "ZFW",
		"type": "RNAV",
		"updated": "05/28/2014",
	},
	{
		"name": "OLVAE",
		"latitude": "35-46-33.59 N",
		"longitude": "98-33-8.54 W",
		"state": "OKLAHOMA",
		"artcc": "ZFW",
		"type": "RP",
		"updated": "IRW*VORTAC*291.72/52.50",
	},
	{
		"name": "OMAJI",
		"latitude": "32-49-5.87 N",
		"longitude": "93-14-20.17 W",
		"state": "LOUISIANA",
		"artcc": "ZFW",
		"type": "RNAV",
		"updated": "01/07/2011",
	},
	{
		"name": "OMASE",
		"latitude": "35-19-38.79 N",
		"longitude": "98-14-19.68 W",
		"state": "OKLAHOMA",
		"artcc": "ZFW",
		"type": "RNAV",
		"updated": "03/27/2008",
	},
	{
		"name": "OMGEE",
		"latitude": "32-33-47.33 N",
		"longitude": "96-54-14.08 W",
		"state": "TEXAS",
		"artcc": "ZFW",
		"type": "RNAV",
		"updated": "01/28/2011",
	},
	{
		"name": "OMIYU",
		"latitude": "31-10-10.57 N",
		"longitude": "100-17-15.86 W",
		"state": "TEXAS",
		"artcc": "ZFW",
		"type": "RP",
		"updated": "SJT*VORTAC*135.00/15.00",
	},
	{
		"name": "OMKIE",
		"latitude": "32-34-59 N",
		"longitude": "96-49-21 W",
		"state": "TEXAS",
		"artcc": "ZFW",
		"type": "RNAV",
		"updated": "09/03/2010",
	},
	{
		"name": "OMOBE",
		"latitude": "31-24-23.24 N",
		"longitude": "97-3-41.68 W",
		"state": "TEXAS",
		"artcc": "ZFW",
		"type": "RP",
		"updated": "ACT*VORTAC*136.17/18.65",
	},
	{
		"name": "OMOGY",
		"latitude": "33-35-5.15 N",
		"longitude": "96-34-28.06 W",
		"state": "TEXAS",
		"artcc": "ZFW",
		"type": "RNAV",
		"updated": "07/12/2013",
	},
	{
		"name": "ONAKE",
		"latitude": "32-20-8.46 N",
		"longitude": "97-49-26.53 W",
		"state": "TEXAS",
		"artcc": "ZFW",
		"type": "RNAV",
		"updated": "02/22/2017",
	},
	{
		"name": "ONEME",
		"latitude": "32-59-45.85 N",
		"longitude": "96-35-48.06 W",
		"state": "TEXAS",
		"artcc": "ZFW",
		"type": "RNAV",
		"updated": "06/14/2012",
	},
	{
		"name": "ONEST",
		"latitude": "34-50-10.51 N",
		"longitude": "98-48-44.61 W",
		"state": "OKLAHOMA",
		"artcc": "ZFW",
		"type": "MR",
		"updated": "SPS*VORTAC*338.00/52.00",
	},
	{
		"name": "ONEXY",
		"latitude": "33-50-12.66 N",
		"longitude": "102-1-48.69 W",
		"state": "TEXAS",
		"artcc": "ZFW",
		"type": "RNAV",
		"updated": "08/17/2010",
	},
	{
		"name": "ONGOO",
		"latitude": "32-33-17.88 N",
		"longitude": "93-55-33.01 W",
		"state": "LOUISIANA",
		"artcc": "ZFW",
		"type": "RP",
		"updated": "EIC*VORTAC*197.40",
	},
	{
		"name": "ONKAE",
		"latitude": "32-33-24.36 N",
		"longitude": "97-0-43.58 W",
		"state": "TEXAS",
		"artcc": "ZFW",
		"type": "RNAV",
		"updated": "07/09/2014",
	},
	{
		"name": "ONUPY",
		"latitude": "31-24-49.15 N",
		"longitude": "97-14-0.32 W",
		"state": "TEXAS",
		"artcc": "ZFW",
		"type": "RP",
		"updated": "ACT*VORTAC*164.00/15.00",
	},
	{
		"name": "OPAYA",
		"latitude": "33-25-26.96 N",
		"longitude": "93-18-33.68 W",
		"state": "ARKANSAS",
		"artcc": "ZFW",
		"type": "RNAV",
		"updated": "07/26/2004",
	},
	{
		"name": "OPEBY",
		"latitude": "33-32-12.82 N",
		"longitude": "98-49-8.81 W",
		"state": "TEXAS",
		"artcc": "ZFW",
		"type": "RNAV",
		"updated": "10/30/2012",
	},
	{
		"name": "OPGUE",
		"latitude": "32-57-42.21 N",
		"longitude": "99-23-14.22 W",
		"state": "TEXAS",
		"artcc": "ZFW",
		"type": "RNAV",
		"updated": "01/27/2014",
	},
	{
		"name": "OPSIY",
		"latitude": "32-31-21.42 N",
		"longitude": "97-18-35.16 W",
		"state": "TEXAS",
		"artcc": "ZFW",
		"type": "RNAV",
		"updated": "04/04/2012",
	},
	{
		"name": "OPULY",
		"latitude": "34-6-10.29 N",
		"longitude": "99-29-36 W",
		"state": "TEXAS",
		"artcc": "ZFW",
		"type": "RNAV",
		"updated": "05/30/2010",
	},
	{
		"name": "ORBEE",
		"latitude": "32-25-19.11 N",
		"longitude": "98-12-30.35 W",
		"state": "TEXAS",
		"artcc": "ZFW",
		"type": "RNAV",
		"updated": "08/22/2005",
	},
	{
		"name": "ORBEY",
		"latitude": "33-51-6.56 N",
		"longitude": "96-23-44.52 W",
		"state": "OKLAHOMA",
		"artcc": "ZFW",
		"type": "WP",
		"updated": "11/02/1998",
	},
	{
		"name": "ORICK",
		"latitude": "33-18-16.56 N",
		"longitude": "96-44-56.03 W",
		"state": "TEXAS",
		"artcc": "ZFW",
		"type": "RNAV",
		"updated": "09/11/2014",
	},
	{
		"name": "ORIPE",
		"latitude": "32-33-21.66 N",
		"longitude": "97-18-34.89 W",
		"state": "TEXAS",
		"artcc": "ZFW",
		"type": "RP",
		"updated": "TTT*VOR/DME*210.08/23.18",
	},
	{
		"name": "ORJEF",
		"latitude": "35-25-51.83 N",
		"longitude": "97-35-48.19 W",
		"state": "OKLAHOMA",
		"artcc": "ZFW",
		"type": "RNAV",
		"updated": "03/14/2000",
	},
	{
		"name": "ORRTH",
		"latitude": "32-33-27.99 N",
		"longitude": "92-44-19.76 W",
		"state": "LOUISIANA",
		"artcc": "ZFW",
		"type": "RNAV",
		"updated": "09/02/2016",
	},
	{
		"name": "ORTRO",
		"latitude": "33-41-28.06 N",
		"longitude": "94-12-44.97 W",
		"state": "ARKANSAS",
		"artcc": "ZFW",
		"type": "RP",
		"updated": "TXK*VORTAC*319.72",
	},
	{
		"name": "ORUBE",
		"latitude": "33-2-4.88 N",
		"longitude": "93-19-23.65 W",
		"state": "ARKANSAS",
		"artcc": "ZFW",
		"type": "RNAV",
		"updated": "07/14/2008",
	},
	{
		"name": "ORVLL",
		"latitude": "32-26-20.57 N",
		"longitude": "96-22-13.31 W",
		"state": "TEXAS",
		"artcc": "ZFW",
		"type": "RP",
		"updated": "CQY*VORTAC*327.00/17.03",
	},
	{
		"name": "OSHWA",
		"latitude": "32-49-55.13 N",
		"longitude": "102-39-1.93 W",
		"state": "TEXAS",
		"artcc": "ZFW",
		"type": "RNAV",
		"updated": "06/11/2010",
	},
	{
		"name": "OSOPE",
		"latitude": "32-47-45.63 N",
		"longitude": "96-43-42.6 W",
		"state": "TEXAS",
		"artcc": "ZFW",
		"type": "RNAV",
		"updated": "09/03/2010",
	},
	{
		"name": "OSUCU",
		"latitude": "35-19-20.52 N",
		"longitude": "98-55-41.77 W",
		"state": "OKLAHOMA",
		"artcc": "ZFW",
		"type": "RNAV",
		"updated": "06/15/2011",
	},
	{
		"name": "OSUFO",
		"latitude": "32-37-29.44 N",
		"longitude": "97-43-36.73 W",
		"state": "TEXAS",
		"artcc": "ZFW",
		"type": "MR",
		"updated": "NFW*TACAN*235.00/17.00",
	},
	{
		"name": "OSUYE",
		"latitude": "33-18-14.14 N",
		"longitude": "95-3-42.5 W",
		"state": "TEXAS",
		"artcc": "ZFW",
		"type": "RP",
		"updated": "PRX*VOR/DME*119.24",
	},
	{
		"name": "OTAZY",
		"latitude": "32-33-5.24 N",
		"longitude": "96-41-30.76 W",
		"state": "TEXAS",
		"artcc": "ZFW",
		"type": "RNAV",
		"updated": "10/04/2010",
	},
	{
		"name": "OTETE",
		"latitude": "34-55-26.73 N",
		"longitude": "97-17-38.32 W",
		"state": "OKLAHOMA",
		"artcc": "ZFW",
		"type": "MW",
		"updated": "06/02/2008",
	},
	{
		"name": "OTOZO",
		"latitude": "33-22-26.06 N",
		"longitude": "95-53-30.99 W",
		"state": "TEXAS",
		"artcc": "ZFW",
		"type": "RNAV",
		"updated": "02/05/2013",
	},
	{
		"name": "OTTIF",
		"latitude": "32-20-46.07 N",
		"longitude": "95-13-4.42 W",
		"state": "TEXAS",
		"artcc": "ZFW",
		"type": "RP",
		"updated": "GGG*VORTAC*252.83/24.00",
	},
	{
		"name": "OTTTT",
		"latitude": "33-37-32.82 N",
		"longitude": "97-48-22.04 W",
		"state": "TEXAS",
		"artcc": "ZFW",
		"type": "RNAV",
		"updated": "07/09/2014",
	},
	{
		"name": "OTTUV",
		"latitude": "32-41-5.29 N",
		"longitude": "95-6-21.92 W",
		"state": "TEXAS",
		"artcc": "ZFW",
		"type": "RP",
		"updated": "GGG*VORTAC*304.88/24.00",
	},
	{
		"name": "OTUNE",
		"latitude": "32-12-4.16 N",
		"longitude": "97-42-43.91 W",
		"state": "TEXAS",
		"artcc": "ZFW",
		"type": "RNAV",
		"updated": "10/20/2005",
	},
	{
		"name": "OTYIG",
		"latitude": "33-23-27.1 N",
		"longitude": "97-11-37.62 W",
		"state": "TEXAS",
		"artcc": "ZFW",
		"type": "CN",
		"updated": "10/03/2011",
	},
	{
		"name": "OUTLN",
		"latitude": "32-15-52.83 N",
		"longitude": "95-44-10.29 W",
		"state": "TEXAS",
		"artcc": "ZFW",
		"type": "RNAV",
		"updated": "05/10/2015",
	},
	{
		"name": "OUTTR",
		"latitude": "32-34-10.96 N",
		"longitude": "96-57-37.27 W",
		"state": "TEXAS",
		"artcc": "ZFW",
		"type": "RNAV",
		"updated": "07/09/2014",
	},
	{
		"name": "OVASE",
		"latitude": "34-34-13 N",
		"longitude": "98-32-16 W",
		"state": "OKLAHOMA",
		"artcc": "ZFW",
		"type": "RNAV",
		"updated": "08/12/2005",
	},
	{
		"name": "OVBEW",
		"latitude": "31-49-49.43 N",
		"longitude": "97-4-43.59 W",
		"state": "TEXAS",
		"artcc": "ZFW",
		"type": "CN",
		"updated": "02/06/2012",
	},
	{
		"name": "OVDIE",
		"latitude": "35-17-36.88 N",
		"longitude": "97-35-19.85 W",
		"state": "OKLAHOMA",
		"artcc": "ZFW",
		"type": "RP",
		"updated": "RGR*LD*175.96/6.89",
	},
	{
		"name": "OVELE",
		"latitude": "32-44-42.43 N",
		"longitude": "96-46-27.82 W",
		"state": "TEXAS",
		"artcc": "ZFW",
		"type": "RNAV",
		"updated": "07/13/2014",
	},
	{
		"name": "OVFAC",
		"latitude": "31-44-49.72 N",
		"longitude": "97-6-2.59 W",
		"state": "TEXAS",
		"artcc": "ZFW",
		"type": "RP",
		"updated": "ACT*VORTAC*050.44/10.00",
	},
	{
		"name": "OVHIL",
		"latitude": "31-45-2.78 N",
		"longitude": "99-21-16.68 W",
		"state": "TEXAS",
		"artcc": "ZFW",
		"type": "RNAV",
		"updated": "10/16/2013",
	},
	{
		"name": "OVICI",
		"latitude": "33-47-16.31 N",
		"longitude": "96-16-23.83 W",
		"state": "TEXAS",
		"artcc": "ZFW",
		"type": "RNAV",
		"updated": "04/12/2006",
	},
	{
		"name": "OVIDY",
		"latitude": "32-23-5.36 N",
		"longitude": "98-35-5.9 W",
		"state": "TEXAS",
		"artcc": "ZFW",
		"type": "RNAV",
		"updated": "05/11/2011",
	},
	{
		"name": "OVLAE",
		"latitude": "32-35-7 N",
		"longitude": "95-33-3.35 W",
		"state": "TEXAS",
		"artcc": "ZFW",
		"type": "RNAV",
		"updated": "07/30/2012",
	},
	{
		"name": "OVLOE",
		"latitude": "32-59-27.17 N",
		"longitude": "96-3-12.23 W",
		"state": "TEXAS",
		"artcc": "ZFW",
		"type": "RNAV",
		"updated": "02/05/2013",
	},
	{
		"name": "OVNAE",
		"latitude": "32-56-45.06 N",
		"longitude": "93-47-16.99 W",
		"state": "LOUISIANA",
		"artcc": "ZFW",
		"type": "RNAV",
		"updated": "01/03/2009",
	},
	{
		"name": "OWENN",
		"latitude": "31-41-39.87 N",
		"longitude": "100-17-8.74 W",
		"state": "TEXAS",
		"artcc": "ZFW",
		"type": "RP",
		"updated": "SJT*VORTAC*014.35/21.00",
	},
	{
		"name": "OWING",
		"latitude": "33-30-57.76 N",
		"longitude": "99-56-52.31 W",
		"state": "TEXAS",
		"artcc": "ZFW",
		"type": "RP",
		"updated": "GTH*VORTAC*118.81/25.00",
	},
	{
		"name": "OWLLS",
		"latitude": "32-57-33.21 N",
		"longitude": "96-47-19.77 W",
		"state": "TEXAS",
		"artcc": "ZFW",
		"type": "RNAV",
		"updated": "07/27/2004",
	},
	{
		"name": "OWNEY",
		"latitude": "31-51-48.29 N",
		"longitude": "98-57-21.19 W",
		"state": "TEXAS",
		"artcc": "ZFW",
		"type": "RP",
		"updated": "BWD*VOR/DME*169.35/1.75",
	},
	{
		"name": "OWNOJ",
		"latitude": "35-23-38.14 N",
		"longitude": "96-56-34.37 W",
		"state": "OKLAHOMA",
		"artcc": "ZFW",
		"type": "RNAV",
		"updated": "08/17/2010",
	},
	{
		"name": "OXAKY",
		"latitude": "31-56-5.39 N",
		"longitude": "95-35-44.45 W",
		"state": "TEXAS",
		"artcc": "ZFW",
		"type": "RP",
		"updated": "FZT*VOR/DME*195.60/9.00",
	},
	{
		"name": "OXATE",
		"latitude": "31-50-3.07 N",
		"longitude": "101-55-42.17 W",
		"state": "TEXAS",
		"artcc": "ZFW",
		"type": "RP",
		"updated": "MAF*VORTAC*117.02/17.00",
	},
	{
		"name": "OXCOV",
		"latitude": "32-46-6.87 N",
		"longitude": "95-13-11.5 W",
		"state": "TEXAS",
		"artcc": "ZFW",
		"type": "CN",
		"updated": "02/06/2012",
	},
	{
		"name": "OXULY",
		"latitude": "34-3-31.94 N",
		"longitude": "99-24-29.02 W",
		"state": "TEXAS",
		"artcc": "ZFW",
		"type": "RNAV",
		"updated": "05/16/2010",
	},
	{
		"name": "OYPUZ",
		"latitude": "33-30-15.09 N",
		"longitude": "96-1-22.79 W",
		"state": "TEXAS",
		"artcc": "ZFW",
		"type": "RNAV",
		"updated": "02/05/2013",
	},
	{
		"name": "OYUGA",
		"latitude": "33-26-41.99 N",
		"longitude": "95-21-5.09 W",
		"state": "TEXAS",
		"artcc": "ZFW",
		"type": "RNAV",
		"updated": "09/22/2006",
	},
	{
		"name": "OYUTI",
		"latitude": "32-46-35.05 N",
		"longitude": "94-13-54.53 W",
		"state": "TEXAS",
		"artcc": "ZFW",
		"type": "RNAV",
		"updated": "01/04/2009",
	},
	{
		"name": "OZISO",
		"latitude": "34-37-47.2 N",
		"longitude": "99-10-17.2 W",
		"state": "OKLAHOMA",
		"artcc": "ZFW",
		"type": "RNAV",
		"updated": "02/09/2018",
	},
	{
		"name": "OZJUP",
		"latitude": "32-33-16.82 N",
		"longitude": "93-19-45.65 W",
		"state": "LOUISIANA",
		"artcc": "ZFW",
		"type": "RNAV",
		"updated": "01/07/2011",
	},
	{
		"name": "OZXUD",
		"latitude": "32-29-25.37 N",
		"longitude": "98-48-24.67 W",
		"state": "TEXAS",
		"artcc": "ZFW",
		"type": "RNAV",
		"updated": "03/10/2011",
	},
