	{
		"name": "PACIP",
		"latitude": "32-19-42.9 N",
		"longitude": "95-22-1.84 W",
		"state": "TEXAS",
		"artcc": "ZFW",
		"type": "RNAV",
		"updated": "07/30/2012",
	},
	{
		"name": "PACTS",
		"latitude": "33-43-1.93 N",
		"longitude": "93-40-0.37 W",
		"state": "ARKANSAS",
		"artcc": "ZFW",
		"type": "RP",
		"updated": "TXK*VORTAC*052.05/23.73",
	},
	{
		"name": "PADYI",
		"latitude": "31-55-3.86 N",
		"longitude": "99-59-9.93 W",
		"state": "TEXAS",
		"artcc": "ZFW",
		"type": "RNAV",
		"updated": "06/30/2011",
	},
	{
		"name": "PAGGY",
		"latitude": "32-5-29.1 N",
		"longitude": "99-46-38.69 W",
		"state": "TEXAS",
		"artcc": "ZFW",
		"type": "MR",
		"updated": "DYS*TACAN*163.29/20.00",
	},
	{
		"name": "PAGOC",
		"latitude": "32-1-0.65 N",
		"longitude": "101-25-51.35 W",
		"state": "TEXAS",
		"artcc": "ZFW",
		"type": "RNAV",
		"updated": "10/28/2008",
	},
	{
		"name": "PAKRE",
		"latitude": "32-7-52.87 N",
		"longitude": "97-43-35.91 W",
		"state": "TEXAS",
		"artcc": "ZFW",
		"type": "RNAV",
		"updated": "10/20/2005",
	},
	{
		"name": "PALMR",
		"latitude": "35-23-12.51 N",
		"longitude": "97-29-12.33 W",
		"state": "OKLAHOMA",
		"artcc": "ZFW",
		"type": "RNAV",
		"updated": "06/04/2014",
	},
	{
		"name": "PAMEY",
		"latitude": "34-17-38 N",
		"longitude": "97-51-32 W",
		"state": "OKLAHOMA",
		"artcc": "ZFW",
		"type": "RNAV",
		"updated": "06/27/2012",
	},
	{
		"name": "PAMMI",
		"latitude": "33-54-24.9 N",
		"longitude": "96-23-43 W",
		"state": "OKLAHOMA",
		"artcc": "ZFW",
		"type": "RNAV",
		"updated": "05/16/2010",
	},
	{
		"name": "PANTR",
		"latitude": "32-44-24.26 N",
		"longitude": "97-46-51.32 W",
		"state": "TEXAS",
		"artcc": "ZFW",
		"type": "RP",
		"updated": "MQP*VORTAC*076.60/10.99",
	},
	{
		"name": "PAPIY",
		"latitude": "31-21-43.4 N",
		"longitude": "100-29-13.55 W",
		"state": "TEXAS",
		"artcc": "ZFW",
		"type": "RP",
		"updated": "SJT*VORTAC*235.00/1.83",
	},
	{
		"name": "PATLE",
		"latitude": "32-35-33 N",
		"longitude": "99-0-29 W",
		"state": "TEXAS",
		"artcc": "ZFW",
		"type": "RNAV",
		"updated": "08/12/2005",
	},
	{
		"name": "PATTS",
		"latitude": "32-32-6.67 N",
		"longitude": "102-6-21.26 W",
		"state": "TEXAS",
		"artcc": "ZFW",
		"type": "RP",
		"updated": "MAF*VORTAC*356.75/31.78",
	},
	{
		"name": "PAWEJ",
		"latitude": "33-55-17.06 N",
		"longitude": "93-48-39.53 W",
		"state": "ARKANSAS",
		"artcc": "ZFW",
		"type": "RNAV",
		"updated": "01/16/2002",
	},
	{
		"name": "PAWLZ",
		"latitude": "32-25-53.36 N",
		"longitude": "97-16-57.91 W",
		"state": "TEXAS",
		"artcc": "ZFW",
		"type": "RNAV",
		"updated": "07/09/2014",
	},
	{
		"name": "PAXTN",
		"latitude": "32-41-50.42 N",
		"longitude": "96-48-10.39 W",
		"state": "TEXAS",
		"artcc": "ZFW",
		"type": "RNAV",
		"updated": "05/09/2005",
	},
	{
		"name": "PAXXE",
		"latitude": "32-38-4.24 N",
		"longitude": "97-19-46.45 W",
		"state": "TEXAS",
		"artcc": "ZFW",
		"type": "RNAV",
		"updated": "03/19/2009",
	},
	{
		"name": "PBLOW",
		"latitude": "33-1-30.74 N",
		"longitude": "99-6-5.16 W",
		"state": "TEXAS",
		"artcc": "ZFW",
		"type": "MR",
		"updated": "SPS*VORTAC*194.00/63.00",
	},
	{
		"name": "PCARD",
		"latitude": "32-20-25.12 N",
		"longitude": "97-50-22.03 W",
		"state": "TEXAS",
		"artcc": "ZFW",
		"type": "RP",
		"updated": "JEN*VORTAC*004.18/10.99",
	},
	{
		"name": "PEALS",
		"latitude": "32-10-26.81 N",
		"longitude": "99-8-37.64 W",
		"state": "TEXAS",
		"artcc": "ZFW",
		"type": "RNAV",
		"updated": "04/02/2016",
	},
	{
		"name": "PECIP",
		"latitude": "33-23-14.57 N",
		"longitude": "94-4-17.17 W",
		"state": "TEXAS",
		"artcc": "ZFW",
		"type": "RNAV",
		"updated": "06/08/2006",
	},
	{
		"name": "PEDIY",
		"latitude": "35-27-23.3 N",
		"longitude": "97-28-28.6 W",
		"state": "OKLAHOMA",
		"artcc": "ZFW",
		"type": "RP",
		"updated": "IRW*VORTAC*041.35",
	},
	{
		"name": "PEDSE",
		"latitude": "33-8-56.19 N",
		"longitude": "102-53-45.59 W",
		"state": "TEXAS",
		"artcc": "ZFW",
		"type": "RNAV",
		"updated": "06/23/2013",
	},
	{
		"name": "PEDUE",
		"latitude": "33-45-59.4 N",
		"longitude": "97-53-43.7 W",
		"state": "TEXAS",
		"artcc": "ZFW",
		"type": "RNAV",
		"updated": "01/08/2003",
	},
	{
		"name": "PEJAY",
		"latitude": "35-39-9.23 N",
		"longitude": "95-38-47.45 W",
		"state": "OKLAHOMA",
		"artcc": "ZFW",
		"type": "RNAV",
		"updated": "05/29/2015",
	},
	{
		"name": "PELRE",
		"latitude": "34-42-12.44 N",
		"longitude": "97-13-27.08 W",
		"state": "OKLAHOMA",
		"artcc": "ZFW",
		"type": "WP",
		"updated": "05/01/1996",
	},
	{
		"name": "PEMSE",
		"latitude": "32-11-56.7 N",
		"longitude": "102-26-18.72 W",
		"state": "TEXAS",
		"artcc": "ZFW",
		"type": "RP",
		"updated": "MAF*VORTAC*301.00/17.00",
	},
	{
		"name": "PENLY",
		"latitude": "35-27-21.4 N",
		"longitude": "98-40-5.8 W",
		"state": "OKLAHOMA",
		"artcc": "ZFW",
		"type": "RNAV",
		"updated": "03/02/2017",
	},
	{
		"name": "PENNY",
		"latitude": "33-8-45.54 N",
		"longitude": "97-1-29.02 W",
		"state": "TEXAS",
		"artcc": "ZFW",
		"type": "RP",
		"updated": "FLQ*LD*356.26/16.16",
	},
	{
		"name": "PEPOE",
		"latitude": "32-22-37.61 N",
		"longitude": "93-35-7.96 W",
		"state": "LOUISIANA",
		"artcc": "ZFW",
		"type": "RNAV",
		"updated": "05/09/2017",
	},
	{
		"name": "PEQIS",
		"latitude": "31-36-0.48 N",
		"longitude": "98-57-8.8 W",
		"state": "TEXAS",
		"artcc": "ZFW",
		"type": "RNAV",
		"updated": "06/29/2005",
	},
	{
		"name": "PERAE",
		"latitude": "32-10-8 N",
		"longitude": "102-13-36.81 W",
		"state": "TEXAS",
		"artcc": "ZFW",
		"type": "RNAV",
		"updated": "07/30/2012",
	},
	{
		"name": "PERRA",
		"latitude": "33-18-1.07 N",
		"longitude": "98-57-26.84 W",
		"state": "TEXAS",
		"artcc": "ZFW",
		"type": "MR",
		"updated": "SPS*VORTAC*194.00/45.00",
	},
	{
		"name": "PERSN",
		"latitude": "33-10-55.55 N",
		"longitude": "96-37-8.64 W",
		"state": "TEXAS",
		"artcc": "ZFW",
		"type": "RP",
		"updated": "CVE*VOR/DME*033.36/22.62",
	},
	{
		"name": "PETDO",
		"latitude": "35-20-26.85 N",
		"longitude": "99-23-40.3 W",
		"state": "OKLAHOMA",
		"artcc": "ZFW",
		"type": "RNAV",
		"updated": "03/02/2017",
	},
	{
		"name": "PEVLE",
		"latitude": "32-28-42.99 N",
		"longitude": "93-38-51.5 W",
		"state": "LOUISIANA",
		"artcc": "ZFW",
		"type": "MR",
		"updated": "BAD*TACAN*/1.80",
	},
	{
		"name": "PEWAE",
		"latitude": "34-14-26.61 N",
		"longitude": "99-42-20.21 W",
		"state": "TEXAS",
		"artcc": "ZFW",
		"type": "RP",
		"updated": "CDS*VORTAC*094.68/30.00",
	},
	{
		"name": "PGLET",
		"latitude": "32-59-23.62 N",
		"longitude": "97-43-59.79 W",
		"state": "TEXAS",
		"artcc": "ZFW",
		"type": "RNAV",
		"updated": "07/09/2014",
	},
	{
		"name": "PGLSI",
		"latitude": "35-19-53.22 N",
		"longitude": "97-31-36.67 W",
		"state": "OKLAHOMA",
		"artcc": "ZFW",
		"type": "RNAV",
		"updated": "06/06/2016",
	},
	{
		"name": "PHARA",
		"latitude": "35-27-51.86 N",
		"longitude": "96-4-15.5 W",
		"state": "OKLAHOMA",
		"artcc": "ZFW",
		"type": "RP",
		"updated": "OKM*VOR/DME*208.27/16.98",
	},
	{
		"name": "PHAUP",
		"latitude": "33-15-38.36 N",
		"longitude": "97-14-34.42 W",
		"state": "TEXAS",
		"artcc": "ZFW",
		"type": "RNAV",
		"updated": "07/09/2014",
	},
	{
		"name": "PHILS",
		"latitude": "32-11-24.51 N",
		"longitude": "100-18-17.88 W",
		"state": "TEXAS",
		"artcc": "ZFW",
		"type": "RP",
		"updated": "TQA*VOR/DME*253.86/25.00",
	},
	{
		"name": "PHNXX",
		"latitude": "32-32-17.99 N",
		"longitude": "97-53-44.11 W",
		"state": "TEXAS",
		"artcc": "ZFW",
		"type": "MR",
		"updated": "NFW*TACAN*235.00/27.00",
	},
	{
		"name": "PIBCI",
		"latitude": "33-55-30.18 N",
		"longitude": "101-50-33.59 W",
		"state": "TEXAS",
		"artcc": "ZFW",
		"type": "RP",
		"updated": "PVW*VOR/DME*184.19/10.00",
	},
	{
		"name": "PICIS",
		"latitude": "32-23-20.11 N",
		"longitude": "93-31-46.33 W",
		"state": "LOUISIANA",
		"artcc": "ZFW",
		"type": "RNAV",
		"updated": "12/17/2015",
	},
	{
		"name": "PICOD",
		"latitude": "33-9-1.18 N",
		"longitude": "93-2-21.45 W",
		"state": "ARKANSAS",
		"artcc": "ZFW",
		"type": "RNAV",
		"updated": "12/01/2005",
	},
	{
		"name": "PICOK",
		"latitude": "33-1-46.31 N",
		"longitude": "93-7-30.31 W",
		"state": "ARKANSAS",
		"artcc": "ZFW",
		"type": "RNAV",
		"updated": "07/14/2008",
	},
	{
		"name": "PICTA",
		"latitude": "32-48-54.93 N",
		"longitude": "103-34-19.92 W",
		"state": "NEW MEXICO",
		"artcc": "ZFW",
		"type": "RNAV",
		"updated": "01/13/2005",
	},
	{
		"name": "PIECE",
		"latitude": "34-17-55.49 N",
		"longitude": "99-18-14.5 W",
		"state": "TEXAS",
		"artcc": "ZFW",
		"type": "MR",
		"updated": "SPS*VORTAC*288.00/40.00",
	},
	{
		"name": "PIKEN",
		"latitude": "32-49-6.1 N",
		"longitude": "93-54-52.93 W",
		"state": "LOUISIANA",
		"artcc": "ZFW",
		"type": "RP",
		"updated": "EIC*VORTAC*291.00/6.00",
	},
	{
		"name": "PIKES",
		"latitude": "34-2-26.11 N",
		"longitude": "93-35-44.23 W",
		"state": "ARKANSAS",
		"artcc": "ZFW",
		"type": "RP",
		"updated": "TXK*VORTAC*030.00/39.57",
	},
	{
		"name": "PIKOY",
		"latitude": "32-47-31.18 N",
		"longitude": "96-16-2.23 W",
		"state": "TEXAS",
		"artcc": "ZFW",
		"type": "RNAV",
		"updated": "12/15/2005",
	},
	{
		"name": "PIKTE",
		"latitude": "32-47-52.56 N",
		"longitude": "94-9-52.56 W",
		"state": "TEXAS",
		"artcc": "ZFW",
		"type": "RP",
		"updated": "EIC*VORTAC*268.16/18.01",
	},
	{
		"name": "PINCK",
		"latitude": "33-16-59.07 N",
		"longitude": "97-11-46.18 W",
		"state": "TEXAS",
		"artcc": "ZFW",
		"type": "RNAV",
		"updated": "07/09/2012",
	},
	{
		"name": "PINKO",
		"latitude": "33-36-34.73 N",
		"longitude": "99-35-46.2 W",
		"state": "TEXAS",
		"artcc": "ZFW",
		"type": "MR",
		"updated": "SPS*VORTAC*236.00/55.00",
	},
	{
		"name": "PIPES",
		"latitude": "32-11-1.72 N",
		"longitude": "94-44-46.95 W",
		"state": "TEXAS",
		"artcc": "ZFW",
		"type": "RP",
		"updated": "GGG*VORTAC*171.58/14.01",
	},
	{
		"name": "PIPIC",
		"latitude": "33-24-14.65 N",
		"longitude": "95-40-45.03 W",
		"state": "TEXAS",
		"artcc": "ZFW",
		"type": "RNAV",
		"updated": "06/28/2011",
	},
	{
		"name": "PISNE",
		"latitude": "31-52-40.8 N",
		"longitude": "92-52-52.78 W",
		"state": "LOUISIANA",
		"artcc": "ZFW",
		"type": "RNAV",
		"updated": "10/02/2009",
	},
	{
		"name": "PITHY",
		"latitude": "33-4-25.33 N",
		"longitude": "96-45-58.53 W",
		"state": "TEXAS",
		"artcc": "ZFW",
		"type": "RNAV",
		"updated": "07/13/2014",
	},
	{
		"name": "PIVIE",
		"latitude": "33-42-4.85 N",
		"longitude": "94-51-25.89 W",
		"state": "TEXAS",
		"artcc": "ZFW",
		"type": "RNAV",
		"updated": "03/30/2004",
	},
	{
		"name": "PIZON",
		"latitude": "32-10-7.31 N",
		"longitude": "102-27-39.83 W",
		"state": "TEXAS",
		"artcc": "ZFW",
		"type": "RP",
		"updated": "MAF*VORTAC*293.74/16.77",
	},
	{
		"name": "PLANB",
		"latitude": "31-35-59.26 N",
		"longitude": "93-43-51.54 W",
		"state": "LOUISIANA",
		"artcc": "ZFW",
		"type": "RNAV",
		"updated": "03/13/2014",
	},
	{
		"name": "PLATE",
		"latitude": "34-22-48.05 N",
		"longitude": "96-7-26.03 W",
		"state": "OKLAHOMA",
		"artcc": "ZFW",
		"type": "RP",
		"updated": "IRW*VORTAC*121.21/93.88",
	},
	{
		"name": "PLEBS",
		"latitude": "33-41-29.48 N",
		"longitude": "98-22-9.53 W",
		"state": "TEXAS",
		"artcc": "ZFW",
		"type": "RP",
		"updated": "FUZ*VORTAC*303.08/76.74",
	},
	{
		"name": "PLEZE",
		"latitude": "34-28-13.22 N",
		"longitude": "95-14-25.13 W",
		"state": "OKLAHOMA",
		"artcc": "ZFW",
		"type": "RNAV",
		"updated": "09/27/2016",
	},
	{
		"name": "PLMER",
		"latitude": "32-15-6.47 N",
		"longitude": "95-13-30.14 W",
		"state": "TEXAS",
		"artcc": "ZFW",
		"type": "RNAV",
		"updated": "09/13/2016",
	},
	{
		"name": "PLURA",
		"latitude": "35-26-46.87 N",
		"longitude": "97-26-57.13 W",
		"state": "OKLAHOMA",
		"artcc": "ZFW",
		"type": "RP",
		"updated": "PWA*VOR/DME*110.00/11.00",
	},
	{
		"name": "PNUTS",
		"latitude": "31-36-23.54 N",
		"longitude": "93-32-19.9 W",
		"state": "LOUISIANA",
		"artcc": "ZFW",
		"type": "RNAV",
		"updated": "09/02/2016",
	},
	{
		"name": "POBOY",
		"latitude": "33-39-35.93 N",
		"longitude": "93-44-28.87 W",
		"state": "ARKANSAS",
		"artcc": "ZFW",
		"type": "RNAV",
		"updated": "12/03/2014",
	},
	{
		"name": "POCNI",
		"latitude": "33-9-50.4 N",
		"longitude": "96-3-49.92 W",
		"state": "TEXAS",
		"artcc": "ZFW",
		"type": "RP",
		"updated": "GVT*LD*355.73/6.65",
	},
	{
		"name": "PODCI",
		"latitude": "32-30-47.23 N",
		"longitude": "94-30-4.99 W",
		"state": "TEXAS",
		"artcc": "ZFW",
		"type": "RP",
		"updated": "GGG*VORTAC*058.86/14.00",
	},
	{
		"name": "PODDE",
		"latitude": "32-43-34.75 N",
		"longitude": "97-44-0.06 W",
		"state": "TEXAS",
		"artcc": "ZFW",
		"type": "RP",
		"updated": "JEN*VORTAC*006.15",
	},
	{
		"name": "POGIC",
		"latitude": "35-17-21.74 N",
		"longitude": "98-44-27.86 W",
		"state": "OKLAHOMA",
		"artcc": "ZFW",
		"type": "RNAV",
		"updated": "03/06/2013",
	},
	{
		"name": "POHMI",
		"latitude": "31-33-50.04 N",
		"longitude": "100-38-48.65 W",
		"state": "TEXAS",
		"artcc": "ZFW",
		"type": "RP",
		"updated": "SJT*VORTAC*309.00/15.00",
	},
	{
		"name": "POKYO",
		"latitude": "35-47-46.82 N",
		"longitude": "95-32-1.43 W",
		"state": "OKLAHOMA",
		"artcc": "ZFW",
		"type": "RNAV",
		"updated": "06/16/2008",
	},
	{
		"name": "POLKE",
		"latitude": "32-47-34 N",
		"longitude": "97-0-37.32 W",
		"state": "TEXAS",
		"artcc": "ZFW",
		"type": "RP",
		"updated": "FUZ*VORTAC*118.07",
	},
	{
		"name": "POMHO",
		"latitude": "32-21-3.92 N",
		"longitude": "95-23-36.71 W",
		"state": "TEXAS",
		"artcc": "ZFW",
		"type": "WP",
		"updated": "11/02/1998",
	},
	{
		"name": "POMPL",
		"latitude": "35-31-58.6 N",
		"longitude": "97-38-49.85 W",
		"state": "OKLAHOMA",
		"artcc": "ZFW",
		"type": "RNAV",
		"updated": "07/05/2007",
	},
	{
		"name": "POMUE",
		"latitude": "32-9-56.99 N",
		"longitude": "97-50-49.35 W",
		"state": "TEXAS",
		"artcc": "ZFW",
		"type": "RNAV",
		"updated": "02/22/2017",
	},
	{
		"name": "POMVE",
		"latitude": "31-41-32.48 N",
		"longitude": "103-4-50.07 W",
		"state": "TEXAS",
		"artcc": "ZFW",
		"type": "RNAV",
		"updated": "12/15/2011",
	},
	{
		"name": "PONYY",
		"latitude": "34-15-37.16 N",
		"longitude": "94-1-33.61 W",
		"state": "ARKANSAS",
		"artcc": "ZFW",
		"type": "RNAV",
		"updated": "09/13/2016",
	},
	{
		"name": "POPPA",
		"latitude": "33-0-10.78 N",
		"longitude": "97-10-45.91 W",
		"state": "TEXAS",
		"artcc": "ZFW",
		"type": "RP",
		"updated": "LWN*LD*315.04/9.10",
	},
	{
		"name": "POPSY",
		"latitude": "32-8-45.1 N",
		"longitude": "95-45-25 W",
		"state": "TEXAS",
		"artcc": "ZFW",
		"type": "RNAV",
		"updated": "05/13/2015",
	},
	{
		"name": "PORTR",
		"latitude": "32-53-51.76 N",
		"longitude": "96-48-19.94 W",
		"state": "TEXAS",
		"artcc": "ZFW",
		"type": "RP",
		"updated": "CVE*VOR/DME*078.88/4.99",
	},
	{
		"name": "POSOE",
		"latitude": "32-54-48.78 N",
		"longitude": "92-2-18.69 W",
		"state": "LOUISIANA",
		"artcc": "ZFW",
		"type": "RNAV",
		"updated": "07/16/2008",
	},
	{
		"name": "POSTE",
		"latitude": "33-38-4.54 N",
		"longitude": "98-46-52.14 W",
		"state": "TEXAS",
		"artcc": "ZFW",
		"type": "RP",
		"updated": "SPS*VORTAC*194.00/23.11",
	},
	{
		"name": "POTEN",
		"latitude": "32-39-19.9 N",
		"longitude": "95-40-1.94 W",
		"state": "TEXAS",
		"artcc": "ZFW",
		"type": "RP",
		"updated": "TTT*VOR/DME*094.06/70.65",
	},
	{
		"name": "POTTY",
		"latitude": "34-42-16.4 N",
		"longitude": "99-20-52.24 W",
		"state": "OKLAHOMA",
		"artcc": "ZFW",
		"type": "RNAV",
		"updated": "05/08/2015",
	},
	{
		"name": "POTZY",
		"latitude": "33-58-49.35 N",
		"longitude": "98-38-23.48 W",
		"state": "TEXAS",
		"artcc": "ZFW",
		"type": "RNAV",
		"updated": "09/13/2016",
	},
	{
		"name": "POWND",
		"latitude": "31-50-30.45 N",
		"longitude": "96-0-38.09 W",
		"state": "TEXAS",
		"artcc": "ZFW",
		"type": "RNAV",
		"updated": "04/02/2016",
	},
	{
		"name": "POYLI",
		"latitude": "32-16-12.68 N",
		"longitude": "94-18-11.19 W",
		"state": "TEXAS",
		"artcc": "ZFW",
		"type": "RNAV",
		"updated": "10/14/2008",
	},
	{
		"name": "PRARE",
		"latitude": "34-59-24.53 N",
		"longitude": "96-30-35.04 W",
		"state": "OKLAHOMA",
		"artcc": "ZFW",
		"type": "RNAV",
		"updated": "05/24/2017",
	},
	{
		"name": "PRASE",
		"latitude": "32-30-30.9 N",
		"longitude": "96-25-56.35 W",
		"state": "TEXAS",
		"artcc": "ZFW",
		"type": "RNAV",
		"updated": "05/04/2015",
	},
	{
		"name": "PREPP",
		"latitude": "32-29-12.03 N",
		"longitude": "103-27-10.26 W",
		"state": "NEW MEXICO",
		"artcc": "ZFW",
		"type": "RP",
		"updated": "HOB*LD*218.10/17.60",
	},
	{
		"name": "PRESO",
		"latitude": "35-45-19 N",
		"longitude": "95-56-53.7 W",
		"state": "OKLAHOMA",
		"artcc": "ZFW",
		"type": "RP",
		"updated": "OKM*VOR/DME*304.84",
	},
	{
		"name": "PRIZE",
		"latitude": "31-15-34.28 N",
		"longitude": "97-27-30.23 W",
		"state": "TEXAS",
		"artcc": "ZFW",
		"type": "RNAV",
		"updated": "02/12/2012",
	},
	{
		"name": "PRIZZ",
		"latitude": "33-54-53.4 N",
		"longitude": "96-6-20.34 W",
		"state": "OKLAHOMA",
		"artcc": "ZFW",
		"type": "RP",
		"updated": "FUZ*VORTAC*035.00/81.73",
	},
	{
		"name": "PRKRR",
		"latitude": "31-26-23.39 N",
		"longitude": "96-57-36.3 W",
		"state": "TEXAS",
		"artcc": "ZFW",
		"type": "RNAV",
		"updated": "12/17/2013",
	},
	{
		"name": "PROVO",
		"latitude": "33-47-40.27 N",
		"longitude": "94-6-8.38 W",
		"state": "ARKANSAS",
		"artcc": "ZFW",
		"type": "RP",
		"updated": "PRX*VOR/DME*070.00",
	},
	{
		"name": "PROWD",
		"latitude": "33-48-36.39 N",
		"longitude": "95-8-24.21 W",
		"state": "TEXAS",
		"artcc": "ZFW",
		"type": "RNAV",
		"updated": "09/13/2016",
	},
	{
		"name": "PUCIN",
		"latitude": "32-4-55.83 N",
		"longitude": "94-17-40.34 W",
		"state": "TEXAS",
		"artcc": "ZFW",
		"type": "RNAV",
		"updated": "10/14/2008",
	},
	{
		"name": "PUDJE",
		"latitude": "32-29-8.96 N",
		"longitude": "92-55-28.57 W",
		"state": "LOUISIANA",
		"artcc": "ZFW",
		"type": "RNAV",
		"updated": "09/02/2016",
	},
	{
		"name": "PULSE",
		"latitude": "33-11-40.52 N",
		"longitude": "97-33-39.55 W",
		"state": "TEXAS",
		"artcc": "ZFW",
		"type": "RNAV",
		"updated": "01/23/2017",
	},
	{
		"name": "PULTZ",
		"latitude": "35-41-17.46 N",
		"longitude": "97-44-14.95 W",
		"state": "OKLAHOMA",
		"artcc": "ZFW",
		"type": "RP",
		"updated": "IRW*VORTAC*335.39/20.72",
	},
	{
		"name": "PUNKY",
		"latitude": "32-15-3.33 N",
		"longitude": "97-50-20 W",
		"state": "TEXAS",
		"artcc": "ZFW",
		"type": "RNAV",
		"updated": "09/13/2016",
	},
	{
		"name": "PURLE",
		"latitude": "32-46-31.81 N",
		"longitude": "96-49-43.73 W",
		"state": "TEXAS",
		"artcc": "ZFW",
		"type": "RNAV",
		"updated": "09/03/2010",
	},
	{
		"name": "PURRS",
		"latitude": "32-10-34.08 N",
		"longitude": "96-28-34.54 W",
		"state": "TEXAS",
		"artcc": "ZFW",
		"type": "RNAV",
		"updated": "09/13/2016",
	},
	{
		"name": "PUTTI",
		"latitude": "33-48-28.04 N",
		"longitude": "100-17-22.14 W",
		"state": "TEXAS",
		"artcc": "ZFW",
		"type": "RNAV",
		"updated": "08/06/2015",
	},
	{
		"name": "PUYOC",
		"latitude": "32-6-31.56 N",
		"longitude": "92-43-52.97 W",
		"state": "LOUISIANA",
		"artcc": "ZFW",
		"type": "RNAV",
		"updated": "03/28/2012",
	},
	{
		"name": "PUYOK",
		"latitude": "32-6-1.69 N",
		"longitude": "99-22-18.13 W",
		"state": "TEXAS",
		"artcc": "ZFW",
		"type": "RNAV",
		"updated": "06/04/2012",
	},
	{
		"name": "PUYOS",
		"latitude": "33-49-43.71 N",
		"longitude": "95-27-27.31 W",
		"state": "TEXAS",
		"artcc": "ZFW",
		"type": "RNAV",
		"updated": "09/22/2006",
	},
