[
	{
		"name": "RAKOC",
		"latitude": "33-32-29.78 N",
		"longitude": "95-38-51.69 W",
		"state": "TEXAS",
		"artcc": "ZFW",
		"type": "RP",
		"updated": "PRX*VOR/DME*262.79/10.00"
	},
	{
		"name": "RALAE",
		"latitude": "33-3-49.34 N",
		"longitude": "97-39-1.88 W",
		"state": "TEXAS",
		"artcc": "ZFW",
		"type": "RNAV",
		"updated": "03/31/2008"
	},
	{
		"name": "RALLS",
		"latitude": "33-44-2.68 N",
		"longitude": "101-20-21.41 W",
		"state": "TEXAS",
		"artcc": "ZFW",
		"type": "RP",
		"updated": "LBB*VORTAC*075.37/28.82"
	},
	{
		"name": "RAMBL",
		"latitude": "32-41-49.61 N",
		"longitude": "97-2-18.26 W",
		"state": "TEXAS",
		"artcc": "ZFW",
		"type": "RNAV",
		"updated": "07/09/2014"
	},
	{
		"name": "RANGE",
		"latitude": "31-14-37.28 N",
		"longitude": "100-53-45.97 W",
		"state": "TEXAS",
		"artcc": "ZFW",
		"type": "MR",
		"updated": "SJT*VORTAC*241.00/24.00"
	},
	{
		"name": "RARDE",
		"latitude": "34-35-20.99 N",
		"longitude": "99-20-17.25 W",
		"state": "OKLAHOMA",
		"artcc": "ZFW",
		"type": "RNAV",
		"updated": "10/29/2014"
	},
	{
		"name": "RAROY",
		"latitude": "34-6-26.71 N",
		"longitude": "94-38-38.95 W",
		"state": "OKLAHOMA",
		"artcc": "ZFW",
		"type": "RNAV",
		"updated": "09/27/2004"
	},
	{
		"name": "RATKY",
		"latitude": "33-32-15.96 N",
		"longitude": "101-14-26.99 W",
		"state": "TEXAS",
		"artcc": "ZFW",
		"type": "RNAV",
		"updated": "06/20/2011"
	},
	{
		"name": "RAVYA",
		"latitude": "33-10-25.36 N",
		"longitude": "97-30-24.64 W",
		"state": "TEXAS",
		"artcc": "ZFW",
		"type": "RNAV",
		"updated": "01/22/2018"
	},
	{
		"name": "RAWNI",
		"latitude": "33-38-40.49 N",
		"longitude": "102-22-10.73 W",
		"state": "TEXAS",
		"artcc": "ZFW",
		"type": "RNAV",
		"updated": "03/26/2013"
	},
	{
		"name": "RAYMA",
		"latitude": "32-35-35.51 N",
		"longitude": "97-1-39.73 W",
		"state": "TEXAS",
		"artcc": "ZFW",
		"type": "RP",
		"updated": "PKQ*LD*176.26/16.94"
	},
	{
		"name": "RAYYE",
		"latitude": "31-30-54.64 N",
		"longitude": "96-57-3.98 W",
		"state": "TEXAS",
		"artcc": "ZFW",
		"type": "RNAV",
		"updated": "10/21/2015"
	},
	{
		"name": "RAZOS",
		"latitude": "32-28-27.04 N",
		"longitude": "97-18-35.56 W",
		"state": "TEXAS",
		"artcc": "ZFW",
		"type": "RNAV",
		"updated": "04/04/2012"
	},
	{
		"name": "RBBIT",
		"latitude": "32-40-40.95 N",
		"longitude": "97-44-2.4 W",
		"state": "TEXAS",
		"artcc": "ZFW",
		"type": "RNAV",
		"updated": "07/09/2014"
	},
	{
		"name": "RBIRO",
		"latitude": "33-56-26.37 N",
		"longitude": "98-25-16.86 W",
		"state": "TEXAS",
		"artcc": "ZFW",
		"type": "RNAV",
		"updated": "07/09/2014"
	},
	{
		"name": "RBUKL",
		"latitude": "33-52-57.26 N",
		"longitude": "97-36-0.39 W",
		"state": "TEXAS",
		"artcc": "ZFW",
		"type": "RNAV",
		"updated": "05/15/2015"
	},
	{
		"name": "RDHWK",
		"latitude": "35-6-3.45 N",
		"longitude": "96-52-37.32 W",
		"state": "OKLAHOMA",
		"artcc": "ZFW",
		"type": "RNAV",
		"updated": "05/28/2014"
	},
	{
		"name": "RECIT",
		"latitude": "34-51-5.84 N",
		"longitude": "96-40-19.14 W",
		"state": "OKLAHOMA",
		"artcc": "ZFW",
		"type": "RNAV",
		"updated": "05/24/2017"
	},
	{
		"name": "REDDN",
		"latitude": "32-44-11.84 N",
		"longitude": "96-35-57.34 W",
		"state": "TEXAS",
		"artcc": "ZFW",
		"type": "RNAV",
		"updated": "07/09/2014"
	},
	{
		"name": "REDGE",
		"latitude": "33-23-4.64 N",
		"longitude": "96-23-7.99 W",
		"state": "TEXAS",
		"artcc": "ZFW",
		"type": "RP",
		"updated": "BYP*VORTAC*213.75/11.90"
	},
	{
		"name": "REEKO",
		"latitude": "32-19-47.99 N",
		"longitude": "96-40-35.91 W",
		"state": "TEXAS",
		"artcc": "ZFW",
		"type": "RNAV",
		"updated": "07/13/2014"
	},
	{
		"name": "REFRY",
		"latitude": "34-16-19.1 N",
		"longitude": "99-27-4.52 W",
		"state": "TEXAS",
		"artcc": "ZFW",
		"type": "RP",
		"updated": "SPS*VORTAC*282.00/46.00"
	},
	{
		"name": "REGKO",
		"latitude": "33-23-22.64 N",
		"longitude": "98-49-12.13 W",
		"state": "TEXAS",
		"artcc": "ZFW",
		"type": "RNAV",
		"updated": "10/30/2012"
	},
	{
		"name": "REINS",
		"latitude": "34-52-58.11 N",
		"longitude": "99-16-25.77 W",
		"state": "OKLAHOMA",
		"artcc": "ZFW",
		"type": "RNAV",
		"updated": "01/13/2016"
	},
	{
		"name": "REKCO",
		"latitude": "33-35-14.54 N",
		"longitude": "94-10-54.3 W",
		"state": "TEXAS",
		"artcc": "ZFW",
		"type": "RP",
		"updated": "TXK*VORTAC*302.00/7.00"
	},
	{
		"name": "REKNE",
		"latitude": "32-33-12.65 N",
		"longitude": "94-19-29.98 W",
		"state": "TEXAS",
		"artcc": "ZFW",
		"type": "RNAV",
		"updated": "12/19/2011"
	},
	{
		"name": "REPAE",
		"latitude": "33-1-55.74 N",
		"longitude": "93-13-26.97 W",
		"state": "ARKANSAS",
		"artcc": "ZFW",
		"type": "RNAV",
		"updated": "07/14/2008"
	},
	{
		"name": "REPAY",
		"latitude": "33-28-1.92 N",
		"longitude": "96-1-7.74 W",
		"state": "TEXAS",
		"artcc": "ZFW",
		"type": "RNAV",
		"updated": "07/09/2014"
	},
	{
		"name": "REPDE",
		"latitude": "35-23-23.27 N",
		"longitude": "97-22-54.05 W",
		"state": "OKLAHOMA",
		"artcc": "ZFW",
		"type": "MR",
		"updated": "TIK*TACAN*179.00/2.80"
	},
	{
		"name": "RERUE",
		"latitude": "33-47-3.1 N",
		"longitude": "98-23-40.57 W",
		"state": "TEXAS",
		"artcc": "ZFW",
		"type": "RNAV",
		"updated": "07/31/2006"
	},
	{
		"name": "REWUB",
		"latitude": "34-37-21.5 N",
		"longitude": "97-13-29.8 W",
		"state": "OKLAHOMA",
		"artcc": "ZFW",
		"type": "RNAV",
		"updated": "03/29/2010"
	},
	{
		"name": "REXFU",
		"latitude": "35-27-18.95 N",
		"longitude": "99-12-4.6 W",
		"state": "OKLAHOMA",
		"artcc": "ZFW",
		"type": "RNAV",
		"updated": "03/02/2017"
	},
	{
		"name": "REYOG",
		"latitude": "34-35-41 N",
		"longitude": "98-13-20 W",
		"state": "OKLAHOMA",
		"artcc": "ZFW",
		"type": "RNAV",
		"updated": "08/12/2005"
	},
	{
		"name": "REZYU",
		"latitude": "33-11-16.62 N",
		"longitude": "97-41-28.71 W",
		"state": "TEXAS",
		"artcc": "ZFW",
		"type": "RNAV",
		"updated": "11/25/2016"
	},
	{
		"name": "RFOUR",
		"latitude": "32-12-38.72 N",
		"longitude": "95-32-9.91 W",
		"state": "TEXAS",
		"artcc": "ZFW",
		"type": "RP",
		"updated": "TYR*VOR/DME*211.86/11.00"
	},
	{
		"name": "RGYLE",
		"latitude": "33-4-10.23 N",
		"longitude": "97-14-42.42 W",
		"state": "TEXAS",
		"artcc": "ZFW",
		"type": "RNAV",
		"updated": "09/05/2014"
	},
	{
		"name": "RHALL",
		"latitude": "32-29-57.64 N",
		"longitude": "94-23-29.21 W",
		"state": "TEXAS",
		"artcc": "ZFW",
		"type": "RP",
		"updated": "GGG*VORTAC*068.00/19.00"
	},
	{
		"name": "RIBBY",
		"latitude": "33-49-35.39 N",
		"longitude": "96-40-7.81 W",
		"state": "TEXAS",
		"artcc": "ZFW",
		"type": "RNAV",
		"updated": "04/09/2012"
	},
	{
		"name": "RIBPO",
		"latitude": "35-20-56.69 N",
		"longitude": "97-28-25.63 W",
		"state": "OKLAHOMA",
		"artcc": "ZFW",
		"type": "RP",
		"updated": "IRW*VORTAC*087.87"
	},
	{
		"name": "RICOG",
		"latitude": "32-49-57.96 N",
		"longitude": "96-31-43.89 W",
		"state": "TEXAS",
		"artcc": "ZFW",
		"type": "RNAV",
		"updated": "07/14/2008"
	},
	{
		"name": "RIDDE",
		"latitude": "34-8-52.23 N",
		"longitude": "94-27-55.74 W",
		"state": "ARKANSAS",
		"artcc": "ZFW",
		"type": "RNAV",
		"updated": "07/22/2014"
	},
	{
		"name": "RIFFL",
		"latitude": "35-15-30.15 N",
		"longitude": "96-50-15.69 W",
		"state": "OKLAHOMA",
		"artcc": "ZFW",
		"type": "RNAV",
		"updated": "05/28/2014"
	},
	{
		"name": "RIFUG",
		"latitude": "34-20-42.03 N",
		"longitude": "100-17-21.34 W",
		"state": "TEXAS",
		"artcc": "ZFW",
		"type": "RNAV",
		"updated": "03/26/2013"
	},
	{
		"name": "RIGNE",
		"latitude": "32-55-31.27 N",
		"longitude": "96-56-8.77 W",
		"state": "TEXAS",
		"artcc": "ZFW",
		"type": "RP",
		"updated": "DAL*LD*312.63/7.17"
	},
	{
		"name": "RIGYA",
		"latitude": "33-59-5.74 N",
		"longitude": "96-4-53.98 W",
		"state": "OKLAHOMA",
		"artcc": "ZFW",
		"type": "RP",
		"updated": "IRW*VORTAC*129.99/111.73"
	},
	{
		"name": "RIKDE",
		"latitude": "32-35-43.89 N",
		"longitude": "97-54-49.25 W",
		"state": "TEXAS",
		"artcc": "ZFW",
		"type": "RP",
		"updated": "MQP*VORTAC*142.00/8.90"
	},
	{
		"name": "RIKKS",
		"latitude": "31-43-42.92 N",
		"longitude": "93-36-55 W",
		"state": "LOUISIANA",
		"artcc": "ZFW",
		"type": "RNAV",
		"updated": "08/07/2009"
	},
	{
		"name": "RINVE",
		"latitude": "32-37-10.99 N",
		"longitude": "96-47-48.42 W",
		"state": "TEXAS",
		"artcc": "ZFW",
		"type": "RNAV",
		"updated": "12/30/2005"
	},
	{
		"name": "RIREE",
		"latitude": "31-52-7.52 N",
		"longitude": "99-58-33.28 W",
		"state": "TEXAS",
		"artcc": "ZFW",
		"type": "RNAV",
		"updated": "12/14/2005"
	},
	{
		"name": "RITAE",
		"latitude": "34-13-24.11 N",
		"longitude": "101-28-37.51 W",
		"state": "TEXAS",
		"artcc": "ZFW",
		"type": "RNAV",
		"updated": "07/27/2006"
	},
	{
		"name": "RITOE",
		"latitude": "33-44-34.37 N",
		"longitude": "96-29-46.71 W",
		"state": "TEXAS",
		"artcc": "ZFW",
		"type": "RNAV",
		"updated": "05/16/2010"
	},
	{
		"name": "RIVET",
		"latitude": "33-11-54.67 N",
		"longitude": "97-0-29.14 W",
		"state": "TEXAS",
		"artcc": "ZFW",
		"type": "RP",
		"updated": "PPZ*LD*356.27/19.56"
	},
	{
		"name": "ROBEY",
		"latitude": "33-42-1.48 N",
		"longitude": "95-41-20.61 W",
		"state": "TEXAS",
		"artcc": "ZFW",
		"type": "RP",
		"updated": "BYP*VORTAC*064.19/29.00"
	},
	{
		"name": "ROBII",
		"latitude": "35-25-46.95 N",
		"longitude": "97-49-30.17 W",
		"state": "OKLAHOMA",
		"artcc": "ZFW",
		"type": "RNAV",
		"updated": "03/04/2010"
	},
	{
		"name": "ROBRY",
		"latitude": "32-45-35.93 N",
		"longitude": "103-7-45.4 W",
		"state": "NEW MEXICO",
		"artcc": "ZFW",
		"type": "RNAV",
		"updated": "09/11/2014"
	},
	{
		"name": "ROCKI",
		"latitude": "33-53-46.17 N",
		"longitude": "102-14-31.69 W",
		"state": "TEXAS",
		"artcc": "ZFW",
		"type": "RP",
		"updated": "LBB*VORTAC*294.01/20.01"
	},
	{
		"name": "ROCKK",
		"latitude": "32-41-32.12 N",
		"longitude": "95-53-46 W",
		"state": "TEXAS",
		"artcc": "ZFW",
		"type": "RP",
		"updated": "TYR*VOR/DME*303.00"
	},
	{
		"name": "ROCKN",
		"latitude": "35-4-22.63 N",
		"longitude": "99-8-41.83 W",
		"state": "OKLAHOMA",
		"artcc": "ZFW",
		"type": "RP",
		"updated": "HBR*VORTAC*332.00/13.00"
	},
	{
		"name": "ROCKZ",
		"latitude": "32-47-48.33 N",
		"longitude": "96-54-56.61 W",
		"state": "TEXAS",
		"artcc": "ZFW",
		"type": "RNAV",
		"updated": "07/13/2014"
	},
	{
		"name": "ROCOV",
		"latitude": "32-47-30.38 N",
		"longitude": "97-26-28.63 W",
		"state": "TEXAS",
		"artcc": "ZFW",
		"type": "MW",
		"updated": "08/07/2014"
	},
	{
		"name": "ROCRO",
		"latitude": "33-50-5.75 N",
		"longitude": "101-24-28.65 W",
		"state": "TEXAS",
		"artcc": "ZFW",
		"type": "RNAV",
		"updated": "06/20/2011"
	},
	{
		"name": "ROGEE",
		"latitude": "32-47-41.29 N",
		"longitude": "99-16-5.66 W",
		"state": "TEXAS",
		"artcc": "ZFW",
		"type": "RP",
		"updated": "MQP*VORTAC*265.00/64.43"
	},
	{
		"name": "ROGNY",
		"latitude": "32-6-28.94 N",
		"longitude": "101-52-40 W",
		"state": "TEXAS",
		"artcc": "ZFW",
		"type": "RP",
		"updated": "MAF*VORTAC*058.58/17.00"
	},
	{
		"name": "ROJAS",
		"latitude": "32-28-44.02 N",
		"longitude": "100-39-5.59 W",
		"state": "TEXAS",
		"artcc": "ZFW",
		"type": "MR",
		"updated": "ABI*VORTAC*260.00/40.00"
	},
	{
		"name": "ROKOY",
		"latitude": "35-44-34.22 N",
		"longitude": "98-40-8.44 W",
		"state": "OKLAHOMA",
		"artcc": "ZFW",
		"type": "RNAV",
		"updated": "03/27/2007"
	},
	{
		"name": "ROLLS",
		"latitude": "35-43-21.88 N",
		"longitude": "99-28-14.51 W",
		"state": "OKLAHOMA",
		"artcc": "ZFW",
		"type": "RP",
		"updated": "IRW*VORTAC*277.00/93.72"
	},
	{
		"name": "ROMPS",
		"latitude": "33-5-20.65 N",
		"longitude": "97-20-26.36 W",
		"state": "TEXAS",
		"artcc": "ZFW",
		"type": "RNAV",
		"updated": "01/23/2017"
	},
	{
		"name": "RONCY",
		"latitude": "35-26-57.18 N",
		"longitude": "98-55-49.84 W",
		"state": "OKLAHOMA",
		"artcc": "ZFW",
		"type": "RNAV",
		"updated": "06/15/2011"
	},
	{
		"name": "RONFO",
		"latitude": "31-24-50.52 N",
		"longitude": "100-17-45.32 W",
		"state": "TEXAS",
		"artcc": "ZFW",
		"type": "RNAV",
		"updated": "07/12/2005"
	},
	{
		"name": "ROOMY",
		"latitude": "31-29-7.57 N",
		"longitude": "99-21-38.8 W",
		"state": "TEXAS",
		"artcc": "ZFW",
		"type": "RP",
		"updated": "SJT*VORTAC*073.00"
	},
	{
		"name": "ROOOO",
		"latitude": "32-46-41.66 N",
		"longitude": "97-44-2.22 W",
		"state": "TEXAS",
		"artcc": "ZFW",
		"type": "RNAV",
		"updated": "07/09/2014"
	},
	{
		"name": "ROPKE",
		"latitude": "34-50-59.8 N",
		"longitude": "96-40-30.84 W",
		"state": "OKLAHOMA",
		"artcc": "ZFW",
		"type": "RP",
		"updated": "ADH*VOR/DME*348.88/2.85"
	},
	{
		"name": "ROPSS",
		"latitude": "33-24-6.79 N",
		"longitude": "96-7-10.5 W",
		"state": "TEXAS",
		"artcc": "ZFW",
		"type": "RP",
		"updated": "CVE*VOR/DME*046.00/50.00"
	},
	{
		"name": "RORKE",
		"latitude": "34-55-24.55 N",
		"longitude": "97-13-59.43 W",
		"state": "OKLAHOMA",
		"artcc": "ZFW",
		"type": "MW",
		"updated": "06/02/2008"
	},
	{
		"name": "ROROZ",
		"latitude": "31-57-45.8 N",
		"longitude": "92-45-45.85 W",
		"state": "LOUISIANA",
		"artcc": "ZFW",
		"type": "RNAV",
		"updated": "10/02/2009"
	},
	{
		"name": "ROTAE",
		"latitude": "33-47-11.13 N",
		"longitude": "95-32-28.95 W",
		"state": "TEXAS",
		"artcc": "ZFW",
		"type": "RNAV",
		"updated": "10/05/2016"
	},
	{
		"name": "ROTAN",
		"latitude": "32-49-21.98 N",
		"longitude": "100-25-27.33 W",
		"state": "TEXAS",
		"artcc": "ZFW",
		"type": "RP",
		"updated": "ABI*VORTAC*295.89/35.00"
	},
	{
		"name": "ROTTR",
		"latitude": "33-50-14.19 N",
		"longitude": "98-42-48.34 W",
		"state": "TEXAS",
		"artcc": "ZFW",
		"type": "RNAV",
		"updated": "09/13/2016"
	},
	{
		"name": "ROVCO",
		"latitude": "31-43-41.34 N",
		"longitude": "102-14-11.43 W",
		"state": "TEXAS",
		"artcc": "ZFW",
		"type": "RP",
		"updated": "MAF*VORTAC*176.98/17.00"
	},
	{
		"name": "ROWDI",
		"latitude": "33-22-22.5 N",
		"longitude": "97-23-17.67 W",
		"state": "TEXAS",
		"artcc": "ZFW",
		"type": "RNAV",
		"updated": "07/09/2014"
	},
	{
		"name": "ROWZE",
		"latitude": "33-32-33.02 N",
		"longitude": "95-40-16.52 W",
		"state": "TEXAS",
		"artcc": "ZFW",
		"type": "RNAV",
		"updated": "07/13/2014"
	},
	{
		"name": "ROXAE",
		"latitude": "32-6-29.72 N",
		"longitude": "99-59-4.3 W",
		"state": "TEXAS",
		"artcc": "ZFW",
		"type": "RNAV",
		"updated": "06/30/2011"
	},
	{
		"name": "ROYOR",
		"latitude": "32-53-57.09 N",
		"longitude": "96-10-6.79 W",
		"state": "TEXAS",
		"artcc": "ZFW",
		"type": "RNAV",
		"updated": "12/15/2005"
	},
	{
		"name": "RRDEE",
		"latitude": "34-28-38.92 N",
		"longitude": "97-13-23.35 W",
		"state": "OKLAHOMA",
		"artcc": "ZFW",
		"type": "RNAV",
		"updated": "08/18/2011"
	},
	{
		"name": "RRNET",
		"latitude": "34-49-19.94 N",
		"longitude": "94-52-55.33 W",
		"state": "OKLAHOMA",
		"artcc": "ZFW",
		"type": "RNAV",
		"updated": "05/11/2015"
	},
	{
		"name": "RRONY",
		"latitude": "33-34-55.16 N",
		"longitude": "95-25-30.56 W",
		"state": "TEXAS",
		"artcc": "ZFW",
		"type": "RNAV",
		"updated": "07/09/2014"
	},
	{
		"name": "RUBBR",
		"latitude": "34-17-49.92 N",
		"longitude": "95-13-4.53 W",
		"state": "OKLAHOMA",
		"artcc": "ZFW",
		"type": "RNAV",
		"updated": "07/09/2014"
	},
	{
		"name": "RUBDY",
		"latitude": "31-32-0.22 N",
		"longitude": "97-4-4.46 W",
		"state": "TEXAS",
		"artcc": "ZFW",
		"type": "RNAV",
		"updated": "03/24/2013"
	},
	{
		"name": "RUCOS",
		"latitude": "32-31-41.73 N",
		"longitude": "98-53-22.16 W",
		"state": "TEXAS",
		"artcc": "ZFW",
		"type": "RNAV",
		"updated": "05/24/2012"
	},
	{
		"name": "RUDLY",
		"latitude": "34-3-58.3 N",
		"longitude": "98-37-34.17 W",
		"state": "TEXAS",
		"artcc": "ZFW",
		"type": "RP",
		"updated": "SPS*VORTAC*331.00/5.00"
	},
	{
		"name": "RUFFS",
		"latitude": "32-53-36.5 N",
		"longitude": "98-13-43.4 W",
		"state": "TEXAS",
		"artcc": "ZFW",
		"type": "RNAV",
		"updated": "05/13/2015"
	},
	{
		"name": "RUFYU",
		"latitude": "34-17-45.14 N",
		"longitude": "95-39-1 W",
		"state": "OKLAHOMA",
		"artcc": "ZFW",
		"type": "RNAV",
		"updated": "05/14/2012"
	},
	{
		"name": "RUGGR",
		"latitude": "33-41-38.05 N",
		"longitude": "98-36-28.98 W",
		"state": "TEXAS",
		"artcc": "ZFW",
		"type": "RNAV",
		"updated": "02/28/2015"
	},
	{
		"name": "RUGKO",
		"latitude": "31-56-4.58 N",
		"longitude": "95-16-53.42 W",
		"state": "TEXAS",
		"artcc": "ZFW",
		"type": "RNAV",
		"updated": "06/04/2012"
	},
	{
		"name": "RUGPY",
		"latitude": "31-17-36.11 N",
		"longitude": "101-29-35.73 W",
		"state": "TEXAS",
		"artcc": "ZFW",
		"type": "RNAV",
		"updated": "09/22/2006"
	},
	{
		"name": "RUHLL",
		"latitude": "32-53-54.25 N",
		"longitude": "97-17-58.68 W",
		"state": "TEXAS",
		"artcc": "ZFW",
		"type": "RP",
		"updated": "JVX*LD*S CRS/4.60"
	},
	{
		"name": "RUJHI",
		"latitude": "32-52-50.3 N",
		"longitude": "97-28-58.96 W",
		"state": "TEXAS",
		"artcc": "ZFW",
		"type": "RNAV",
		"updated": "11/25/2016"
	},
	{
		"name": "RUKOW",
		"latitude": "32-17-38.91 N",
		"longitude": "92-27-4.05 W",
		"state": "LOUISIANA",
		"artcc": "ZFW",
		"type": "RNAV",
		"updated": "04/21/2011"
	},
	{
		"name": "RUKTE",
		"latitude": "33-14-31.86 N",
		"longitude": "102-30-30.1 W",
		"state": "TEXAS",
		"artcc": "ZFW",
		"type": "RP",
		"updated": "LBB*VORTAC*216.27/40.72"
	},
	{
		"name": "RURIQ",
		"latitude": "35-25-36.69 N",
		"longitude": "97-35-20.27 W",
		"state": "OKLAHOMA",
		"artcc": "ZFW",
		"type": "RP",
		"updated": "EXR*LD*355.96/1.09"
	},
	{
		"name": "RUSAE",
		"latitude": "32-40-30.51 N",
		"longitude": "93-46-27.65 W",
		"state": "LOUISIANA",
		"artcc": "ZFW",
		"type": "MR",
		"updated": "BAD*TACAN*/11.62"
	},
	{
		"name": "RUSTS",
		"latitude": "35-14-13.01 N",
		"longitude": "99-12-21.47 W",
		"state": "OKLAHOMA",
		"artcc": "ZFW",
		"type": "RNAV",
		"updated": "12/09/2016"
	},
	{
		"name": "RUVBE",
		"latitude": "31-54-21.85 N",
		"longitude": "93-15-11.51 W",
		"state": "LOUISIANA",
		"artcc": "ZFW",
		"type": "RNAV",
		"updated": "04/20/2012"
	},
	{
		"name": "RUVOC",
		"latitude": "33-44-2.94 N",
		"longitude": "94-56-56.62 W",
		"state": "TEXAS",
		"artcc": "ZFW",
		"type": "RNAV",
		"updated": "03/30/2004"
	},
	{
		"name": "RUWLO",
		"latitude": "32-47-32.23 N",
		"longitude": "99-13-2.69 W",
		"state": "TEXAS",
		"artcc": "ZFW",
		"type": "RP",
		"updated": "FUZ*VORTAC*261.32/103.19"
	},
	{
		"name": "RVLEY",
		"latitude": "32-31-15.55 N",
		"longitude": "96-53-29.2 W",
		"state": "TEXAS",
		"artcc": "ZFW",
		"type": "RNAV",
		"updated": "07/09/2014"
	},
	{
		"name": "RYCKK",
		"latitude": "32-41-11.7 N",
		"longitude": "96-40-22.78 W",
		"state": "TEXAS",
		"artcc": "ZFW",
		"type": "RNAV",
		"updated": "07/13/2014"
	},
	{
		"name": "RYNNE",
		"latitude": "33-9-13.3 N",
		"longitude": "97-3-55.92 W",
		"state": "TEXAS",
		"artcc": "ZFW",
		"type": "RNAV",
		"updated": "07/27/2004"
	}
]
