[
	{
		"name": "TACKE",
		"latitude": "32-34-0 N",
		"longitude": "96-39-30 W",
		"state": "TEXAS",
		"artcc": "ZFW",
		"type": "RP",
		"updated": "FUZ*VORTAC*120.09/32.70"
	},
	{
		"name": "TADDI",
		"latitude": "33-23-32.88 N",
		"longitude": "96-39-25.39 W",
		"state": "TEXAS",
		"artcc": "ZFW",
		"type": "RP",
		"updated": "FUZ*VORTAC*035.00/40.00"
	},
	{
		"name": "TADUC",
		"latitude": "32-50-23.47 N",
		"longitude": "96-54-37.15 W",
		"state": "TEXAS",
		"artcc": "ZFW",
		"type": "RP",
		"updated": "TTT*VOR/DME*098.90/6.81"
	},
	{
		"name": "TAFTS",
		"latitude": "34-9-11.29 N",
		"longitude": "96-52-31.05 W",
		"state": "OKLAHOMA",
		"artcc": "ZFW",
		"type": "RP",
		"updated": "ADM*VORTAC*097.41/15.00"
	},
	{
		"name": "TAGAE",
		"latitude": "33-14-53.3 N",
		"longitude": "101-46-21.58 W",
		"state": "TEXAS",
		"artcc": "ZFW",
		"type": "RNAV",
		"updated": "11/17/2016"
	},
	{
		"name": "TALBE",
		"latitude": "32-43-21.42 N",
		"longitude": "97-9-14.6 W",
		"state": "TEXAS",
		"artcc": "ZFW",
		"type": "RNAV",
		"updated": "09/03/2010"
	},
	{
		"name": "TANBE",
		"latitude": "32-34-29.71 N",
		"longitude": "96-48-47.76 W",
		"state": "TEXAS",
		"artcc": "ZFW",
		"type": "RP",
		"updated": "FUZ*VORTAC*129.36/26.42"
	},
	{
		"name": "TANDE",
		"latitude": "32-35-35.55 N",
		"longitude": "97-1-53.8 W",
		"state": "TEXAS",
		"artcc": "ZFW",
		"type": "RP",
		"updated": "UWX*LD*176.26/16.94"
	},
	{
		"name": "TANKR",
		"latitude": "31-26-54.14 N",
		"longitude": "100-39-4.77 W",
		"state": "TEXAS",
		"artcc": "ZFW",
		"type": "RP",
		"updated": "SJT*VORTAC*283.60/11.00"
	},
	{
		"name": "TANNO",
		"latitude": "32-41-52.81 N",
		"longitude": "97-15-18.23 W",
		"state": "TEXAS",
		"artcc": "ZFW",
		"type": "RNAV",
		"updated": "05/09/2005"
	},
	{
		"name": "TANPY",
		"latitude": "34-37-0.37 N",
		"longitude": "96-40-18.96 W",
		"state": "OKLAHOMA",
		"artcc": "ZFW",
		"type": "RNAV",
		"updated": "03/16/2009"
	},
	{
		"name": "TAPUC",
		"latitude": "35-7-45.49 N",
		"longitude": "97-13-48.26 W",
		"state": "OKLAHOMA",
		"artcc": "ZFW",
		"type": "MW",
		"updated": "06/02/2008"
	},
	{
		"name": "TARRO",
		"latitude": "32-49-12.65 N",
		"longitude": "96-59-28.65 W",
		"state": "TEXAS",
		"artcc": "ZFW",
		"type": "RNAV",
		"updated": "03/26/2013"
	},
	{
		"name": "TARZN",
		"latitude": "32-19-8.41 N",
		"longitude": "101-55-30.8 W",
		"state": "TEXAS",
		"artcc": "ZFW",
		"type": "RP",
		"updated": "MAF*VORTAC*025.00"
	},
	{
		"name": "TASNE",
		"latitude": "32-58-35.06 N",
		"longitude": "102-50-42.71 W",
		"state": "TEXAS",
		"artcc": "ZFW",
		"type": "RP",
		"updated": "HOB*VORTAC*035.53/29.50"
	},
	{
		"name": "TATAW",
		"latitude": "33-1-23.13 N",
		"longitude": "103-19-34.11 W",
		"state": "NEW MEXICO",
		"artcc": "ZFW",
		"type": "RNAV",
		"updated": "09/30/2014"
	},
	{
		"name": "TAXTU",
		"latitude": "34-31-1.74 N",
		"longitude": "97-13-33.32 W",
		"state": "OKLAHOMA",
		"artcc": "ZFW",
		"type": "RNAV",
		"updated": "03/29/2010"
	},
	{
		"name": "TAYOL",
		"latitude": "32-4-27.56 N",
		"longitude": "101-33-23.26 W",
		"state": "TEXAS",
		"artcc": "ZFW",
		"type": "RP",
		"updated": "MAF*VORTAC*071.97"
	},
	{
		"name": "TAYOV",
		"latitude": "33-12-40.86 N",
		"longitude": "95-54-3.25 W",
		"state": "TEXAS",
		"artcc": "ZFW",
		"type": "RNAV",
		"updated": "02/05/2013"
	},
	{
		"name": "TEBRD",
		"latitude": "35-0-24.69 N",
		"longitude": "96-59-48.58 W",
		"state": "OKLAHOMA",
		"artcc": "ZFW",
		"type": "RNAV",
		"updated": "05/28/2014"
	},
	{
		"name": "TECCO",
		"latitude": "33-31-30.41 N",
		"longitude": "93-54-26.1 W",
		"state": "ARKANSAS",
		"artcc": "ZFW",
		"type": "RP",
		"updated": "TXK*VORTAC*078.33"
	},
	{
		"name": "TECRO",
		"latitude": "31-39-14.21 N",
		"longitude": "94-1-22.13 W",
		"state": "TEXAS",
		"artcc": "ZFW",
		"type": "RNAV",
		"updated": "05/16/2010"
	},
	{
		"name": "TECUF",
		"latitude": "33-56-7.09 N",
		"longitude": "96-23-42.32 W",
		"state": "OKLAHOMA",
		"artcc": "ZFW",
		"type": "WP",
		"updated": "11/02/1998"
	},
	{
		"name": "TEEPE",
		"latitude": "31-54-51.05 N",
		"longitude": "97-31-33.47 W",
		"state": "TEXAS",
		"artcc": "ZFW",
		"type": "RP",
		"updated": "ACT*VORTAC*310.00/20.00"
	},
	{
		"name": "TEGWA",
		"latitude": "34-32-46.69 N",
		"longitude": "99-10-17.01 W",
		"state": "OKLAHOMA",
		"artcc": "ZFW",
		"type": "RNAV",
		"updated": "02/09/2018"
	},
	{
		"name": "TEKBE",
		"latitude": "32-42-47.92 N",
		"longitude": "94-47-43.99 W",
		"state": "TEXAS",
		"artcc": "ZFW",
		"type": "RP",
		"updated": "EIC*VORTAC*259.28/50.00"
	},
	{
		"name": "TELLS",
		"latitude": "34-14-6.02 N",
		"longitude": "98-16-23.16 W",
		"state": "OKLAHOMA",
		"artcc": "ZFW",
		"type": "RP",
		"updated": "SPS*VORTAC*037.00/21.79"
	},
	{
		"name": "TENTY",
		"latitude": "32-32-48.36 N",
		"longitude": "99-53-2.11 W",
		"state": "TEXAS",
		"artcc": "ZFW",
		"type": "MR",
		"updated": "06/02/2017"
	},
	{
		"name": "TEPCO",
		"latitude": "34-31-30.29 N",
		"longitude": "97-57-38.38 W",
		"state": "OKLAHOMA",
		"artcc": "ZFW",
		"type": "RNAV",
		"updated": "08/16/2010"
	},
	{
		"name": "TEREY",
		"latitude": "33-35-59.75 N",
		"longitude": "96-29-14 W",
		"state": "TEXAS",
		"artcc": "ZFW",
		"type": "RP",
		"updated": "BYP*VORTAC*280.49/13.23"
	},
	{
		"name": "TERNE",
		"latitude": "35-31-46.41 N",
		"longitude": "97-49-36.36 W",
		"state": "OKLAHOMA",
		"artcc": "ZFW",
		"type": "RNAV",
		"updated": "05/28/2014"
	},
	{
		"name": "TERSE",
		"latitude": "35-35-38.21 N",
		"longitude": "97-43-18.69 W",
		"state": "OKLAHOMA",
		"artcc": "ZFW",
		"type": "RNAV",
		"updated": "06/12/2014"
	},
	{
		"name": "TEVCU",
		"latitude": "32-46-48.91 N",
		"longitude": "96-31-47.33 W",
		"state": "TEXAS",
		"artcc": "ZFW",
		"type": "RNAV",
		"updated": "07/27/2006"
	},
	{
		"name": "TEVLE",
		"latitude": "32-16-45.04 N",
		"longitude": "93-28-32.63 W",
		"state": "LOUISIANA",
		"artcc": "ZFW",
		"type": "MR",
		"updated": "EIC*VORTAC*143.00/34.00"
	},
	{
		"name": "TEYUS",
		"latitude": "33-51-46.58 N",
		"longitude": "96-40-55.48 W",
		"state": "TEXAS",
		"artcc": "ZFW",
		"type": "RP",
		"updated": "BYP*VORTAC*305.12/29.71"
	},
	{
		"name": "TEYUV",
		"latitude": "34-27-32.59 N",
		"longitude": "98-17-25.53 W",
		"state": "OKLAHOMA",
		"artcc": "ZFW",
		"type": "RP",
		"updated": "SPS*VORTAC*018.00/32.03"
	},
	{
		"name": "THASA",
		"latitude": "33-6-49.15 N",
		"longitude": "97-17-37.7 W",
		"state": "TEXAS",
		"artcc": "ZFW",
		"type": "RNAV",
		"updated": "07/09/2014"
	},
	{
		"name": "THEMM",
		"latitude": "33-49-58.96 N",
		"longitude": "95-52-40.17 W",
		"state": "TEXAS",
		"artcc": "ZFW",
		"type": "RNAV",
		"updated": "07/13/2014"
	},
	{
		"name": "THHOR",
		"latitude": "32-41-48.38 N",
		"longitude": "96-20-0.56 W",
		"state": "TEXAS",
		"artcc": "ZFW",
		"type": "RNAV",
		"updated": "07/09/2014"
	},
	{
		"name": "THING",
		"latitude": "32-5-46.42 N",
		"longitude": "96-23-59.66 W",
		"state": "TEXAS",
		"artcc": "ZFW",
		"type": "RP",
		"updated": "FUZ*VORTAC*134.00/61.81"
	},
	{
		"name": "THRPE",
		"latitude": "34-58-31.52 N",
		"longitude": "97-46-38.13 W",
		"state": "OKLAHOMA",
		"artcc": "ZFW",
		"type": "RNAV",
		"updated": "05/28/2014"
	},
	{
		"name": "TICNO",
		"latitude": "33-45-53.95 N",
		"longitude": "101-59-0.41 W",
		"state": "TEXAS",
		"artcc": "ZFW",
		"type": "RP",
		"updated": "LBB*VORTAC*305.00/5.00"
	},
	{
		"name": "TIDSE",
		"latitude": "33-55-58.91 N",
		"longitude": "95-38-55.8 W",
		"state": "OKLAHOMA",
		"artcc": "ZFW",
		"type": "RNAV",
		"updated": "05/14/2012"
	},
	{
		"name": "TIDYL",
		"latitude": "33-5-45.73 N",
		"longitude": "96-3-58.92 W",
		"state": "TEXAS",
		"artcc": "ZFW",
		"type": "MR",
		"updated": "MJF*TACAN*347.00/1.80"
	},
	{
		"name": "TIEON",
		"latitude": "33-4-50.28 N",
		"longitude": "97-55-14.51 W",
		"state": "TEXAS",
		"artcc": "ZFW",
		"type": "RP",
		"updated": "FUZ*VORTAC*281.22"
	},
	{
		"name": "TIKYS",
		"latitude": "34-3-59.93 N",
		"longitude": "96-25-33.53 W",
		"state": "OKLAHOMA",
		"artcc": "ZFW",
		"type": "RP",
		"updated": "FUZ*VORTAC*022.00/80.00"
	},
	{
		"name": "TILLA",
		"latitude": "32-20-40.1 N",
		"longitude": "97-25-28.05 W",
		"state": "TEXAS",
		"artcc": "ZFW",
		"type": "RP",
		"updated": "FUZ*VORTAC*194.90/34.92"
	},
	{
		"name": "TILRR",
		"latitude": "31-35-26.85 N",
		"longitude": "93-34-27.78 W",
		"state": "LOUISIANA",
		"artcc": "ZFW",
		"type": "RNAV",
		"updated": "08/07/2009"
	},
	{
		"name": "TILUE",
		"latitude": "32-8-27.39 N",
		"longitude": "97-51-1.46 W",
		"state": "TEXAS",
		"artcc": "ZFW",
		"type": "RNAV",
		"updated": "02/22/2017"
	},
	{
		"name": "TINLE",
		"latitude": "33-22-40.4 N",
		"longitude": "97-36-0.08 W",
		"state": "TEXAS",
		"artcc": "ZFW",
		"type": "RNAV",
		"updated": "03/31/2008"
	},
	{
		"name": "TIPUC",
		"latitude": "33-46-0.78 N",
		"longitude": "95-2-27.61 W",
		"state": "TEXAS",
		"artcc": "ZFW",
		"type": "RNAV",
		"updated": "03/30/2004"
	},
	{
		"name": "TIRKE",
		"latitude": "32-47-27.16 N",
		"longitude": "96-46-47.82 W",
		"state": "TEXAS",
		"artcc": "ZFW",
		"type": "RNAV",
		"updated": "07/13/2014"
	},
	{
		"name": "TISEE",
		"latitude": "32-54-33.78 N",
		"longitude": "98-53-32.64 W",
		"state": "TEXAS",
		"artcc": "ZFW",
		"type": "RNAV",
		"updated": "05/24/2012"
	},
	{
		"name": "TITKE",
		"latitude": "34-53-50.6 N",
		"longitude": "97-7-15.86 W",
		"state": "OKLAHOMA",
		"artcc": "ZFW",
		"type": "RNAV",
		"updated": "04/07/2010"
	},
	{
		"name": "TIVEE",
		"latitude": "32-33-5.99 N",
		"longitude": "91-54-45 W",
		"state": "LOUISIANA",
		"artcc": "ZFW",
		"type": "RNAV",
		"updated": "07/16/2008"
	},
	{
		"name": "TIVLE",
		"latitude": "32-21-42.08 N",
		"longitude": "99-50-27.2 W",
		"state": "TEXAS",
		"artcc": "ZFW",
		"type": "MR",
		"updated": "DYS*TACAN*/3.50"
	},
	{
		"name": "TIYGO",
		"latitude": "33-31-0.16 N",
		"longitude": "94-3-40.66 W",
		"state": "TEXAS",
		"artcc": "ZFW",
		"type": "RNAV",
		"updated": "06/08/2006"
	},
	{
		"name": "TOFLY",
		"latitude": "32-53-26.44 N",
		"longitude": "96-54-32.81 W",
		"state": "TEXAS",
		"artcc": "ZFW",
		"type": "RNAV",
		"updated": "07/13/2014"
	},
	{
		"name": "TOKEN",
		"latitude": "33-44-16.45 N",
		"longitude": "99-15-40.7 W",
		"state": "TEXAS",
		"artcc": "ZFW",
		"type": "WP",
		"updated": "07/11/1995"
	},
	{
		"name": "TOKRE",
		"latitude": "31-48-36.06 N",
		"longitude": "102-23-50 W",
		"state": "TEXAS",
		"artcc": "ZFW",
		"type": "RNAV",
		"updated": "07/30/2012"
	},
	{
		"name": "TOKUY",
		"latitude": "32-25-11.64 N",
		"longitude": "94-45-13.67 W",
		"state": "TEXAS",
		"artcc": "ZFW",
		"type": "RNAV",
		"updated": "09/19/2008"
	},
	{
		"name": "TOMHI",
		"latitude": "32-17-55.92 N",
		"longitude": "99-40-27.26 W",
		"state": "TEXAS",
		"artcc": "ZFW",
		"type": "RP",
		"updated": "TQA*VOR/DME*052.44"
	},
	{
		"name": "TORNN",
		"latitude": "31-31-13.39 N",
		"longitude": "96-30-52.96 W",
		"state": "TEXAS",
		"artcc": "ZFW",
		"type": "RP",
		"updated": "TNV*VOR/DME*334.40/77.42"
	},
	{
		"name": "TORYO",
		"latitude": "32-40-44.78 N",
		"longitude": "100-29-46.29 W",
		"state": "TEXAS",
		"artcc": "ZFW",
		"type": "RNAV",
		"updated": "09/02/2011"
	},
	{
		"name": "TOUEY",
		"latitude": "32-16-14.25 N",
		"longitude": "93-28-33.95 W",
		"state": "LOUISIANA",
		"artcc": "ZFW",
		"type": "MR",
		"updated": "BAD*TACAN*143.00/17.00"
	},
	{
		"name": "TOURS",
		"latitude": "31-56-27.81 N",
		"longitude": "97-5-18 W",
		"state": "TEXAS",
		"artcc": "ZFW",
		"type": "RP",
		"updated": "ACT*VORTAC*019.92"
	},
	{
		"name": "TOWDE",
		"latitude": "32-7-19.38 N",
		"longitude": "96-35-43.77 W",
		"state": "TEXAS",
		"artcc": "ZFW",
		"type": "RNAV",
		"updated": "08/02/2000"
	},
	{
		"name": "TOWNN",
		"latitude": "32-58-21.23 N",
		"longitude": "96-54-6.44 W",
		"state": "TEXAS",
		"artcc": "ZFW",
		"type": "RP",
		"updated": "TTT*VOR/DME*042.49/9.35"
	},
	{
		"name": "TOYAN",
		"latitude": "31-57-12.17 N",
		"longitude": "96-20-14.36 W",
		"state": "TEXAS",
		"artcc": "ZFW",
		"type": "RNAV",
		"updated": "08/02/2000"
	},
	{
		"name": "TOYOY",
		"latitude": "33-41-32.13 N",
		"longitude": "93-54-44.45 W",
		"state": "ARKANSAS",
		"artcc": "ZFW",
		"type": "RP",
		"updated": "TXK*VORTAC*030.00/13.38"
	},
	{
		"name": "TPAKK",
		"latitude": "32-59-37.95 N",
		"longitude": "93-25-28.32 W",
		"state": "LOUISIANA",
		"artcc": "ZFW",
		"type": "RNAV",
		"updated": "09/02/2016"
	},
	{
		"name": "TREAT",
		"latitude": "32-27-59.58 N",
		"longitude": "100-8-19.41 W",
		"state": "TEXAS",
		"artcc": "ZFW",
		"type": "RP",
		"updated": "ABI*VORTAC*256.45/14.00"
	},
	{
		"name": "TREXX",
		"latitude": "32-42-27.8 N",
		"longitude": "97-1-48.53 W",
		"state": "TEXAS",
		"artcc": "ZFW",
		"type": "RNAV",
		"updated": "07/27/2004"
	},
	{
		"name": "TRISS",
		"latitude": "32-58-12.15 N",
		"longitude": "96-19-56.65 W",
		"state": "TEXAS",
		"artcc": "ZFW",
		"type": "RP",
		"updated": "CVE*VOR/DME*074.45/29.26"
	},
	{
		"name": "TROUP",
		"latitude": "32-17-50.77 N",
		"longitude": "95-19-27.65 W",
		"state": "TEXAS",
		"artcc": "ZFW",
		"type": "RP",
		"updated": "TYR*VOR/DME*124.99/5.33"
	},
	{
		"name": "TRRCH",
		"latitude": "32-53-49.81 N",
		"longitude": "96-20-0.56 W",
		"state": "TEXAS",
		"artcc": "ZFW",
		"type": "RNAV",
		"updated": "07/09/2014"
	},
	{
		"name": "TRRRY",
		"latitude": "33-36-16.9 N",
		"longitude": "95-21-36.12 W",
		"state": "TEXAS",
		"artcc": "ZFW",
		"type": "RNAV",
		"updated": "09/13/2016"
	},
	{
		"name": "TRUBY",
		"latitude": "32-38-51.86 N",
		"longitude": "99-52-50.36 W",
		"state": "TEXAS",
		"artcc": "ZFW",
		"type": "MR",
		"updated": "ABI*VORTAC*345.00/10.00"
	},
	{
		"name": "TRUSS",
		"latitude": "32-31-39.18 N",
		"longitude": "99-31-38.77 W",
		"state": "TEXAS",
		"artcc": "ZFW",
		"type": "RP",
		"updated": "TQA*VOR/DME*030.00"
	},
	{
		"name": "TRUUK",
		"latitude": "33-23-21.94 N",
		"longitude": "97-16-25.19 W",
		"state": "TEXAS",
		"artcc": "ZFW",
		"type": "RNAV",
		"updated": "05/13/2015"
	},
	{
		"name": "TRYTN",
		"latitude": "33-33-4.7 N",
		"longitude": "94-15-44.53 W",
		"state": "TEXAS",
		"artcc": "ZFW",
		"type": "RNAV",
		"updated": "07/09/2014"
	},
	{
		"name": "TSDEL",
		"latitude": "34-53-44.11 N",
		"longitude": "97-19-47.39 W",
		"state": "OKLAHOMA",
		"artcc": "ZFW",
		"type": "RNAV",
		"updated": "05/28/2014"
	},
	{
		"name": "TUCUN",
		"latitude": "32-53-56.65 N",
		"longitude": "96-16-3.1 W",
		"state": "TEXAS",
		"artcc": "ZFW",
		"type": "RNAV",
		"updated": "12/15/2005"
	},
	{
		"name": "TUDOY",
		"latitude": "32-31-40.25 N",
		"longitude": "101-44-26.13 W",
		"state": "TEXAS",
		"artcc": "ZFW",
		"type": "RNAV",
		"updated": "11/02/2011"
	},
	{
		"name": "TUDPY",
		"latitude": "33-50-16.71 N",
		"longitude": "101-49-48.4 W",
		"state": "TEXAS",
		"artcc": "ZFW",
		"type": "RNAV",
		"updated": "08/17/2010"
	},
	{
		"name": "TUFFO",
		"latitude": "32-38-44.88 N",
		"longitude": "97-1-38.72 W",
		"state": "TEXAS",
		"artcc": "ZFW",
		"type": "RP",
		"updated": "PKQ*LD*176.26/13.79"
	},
	{
		"name": "TUFIT",
		"latitude": "32-27-7.86 N",
		"longitude": "97-3-56.26 W",
		"state": "TEXAS",
		"artcc": "ZFW",
		"type": "RNAV",
		"updated": "07/09/2014"
	},
	{
		"name": "TULOY",
		"latitude": "32-40-7.15 N",
		"longitude": "96-44-10.28 W",
		"state": "TEXAS",
		"artcc": "ZFW",
		"type": "RP",
		"updated": "RRA*LD*131.28/20.59"
	},
	{
		"name": "TULUY",
		"latitude": "33-5-5.3 N",
		"longitude": "97-8-18.66 W",
		"state": "TEXAS",
		"artcc": "ZFW",
		"type": "RNAV",
		"updated": "05/17/2005"
	},
	{
		"name": "TUMPE",
		"latitude": "35-24-52.25 N",
		"longitude": "97-23-5.92 W",
		"state": "OKLAHOMA",
		"artcc": "ZFW",
		"type": "MR",
		"updated": "IRW*VORTAC*066.00/11.50"
	},
	{
		"name": "TUNDE",
		"latitude": "32-55-57.98 N",
		"longitude": "96-56-39.67 W",
		"state": "TEXAS",
		"artcc": "ZFW",
		"type": "RNAV",
		"updated": "07/13/2014"
	},
	{
		"name": "TUPLE",
		"latitude": "33-44-31.02 N",
		"longitude": "96-17-47.21 W",
		"state": "TEXAS",
		"artcc": "ZFW",
		"type": "RNAV",
		"updated": "05/16/2010"
	},
	{
		"name": "TURKI",
		"latitude": "34-18-3.33 N",
		"longitude": "101-3-39.02 W",
		"state": "TEXAS",
		"artcc": "ZFW",
		"type": "RP",
		"updated": "TXO*VORTAC*086.00/89.08"
	},
	{
		"name": "TURNN",
		"latitude": "31-40-30.89 N",
		"longitude": "93-38-20.64 W",
		"state": "LOUISIANA",
		"artcc": "ZFW",
		"type": "RP",
		"updated": "DAS*VORTAC*025.02"
	},
	{
		"name": "TUSLE",
		"latitude": "33-45-36.76 N",
		"longitude": "95-56-56.86 W",
		"state": "TEXAS",
		"artcc": "ZFW",
		"type": "RNAV",
		"updated": "09/13/2016"
	},
	{
		"name": "TUTLE",
		"latitude": "35-23-46.34 N",
		"longitude": "97-49-30.68 W",
		"state": "OKLAHOMA",
		"artcc": "ZFW",
		"type": "RNAV",
		"updated": "10/14/2009"
	},
	{
		"name": "TUTOO",
		"latitude": "32-45-3.32 N",
		"longitude": "97-3-5.71 W",
		"state": "TEXAS",
		"artcc": "ZFW",
		"type": "RP",
		"updated": "FJN*LD*176.25/10.07"
	},
	{
		"name": "TUUUU",
		"latitude": "32-24-33.47 N",
		"longitude": "97-21-58.1 W",
		"state": "TEXAS",
		"artcc": "ZFW",
		"type": "RNAV",
		"updated": "07/09/2014"
	},
	{
		"name": "TUYPO",
		"latitude": "32-24-44.56 N",
		"longitude": "94-18-34.6 W",
		"state": "TEXAS",
		"artcc": "ZFW",
		"type": "RP",
		"updated": "EIC*VORTAC*222.82"
	},
	{
		"name": "TUZYI",
		"latitude": "32-17-29.23 N",
		"longitude": "95-19-25.4 W",
		"state": "TEXAS",
		"artcc": "ZFW",
		"type": "RNAV",
		"updated": "07/30/2012"
	},
	{
		"name": "TWETE",
		"latitude": "33-58-37.41 N",
		"longitude": "98-23-50.65 W",
		"state": "TEXAS",
		"artcc": "ZFW",
		"type": "RNAV",
		"updated": "09/13/2016"
	},
	{
		"name": "TWSTR",
		"latitude": "35-18-46.3 N",
		"longitude": "97-22-56 W",
		"state": "OKLAHOMA",
		"artcc": "ZFW",
		"type": "RNAV",
		"updated": "01/10/2013"
	},
	{
		"name": "TYEES",
		"latitude": "32-26-44.08 N",
		"longitude": "99-59-41 W",
		"state": "TEXAS",
		"artcc": "ZFW",
		"type": "RP",
		"updated": "TQA*VOR/DME*314.29/15.48"
	},
	{
		"name": "TYGGR",
		"latitude": "32-53-22.14 N",
		"longitude": "97-43-59.79 W",
		"state": "TEXAS",
		"artcc": "ZFW",
		"type": "RNAV",
		"updated": "07/09/2014"
	},
	{
		"name": "TYPTN",
		"latitude": "34-4-9.53 N",
		"longitude": "98-31-0.17 W",
		"state": "TEXAS",
		"artcc": "ZFW",
		"type": "RNAV",
		"updated": "05/13/2015"
	},
	{
		"name": "TYRON",
		"latitude": "32-21-21.37 N",
		"longitude": "92-10-36.53 W",
		"state": "LOUISIANA",
		"artcc": "ZFW",
		"type": "RP",
		"updated": "MLU*VORTAC*213.61/12.00"
	}
]
