[
	{
		"name": "UBANN",
		"latitude": "32-45-48.07 N",
		"longitude": "96-56-34.59 W",
		"state": "TEXAS",
		"artcc": "ZFW",
		"type": "RNAV",
		"updated": "02/19/2016"
	},
	{
		"name": "UBLOY",
		"latitude": "35-2-44.45 N",
		"longitude": "97-28-17.73 W",
		"state": "OKLAHOMA",
		"artcc": "ZFW",
		"type": "RNAV",
		"updated": "07/06/2012"
	},
	{
		"name": "UBOSE",
		"latitude": "32-39-15.5 N",
		"longitude": "97-18-34.09 W",
		"state": "TEXAS",
		"artcc": "ZFW",
		"type": "RNAV",
		"updated": "04/04/2012"
	},
	{
		"name": "UBUTE",
		"latitude": "31-58-4.73 N",
		"longitude": "95-49-39.34 W",
		"state": "TEXAS",
		"artcc": "ZFW",
		"type": "RNAV",
		"updated": "04/07/2010"
	},
	{
		"name": "UCCOL",
		"latitude": "32-46-42.92 N",
		"longitude": "97-16-30.65 W",
		"state": "TEXAS",
		"artcc": "ZFW",
		"type": "RP",
		"updated": "FUZ*VORTAC*210.13"
	},
	{
		"name": "UCECE",
		"latitude": "33-16-42.27 N",
		"longitude": "95-56-34.22 W",
		"state": "TEXAS",
		"artcc": "ZFW",
		"type": "RNAV",
		"updated": "07/17/2008"
	},
	{
		"name": "UCEPE",
		"latitude": "34-17-17.12 N",
		"longitude": "101-32-26.07 W",
		"state": "TEXAS",
		"artcc": "ZFW",
		"type": "RNAV",
		"updated": "07/27/2006"
	},
	{
		"name": "UCILA",
		"latitude": "31-28-46.01 N",
		"longitude": "99-52-50.18 W",
		"state": "TEXAS",
		"artcc": "ZFW",
		"type": "RNAV",
		"updated": "12/14/2005"
	},
	{
		"name": "UCIRY",
		"latitude": "34-28-21.09 N",
		"longitude": "98-24-36.94 W",
		"state": "OKLAHOMA",
		"artcc": "ZFW",
		"type": "RNAV",
		"updated": "05/24/2017"
	},
	{
		"name": "UCOKA",
		"latitude": "31-19-0 N",
		"longitude": "100-5-0 W",
		"state": "TEXAS",
		"artcc": "ZFW",
		"type": "RNAV",
		"updated": "12/15/2014"
	},
	{
		"name": "UCURI",
		"latitude": "35-12-40.7 N",
		"longitude": "97-35-19.6 W",
		"state": "OKLAHOMA",
		"artcc": "ZFW",
		"type": "WP",
		"updated": "11/02/1998"
	},
	{
		"name": "UCXEB",
		"latitude": "32-29-13.55 N",
		"longitude": "92-1-0.85 W",
		"state": "LOUISIANA",
		"artcc": "ZFW",
		"type": "RP",
		"updated": "MLU*VORTAC*148.47/2.03"
	},
	{
		"name": "UDALL",
		"latitude": "33-2-27.76 N",
		"longitude": "97-3-0.31 W",
		"state": "TEXAS",
		"artcc": "ZFW",
		"type": "RP",
		"updated": "CIX*LD*356.25/7.30"
	},
	{
		"name": "UDOBY",
		"latitude": "31-35-37.88 N",
		"longitude": "98-9-43.07 W",
		"state": "TEXAS",
		"artcc": "ZFW",
		"type": "RNAV",
		"updated": "05/24/2012"
	},
	{
		"name": "UDOCE",
		"latitude": "33-47-7.75 N",
		"longitude": "96-10-24.03 W",
		"state": "TEXAS",
		"artcc": "ZFW",
		"type": "RNAV",
		"updated": "04/12/2006"
	},
	{
		"name": "UDONS",
		"latitude": "35-11-5.23 N",
		"longitude": "97-49-3.46 W",
		"state": "OKLAHOMA",
		"artcc": "ZFW",
		"type": "RNAV",
		"updated": "05/20/2014"
	},
	{
		"name": "UFACI",
		"latitude": "33-34-41 N",
		"longitude": "101-49-41.94 W",
		"state": "TEXAS",
		"artcc": "ZFW",
		"type": "RNAV",
		"updated": "08/17/2010"
	},
	{
		"name": "UFIFO",
		"latitude": "31-46-12.97 N",
		"longitude": "97-28-48.3 W",
		"state": "TEXAS",
		"artcc": "ZFW",
		"type": "RNAV",
		"updated": "12/27/2010"
	},
	{
		"name": "UFNAP",
		"latitude": "35-31-31.69 N",
		"longitude": "96-43-6.6 W",
		"state": "OKLAHOMA",
		"artcc": "ZFW",
		"type": "RNAV",
		"updated": "04/23/2014"
	},
	{
		"name": "UGABE",
		"latitude": "31-48-0 N",
		"longitude": "100-6-0 W",
		"state": "TEXAS",
		"artcc": "ZFW",
		"type": "RNAV",
		"updated": "08/12/2005"
	},
	{
		"name": "UGECA",
		"latitude": "33-32-36.28 N",
		"longitude": "97-7-26.67 W",
		"state": "TEXAS",
		"artcc": "ZFW",
		"type": "RNAV",
		"updated": "05/22/2009"
	},
	{
		"name": "UHIZO",
		"latitude": "32-17-32.67 N",
		"longitude": "95-28-26.18 W",
		"state": "TEXAS",
		"artcc": "ZFW",
		"type": "RNAV",
		"updated": "07/30/2012"
	},
	{
		"name": "UHMOT",
		"latitude": "31-46-51.62 N",
		"longitude": "97-1-59.92 W",
		"state": "TEXAS",
		"artcc": "ZFW",
		"type": "RP",
		"updated": "ACT*VORTAC*050.44/14.00"
	},
	{
		"name": "UHUZE",
		"latitude": "35-0-17.06 N",
		"longitude": "97-58-9.09 W",
		"state": "OKLAHOMA",
		"artcc": "ZFW",
		"type": "RNAV",
		"updated": "10/03/2012"
	},
	{
		"name": "UJAYU",
		"latitude": "31-26-23.53 N",
		"longitude": "96-33-10.03 W",
		"state": "TEXAS",
		"artcc": "ZFW",
		"type": "RNAV",
		"updated": "02/15/2012"
	},
	{
		"name": "UJZEW",
		"latitude": "32-29-15.17 N",
		"longitude": "92-3-42.19 W",
		"state": "LOUISIANA",
		"artcc": "ZFW",
		"type": "RP",
		"updated": "MLU*VORTAC*213.61/2.19"
	},
	{
		"name": "ULEHI",
		"latitude": "33-47-39.24 N",
		"longitude": "93-53-23.61 W",
		"state": "ARKANSAS",
		"artcc": "ZFW",
		"type": "RNAV",
		"updated": "11/30/2011"
	},
	{
		"name": "ULIGY",
		"latitude": "31-50-47.7 N",
		"longitude": "98-6-54.57 W",
		"state": "TEXAS",
		"artcc": "ZFW",
		"type": "RNAV",
		"updated": "05/24/2012"
	},
	{
		"name": "ULOYO",
		"latitude": "32-32-41.23 N",
		"longitude": "99-30-12.75 W",
		"state": "TEXAS",
		"artcc": "ZFW",
		"type": "RNAV",
		"updated": "11/20/2008"
	},
	{
		"name": "UMCEJ",
		"latitude": "31-49-51.03 N",
		"longitude": "102-2-13.7 W",
		"state": "TEXAS",
		"artcc": "ZFW",
		"type": "RNAV",
		"updated": "06/01/2012"
	},
	{
		"name": "UMEHU",
		"latitude": "34-16-32.6 N",
		"longitude": "96-58-58.53 W",
		"state": "OKLAHOMA",
		"artcc": "ZFW",
		"type": "RP",
		"updated": "ADM*VORTAC*061.32"
	},
	{
		"name": "UMPIR",
		"latitude": "34-20-43.89 N",
		"longitude": "94-9-36.18 W",
		"state": "ARKANSAS",
		"artcc": "ZFW",
		"type": "RP",
		"updated": "TXK*VORTAC*348.05/50.00"
	},
	{
		"name": "UMROW",
		"latitude": "32-36-44.49 N",
		"longitude": "98-47-34.39 W",
		"state": "TEXAS",
		"artcc": "ZFW",
		"type": "RNAV",
		"updated": "05/11/2011"
	},
	{
		"name": "UMUDY",
		"latitude": "33-21-24.77 N",
		"longitude": "92-38-33.77 W",
		"state": "ARKANSAS",
		"artcc": "ZFW",
		"type": "RNAV",
		"updated": "12/01/2005"
	},
	{
		"name": "UNEKE",
		"latitude": "33-24-0 N",
		"longitude": "101-58-0 W",
		"state": "TEXAS",
		"artcc": "ZFW",
		"type": "RNAV",
		"updated": "08/12/2005"
	},
	{
		"name": "UNOTE",
		"latitude": "32-28-13.42 N",
		"longitude": "93-46-45.14 W",
		"state": "LOUISIANA",
		"artcc": "ZFW",
		"type": "RNAV",
		"updated": "12/17/2015"
	},
	{
		"name": "UNYUK",
		"latitude": "33-12-13.18 N",
		"longitude": "97-18-17.18 W",
		"state": "TEXAS",
		"artcc": "ZFW",
		"type": "RNAV",
		"updated": "11/25/2016"
	},
	{
		"name": "UPSUW",
		"latitude": "32-17-44.16 N",
		"longitude": "92-44-4.16 W",
		"state": "LOUISIANA",
		"artcc": "ZFW",
		"type": "RNAV",
		"updated": "03/29/2012"
	},
	{
		"name": "URACU",
		"latitude": "33-40-11.6 N",
		"longitude": "96-40-28.79 W",
		"state": "TEXAS",
		"artcc": "ZFW",
		"type": "RNAV",
		"updated": "04/09/2012"
	},
	{
		"name": "URAME",
		"latitude": "33-25-57.34 N",
		"longitude": "92-47-58.6 W",
		"state": "ARKANSAS",
		"artcc": "ZFW",
		"type": "RNAV",
		"updated": "03/16/2012"
	},
	{
		"name": "URNER",
		"latitude": "31-31-50.83 N",
		"longitude": "97-15-5.37 W",
		"state": "TEXAS",
		"artcc": "ZFW",
		"type": "RNAV",
		"updated": "05/16/2013"
	},
	{
		"name": "USILE",
		"latitude": "31-57-34.8 N",
		"longitude": "102-14-55.21 W",
		"state": "TEXAS",
		"artcc": "ZFW",
		"type": "RP",
		"updated": "MAF*LD*284.58/3.28"
	},
	{
		"name": "USURY",
		"latitude": "32-45-28.09 N",
		"longitude": "96-46-13.21 W",
		"state": "TEXAS",
		"artcc": "ZFW",
		"type": "RNAV",
		"updated": "07/13/2014"
	},
	{
		"name": "USUYO",
		"latitude": "35-12-52.78 N",
		"longitude": "97-29-42.09 W",
		"state": "OKLAHOMA",
		"artcc": "ZFW",
		"type": "RNAV",
		"updated": "07/06/2012"
	},
	{
		"name": "USXEL",
		"latitude": "31-29-35.41 N",
		"longitude": "98-10-49.94 W",
		"state": "TEXAS",
		"artcc": "ZFW",
		"type": "RNAV",
		"updated": "05/24/2012"
	},
	{
		"name": "UTOSY",
		"latitude": "32-29-26.58 N",
		"longitude": "99-23-22.04 W",
		"state": "TEXAS",
		"artcc": "ZFW",
		"type": "RNAV",
		"updated": "01/27/2014"
	},
	{
		"name": "UTPEF",
		"latitude": "32-32-5.81 N",
		"longitude": "92-0-32.03 W",
		"state": "LOUISIANA",
		"artcc": "ZFW",
		"type": "RP",
		"updated": "MLU*VORTAC*/1.75"
	},
	{
		"name": "UTPIZ",
		"latitude": "31-49-4.26 N",
		"longitude": "97-16-1.97 W",
		"state": "TEXAS",
		"artcc": "ZFW",
		"type": "RNAV",
		"updated": "08/16/2010"
	},
	{
		"name": "UXAHA",
		"latitude": "33-7-12.48 N",
		"longitude": "95-37-45.04 W",
		"state": "TEXAS",
		"artcc": "ZFW",
		"type": "RNAV",
		"updated": "06/28/2011"
	},
	{
		"name": "UXGOY",
		"latitude": "32-29-18.64 N",
		"longitude": "92-3-49.6 W",
		"state": "LOUISIANA",
		"artcc": "ZFW",
		"type": "RP",
		"updated": "MLU*VORTAC*/2.21"
	},
	{
		"name": "UYISE",
		"latitude": "33-8-52.22 N",
		"longitude": "95-43-2.27 W",
		"state": "TEXAS",
		"artcc": "ZFW",
		"type": "RP",
		"updated": "SLR*VOR/DME*243.00/9.31"
	},
	{
		"name": "UYOPI",
		"latitude": "35-9-39.97 N",
		"longitude": "97-2-39.35 W",
		"state": "OKLAHOMA",
		"artcc": "ZFW",
		"type": "RNAV",
		"updated": "06/18/2010"
	},
	{
		"name": "UYUBU",
		"latitude": "32-38-8.85 N",
		"longitude": "98-38-14.85 W",
		"state": "TEXAS",
		"artcc": "ZFW",
		"type": "RNAV",
		"updated": "05/11/2011"
	}
]
