[
	{
		"name": "VAAMP",
		"latitude": "33-56-4.37 N",
		"longitude": "97-7-8.41 W",
		"state": "OKLAHOMA",
		"artcc": "ZFW",
		"type": "RNAV",
		"updated": "02/23/2011"
	},
	{
		"name": "VANDE",
		"latitude": "32-48-9.64 N",
		"longitude": "96-53-33.59 W",
		"state": "TEXAS",
		"artcc": "ZFW",
		"type": "RP",
		"updated": "RRA*LD*131.28/9.32"
	},
	{
		"name": "VAPPU",
		"latitude": "35-4-45.22 N",
		"longitude": "97-13-50.98 W",
		"state": "OKLAHOMA",
		"artcc": "ZFW",
		"type": "MW",
		"updated": "06/02/2008"
	},
	{
		"name": "VARVY",
		"latitude": "32-48-12.87 N",
		"longitude": "100-56-53.13 W",
		"state": "TEXAS",
		"artcc": "ZFW",
		"type": "RNAV",
		"updated": "09/19/2012"
	},
	{
		"name": "VASCE",
		"latitude": "34-13-38.85 N",
		"longitude": "96-48-0.96 W",
		"state": "OKLAHOMA",
		"artcc": "ZFW",
		"type": "RNAV",
		"updated": "09/20/2002"
	},
	{
		"name": "VASTY",
		"latitude": "34-7-27.81 N",
		"longitude": "99-11-19.67 W",
		"state": "TEXAS",
		"artcc": "ZFW",
		"type": "RP",
		"updated": "SPS*VORTAC*275.63/30.79"
	},
	{
		"name": "VAWWN",
		"latitude": "31-14-47.62 N",
		"longitude": "97-4-35.01 W",
		"state": "TEXAS",
		"artcc": "ZFW",
		"type": "RNAV",
		"updated": "10/21/2015"
	},
	{
		"name": "VAYTU",
		"latitude": "33-16-11.09 N",
		"longitude": "98-58-24.55 W",
		"state": "TEXAS",
		"artcc": "ZFW",
		"type": "RP",
		"updated": "SPS*VORTAC*194.00/47.00"
	},
	{
		"name": "VAYUS",
		"latitude": "32-28-43.07 N",
		"longitude": "99-26-36.27 W",
		"state": "TEXAS",
		"artcc": "ZFW",
		"type": "RNAV",
		"updated": "11/20/2008"
	},
	{
		"name": "VDUBB",
		"latitude": "32-20-33.89 N",
		"longitude": "95-41-51.14 W",
		"state": "TEXAS",
		"artcc": "ZFW",
		"type": "RNAV",
		"updated": "09/13/2016"
	},
	{
		"name": "VEALY",
		"latitude": "32-55-8.09 N",
		"longitude": "96-54-47.33 W",
		"state": "TEXAS",
		"artcc": "ZFW",
		"type": "RNAV",
		"updated": "07/13/2014"
	},
	{
		"name": "VECUN",
		"latitude": "32-51-22.56 N",
		"longitude": "96-4-6.66 W",
		"state": "TEXAS",
		"artcc": "ZFW",
		"type": "RNAV",
		"updated": "07/17/2008"
	},
	{
		"name": "VEEDE",
		"latitude": "32-39-20.48 N",
		"longitude": "97-5-32.02 W",
		"state": "TEXAS",
		"artcc": "ZFW",
		"type": "WP",
		"updated": "TTT*VOR/DME*185.58/13.05"
	},
	{
		"name": "VEEYO",
		"latitude": "32-16-8.16 N",
		"longitude": "95-55-57.87 W",
		"state": "TEXAS",
		"artcc": "ZFW",
		"type": "RNAV",
		"updated": "09/13/2016"
	},
	{
		"name": "VELCI",
		"latitude": "33-22-28.47 N",
		"longitude": "96-34-48.2 W",
		"state": "TEXAS",
		"artcc": "ZFW",
		"type": "RNAV",
		"updated": "06/14/2012"
	},
	{
		"name": "VENUE",
		"latitude": "33-54-8.88 N",
		"longitude": "95-36-9.42 W",
		"state": "TEXAS",
		"artcc": "ZFW",
		"type": "RNAV",
		"updated": "09/13/2016"
	},
	{
		"name": "VERGO",
		"latitude": "32-55-40.89 N",
		"longitude": "95-29-16.39 W",
		"state": "TEXAS",
		"artcc": "ZFW",
		"type": "RP",
		"updated": "UIM*VOR/DME*287.02/6.75"
	},
	{
		"name": "VERRI",
		"latitude": "31-29-55.17 N",
		"longitude": "100-5-46.19 W",
		"state": "TEXAS",
		"artcc": "ZFW",
		"type": "RP",
		"updated": "TQA*VOR/DME*188.00"
	},
	{
		"name": "VEYXE",
		"latitude": "32-53-43.43 N",
		"longitude": "96-48-16.26 W",
		"state": "TEXAS",
		"artcc": "ZFW",
		"type": "RP",
		"updated": "01/21/2003"
	},
	{
		"name": "VICJU",
		"latitude": "31-56-0.2 N",
		"longitude": "102-12-10.33 W",
		"state": "TEXAS",
		"artcc": "ZFW",
		"type": "WP",
		"updated": "MAF*VORTAC*176.98/4.59"
	},
	{
		"name": "VIDDU",
		"latitude": "35-35-30.28 N",
		"longitude": "95-56-55.59 W",
		"state": "OKLAHOMA",
		"artcc": "ZFW",
		"type": "RNAV",
		"updated": "04/25/2005"
	},
	{
		"name": "VIDUY",
		"latitude": "34-15-0.53 N",
		"longitude": "99-15-54.19 W",
		"state": "TEXAS",
		"artcc": "ZFW",
		"type": "RNAV",
		"updated": "05/16/2010"
	},
	{
		"name": "VILLE",
		"latitude": "34-21-48.96 N",
		"longitude": "97-7-34.99 W",
		"state": "OKLAHOMA",
		"artcc": "ZFW",
		"type": "RNAV",
		"updated": "02/23/2011"
	},
	{
		"name": "VIRUJ",
		"latitude": "35-18-39.85 N",
		"longitude": "96-43-11.17 W",
		"state": "OKLAHOMA",
		"artcc": "ZFW",
		"type": "RNAV",
		"updated": "04/23/2014"
	},
	{
		"name": "VITVY",
		"latitude": "33-47-36.38 N",
		"longitude": "102-14-34.72 W",
		"state": "TEXAS",
		"artcc": "ZFW",
		"type": "RNAV",
		"updated": "03/26/2013"
	},
	{
		"name": "VIYUN",
		"latitude": "32-26-31.77 N",
		"longitude": "96-35-5.97 W",
		"state": "TEXAS",
		"artcc": "ZFW",
		"type": "RNAV",
		"updated": "10/04/2010"
	},
	{
		"name": "VKTRY",
		"latitude": "33-23-2.04 N",
		"longitude": "97-38-30.16 W",
		"state": "TEXAS",
		"artcc": "ZFW",
		"type": "RP",
		"updated": "TTT*VOR/DME*309.66/43.22"
	},
	{
		"name": "VOCCU",
		"latitude": "33-25-8.39 N",
		"longitude": "93-6-37.16 W",
		"state": "ARKANSAS",
		"artcc": "ZFW",
		"type": "RNAV",
		"updated": "07/26/2004"
	},
	{
		"name": "VODUC",
		"latitude": "35-34-35.06 N",
		"longitude": "98-55-58.05 W",
		"state": "OKLAHOMA",
		"artcc": "ZFW",
		"type": "RNAV",
		"updated": "06/15/2011"
	},
	{
		"name": "VOJIB",
		"latitude": "33-57-27.41 N",
		"longitude": "93-36-55.52 W",
		"state": "ARKANSAS",
		"artcc": "ZFW",
		"type": "RNAV",
		"updated": "01/16/2002"
	},
	{
		"name": "VOLSE",
		"latitude": "35-31-7.14 N",
		"longitude": "99-23-38.52 W",
		"state": "OKLAHOMA",
		"artcc": "ZFW",
		"type": "RNAV",
		"updated": "03/02/2017"
	},
	{
		"name": "VOWED",
		"latitude": "35-23-48.76 N",
		"longitude": "96-55-11.59 W",
		"state": "OKLAHOMA",
		"artcc": "ZFW",
		"type": "RNAV",
		"updated": "05/28/2014"
	},
	{
		"name": "VUCUL",
		"latitude": "32-28-53.05 N",
		"longitude": "101-52-49.65 W",
		"state": "TEXAS",
		"artcc": "ZFW",
		"type": "RP",
		"updated": "BGS*VORTAC*275.00/20.95"
	},
	{
		"name": "VUGYU",
		"latitude": "32-41-50.12 N",
		"longitude": "93-30-22.31 W",
		"state": "LOUISIANA",
		"artcc": "ZFW",
		"type": "RNAV",
		"updated": "01/07/2011"
	},
	{
		"name": "VUNYU",
		"latitude": "35-9-33.1 N",
		"longitude": "97-28-20.68 W",
		"state": "OKLAHOMA",
		"artcc": "ZFW",
		"type": "RNAV",
		"updated": "07/06/2012"
	},
	{
		"name": "VURQI",
		"latitude": "31-25-55.31 N",
		"longitude": "97-18-58.82 W",
		"state": "TEXAS",
		"artcc": "ZFW",
		"type": "RP",
		"updated": "ACT*VORTAC*180.99/14.00"
	}
]
