	{
		"name": "WABIG",
		"latitude": "34-55-22.26 N",
		"longitude": "97-10-20.55 W",
		"state": "OKLAHOMA",
		"artcc": "ZFW",
		"type": "MW",
		"updated": "06/02/2008",
	},
	{
		"name": "WABUT",
		"latitude": "35-30-24.57 N",
		"longitude": "97-44-26.41 W",
		"state": "OKLAHOMA",
		"artcc": "ZFW",
		"type": "RNAV",
		"updated": "05/28/2014",
	},
	{
		"name": "WABVI",
		"latitude": "33-1-32.08 N",
		"longitude": "100-45-41.43 W",
		"state": "TEXAS",
		"artcc": "ZFW",
		"type": "RP",
		"updated": "ABI*VORTAC*295.89/55.92",
	},
	{
		"name": "WADEM",
		"latitude": "32-10-16.3 N",
		"longitude": "97-56-42.12 W",
		"state": "TEXAS",
		"artcc": "ZFW",
		"type": "RP",
		"updated": "JEN*VORTAC*275.47/3.50",
	},
	{
		"name": "WADES",
		"latitude": "33-0-42.44 N",
		"longitude": "97-2-10.86 W",
		"state": "TEXAS",
		"artcc": "ZFW",
		"type": "RP",
		"updated": "TTT*VOR/DME*355.42",
	},
	{
		"name": "WAFER",
		"latitude": "32-36-3.68 N",
		"longitude": "93-48-31.81 W",
		"state": "LOUISIANA",
		"artcc": "ZFW",
		"type": "RP",
		"updated": "EIC*VORTAC*172.69",
	},
	{
		"name": "WAGAS",
		"latitude": "34-54-49.73 N",
		"longitude": "96-31-4.39 W",
		"state": "OKLAHOMA",
		"artcc": "ZFW",
		"type": "RNAV",
		"updated": "03/06/2003",
	},
	{
		"name": "WAGBU",
		"latitude": "32-47-2.53 N",
		"longitude": "96-47-7.93 W",
		"state": "TEXAS",
		"artcc": "ZFW",
		"type": "RNAV",
		"updated": "07/13/2014",
	},
	{
		"name": "WAGEG",
		"latitude": "33-31-34.94 N",
		"longitude": "101-39-13.32 W",
		"state": "TEXAS",
		"artcc": "ZFW",
		"type": "RNAV",
		"updated": "11/17/2016",
	},
	{
		"name": "WAGMU",
		"latitude": "32-46-0.41 N",
		"longitude": "97-21-6.5 W",
		"state": "TEXAS",
		"artcc": "ZFW",
		"type": "RNAV",
		"updated": "03/20/2009",
	},
	{
		"name": "WAGRI",
		"latitude": "35-21-7.16 N",
		"longitude": "97-18-8.08 W",
		"state": "OKLAHOMA",
		"artcc": "ZFW",
		"type": "MR",
		"updated": "TIK*TACAN*/6.33",
	},
	{
		"name": "WAGTA",
		"latitude": "33-15-26.58 N",
		"longitude": "94-5-7.53 W",
		"state": "TEXAS",
		"artcc": "ZFW",
		"type": "RNAV",
		"updated": "06/08/2006",
	},
	{
		"name": "WAGUN",
		"latitude": "33-22-52.11 N",
		"longitude": "100-30-32.46 W",
		"state": "TEXAS",
		"artcc": "ZFW",
		"type": "RP",
		"updated": "LBB*VORTAC*094.00/73.08",
	},
	{
		"name": "WAGVO",
		"latitude": "31-44-57.38 N",
		"longitude": "102-14-11.36 W",
		"state": "TEXAS",
		"artcc": "ZFW",
		"type": "RNAV",
		"updated": "05/16/2010",
	},
	{
		"name": "WAITT",
		"latitude": "32-16-30.83 N",
		"longitude": "95-0-20.98 W",
		"state": "TEXAS",
		"artcc": "ZFW",
		"type": "RNAV",
		"updated": "09/13/2016",
	},
	{
		"name": "WAKDA",
		"latitude": "32-39-53.24 N",
		"longitude": "96-53-43.95 W",
		"state": "TEXAS",
		"artcc": "ZFW",
		"type": "RNAV",
		"updated": "01/28/2011",
	},
	{
		"name": "WAKMO",
		"latitude": "31-41-28.29 N",
		"longitude": "97-27-41.04 W",
		"state": "TEXAS",
		"artcc": "ZFW",
		"type": "RP",
		"updated": "ACT*VORTAC*271.00/10.00",
	},
	{
		"name": "WALIT",
		"latitude": "33-23-46.14 N",
		"longitude": "99-41-4.02 W",
		"state": "TEXAS",
		"artcc": "ZFW",
		"type": "RNAV",
		"updated": "08/10/2016",
	},
	{
		"name": "WALKI",
		"latitude": "33-53-11.73 N",
		"longitude": "97-16-54.71 W",
		"state": "OKLAHOMA",
		"artcc": "ZFW",
		"type": "RNAV",
		"updated": "10/31/2016",
	},
	{
		"name": "WALLS",
		"latitude": "35-19-52.06 N",
		"longitude": "97-42-32.46 W",
		"state": "OKLAHOMA",
		"artcc": "ZFW",
		"type": "RNAV",
		"updated": "05/28/2014",
	},
	{
		"name": "WALON",
		"latitude": "33-53-11.73 N",
		"longitude": "97-6-30.55 W",
		"state": "OKLAHOMA",
		"artcc": "ZFW",
		"type": "RNAV",
		"updated": "10/31/2016",
	},
	{
		"name": "WALST",
		"latitude": "31-52-35.85 N",
		"longitude": "98-0-33.44 W",
		"state": "TEXAS",
		"artcc": "ZFW",
		"type": "RNAV",
		"updated": "07/09/2009",
	},
	{
		"name": "WALTO",
		"latitude": "34-21-29.68 N",
		"longitude": "98-21-19.83 W",
		"state": "OKLAHOMA",
		"artcc": "ZFW",
		"type": "RP",
		"updated": "SPS*VORTAC*018.00/25.18",
	},
	{
		"name": "WALTS",
		"latitude": "32-27-31.83 N",
		"longitude": "94-48-6.43 W",
		"state": "TEXAS",
		"artcc": "ZFW",
		"type": "RNAV",
		"updated": "09/19/2008",
	},
	{
		"name": "WAMAM",
		"latitude": "32-15-30.49 N",
		"longitude": "95-49-43.41 W",
		"state": "TEXAS",
		"artcc": "ZFW",
		"type": "RNAV",
		"updated": "04/07/2010",
	},
	{
		"name": "WAMGE",
		"latitude": "33-32-6.64 N",
		"longitude": "96-33-35.21 W",
		"state": "TEXAS",
		"artcc": "ZFW",
		"type": "RNAV",
		"updated": "07/12/2013",
	},
	{
		"name": "WAMGI",
		"latitude": "32-39-26.57 N",
		"longitude": "103-10-41.81 W",
		"state": "NEW MEXICO",
		"artcc": "ZFW",
		"type": "RNAV",
		"updated": "09/11/2014",
	},
	{
		"name": "WANIL",
		"latitude": "34-3-40.94 N",
		"longitude": "94-40-19.28 W",
		"state": "OKLAHOMA",
		"artcc": "ZFW",
		"type": "RNAV",
		"updated": "03/30/2004",
	},
	{
		"name": "WANON",
		"latitude": "32-46-16.91 N",
		"longitude": "97-28-37.99 W",
		"state": "TEXAS",
		"artcc": "ZFW",
		"type": "RNAV",
		"updated": "04/04/2012",
	},
	{
		"name": "WAPEV",
		"latitude": "32-35-59.66 N",
		"longitude": "98-59-14.48 W",
		"state": "TEXAS",
		"artcc": "ZFW",
		"type": "RP",
		"updated": "ABI*VORTAC*070.69/45.00",
	},
	{
		"name": "WARDN",
		"latitude": "35-22-46.64 N",
		"longitude": "98-0-16.06 W",
		"state": "OKLAHOMA",
		"artcc": "ZFW",
		"type": "RP",
		"updated": "IFI*VORTAC*171.06/25.50",
	},
	{
		"name": "WARDZ",
		"latitude": "32-39-30 N",
		"longitude": "96-45-42 W",
		"state": "TEXAS",
		"artcc": "ZFW",
		"type": "RP",
		"updated": "CVE*VOR/DME*146.57/15.65",
	},
	{
		"name": "WARER",
		"latitude": "32-45-1.28 N",
		"longitude": "96-33-24.99 W",
		"state": "TEXAS",
		"artcc": "ZFW",
		"type": "RNAV",
		"updated": "02/20/2018",
	},
	{
		"name": "WARLO",
		"latitude": "33-32-25.17 N",
		"longitude": "93-2-59.59 W",
		"state": "ARKANSAS",
		"artcc": "ZFW",
		"type": "RP",
		"updated": "TXK*VORTAC*080.95/51.35",
	},
	{
		"name": "WAROP",
		"latitude": "35-38-13.39 N",
		"longitude": "97-42-27.67 W",
		"state": "OKLAHOMA",
		"artcc": "ZFW",
		"type": "RNAV",
		"updated": "06/15/2011",
	},
	{
		"name": "WASHO",
		"latitude": "33-47-8.71 N",
		"longitude": "93-39-19.42 W",
		"state": "ARKANSAS",
		"artcc": "ZFW",
		"type": "RP",
		"updated": "TXK*VORTAC*045.00/26.52",
	},
	{
		"name": "WASOL",
		"latitude": "35-19-43.9 N",
		"longitude": "95-5-37.04 W",
		"state": "OKLAHOMA",
		"artcc": "ZFW",
		"type": "RNAV",
		"updated": "06/15/2011",
	},
	{
		"name": "WATEN",
		"latitude": "33-24-50.38 N",
		"longitude": "97-17-25.83 W",
		"state": "TEXAS",
		"artcc": "ZFW",
		"type": "RNAV",
		"updated": "11/01/2016",
	},
	{
		"name": "WATGA",
		"latitude": "34-48-47.38 N",
		"longitude": "99-16-25.77 W",
		"state": "OKLAHOMA",
		"artcc": "ZFW",
		"type": "MR",
		"updated": "LTS*VORTAC*/9.00",
	},
	{
		"name": "WATIT",
		"latitude": "32-23-37.61 N",
		"longitude": "99-50-54.92 W",
		"state": "TEXAS",
		"artcc": "ZFW",
		"type": "MR",
		"updated": "TQA*VOR/DME*340.31/9.60",
	},
	{
		"name": "WATLE",
		"latitude": "33-19-17.17 N",
		"longitude": "93-49-42.9 W",
		"state": "ARKANSAS",
		"artcc": "ZFW",
		"type": "RNAV",
		"updated": "06/08/2006",
	},
	{
		"name": "WATOM",
		"latitude": "35-16-58.26 N",
		"longitude": "96-48-56.34 W",
		"state": "OKLAHOMA",
		"artcc": "ZFW",
		"type": "RNAV",
		"updated": "04/23/2014",
	},
	{
		"name": "WATOR",
		"latitude": "31-37-40.63 N",
		"longitude": "100-42-34.38 W",
		"state": "TEXAS",
		"artcc": "ZFW",
		"type": "RP",
		"updated": "TQA*VOR/DME*221.64",
	},
	{
		"name": "WATUS",
		"latitude": "33-13-52.57 N",
		"longitude": "101-38-0.93 W",
		"state": "TEXAS",
		"artcc": "ZFW",
		"type": "RNAV",
		"updated": "11/17/2016",
	},
	{
		"name": "WATUV",
		"latitude": "32-24-2.77 N",
		"longitude": "100-32-17.18 W",
		"state": "TEXAS",
		"artcc": "ZFW",
		"type": "RNAV",
		"updated": "09/02/2011",
	},
	{
		"name": "WAVOK",
		"latitude": "32-3-48.61 N",
		"longitude": "101-59-39.56 W",
		"state": "TEXAS",
		"artcc": "ZFW",
		"type": "RNAV",
		"updated": "06/23/2011",
	},
	{
		"name": "WAWLS",
		"latitude": "33-24-50.38 N",
		"longitude": "97-7-5.07 W",
		"state": "TEXAS",
		"artcc": "ZFW",
		"type": "RNAV",
		"updated": "11/01/2016",
	},
	{
		"name": "WAXEY",
		"latitude": "35-35-26.73 N",
		"longitude": "98-46-36.32 W",
		"state": "OKLAHOMA",
		"artcc": "ZFW",
		"type": "RP",
		"updated": "IRW*VORTAC*277.00/58.88",
	},
	{
		"name": "WAXUX",
		"latitude": "33-7-32.63 N",
		"longitude": "96-35-27.66 W",
		"state": "TEXAS",
		"artcc": "ZFW",
		"type": "RNAV",
		"updated": "06/14/2012",
	},
	{
		"name": "WAYMN",
		"latitude": "35-4-30.72 N",
		"longitude": "97-28-0.09 W",
		"state": "OKLAHOMA",
		"artcc": "ZFW",
		"type": "RNAV",
		"updated": "05/28/2014",
	},
	{
		"name": "WEANS",
		"latitude": "32-50-12.61 N",
		"longitude": "96-42-14.36 W",
		"state": "TEXAS",
		"artcc": "ZFW",
		"type": "RNAV",
		"updated": "07/13/2014",
	},
	{
		"name": "WEBAX",
		"latitude": "32-30-55.31 N",
		"longitude": "99-52-29.06 W",
		"state": "TEXAS",
		"artcc": "ZFW",
		"type": "MR",
		"updated": "TQA*VOR/DME*340.04/17.00",
	},
	{
		"name": "WEBBY",
		"latitude": "32-41-14.51 N",
		"longitude": "93-12-12.78 W",
		"state": "LOUISIANA",
		"artcc": "ZFW",
		"type": "RP",
		"updated": "EMG*VORTAC*042.03",
	},
	{
		"name": "WEBIS",
		"latitude": "33-42-3.92 N",
		"longitude": "93-41-54.91 W",
		"state": "ARKANSAS",
		"artcc": "ZFW",
		"type": "RP",
		"updated": "TXK*VORTAC*052.05/21.87",
	},
	{
		"name": "WEDAT",
		"latitude": "33-20-37.42 N",
		"longitude": "95-35-1.87 W",
		"state": "TEXAS",
		"artcc": "ZFW",
		"type": "RNAV",
		"updated": "06/28/2011",
	},
	{
		"name": "WEDGA",
		"latitude": "32-7-11.98 N",
		"longitude": "95-12-28.98 W",
		"state": "TEXAS",
		"artcc": "ZFW",
		"type": "RNAV",
		"updated": "06/04/2012",
	},
	{
		"name": "WEDNI",
		"latitude": "34-48-46.12 N",
		"longitude": "99-17-1.94 W",
		"state": "OKLAHOMA",
		"artcc": "ZFW",
		"type": "MR",
		"updated": "LTS*VORTAC*351.00/9.00",
	},
	{
		"name": "WEDRO",
		"latitude": "32-41-39.47 N",
		"longitude": "96-38-54.6 W",
		"state": "TEXAS",
		"artcc": "ZFW",
		"type": "RNAV",
		"updated": "09/03/2010",
	},
	{
		"name": "WEDUT",
		"latitude": "32-54-7.21 N",
		"longitude": "103-46-24.43 W",
		"state": "NEW MEXICO",
		"artcc": "ZFW",
		"type": "RP",
		"updated": "HOB*VORTAC*290.90/30.00",
	},
	{
		"name": "WEEBR",
		"latitude": "33-31-28.26 N",
		"longitude": "93-41-58.26 W",
		"state": "ARKANSAS",
		"artcc": "ZFW",
		"type": "RP",
		"updated": "TXK*VORTAC*080.95/18.76",
	},
	{
		"name": "WEEPE",
		"latitude": "32-24-47.42 N",
		"longitude": "101-3-6.59 W",
		"state": "TEXAS",
		"artcc": "ZFW",
		"type": "RP",
		"updated": "BGS*VORTAC*074.58/22.00",
	},
	{
		"name": "WEERD",
		"latitude": "32-58-18.42 N",
		"longitude": "97-26-21.51 W",
		"state": "TEXAS",
		"artcc": "ZFW",
		"type": "MR",
		"updated": "FUZ*VORTAC*284.66/14.02",
	},
	{
		"name": "WEGEV",
		"latitude": "32-51-42.68 N",
		"longitude": "93-54-25.73 W",
		"state": "LOUISIANA",
		"artcc": "ZFW",
		"type": "RNAV",
		"updated": "01/03/2009",
	},
	{
		"name": "WEGON",
		"latitude": "32-28-2.89 N",
		"longitude": "93-40-25.24 W",
		"state": "LOUISIANA",
		"artcc": "ZFW",
		"type": "RNAV",
		"updated": "05/09/2017",
	},
	{
		"name": "WEGTE",
		"latitude": "34-23-17.69 N",
		"longitude": "98-24-17.27 W",
		"state": "OKLAHOMA",
		"artcc": "ZFW",
		"type": "RNAV",
		"updated": "05/24/2017",
	},
	{
		"name": "WEGTO",
		"latitude": "32-39-37.07 N",
		"longitude": "97-26-33.81 W",
		"state": "TEXAS",
		"artcc": "ZFW",
		"type": "MW",
		"updated": "08/07/2014",
	},
	{
		"name": "WEIRS",
		"latitude": "31-50-54.98 N",
		"longitude": "95-48-35.69 W",
		"state": "TEXAS",
		"artcc": "ZFW",
		"type": "RP",
		"updated": "CQY*VORTAC*128.00/29.00",
	},
	{
		"name": "WEKDI",
		"latitude": "32-34-17.25 N",
		"longitude": "94-49-48.92 W",
		"state": "TEXAS",
		"artcc": "ZFW",
		"type": "RP",
		"updated": "GGG*VORTAC*330.00/10.00",
	},
	{
		"name": "WELCH",
		"latitude": "32-56-58 N",
		"longitude": "102-2-18.85 W",
		"state": "TEXAS",
		"artcc": "ZFW",
		"type": "RP",
		"updated": "HOB*VORTAC*062.00",
	},
	{
		"name": "WELED",
		"latitude": "32-33-36.18 N",
		"longitude": "96-32-1.72 W",
		"state": "TEXAS",
		"artcc": "ZFW",
		"type": "RNAV",
		"updated": "07/27/2006",
	},
	{
		"name": "WENDE",
		"latitude": "31-51-25.51 N",
		"longitude": "94-9-41.04 W",
		"state": "TEXAS",
		"artcc": "ZFW",
		"type": "RNAV",
		"updated": "05/16/2010",
	},
	{
		"name": "WENED",
		"latitude": "31-55-42.52 N",
		"longitude": "94-23-8.01 W",
		"state": "TEXAS",
		"artcc": "ZFW",
		"type": "RNAV",
		"updated": "10/14/2008",
	},
	{
		"name": "WENIK",
		"latitude": "32-37-37.12 N",
		"longitude": "95-9-24.15 W",
		"state": "TEXAS",
		"artcc": "ZFW",
		"type": "RP",
		"updated": "GGG*VORTAC*294.58/24.00",
	},
	{
		"name": "WENOP",
		"latitude": "32-57-34.95 N",
		"longitude": "96-50-7.23 W",
		"state": "TEXAS",
		"artcc": "ZFW",
		"type": "RNAV",
		"updated": "07/13/2014",
	},
	{
		"name": "WENVO",
		"latitude": "33-46-37.81 N",
		"longitude": "101-30-11.88 W",
		"state": "TEXAS",
		"artcc": "ZFW",
		"type": "RP",
		"updated": "LBB*VORTAC*067.00/21.00",
	},
	{
		"name": "WEPUS",
		"latitude": "32-49-3.15 N",
		"longitude": "96-39-54.86 W",
		"state": "TEXAS",
		"artcc": "ZFW",
		"type": "RNAV",
		"updated": "10/17/2005",
	},
	{
		"name": "WERMO",
		"latitude": "31-26-48.35 N",
		"longitude": "98-8-3.48 W",
		"state": "TEXAS",
		"artcc": "ZFW",
		"type": "RNAV",
		"updated": "07/09/2014",
	},
	{
		"name": "WEROS",
		"latitude": "35-28-33.75 N",
		"longitude": "98-57-6.48 W",
		"state": "OKLAHOMA",
		"artcc": "ZFW",
		"type": "MR",
		"updated": "BFV*VORTAC*036.00/19.00",
	},
	{
		"name": "WESAT",
		"latitude": "33-12-21.84 N",
		"longitude": "97-39-51.75 W",
		"state": "TEXAS",
		"artcc": "ZFW",
		"type": "RNAV",
		"updated": "07/13/2014",
	},
	{
		"name": "WESBI",
		"latitude": "32-34-11.95 N",
		"longitude": "96-21-45.95 W",
		"state": "TEXAS",
		"artcc": "ZFW",
		"type": "RNAV",
		"updated": "10/20/2005",
	},
	{
		"name": "WESLI",
		"latitude": "31-52-37.68 N",
		"longitude": "97-8-55.09 W",
		"state": "TEXAS",
		"artcc": "ZFW",
		"type": "RP",
		"updated": "JEN*VORTAC*108.26",
	},
	{
		"name": "WETER",
		"latitude": "32-29-43.34 N",
		"longitude": "92-20-40.54 W",
		"state": "LOUISIANA",
		"artcc": "ZFW",
		"type": "RP",
		"updated": "ELD*VOR/DME*149.00",
	},
	{
		"name": "WETIX",
		"latitude": "35-0-11.43 N",
		"longitude": "97-28-16.45 W",
		"state": "OKLAHOMA",
		"artcc": "ZFW",
		"type": "RP",
		"updated": "IRW*VORTAC*155.28/22.35",
	},
	{
		"name": "WETUR",
		"latitude": "32-32-46.92 N",
		"longitude": "97-6-16.86 W",
		"state": "TEXAS",
		"artcc": "ZFW",
		"type": "RNAV",
		"updated": "07/09/2014",
	},
	{
		"name": "WEVAV",
		"latitude": "35-24-56.21 N",
		"longitude": "97-6-15.9 W",
		"state": "OKLAHOMA",
		"artcc": "ZFW",
		"type": "MR",
		"updated": "IRW*VORTAC*075.00/25.00",
	},
	{
		"name": "WEXAV",
		"latitude": "34-18-13.42 N",
		"longitude": "98-59-21.82 W",
		"state": "OKLAHOMA",
		"artcc": "ZFW",
		"type": "RNAV",
		"updated": "08/18/2010",
	},
	{
		"name": "WHAMM",
		"latitude": "32-33-35.59 N",
		"longitude": "91-57-5.43 W",
		"state": "LOUISIANA",
		"artcc": "ZFW",
		"type": "RP",
		"updated": "MLU*VORTAC*055.98/5.00",
	},
	{
		"name": "WHIMS",
		"latitude": "35-35-40.54 N",
		"longitude": "97-53-22.79 W",
		"state": "OKLAHOMA",
		"artcc": "ZFW",
		"type": "RNAV",
		"updated": "05/20/2014",
	},
	{
		"name": "WHINY",
		"latitude": "32-19-9.56 N",
		"longitude": "96-22-45.75 W",
		"state": "TEXAS",
		"artcc": "ZFW",
		"type": "RNAV",
		"updated": "07/13/2014",
	},
	{
		"name": "WHOOT",
		"latitude": "32-59-28.02 N",
		"longitude": "96-54-49.42 W",
		"state": "TEXAS",
		"artcc": "ZFW",
		"type": "RNAV",
		"updated": "07/13/2014",
	},
	{
		"name": "WHOSE",
		"latitude": "32-13-53.51 N",
		"longitude": "95-14-7 W",
		"state": "TEXAS",
		"artcc": "ZFW",
		"type": "RP",
		"updated": "TYR*VOR/DME*124.99/11.34",
	},
	{
		"name": "WIBAN",
		"latitude": "32-24-0 N",
		"longitude": "102-46-0 W",
		"state": "TEXAS",
		"artcc": "ZFW",
		"type": "RNAV",
		"updated": "08/12/2005",
	},
	{
		"name": "WIBEL",
		"latitude": "32-53-37.5 N",
		"longitude": "96-32-23.01 W",
		"state": "TEXAS",
		"artcc": "ZFW",
		"type": "RNAV",
		"updated": "04/02/2007",
	},
	{
		"name": "WIBIS",
		"latitude": "34-11-39.52 N",
		"longitude": "99-18-24.78 W",
		"state": "TEXAS",
		"artcc": "ZFW",
		"type": "RNAV",
		"updated": "05/16/2010",
	},
	{
		"name": "WIBUG",
		"latitude": "32-2-39.46 N",
		"longitude": "99-30-50.68 W",
		"state": "TEXAS",
		"artcc": "ZFW",
		"type": "RNAV",
		"updated": "06/04/2012",
	},
	{
		"name": "WICKS",
		"latitude": "34-32-27.13 N",
		"longitude": "96-43-54.7 W",
		"state": "OKLAHOMA",
		"artcc": "ZFW",
		"type": "RNAV",
		"updated": "05/28/2014",
	},
	{
		"name": "WIGIS",
		"latitude": "32-57-28.71 N",
		"longitude": "96-52-45.79 W",
		"state": "TEXAS",
		"artcc": "ZFW",
		"type": "RNAV",
		"updated": "07/09/2014",
	},
	{
		"name": "WIGOK",
		"latitude": "35-26-48.34 N",
		"longitude": "97-38-57.1 W",
		"state": "OKLAHOMA",
		"artcc": "ZFW",
		"type": "RNAV",
		"updated": "08/03/2015",
	},
	{
		"name": "WIGUG",
		"latitude": "32-39-32.52 N",
		"longitude": "98-28-55.03 W",
		"state": "TEXAS",
		"artcc": "ZFW",
		"type": "RNAV",
		"updated": "05/11/2011",
	},
	{
		"name": "WIGZU",
		"latitude": "33-5-21.34 N",
		"longitude": "97-20-19.37 W",
		"state": "TEXAS",
		"artcc": "ZFW",
		"type": "RP",
		"updated": "UPE*LD*346.21/6.99",
	},
	{
		"name": "WIKEB",
		"latitude": "32-24-25.34 N",
		"longitude": "97-1-48.13 W",
		"state": "TEXAS",
		"artcc": "ZFW",
		"type": "RP",
		"updated": "GKY*LD*162.02/16.39",
	},
	{
		"name": "WIKEK",
		"latitude": "33-50-43.37 N",
		"longitude": "98-24-51.89 W",
		"state": "TEXAS",
		"artcc": "ZFW",
		"type": "MR",
		"updated": "SHP*TACAN*151.00/9.00",
	},
	{
		"name": "WIKUS",
		"latitude": "31-28-47.56 N",
		"longitude": "99-58-41 W",
		"state": "TEXAS",
		"artcc": "ZFW",
		"type": "RNAV",
		"updated": "12/14/2005",
	},
	{
		"name": "WIKVO",
		"latitude": "34-5-48.17 N",
		"longitude": "97-7-18.43 W",
		"state": "OKLAHOMA",
		"artcc": "ZFW",
		"type": "RNAV",
		"updated": "02/23/2011",
	},
	{
		"name": "WILBR",
		"latitude": "33-25-26.5 N",
		"longitude": "96-17-23.44 W",
		"state": "TEXAS",
		"artcc": "ZFW",
		"type": "RP",
		"updated": "BYP*VORTAC*196.40/7.35",
	},
	{
		"name": "WILOM",
		"latitude": "33-11-0.55 N",
		"longitude": "96-35-1.49 W",
		"state": "TEXAS",
		"artcc": "ZFW",
		"type": "RP",
		"updated": "BYP*VORTAC*213.75/27.54",
	},
	{
		"name": "WIMER",
		"latitude": "34-47-9.56 N",
		"longitude": "99-15-34.7 W",
		"state": "OKLAHOMA",
		"artcc": "ZFW",
		"type": "RNAV",
		"updated": "12/14/2017",
	},
	{
		"name": "WINAD",
		"latitude": "35-12-1.54 N",
		"longitude": "97-28-21.75 W",
		"state": "OKLAHOMA",
		"artcc": "ZFW",
		"type": "RNAV",
		"updated": "07/06/2012",
	},
	{
		"name": "WINDU",
		"latitude": "31-31-49.93 N",
		"longitude": "97-4-57.06 W",
		"state": "TEXAS",
		"artcc": "ZFW",
		"type": "RP",
		"updated": "ACT*VORTAC*120.49/12.39",
	},
	{
		"name": "WINEY",
		"latitude": "33-19-7.24 N",
		"longitude": "101-47-11.79 W",
		"state": "TEXAS",
		"artcc": "ZFW",
		"type": "RP",
		"updated": "LBB*VORTAC*153.52/24.00",
	},
	{
		"name": "WINIT",
		"latitude": "32-0-26.03 N",
		"longitude": "98-8-45.94 W",
		"state": "TEXAS",
		"artcc": "ZFW",
		"type": "RNAV",
		"updated": "08/23/2005",
	},
	{
		"name": "WINNS",
		"latitude": "33-35-24.92 N",
		"longitude": "102-48-33.77 W",
		"state": "TEXAS",
		"artcc": "ZFW",
		"type": "RP",
		"updated": "HOB*VORTAC*011.00/61.54",
	},
	{
		"name": "WIPAN",
		"latitude": "32-33-35.19 N",
		"longitude": "94-59-57.23 W",
		"state": "TEXAS",
		"artcc": "ZFW",
		"type": "RNAV",
		"updated": "03/07/2011",
	},
	{
		"name": "WIPLU",
		"latitude": "31-41-5.9 N",
		"longitude": "97-4-31.73 W",
		"state": "TEXAS",
		"artcc": "ZFW",
		"type": "RP",
		"updated": "ACT*VORTAC*073.16",
	},
	{
		"name": "WIPOD",
		"latitude": "31-34-31.63 N",
		"longitude": "97-12-38.37 W",
		"state": "TEXAS",
		"artcc": "ZFW",
		"type": "RP",
		"updated": "ACT*VORTAC*141.09/6.00",
	},
	{
		"name": "WIPSU",
		"latitude": "32-43-38.55 N",
		"longitude": "97-16-21.59 W",
		"state": "TEXAS",
		"artcc": "ZFW",
		"type": "RNAV",
		"updated": "09/03/2010",
	},
	{
		"name": "WIRED",
		"latitude": "34-0-8.09 N",
		"longitude": "94-48-41.87 W",
		"state": "OKLAHOMA",
		"artcc": "ZFW",
		"type": "RNAV",
		"updated": "03/30/2004",
	},
	{
		"name": "WISIX",
		"latitude": "32-45-5.15 N",
		"longitude": "95-27-29.24 W",
		"state": "TEXAS",
		"artcc": "ZFW",
		"type": "RP",
		"updated": "UIM*VOR/DME*202.86/9.00",
	},
	{
		"name": "WISLO",
		"latitude": "33-12-57.21 N",
		"longitude": "97-49-38.58 W",
		"state": "TEXAS",
		"artcc": "ZFW",
		"type": "RNAV",
		"updated": "11/24/2009",
	},
	{
		"name": "WISOR",
		"latitude": "33-28-43.65 N",
		"longitude": "97-36-57.61 W",
		"state": "TEXAS",
		"artcc": "ZFW",
		"type": "RNAV",
		"updated": "03/31/2008",
	},
	{
		"name": "WISOT",
		"latitude": "32-20-43.5 N",
		"longitude": "95-24-46.93 W",
		"state": "TEXAS",
		"artcc": "ZFW",
		"type": "RP",
		"updated": "TYR*VOR/DME*211.86/0.79",
	},
	{
		"name": "WISUT",
		"latitude": "32-20-56.23 N",
		"longitude": "91-52-34.52 W",
		"state": "LOUISIANA",
		"artcc": "ZFW",
		"type": "RNAV",
		"updated": "03/29/2012",
	},
	{
		"name": "WITSI",
		"latitude": "32-54-14.11 N",
		"longitude": "94-56-51.89 W",
		"state": "TEXAS",
		"artcc": "ZFW",
		"type": "RNAV",
		"updated": "07/29/2013",
	},
	{
		"name": "WIVAP",
		"latitude": "31-36-28.87 N",
		"longitude": "96-31-14.83 W",
		"state": "TEXAS",
		"artcc": "ZFW",
		"type": "RNAV",
		"updated": "02/15/2012",
	},
	{
		"name": "WIVBI",
		"latitude": "33-54-54.67 N",
		"longitude": "96-34-47.81 W",
		"state": "OKLAHOMA",
		"artcc": "ZFW",
		"type": "RNAV",
		"updated": "07/12/2013",
	},
	{
		"name": "WIVDU",
		"latitude": "32-19-42.27 N",
		"longitude": "96-39-36.37 W",
		"state": "TEXAS",
		"artcc": "ZFW",
		"type": "RP",
		"updated": "CQY*VORTAC*284.92/24.06",
	},
	{
		"name": "WIVIN",
		"latitude": "33-42-34.64 N",
		"longitude": "101-14-27.12 W",
		"state": "TEXAS",
		"artcc": "ZFW",
		"type": "RNAV",
		"updated": "06/20/2011",
	},
	{
		"name": "WIXIP",
		"latitude": "35-29-49.42 N",
		"longitude": "98-40-6.17 W",
		"state": "OKLAHOMA",
		"artcc": "ZFW",
		"type": "RNAV",
		"updated": "03/02/2017",
	},
	{
		"name": "WIXOK",
		"latitude": "33-1-48.55 N",
		"longitude": "95-43-42.9 W",
		"state": "TEXAS",
		"artcc": "ZFW",
		"type": "RNAV",
		"updated": "02/05/2013",
	},
	{
		"name": "WLLTR",
		"latitude": "33-44-34.58 N",
		"longitude": "98-45-39.65 W",
		"state": "TEXAS",
		"artcc": "ZFW",
		"type": "RNAV",
		"updated": "09/13/2016",
	},
	{
		"name": "WNSTR",
		"latitude": "33-58-9.28 N",
		"longitude": "97-35-34.21 W",
		"state": "OKLAHOMA",
		"artcc": "ZFW",
		"type": "RNAV",
		"updated": "05/11/2015",
	},
	{
		"name": "WOBAM",
		"latitude": "32-33-13.79 N",
		"longitude": "95-24-23.25 W",
		"state": "TEXAS",
		"artcc": "ZFW",
		"type": "RNAV",
		"updated": "01/14/2005",
	},
	{
		"name": "WOBOS",
		"latitude": "32-59-39.87 N",
		"longitude": "97-12-9.18 W",
		"state": "TEXAS",
		"artcc": "ZFW",
		"type": "RNAV",
		"updated": "12/30/2010",
	},
	{
		"name": "WODAL",
		"latitude": "32-14-42.34 N",
		"longitude": "97-50-10.74 W",
		"state": "TEXAS",
		"artcc": "ZFW",
		"type": "RNAV",
		"updated": "02/22/2017",
	},
	{
		"name": "WODIE",
		"latitude": "32-17-54.76 N",
		"longitude": "96-34-1.48 W",
		"state": "TEXAS",
		"artcc": "ZFW",
		"type": "RP",
		"updated": "CQY*VORTAC*284.92/19.00",
	},
	{
		"name": "WODOK",
		"latitude": "33-39-48.38 N",
		"longitude": "101-47-45.81 W",
		"state": "TEXAS",
		"artcc": "ZFW",
		"type": "RP",
		"updated": "LBB*VORTAC*101.80/6.41",
	},
	{
		"name": "WOGAN",
		"latitude": "32-22-44.88 N",
		"longitude": "98-17-34.5 W",
		"state": "TEXAS",
		"artcc": "ZFW",
		"type": "RNAV",
		"updated": "08/23/2005",
	},
	{
		"name": "WOGFE",
		"latitude": "33-0-0.31 N",
		"longitude": "102-17-33.94 W",
		"state": "TEXAS",
		"artcc": "ZFW",
		"type": "RNAV",
		"updated": "02/13/2018",
	},
	{
		"name": "WOGUG",
		"latitude": "32-15-32.85 N",
		"longitude": "100-26-27.81 W",
		"state": "TEXAS",
		"artcc": "ZFW",
		"type": "RNAV",
		"updated": "09/02/2011",
	},
	{
		"name": "WOKAM",
		"latitude": "32-42-4.03 N",
		"longitude": "103-30-53.94 W",
		"state": "NEW MEXICO",
		"artcc": "ZFW",
		"type": "RP",
		"updated": "HOB*VORTAC*275.90/13.00",
	},
	{
		"name": "WOKIT",
		"latitude": "31-50-10.64 N",
		"longitude": "98-35-48.9 W",
		"state": "TEXAS",
		"artcc": "ZFW",
		"type": "RNAV",
		"updated": "10/22/2014",
	},
	{
		"name": "WOKIX",
		"latitude": "32-14-36.9 N",
		"longitude": "101-25-32.26 W",
		"state": "TEXAS",
		"artcc": "ZFW",
		"type": "RNAV",
		"updated": "05/06/2013",
	},
	{
		"name": "WOKPO",
		"latitude": "32-41-9.41 N",
		"longitude": "96-51-56.48 W",
		"state": "TEXAS",
		"artcc": "ZFW",
		"type": "RP",
		"updated": "CVE*VOR/DME*165.00/12.39",
	},
	{
		"name": "WOLFI",
		"latitude": "33-18-51.44 N",
		"longitude": "96-6-10.47 W",
		"state": "TEXAS",
		"artcc": "ZFW",
		"type": "MR",
		"updated": "MJF*TACAN*347.00/15.00",
	},
	{
		"name": "WOLKA",
		"latitude": "32-40-38.35 N",
		"longitude": "96-50-42.19 W",
		"state": "TEXAS",
		"artcc": "ZFW",
		"type": "RNAV",
		"updated": "03/26/2013",
	},
	{
		"name": "WOLUR",
		"latitude": "34-22-5.32 N",
		"longitude": "95-56-59.26 W",
		"state": "OKLAHOMA",
		"artcc": "ZFW",
		"type": "RP",
		"updated": "MLC*VORTAC*188.10/30.00",
	},
	{
		"name": "WOMDI",
		"latitude": "33-9-55.75 N",
		"longitude": "96-4-40.72 W",
		"state": "TEXAS",
		"artcc": "ZFW",
		"type": "MR",
		"updated": "MJF*TACAN*347.00/6.00",
	},
	{
		"name": "WONLI",
		"latitude": "34-46-31.81 N",
		"longitude": "99-5-3.92 W",
		"state": "OKLAHOMA",
		"artcc": "ZFW",
		"type": "RNAV",
		"updated": "12/14/2017",
	},
	{
		"name": "WOOLE",
		"latitude": "31-16-47.17 N",
		"longitude": "100-34-34.08 W",
		"state": "TEXAS",
		"artcc": "ZFW",
		"type": "RP",
		"updated": "SJT*LD*214.00/6.88",
	},
	{
		"name": "WOPEG",
		"latitude": "35-39-46.13 N",
		"longitude": "98-0-15.88 W",
		"state": "OKLAHOMA",
		"artcc": "ZFW",
		"type": "RNAV",
		"updated": "02/04/2008",
	},
	{
		"name": "WOREN",
		"latitude": "32-1-10.22 N",
		"longitude": "97-46-5.28 W",
		"state": "TEXAS",
		"artcc": "ZFW",
		"type": "RNAV",
		"updated": "02/22/2017",
	},
	{
		"name": "WORKS",
		"latitude": "32-34-41.68 N",
		"longitude": "94-19-41.75 W",
		"state": "TEXAS",
		"artcc": "ZFW",
		"type": "RP",
		"updated": "TXK*VORTAC*186.00",
	},
	{
		"name": "WOROD",
		"latitude": "33-1-5.33 N",
		"longitude": "97-23-39.27 W",
		"state": "TEXAS",
		"artcc": "ZFW",
		"type": "RNAV",
		"updated": "03/20/2009",
	},
	{
		"name": "WOROV",
		"latitude": "35-21-17.51 N",
		"longitude": "97-35-20.04 W",
		"state": "OKLAHOMA",
		"artcc": "ZFW",
		"type": "RNAV",
		"updated": "06/12/2014",
	},
	{
		"name": "WORPA",
		"latitude": "33-36-23.33 N",
		"longitude": "93-48-35.58 W",
		"state": "ARKANSAS",
		"artcc": "ZFW",
		"type": "RP",
		"updated": "TXK*VORTAC*060.15/14.32",
	},
	{
		"name": "WOSAT",
		"latitude": "33-49-35.17 N",
		"longitude": "94-54-6.72 W",
		"state": "OKLAHOMA",
		"artcc": "ZFW",
		"type": "RNAV",
		"updated": "03/30/2004",
	},
	{
		"name": "WOSDO",
		"latitude": "33-9-36.81 N",
		"longitude": "92-53-4.89 W",
		"state": "ARKANSAS",
		"artcc": "ZFW",
		"type": "RNAV",
		"updated": "12/01/2005",
	},
	{
		"name": "WOSUL",
		"latitude": "32-0-45.74 N",
		"longitude": "95-21-30.11 W",
		"state": "TEXAS",
		"artcc": "ZFW",
		"type": "RNAV",
		"updated": "06/04/2012",
	},
	{
		"name": "WOTSI",
		"latitude": "34-48-46.36 N",
		"longitude": "99-15-34.79 W",
		"state": "OKLAHOMA",
		"artcc": "ZFW",
		"type": "MR",
		"updated": "LTS*VORTAC*/9.00",
	},
	{
		"name": "WOVAM",
		"latitude": "33-50-39.55 N",
		"longitude": "96-23-44.51 W",
		"state": "OKLAHOMA",
		"artcc": "ZFW",
		"type": "RNAV",
		"updated": "05/16/2010",
	},
	{
		"name": "WOVAS",
		"latitude": "32-30-30.17 N",
		"longitude": "91-47-58.94 W",
		"state": "LOUISIANA",
		"artcc": "ZFW",
		"type": "RP",
		"updated": "MLU*VORTAC*089.37/12.00",
	},
	{
		"name": "WOVEL",
		"latitude": "32-46-5.75 N",
		"longitude": "93-47-13.68 W",
		"state": "LOUISIANA",
		"artcc": "ZFW",
		"type": "RNAV",
		"updated": "01/03/2009",
	},
	{
		"name": "WOVPI",
		"latitude": "32-46-16.33 N",
		"longitude": "97-18-33.13 W",
		"state": "TEXAS",
		"artcc": "ZFW",
		"type": "RNAV",
		"updated": "04/04/2012",
	},
	{
		"name": "WOXAD",
		"latitude": "31-34-34.61 N",
		"longitude": "97-14-16.9 W",
		"state": "TEXAS",
		"artcc": "ZFW",
		"type": "RNAV",
		"updated": "05/16/2013",
	},
	{
		"name": "WOXAT",
		"latitude": "32-26-7.1 N",
		"longitude": "93-51-12.84 W",
		"state": "LOUISIANA",
		"artcc": "ZFW",
		"type": "RP",
		"updated": "MWP*LE*238.90/2.44",
	},
	{
		"name": "WOXIL",
		"latitude": "33-39-44.89 N",
		"longitude": "101-46-21.51 W",
		"state": "TEXAS",
		"artcc": "ZFW",
		"type": "RNAV",
		"updated": "07/06/2012",
	},
	{
		"name": "WSKEY",
		"latitude": "32-15-30.11 N",
		"longitude": "97-46-31.74 W",
		"state": "TEXAS",
		"artcc": "ZFW",
		"type": "RNAV",
		"updated": "07/09/2009",
	},
	{
		"name": "WSTEX",
		"latitude": "32-32-42.98 N",
		"longitude": "99-19-53.04 W",
		"state": "TEXAS",
		"artcc": "ZFW",
		"type": "RNAV",
		"updated": "07/09/2014",
	},
	{
		"name": "WTCHH",
		"latitude": "35-8-42.81 N",
		"longitude": "97-22-56.64 W",
		"state": "OKLAHOMA",
		"artcc": "ZFW",
		"type": "RNAV",
		"updated": "12/13/2012",
	},
	{
		"name": "WTSON",
		"latitude": "32-11-12.99 N",
		"longitude": "96-12-39.31 W",
		"state": "TEXAS",
		"artcc": "ZFW",
		"type": "RNAV",
		"updated": "09/13/2016",
	},
	{
		"name": "WUDBU",
		"latitude": "34-23-38 N",
		"longitude": "100-17-14.46 W",
		"state": "TEXAS",
		"artcc": "ZFW",
		"type": "RNAV",
		"updated": "03/26/2013",
	},
	{
		"name": "WUDRU",
		"latitude": "32-27-41.12 N",
		"longitude": "103-42-57.09 W",
		"state": "NEW MEXICO",
		"artcc": "ZFW",
		"type": "RP",
		"updated": "HOB*VORTAC*234.06/25.00",
	},
	{
		"name": "WUDUR",
		"latitude": "34-32-43.37 N",
		"longitude": "99-16-25.76 W",
		"state": "OKLAHOMA",
		"artcc": "ZFW",
		"type": "RNAV",
		"updated": "12/14/2017",
	},
	{
		"name": "WUGUN",
		"latitude": "32-41-29.83 N",
		"longitude": "96-45-37.89 W",
		"state": "TEXAS",
		"artcc": "ZFW",
		"type": "RNAV",
		"updated": "11/25/2005",
	},
	{
		"name": "WULED",
		"latitude": "32-36-18.63 N",
		"longitude": "98-38-40.54 W",
		"state": "TEXAS",
		"artcc": "ZFW",
		"type": "RNAV",
		"updated": "03/10/2011",
	},
	{
		"name": "WUMAR",
		"latitude": "33-42-44.67 N",
		"longitude": "96-39-54.27 W",
		"state": "TEXAS",
		"artcc": "ZFW",
		"type": "RP",
		"updated": "BYP*VORTAC*290.00/24.00",
	},
	{
		"name": "WUMBA",
		"latitude": "33-39-43.51 N",
		"longitude": "101-51-3.08 W",
		"state": "TEXAS",
		"artcc": "ZFW",
		"type": "RNAV",
		"updated": "06/04/2012",
	},
	{
		"name": "WUMDU",
		"latitude": "32-33-1.82 N",
		"longitude": "93-45-17.55 W",
		"state": "LOUISIANA",
		"artcc": "ZFW",
		"type": "RP",
		"updated": "DTN*LE*316.89/1.07",
	},
	{
		"name": "WUMKU",
		"latitude": "32-29-36.87 N",
		"longitude": "91-50-27.08 W",
		"state": "LOUISIANA",
		"artcc": "ZFW",
		"type": "RNAV",
		"updated": "10/28/2013",
	},
	{
		"name": "WUNIL",
		"latitude": "32-14-49.24 N",
		"longitude": "101-12-10.03 W",
		"state": "TEXAS",
		"artcc": "ZFW",
		"type": "RNAV",
		"updated": "05/06/2013",
	},
	{
		"name": "WUNIN",
		"latitude": "34-19-22.12 N",
		"longitude": "95-32-34.33 W",
		"state": "OKLAHOMA",
		"artcc": "ZFW",
		"type": "RNAV",
		"updated": "02/13/2018",
	},
	{
		"name": "WUPAG",
		"latitude": "32-55-20.88 N",
		"longitude": "96-48-8.8 W",
		"state": "TEXAS",
		"artcc": "ZFW",
		"type": "RNAV",
		"updated": "07/13/2014",
	},
	{
		"name": "WUPVO",
		"latitude": "32-39-57.16 N",
		"longitude": "93-23-34.2 W",
		"state": "LOUISIANA",
		"artcc": "ZFW",
		"type": "MR",
		"updated": "BAD*TACAN*053.00/17.00",
	},
	{
		"name": "WURDZ",
		"latitude": "33-34-4.78 N",
		"longitude": "98-39-41.79 W",
		"state": "TEXAS",
		"artcc": "ZFW",
		"type": "RNAV",
		"updated": "09/13/2016",
	},
	{
		"name": "WUREM",
		"latitude": "32-52-39.26 N",
		"longitude": "96-53-38.05 W",
		"state": "TEXAS",
		"artcc": "ZFW",
		"type": "RNAV",
		"updated": "07/13/2014",
	},
	{
		"name": "WURLO",
		"latitude": "32-22-52.82 N",
		"longitude": "95-25-44.45 W",
		"state": "TEXAS",
		"artcc": "ZFW",
		"type": "RNAV",
		"updated": "07/30/2012",
	},
	{
		"name": "WUROD",
		"latitude": "33-19-16.78 N",
		"longitude": "93-12-48.72 W",
		"state": "ARKANSAS",
		"artcc": "ZFW",
		"type": "RNAV",
		"updated": "08/06/2004",
	},
	{
		"name": "WUSEN",
		"latitude": "35-17-3.16 N",
		"longitude": "98-0-15.3 W",
		"state": "OKLAHOMA",
		"artcc": "ZFW",
		"type": "RNAV",
		"updated": "02/04/2008",
	},
	{
		"name": "WUSIN",
		"latitude": "32-36-3.8 N",
		"longitude": "94-56-57.75 W",
		"state": "TEXAS",
		"artcc": "ZFW",
		"type": "RNAV",
		"updated": "07/29/2013",
	},
	{
		"name": "WUSNU",
		"latitude": "33-23-0.14 N",
		"longitude": "95-28-27.13 W",
		"state": "TEXAS",
		"artcc": "ZFW",
		"type": "RNAV",
		"updated": "06/28/2011",
	},
	{
		"name": "WUTOL",
		"latitude": "33-36-6.24 N",
		"longitude": "97-10-21.87 W",
		"state": "TEXAS",
		"artcc": "ZFW",
		"type": "RNAV",
		"updated": "05/22/2009",
	},
	{
		"name": "WUUKY",
		"latitude": "31-59-33.95 N",
		"longitude": "96-7-10.95 W",
		"state": "TEXAS",
		"artcc": "ZFW",
		"type": "RNAV",
		"updated": "09/13/2016",
	},
	{
		"name": "WUVNI",
		"latitude": "31-36-32.38 N",
		"longitude": "102-57-0.19 W",
		"state": "TEXAS",
		"artcc": "ZFW",
		"type": "RNAV",
		"updated": "12/15/2011",
	},
	{
		"name": "WUVUR",
		"latitude": "32-40-3.23 N",
		"longitude": "101-53-22.45 W",
		"state": "TEXAS",
		"artcc": "ZFW",
		"type": "RNAV",
		"updated": "02/02/2016",
	},
	{
		"name": "WUVUV",
		"latitude": "35-1-56.44 N",
		"longitude": "97-32-50.54 W",
		"state": "OKLAHOMA",
		"artcc": "ZFW",
		"type": "RNAV",
		"updated": "07/06/2012",
	},
	{
		"name": "WWILL",
		"latitude": "35-26-16.66 N",
		"longitude": "97-42-32.51 W",
		"state": "OKLAHOMA",
		"artcc": "ZFW",
		"type": "RNAV",
		"updated": "05/28/2014",
	},
	{
		"name": "WYATE",
		"latitude": "32-31-44.81 N",
		"longitude": "94-53-59.73 W",
		"state": "TEXAS",
		"artcc": "ZFW",
		"type": "RP",
		"updated": "GGG*VORTAC*304.88/10.00",
	},
