[
	{
		"name": "XAFLE",
		"latitude": "31-23-47.84 N",
		"longitude": "97-8-3.92 W",
		"state": "TEXAS",
		"artcc": "ZFW",
		"type": "RNAV",
		"updated": "05/16/2013"
	},
	{
		"name": "XEHPO",
		"latitude": "32-29-16.96 N",
		"longitude": "92-0-48.53 W",
		"state": "LOUISIANA",
		"artcc": "ZFW",
		"type": "RP",
		"updated": "03/29/2012"
	},
	{
		"name": "XETJO",
		"latitude": "35-16-55.5 N",
		"longitude": "96-37-27.23 W",
		"state": "OKLAHOMA",
		"artcc": "ZFW",
		"type": "RNAV",
		"updated": "04/23/2014"
	},
	{
		"name": "XEWHY",
		"latitude": "31-53-5.59 N",
		"longitude": "96-16-52.72 W",
		"state": "TEXAS",
		"artcc": "ZFW",
		"type": "RNAV",
		"updated": "08/02/2000"
	},
	{
		"name": "XOLSE",
		"latitude": "32-23-37.63 N",
		"longitude": "95-24-19.16 W",
		"state": "TEXAS",
		"artcc": "ZFW",
		"type": "RNAV",
		"updated": "08/17/2015"
	},
	{
		"name": "XOWNU",
		"latitude": "31-36-45.17 N",
		"longitude": "94-42-24.98 W",
		"state": "TEXAS",
		"artcc": "ZFW",
		"type": "RNAV",
		"updated": "04/04/2012"
	},
	{
		"name": "XPRES",
		"latitude": "32-48-50.44 N",
		"longitude": "97-2-20.5 W",
		"state": "TEXAS",
		"artcc": "ZFW",
		"type": "RNAV",
		"updated": "07/09/2014"
	},
	{
		"name": "XYLAN",
		"latitude": "35-6-34.33 N",
		"longitude": "97-28-7.96 W",
		"state": "OKLAHOMA",
		"artcc": "ZFW",
		"type": "RNAV",
		"updated": "05/20/2014"
	}
]
