[
	{
		"name": "YADUG",
		"latitude": "35-23-40.51 N",
		"longitude": "96-43-9.38 W",
		"state": "OKLAHOMA",
		"artcc": "ZFW",
		"type": "RNAV",
		"updated": "04/23/2014"
	},
	{
		"name": "YAHBT",
		"latitude": "33-16-27.48 N",
		"longitude": "96-50-24.97 W",
		"state": "TEXAS",
		"artcc": "ZFW",
		"type": "RNAV",
		"updated": "07/13/2014"
	},
	{
		"name": "YAKHU",
		"latitude": "32-55-48.06 N",
		"longitude": "96-57-17.33 W",
		"state": "TEXAS",
		"artcc": "ZFW",
		"type": "RP",
		"updated": "DPX*LD*312.62/8.22"
	},
	{
		"name": "YAKUC",
		"latitude": "32-30-1.87 N",
		"longitude": "92-16-18.21 W",
		"state": "LOUISIANA",
		"artcc": "ZFW",
		"type": "RP",
		"updated": "MLU*VORTAC*262.38/12.00"
	},
	{
		"name": "YALTA",
		"latitude": "33-2-27.47 N",
		"longitude": "97-1-45.15 W",
		"state": "TEXAS",
		"artcc": "ZFW",
		"type": "RP",
		"updated": "JHZ*LD*356.26/9.88"
	},
	{
		"name": "YALUT",
		"latitude": "32-28-17.82 N",
		"longitude": "101-30-40.8 W",
		"state": "TEXAS",
		"artcc": "ZFW",
		"type": "RP",
		"updated": "BGS*VORTAC*333.76/5.34"
	},
	{
		"name": "YAMEL",
		"latitude": "32-45-55.7 N",
		"longitude": "97-8-28.05 W",
		"state": "TEXAS",
		"artcc": "ZFW",
		"type": "RNAV",
		"updated": "07/27/2004"
	},
	{
		"name": "YAPCU",
		"latitude": "32-23-53.2 N",
		"longitude": "97-27-12.99 W",
		"state": "TEXAS",
		"artcc": "ZFW",
		"type": "RP",
		"updated": "CPT*LE*333.21/3.50"
	},
	{
		"name": "YAPON",
		"latitude": "35-35-4.88 N",
		"longitude": "97-53-17.97 W",
		"state": "OKLAHOMA",
		"artcc": "ZFW",
		"type": "RNAV",
		"updated": "05/20/2014"
	},
	{
		"name": "YARUG",
		"latitude": "32-27-15.78 N",
		"longitude": "99-38-30.36 W",
		"state": "TEXAS",
		"artcc": "ZFW",
		"type": "RNAV",
		"updated": "11/20/2008"
	},
	{
		"name": "YATUN",
		"latitude": "35-19-26.31 N",
		"longitude": "98-47-8.55 W",
		"state": "OKLAHOMA",
		"artcc": "ZFW",
		"type": "RNAV",
		"updated": "06/15/2011"
	},
	{
		"name": "YATYU",
		"latitude": "32-15-46.88 N",
		"longitude": "96-27-24.41 W",
		"state": "TEXAS",
		"artcc": "ZFW",
		"type": "RP",
		"updated": "CQY*VORTAC*284.92/13.00"
	},
	{
		"name": "YAYUC",
		"latitude": "31-34-16.15 N",
		"longitude": "97-14-22.37 W",
		"state": "TEXAS",
		"artcc": "ZFW",
		"type": "RNAV",
		"updated": "08/16/2010"
	},
	{
		"name": "YAYUN",
		"latitude": "33-26-10.68 N",
		"longitude": "96-31-50.02 W",
		"state": "TEXAS",
		"artcc": "ZFW",
		"type": "RNAV",
		"updated": "07/12/2013"
	},
	{
		"name": "YEAGR",
		"latitude": "32-33-43.76 N",
		"longitude": "96-19-54.28 W",
		"state": "TEXAS",
		"artcc": "ZFW",
		"type": "RP",
		"updated": "CVE*VOR/DME*118.00/35.00"
	},
	{
		"name": "YECLU",
		"latitude": "32-31-51.41 N",
		"longitude": "93-56-51.93 W",
		"state": "LOUISIANA",
		"artcc": "ZFW",
		"type": "RP",
		"updated": "EIC*VORTAC*198.91/16.00"
	},
	{
		"name": "YEDUB",
		"latitude": "32-40-29.83 N",
		"longitude": "96-31-54.22 W",
		"state": "TEXAS",
		"artcc": "ZFW",
		"type": "RP",
		"updated": "05/04/2015"
	},
	{
		"name": "YEDUC",
		"latitude": "33-6-12.07 N",
		"longitude": "95-54-24.61 W",
		"state": "TEXAS",
		"artcc": "ZFW",
		"type": "RNAV",
		"updated": "02/05/2013"
	},
	{
		"name": "YEEST",
		"latitude": "32-5-23.07 N",
		"longitude": "96-19-38.44 W",
		"state": "TEXAS",
		"artcc": "ZFW",
		"type": "RP",
		"updated": "CQY*VORTAC*218.11/8.00"
	},
	{
		"name": "YEKCA",
		"latitude": "32-58-1.47 N",
		"longitude": "99-9-51.66 W",
		"state": "TEXAS",
		"artcc": "ZFW",
		"type": "RNAV",
		"updated": "01/27/2014"
	},
	{
		"name": "YEPUV",
		"latitude": "34-18-23.36 N",
		"longitude": "99-13-21.99 W",
		"state": "TEXAS",
		"artcc": "ZFW",
		"type": "RNAV",
		"updated": "05/30/2010"
	},
	{
		"name": "YETKU",
		"latitude": "34-9-34.28 N",
		"longitude": "99-5-23.74 W",
		"state": "TEXAS",
		"artcc": "ZFW",
		"type": "RNAV",
		"updated": "08/18/2010"
	},
	{
		"name": "YETYU",
		"latitude": "32-28-43.11 N",
		"longitude": "98-36-16.42 W",
		"state": "TEXAS",
		"artcc": "ZFW",
		"type": "RNAV",
		"updated": "05/11/2011"
	},
	{
		"name": "YIBGU",
		"latitude": "33-29-41.41 N",
		"longitude": "102-4-36.89 W",
		"state": "TEXAS",
		"artcc": "ZFW",
		"type": "MR",
		"updated": "LBB*VORTAC*202.02/15.00"
	},
	{
		"name": "YIBUN",
		"latitude": "33-1-38.87 N",
		"longitude": "93-54-0.81 W",
		"state": "ARKANSAS",
		"artcc": "ZFW",
		"type": "RP",
		"updated": "EIC*VORTAC*336.46/16.00"
	},
	{
		"name": "YICUG",
		"latitude": "32-26-19.09 N",
		"longitude": "91-57-52.82 W",
		"state": "LOUISIANA",
		"artcc": "ZFW",
		"type": "RNAV",
		"updated": "03/29/2012"
	},
	{
		"name": "YIDNU",
		"latitude": "34-7-37.91 N",
		"longitude": "94-51-23.24 W",
		"state": "OKLAHOMA",
		"artcc": "ZFW",
		"type": "RNAV",
		"updated": "03/30/2004"
	},
	{
		"name": "YIGLU",
		"latitude": "32-33-16.24 N",
		"longitude": "91-46-10.89 W",
		"state": "LOUISIANA",
		"artcc": "ZFW",
		"type": "RNAV",
		"updated": "07/18/2013"
	},
	{
		"name": "YINCU",
		"latitude": "33-37-3.78 N",
		"longitude": "96-40-35.77 W",
		"state": "TEXAS",
		"artcc": "ZFW",
		"type": "RNAV",
		"updated": "04/09/2012"
	},
	{
		"name": "YIRUN",
		"latitude": "31-32-45.39 N",
		"longitude": "94-42-46.98 W",
		"state": "TEXAS",
		"artcc": "ZFW",
		"type": "RNAV",
		"updated": "04/04/2012"
	},
	{
		"name": "YISSU",
		"latitude": "32-26-35.47 N",
		"longitude": "96-49-39.81 W",
		"state": "TEXAS",
		"artcc": "ZFW",
		"type": "RNAV",
		"updated": "12/20/2011"
	},
	{
		"name": "YIXGA",
		"latitude": "35-38-35.45 N",
		"longitude": "98-43-48.19 W",
		"state": "OKLAHOMA",
		"artcc": "ZFW",
		"type": "RNAV",
		"updated": "02/09/2015"
	},
	{
		"name": "YIYUK",
		"latitude": "31-48-11.6 N",
		"longitude": "95-9-9.43 W",
		"state": "TEXAS",
		"artcc": "ZFW",
		"type": "RNAV",
		"updated": "06/04/2012"
	},
	{
		"name": "YOBUG",
		"latitude": "33-18-58.78 N",
		"longitude": "94-9-20.99 W",
		"state": "TEXAS",
		"artcc": "ZFW",
		"type": "RNAV",
		"updated": "06/08/2006"
	},
	{
		"name": "YODUN",
		"latitude": "32-49-36.14 N",
		"longitude": "96-43-15.39 W",
		"state": "TEXAS",
		"artcc": "ZFW",
		"type": "RNAV",
		"updated": "04/02/2007"
	},
	{
		"name": "YOGSU",
		"latitude": "31-57-9.53 N",
		"longitude": "102-38-32.95 W",
		"state": "TEXAS",
		"artcc": "ZFW",
		"type": "RP",
		"updated": "MAF*VORTAC*250.75/23.32"
	},
	{
		"name": "YOGVA",
		"latitude": "33-47-4.92 N",
		"longitude": "96-34-25.93 W",
		"state": "TEXAS",
		"artcc": "ZFW",
		"type": "RP",
		"updated": "BYP*VORTAC*305.12/22.56"
	},
	{
		"name": "YOHAN",
		"latitude": "33-8-45.93 N",
		"longitude": "97-3-12.42 W",
		"state": "TEXAS",
		"artcc": "ZFW",
		"type": "RP",
		"updated": "VYN*LD*356.25/16.17"
	},
	{
		"name": "YOKGU",
		"latitude": "33-14-53.65 N",
		"longitude": "102-47-45.38 W",
		"state": "TEXAS",
		"artcc": "ZFW",
		"type": "RNAV",
		"updated": "06/23/2013"
	},
	{
		"name": "YOPUL",
		"latitude": "35-28-22.66 N",
		"longitude": "96-37-54.07 W",
		"state": "OKLAHOMA",
		"artcc": "ZFW",
		"type": "RNAV",
		"updated": "09/09/2003"
	},
	{
		"name": "YOPUR",
		"latitude": "31-43-53.07 N",
		"longitude": "103-4-47.13 W",
		"state": "TEXAS",
		"artcc": "ZFW",
		"type": "RP",
		"updated": "INK*VORTAC*124.62/12.00"
	},
	{
		"name": "YOQEJ",
		"latitude": "35-8-12.5 N",
		"longitude": "97-58-9.19 W",
		"state": "OKLAHOMA",
		"artcc": "ZFW",
		"type": "RNAV",
		"updated": "10/03/2012"
	},
	{
		"name": "YORUD",
		"latitude": "35-17-3.11 N",
		"longitude": "97-54-8.86 W",
		"state": "OKLAHOMA",
		"artcc": "ZFW",
		"type": "RNAV",
		"updated": "02/04/2008"
	},
	{
		"name": "YOTCI",
		"latitude": "32-56-22.35 N",
		"longitude": "93-24-32.69 W",
		"state": "LOUISIANA",
		"artcc": "ZFW",
		"type": "RNAV",
		"updated": "07/05/2011"
	},
	{
		"name": "YOTUB",
		"latitude": "33-36-57.02 N",
		"longitude": "95-16-8.93 W",
		"state": "TEXAS",
		"artcc": "ZFW",
		"type": "RP",
		"updated": "PRX*VOR/DME*056.85/10.00"
	},
	{
		"name": "YOTUD",
		"latitude": "33-13-48.12 N",
		"longitude": "101-45-27.13 W",
		"state": "TEXAS",
		"artcc": "ZFW",
		"type": "RP",
		"updated": "LBB*VORTAC*153.52/29.51"
	},
	{
		"name": "YOUDO",
		"latitude": "32-28-52.25 N",
		"longitude": "102-44-40.18 W",
		"state": "TEXAS",
		"artcc": "ZFW",
		"type": "RNAV",
		"updated": "06/11/2010"
	},
	{
		"name": "YOUSE",
		"latitude": "35-23-7.45 N",
		"longitude": "99-10-33.6 W",
		"state": "OKLAHOMA",
		"artcc": "ZFW",
		"type": "RNAV",
		"updated": "05/28/2014"
	},
	{
		"name": "YOVUK",
		"latitude": "33-9-34.17 N",
		"longitude": "94-6-29 W",
		"state": "TEXAS",
		"artcc": "ZFW",
		"type": "RNAV",
		"updated": "01/04/2009"
	},
	{
		"name": "YOYUR",
		"latitude": "32-45-10.02 N",
		"longitude": "103-29-14.69 W",
		"state": "NEW MEXICO",
		"artcc": "ZFW",
		"type": "RP",
		"updated": "HOB*VORTAC*290.90/13.00"
	},
	{
		"name": "YUCKS",
		"latitude": "34-58-43.66 N",
		"longitude": "98-0-43.88 W",
		"state": "OKLAHOMA",
		"artcc": "ZFW",
		"type": "RNAV",
		"updated": "05/28/2014"
	},
	{
		"name": "YUDUV",
		"latitude": "33-50-5.46 N",
		"longitude": "101-14-27.21 W",
		"state": "TEXAS",
		"artcc": "ZFW",
		"type": "RNAV",
		"updated": "06/20/2011"
	},
	{
		"name": "YUGSU",
		"latitude": "35-12-38.24 N",
		"longitude": "97-29-55.07 W",
		"state": "OKLAHOMA",
		"artcc": "ZFW",
		"type": "RP",
		"updated": "IRW*VORTAC*141.47"
	},
	{
		"name": "YUGUY",
		"latitude": "35-38-5.51 N",
		"longitude": "98-40-7.45 W",
		"state": "OKLAHOMA",
		"artcc": "ZFW",
		"type": "RNAV",
		"updated": "07/09/2014"
	},
	{
		"name": "YUKKY",
		"latitude": "35-6-8.36 N",
		"longitude": "97-29-25.37 W",
		"state": "OKLAHOMA",
		"artcc": "ZFW",
		"type": "RP",
		"updated": "IRW*VORTAC*152.13/16.43"
	},
	{
		"name": "YULAR",
		"latitude": "31-27-0 N",
		"longitude": "97-50-0 W",
		"state": "TEXAS",
		"artcc": "ZFW",
		"type": "RNAV",
		"updated": "08/12/2005"
	},
	{
		"name": "YUNGG",
		"latitude": "33-8-46.39 N",
		"longitude": "97-0-47.66 W",
		"state": "TEXAS",
		"artcc": "ZFW",
		"type": "RNAV",
		"updated": "07/09/2014"
	},
	{
		"name": "YUPRU",
		"latitude": "32-49-43.61 N",
		"longitude": "97-1-35.23 W",
		"state": "TEXAS",
		"artcc": "ZFW",
		"type": "RP",
		"updated": "TTT*VOR/DME*157.63/2.52"
	},
	{
		"name": "YUPUC",
		"latitude": "32-33-16.05 N",
		"longitude": "101-51-16.7 W",
		"state": "TEXAS",
		"artcc": "ZFW",
		"type": "RNAV",
		"updated": "11/02/2011"
	},
	{
		"name": "YUSUD",
		"latitude": "32-19-0.39 N",
		"longitude": "97-25-1.93 W",
		"state": "TEXAS",
		"artcc": "ZFW",
		"type": "RNAV",
		"updated": "04/24/2013"
	},
	{
		"name": "YUVCI",
		"latitude": "35-32-40.13 N",
		"longitude": "97-47-12.59 W",
		"state": "OKLAHOMA",
		"artcc": "ZFW",
		"type": "RNAV",
		"updated": "07/06/2011"
	},
	{
		"name": "YUYUN",
		"latitude": "32-27-5.31 N",
		"longitude": "92-54-47.14 W",
		"state": "LOUISIANA",
		"artcc": "ZFW",
		"type": "RNAV",
		"updated": "05/04/2015"
	}
]
