[
	{
		"name": "ZABET",
		"latitude": "32-26-52.55 N",
		"longitude": "99-51-38.62 W",
		"state": "TEXAS",
		"artcc": "ZFW",
		"type": "MR",
		"updated": "TQA*VOR/DME*340.04/12.90"
	},
	{
		"name": "ZABVA",
		"latitude": "32-21-26.75 N",
		"longitude": "97-27-56.1 W",
		"state": "TEXAS",
		"artcc": "ZFW",
		"type": "RNAV",
		"updated": "04/04/2012"
	},
	{
		"name": "ZACHH",
		"latitude": "33-42-50.88 N",
		"longitude": "94-14-56.02 W",
		"state": "ARKANSAS",
		"artcc": "ZFW",
		"type": "RNAV",
		"updated": "07/09/2014"
	},
	{
		"name": "ZAGDO",
		"latitude": "33-15-13.67 N",
		"longitude": "102-8-45.22 W",
		"state": "TEXAS",
		"artcc": "ZFW",
		"type": "RNAV",
		"updated": "02/13/2018"
	},
	{
		"name": "ZAGLO",
		"latitude": "33-11-1.93 N",
		"longitude": "93-13-6.94 W",
		"state": "ARKANSAS",
		"artcc": "ZFW",
		"type": "RNAV",
		"updated": "07/14/2008"
	},
	{
		"name": "ZAGOD",
		"latitude": "34-53-55.22 N",
		"longitude": "97-19-25.28 W",
		"state": "OKLAHOMA",
		"artcc": "ZFW",
		"type": "RNAV",
		"updated": "04/07/2010"
	},
	{
		"name": "ZALEA",
		"latitude": "32-12-45.5 N",
		"longitude": "93-28-35.29 W",
		"state": "LOUISIANA",
		"artcc": "ZFW",
		"type": "RNAV",
		"updated": "07/09/2014"
	},
	{
		"name": "ZALIR",
		"latitude": "31-45-10.08 N",
		"longitude": "98-35-40.74 W",
		"state": "TEXAS",
		"artcc": "ZFW",
		"type": "RNAV",
		"updated": "10/22/2014"
	},
	{
		"name": "ZALRO",
		"latitude": "35-33-40.2 N",
		"longitude": "98-0-15.72 W",
		"state": "OKLAHOMA",
		"artcc": "ZFW",
		"type": "RNAV",
		"updated": "02/04/2008"
	},
	{
		"name": "ZALUN",
		"latitude": "34-25-41.32 N",
		"longitude": "97-15-1.76 W",
		"state": "OKLAHOMA",
		"artcc": "ZFW",
		"type": "RP",
		"updated": "ADM*VORTAC*336.53/13.60"
	},
	{
		"name": "ZALUS",
		"latitude": "31-58-3.6 N",
		"longitude": "95-55-32 W",
		"state": "TEXAS",
		"artcc": "ZFW",
		"type": "RNAV",
		"updated": "04/07/2010"
	},
	{
		"name": "ZAMVI",
		"latitude": "32-3-32.84 N",
		"longitude": "96-25-26.39 W",
		"state": "TEXAS",
		"artcc": "ZFW",
		"type": "RNAV",
		"updated": "02/10/2011"
	},
	{
		"name": "ZANAR",
		"latitude": "32-18-17.49 N",
		"longitude": "97-39-44.95 W",
		"state": "TEXAS",
		"artcc": "ZFW",
		"type": "RNAV",
		"updated": "08/06/2013"
	},
	{
		"name": "ZANBA",
		"latitude": "32-36-9.32 N",
		"longitude": "100-56-58.21 W",
		"state": "TEXAS",
		"artcc": "ZFW",
		"type": "RNAV",
		"updated": "09/19/2012"
	},
	{
		"name": "ZANGU",
		"latitude": "32-36-39.28 N",
		"longitude": "99-33-49.55 W",
		"state": "TEXAS",
		"artcc": "ZFW",
		"type": "RNAV",
		"updated": "11/20/2008"
	},
	{
		"name": "ZANNE",
		"latitude": "31-31-30.76 N",
		"longitude": "98-56-55.34 W",
		"state": "TEXAS",
		"artcc": "ZFW",
		"type": "RP",
		"updated": "BWD*VOR/DME*170.83/22.00"
	},
	{
		"name": "ZANTO",
		"latitude": "33-59-43.6 N",
		"longitude": "99-28-16.56 W",
		"state": "TEXAS",
		"artcc": "ZFW",
		"type": "RP",
		"updated": "GTH*VORTAC*063.00/45.12"
	},
	{
		"name": "ZAPKI",
		"latitude": "32-31-29.96 N",
		"longitude": "93-40-38.84 W",
		"state": "LOUISIANA",
		"artcc": "ZFW",
		"type": "MR",
		"updated": "BAD*TACAN*328.06/1.40"
	},
	{
		"name": "ZAPNA",
		"latitude": "33-4-12.54 N",
		"longitude": "102-58-30.65 W",
		"state": "TEXAS",
		"artcc": "ZFW",
		"type": "RNAV",
		"updated": "06/23/2013"
	},
	{
		"name": "ZAPOR",
		"latitude": "32-30-45.08 N",
		"longitude": "91-46-16.72 W",
		"state": "LOUISIANA",
		"artcc": "ZFW",
		"type": "RNAV",
		"updated": "07/18/2013"
	},
	{
		"name": "ZAPTA",
		"latitude": "34-33-51.35 N",
		"longitude": "99-15-34.03 W",
		"state": "OKLAHOMA",
		"artcc": "ZFW",
		"type": "RNAV",
		"updated": "12/14/2017"
	},
	{
		"name": "ZAPUP",
		"latitude": "32-20-4.27 N",
		"longitude": "99-50-11.94 W",
		"state": "TEXAS",
		"artcc": "ZFW",
		"type": "MR",
		"updated": "TQA*VOR/DME*340.31/6.00"
	},
	{
		"name": "ZARDU",
		"latitude": "32-17-4.45 N",
		"longitude": "101-18-43.79 W",
		"state": "TEXAS",
		"artcc": "ZFW",
		"type": "RNAV",
		"updated": "05/06/2013"
	},
	{
		"name": "ZARMU",
		"latitude": "35-32-34.9 N",
		"longitude": "98-43-46.26 W",
		"state": "OKLAHOMA",
		"artcc": "ZFW",
		"type": "RNAV",
		"updated": "02/09/2015"
	},
	{
		"name": "ZAROV",
		"latitude": "32-7-9.74 N",
		"longitude": "97-51-11.95 W",
		"state": "TEXAS",
		"artcc": "ZFW",
		"type": "RNAV",
		"updated": "02/22/2017"
	},
	{
		"name": "ZAROX",
		"latitude": "32-21-10.25 N",
		"longitude": "91-54-0.9 W",
		"state": "LOUISIANA",
		"artcc": "ZFW",
		"type": "RP",
		"updated": "MLU*VORTAC*141.90/12.00"
	},
	{
		"name": "ZASPA",
		"latitude": "35-12-36.91 N",
		"longitude": "100-2-8.16 W",
		"state": "TEXAS",
		"artcc": "ZFW",
		"type": "RNAV",
		"updated": "07/13/2017"
	},
	{
		"name": "ZASTU",
		"latitude": "32-30-16.47 N",
		"longitude": "92-2-48.48 W",
		"state": "LOUISIANA",
		"artcc": "ZFW",
		"type": "RP",
		"updated": "MLU*VORTAC*213.61/0.92"
	},
	{
		"name": "ZATIL",
		"latitude": "33-24-31.38 N",
		"longitude": "101-24-25.25 W",
		"state": "TEXAS",
		"artcc": "ZFW",
		"type": "RNAV",
		"updated": "06/20/2011"
	},
	{
		"name": "ZAVTI",
		"latitude": "32-42-0.32 N",
		"longitude": "103-12-1.38 W",
		"state": "NEW MEXICO",
		"artcc": "ZFW",
		"type": "RP",
		"updated": "HOB*VORTAC*/5.09"
	},
	{
		"name": "ZEBAV",
		"latitude": "33-4-23.49 N",
		"longitude": "97-30-5.12 W",
		"state": "TEXAS",
		"artcc": "ZFW",
		"type": "RNAV",
		"updated": "11/25/2016"
	},
	{
		"name": "ZEBIB",
		"latitude": "32-14-39.05 N",
		"longitude": "102-10-4.09 W",
		"state": "TEXAS",
		"artcc": "ZFW",
		"type": "RNAV",
		"updated": "06/01/2012"
	},
	{
		"name": "ZEBOB",
		"latitude": "34-1-28.22 N",
		"longitude": "94-37-56.92 W",
		"state": "OKLAHOMA",
		"artcc": "ZFW",
		"type": "RNAV",
		"updated": "09/27/2004"
	},
	{
		"name": "ZEBUN",
		"latitude": "32-20-10.45 N",
		"longitude": "98-22-38.36 W",
		"state": "TEXAS",
		"artcc": "ZFW",
		"type": "RNAV",
		"updated": "08/23/2005"
	},
	{
		"name": "ZEDAX",
		"latitude": "33-22-4.13 N",
		"longitude": "97-49-24.93 W",
		"state": "TEXAS",
		"artcc": "ZFW",
		"type": "RNAV",
		"updated": "11/24/2009"
	},
	{
		"name": "ZEEWE",
		"latitude": "35-33-43.78 N",
		"longitude": "99-9-16.15 W",
		"state": "OKLAHOMA",
		"artcc": "ZFW",
		"type": "RNAV",
		"updated": "05/28/2014"
	},
	{
		"name": "ZEGBO",
		"latitude": "32-46-48.21 N",
		"longitude": "102-54-6.65 W",
		"state": "TEXAS",
		"artcc": "ZFW",
		"type": "RNAV",
		"updated": "09/11/2014"
	},
	{
		"name": "ZEGRA",
		"latitude": "33-44-32.84 N",
		"longitude": "96-23-46.96 W",
		"state": "OKLAHOMA",
		"artcc": "ZFW",
		"type": "RNAV",
		"updated": "05/16/2010"
	},
	{
		"name": "ZEGUM",
		"latitude": "33-54-37.68 N",
		"longitude": "98-27-17.47 W",
		"state": "TEXAS",
		"artcc": "ZFW",
		"type": "MW",
		"updated": "08/24/2011"
	},
	{
		"name": "ZEKKE",
		"latitude": "32-30-34.68 N",
		"longitude": "95-40-40.79 W",
		"state": "TEXAS",
		"artcc": "ZFW",
		"type": "RNAV",
		"updated": "09/13/2016"
	},
	{
		"name": "ZEKLA",
		"latitude": "32-38-3.91 N",
		"longitude": "96-44-40.4 W",
		"state": "TEXAS",
		"artcc": "ZFW",
		"type": "RNAV",
		"updated": "09/03/2010"
	},
	{
		"name": "ZEKSO",
		"latitude": "33-50-5.14 N",
		"longitude": "101-4-25.77 W",
		"state": "TEXAS",
		"artcc": "ZFW",
		"type": "RNAV",
		"updated": "06/20/2011"
	},
	{
		"name": "ZEKUL",
		"latitude": "33-9-17.56 N",
		"longitude": "98-30-40.45 W",
		"state": "TEXAS",
		"artcc": "ZFW",
		"type": "RNAV",
		"updated": "02/06/2008"
	},
	{
		"name": "ZEKVI",
		"latitude": "32-34-8.76 N",
		"longitude": "96-25-18.92 W",
		"state": "TEXAS",
		"artcc": "ZFW",
		"type": "RNAV",
		"updated": "10/20/2005"
	},
	{
		"name": "ZELEB",
		"latitude": "33-49-10.75 N",
		"longitude": "93-27-59.02 W",
		"state": "ARKANSAS",
		"artcc": "ZFW",
		"type": "RP",
		"updated": "TXK*VORTAC*051.76/35.48"
	},
	{
		"name": "ZELNU",
		"latitude": "35-39-58.54 N",
		"longitude": "98-18-6.96 W",
		"state": "OKLAHOMA",
		"artcc": "ZFW",
		"type": "RP",
		"updated": "IRW*VORTAC*291.71"
	},
	{
		"name": "ZELOM",
		"latitude": "34-10-30.87 N",
		"longitude": "100-25-41.64 W",
		"state": "TEXAS",
		"artcc": "ZFW",
		"type": "RNAV",
		"updated": "03/26/2013"
	},
	{
		"name": "ZEMMA",
		"latitude": "34-23-1.81 N",
		"longitude": "96-59-24.01 W",
		"state": "OKLAHOMA",
		"artcc": "ZFW",
		"type": "RP",
		"updated": "FUZ*VORTAC*360.00/90.00"
	},
	{
		"name": "ZENIR",
		"latitude": "35-3-21.67 N",
		"longitude": "97-58-9.12 W",
		"state": "OKLAHOMA",
		"artcc": "ZFW",
		"type": "RNAV",
		"updated": "10/03/2012"
	},
	{
		"name": "ZENKI",
		"latitude": "33-50-32.55 N",
		"longitude": "98-25-23.26 W",
		"state": "TEXAS",
		"artcc": "ZFW",
		"type": "MR",
		"updated": "SHP*TACAN*154.00/9.00"
	},
	{
		"name": "ZENOD",
		"latitude": "32-36-11 N",
		"longitude": "95-2-17.6 W",
		"state": "TEXAS",
		"artcc": "ZFW",
		"type": "RNAV",
		"updated": "03/07/2011"
	},
	{
		"name": "ZEPEX",
		"latitude": "33-25-17.82 N",
		"longitude": "93-12-35.41 W",
		"state": "ARKANSAS",
		"artcc": "ZFW",
		"type": "RNAV",
		"updated": "07/26/2004"
	},
	{
		"name": "ZEPRO",
		"latitude": "35-37-27.7 N",
		"longitude": "98-56-1.15 W",
		"state": "OKLAHOMA",
		"artcc": "ZFW",
		"type": "RNAV",
		"updated": "06/15/2011"
	},
	{
		"name": "ZERAL",
		"latitude": "33-53-11.78 N",
		"longitude": "95-32-29.95 W",
		"state": "OKLAHOMA",
		"artcc": "ZFW",
		"type": "RNAV",
		"updated": "10/05/2016"
	},
	{
		"name": "ZERIP",
		"latitude": "32-49-14.69 N",
		"longitude": "97-26-27.5 W",
		"state": "TEXAS",
		"artcc": "ZFW",
		"type": "MW",
		"updated": "08/07/2014"
	},
	{
		"name": "ZERIT",
		"latitude": "33-37-24.19 N",
		"longitude": "96-34-58.6 W",
		"state": "TEXAS",
		"artcc": "ZFW",
		"type": "RP",
		"updated": "BYP*VORTAC*280.49/18.23"
	},
	{
		"name": "ZERLU",
		"latitude": "32-59-53.11 N",
		"longitude": "96-19-58.89 W",
		"state": "TEXAS",
		"artcc": "ZFW",
		"type": "RNAV",
		"updated": "07/09/2014"
	},
	{
		"name": "ZEROK",
		"latitude": "35-30-10.25 N",
		"longitude": "97-38-57.1 W",
		"state": "OKLAHOMA",
		"artcc": "ZFW",
		"type": "RNAV",
		"updated": "08/03/2015"
	},
	{
		"name": "ZERUK",
		"latitude": "32-17-9.28 N",
		"longitude": "97-49-50.83 W",
		"state": "TEXAS",
		"artcc": "ZFW",
		"type": "RNAV",
		"updated": "02/22/2017"
	},
	{
		"name": "ZESTU",
		"latitude": "33-10-39.53 N",
		"longitude": "93-24-34.47 W",
		"state": "ARKANSAS",
		"artcc": "ZFW",
		"type": "RNAV",
		"updated": "07/05/2011"
	},
	{
		"name": "ZESWE",
		"latitude": "35-29-42.53 N",
		"longitude": "96-0-56.37 W",
		"state": "OKLAHOMA",
		"artcc": "ZFW",
		"type": "RNAV",
		"updated": "05/15/2003"
	},
	{
		"name": "ZETEG",
		"latitude": "32-40-23.11 N",
		"longitude": "92-11-3.53 W",
		"state": "LOUISIANA",
		"artcc": "ZFW",
		"type": "RP",
		"updated": "MLU*VORTAC*318.25/12.00"
	},
	{
		"name": "ZEVEB",
		"latitude": "32-18-46.42 N",
		"longitude": "94-4-19.29 W",
		"state": "TEXAS",
		"artcc": "ZFW",
		"type": "RP",
		"updated": "EIC*VORTAC*198.91/30.50"
	},
	{
		"name": "ZEXIX",
		"latitude": "34-42-43.52 N",
		"longitude": "99-15-34.49 W",
		"state": "OKLAHOMA",
		"artcc": "ZFW",
		"type": "MR",
		"updated": "LTS*VORTAC*/3.00"
	},
	{
		"name": "ZEXON",
		"latitude": "32-22-13.72 N",
		"longitude": "97-13-55.79 W",
		"state": "TEXAS",
		"artcc": "ZFW",
		"type": "RNAV",
		"updated": "12/20/2011"
	},
	{
		"name": "ZIBOG",
		"latitude": "31-49-57.89 N",
		"longitude": "94-55-36.19 W",
		"state": "TEXAS",
		"artcc": "ZFW",
		"type": "RNAV",
		"updated": "06/04/2012"
	},
	{
		"name": "ZIHMY",
		"latitude": "31-59-20.99 N",
		"longitude": "98-51-34.35 W",
		"state": "TEXAS",
		"artcc": "ZFW",
		"type": "RNAV",
		"updated": "06/29/2005"
	},
	{
		"name": "ZIKEK",
		"latitude": "32-29-2.53 N",
		"longitude": "101-56-19.58 W",
		"state": "TEXAS",
		"artcc": "ZFW",
		"type": "RNAV",
		"updated": "11/02/2011"
	},
	{
		"name": "ZILVA",
		"latitude": "33-11-46.45 N",
		"longitude": "95-36-49.59 W",
		"state": "TEXAS",
		"artcc": "ZFW",
		"type": "RNAV",
		"updated": "06/28/2011"
	},
	{
		"name": "ZIMAS",
		"latitude": "33-54-23.07 N",
		"longitude": "98-26-48.98 W",
		"state": "TEXAS",
		"artcc": "ZFW",
		"type": "MR",
		"updated": "SHP*TACAN*151.00/5.00"
	},
	{
		"name": "ZIMOP",
		"latitude": "32-37-44.55 N",
		"longitude": "97-5-44.36 W",
		"state": "TEXAS",
		"artcc": "ZFW",
		"type": "RP",
		"updated": "TTT*VOR/DME*185.00/14.65"
	},
	{
		"name": "ZIMTI",
		"latitude": "32-14-22.87 N",
		"longitude": "93-29-25.27 W",
		"state": "LOUISIANA",
		"artcc": "ZFW",
		"type": "MR",
		"updated": "EMG*VORTAC*144.00/11.00"
	},
	{
		"name": "ZINGG",
		"latitude": "33-2-27.42 N",
		"longitude": "97-1-31.06 W",
		"state": "TEXAS",
		"artcc": "ZFW",
		"type": "RP",
		"updated": "FLQ*LD*356.26/9.87"
	},
	{
		"name": "ZINOL",
		"latitude": "35-25-52.31 N",
		"longitude": "96-49-45.12 W",
		"state": "OKLAHOMA",
		"artcc": "ZFW",
		"type": "RNAV",
		"updated": "09/09/2003"
	},
	{
		"name": "ZIPKA",
		"latitude": "32-39-26.47 N",
		"longitude": "97-8-1.21 W",
		"state": "TEXAS",
		"artcc": "ZFW",
		"type": "RNAV",
		"updated": "09/03/2010"
	},
	{
		"name": "ZIPOX",
		"latitude": "32-38-47.78 N",
		"longitude": "94-56-56.87 W",
		"state": "TEXAS",
		"artcc": "ZFW",
		"type": "RNAV",
		"updated": "07/29/2013"
	},
	{
		"name": "ZIPSO",
		"latitude": "31-21-57 N",
		"longitude": "96-28-21 W",
		"state": "TEXAS",
		"artcc": "ZFW",
		"type": "RNAV",
		"updated": "08/12/2005"
	},
	{
		"name": "ZIPUP",
		"latitude": "33-47-3.64 N",
		"longitude": "98-22-54.96 W",
		"state": "TEXAS",
		"artcc": "ZFW",
		"type": "MR",
		"updated": "SHP*TACAN*151.00/13.00"
	},
	{
		"name": "ZIRIN",
		"latitude": "33-44-15.58 N",
		"longitude": "101-49-45.9 W",
		"state": "TEXAS",
		"artcc": "ZFW",
		"type": "RNAV",
		"updated": "08/17/2010"
	},
	{
		"name": "ZIRNA",
		"latitude": "32-30-43.49 N",
		"longitude": "94-56-59.46 W",
		"state": "TEXAS",
		"artcc": "ZFW",
		"type": "RNAV",
		"updated": "07/29/2013"
	},
	{
		"name": "ZIROX",
		"latitude": "33-15-44.86 N",
		"longitude": "93-53-56.24 W",
		"state": "ARKANSAS",
		"artcc": "ZFW",
		"type": "RNAV",
		"updated": "06/08/2006"
	},
	{
		"name": "ZIRVI",
		"latitude": "31-44-41.25 N",
		"longitude": "97-4-42.52 W",
		"state": "TEXAS",
		"artcc": "ZFW",
		"type": "RP",
		"updated": "ACT*VORTAC*054.10"
	},
	{
		"name": "ZITAB",
		"latitude": "32-25-50.67 N",
		"longitude": "94-43-3.4 W",
		"state": "TEXAS",
		"artcc": "ZFW",
		"type": "RNAV",
		"updated": "06/11/2012"
	},
	{
		"name": "ZITAG",
		"latitude": "33-20-12.97 N",
		"longitude": "97-11-41.81 W",
		"state": "TEXAS",
		"artcc": "ZFW",
		"type": "RNAV",
		"updated": "12/30/2010"
	},
	{
		"name": "ZITGI",
		"latitude": "31-33-56.84 N",
		"longitude": "94-42-40.4 W",
		"state": "TEXAS",
		"artcc": "ZFW",
		"type": "RP",
		"updated": "11/26/2013"
	},
	{
		"name": "ZIVEK",
		"latitude": "33-46-30.42 N",
		"longitude": "98-24-42.04 W",
		"state": "TEXAS",
		"artcc": "ZFW",
		"type": "MR",
		"updated": "SHP*TACAN*158.00/13.00"
	},
	{
		"name": "ZIVGU",
		"latitude": "32-7-45.3 N",
		"longitude": "101-44-24.36 W",
		"state": "TEXAS",
		"artcc": "ZFW",
		"type": "RNAV",
		"updated": "05/06/2013"
	},
	{
		"name": "ZIVLU",
		"latitude": "34-49-11.93 N",
		"longitude": "96-40-19.12 W",
		"state": "OKLAHOMA",
		"artcc": "ZFW",
		"type": "RP",
		"updated": "ADH*VOR/DME*348.88/1.05"
	},
	{
		"name": "ZIVRA",
		"latitude": "34-0-49.88 N",
		"longitude": "98-30-7.32 W",
		"state": "TEXAS",
		"artcc": "ZFW",
		"type": "MR",
		"updated": "SHP*TACAN*333.99/2.00"
	},
	{
		"name": "ZIYCO",
		"latitude": "32-35-23.99 N",
		"longitude": "95-14-24.59 W",
		"state": "TEXAS",
		"artcc": "ZFW",
		"type": "RNAV",
		"updated": "07/30/2012"
	},
	{
		"name": "ZMMAN",
		"latitude": "33-16-19.17 N",
		"longitude": "97-27-35.66 W",
		"state": "TEXAS",
		"artcc": "ZFW",
		"type": "RNAV",
		"updated": "05/13/2015"
	},
	{
		"name": "ZOBKO",
		"latitude": "32-27-23.6 N",
		"longitude": "94-54-23.16 W",
		"state": "TEXAS",
		"artcc": "ZFW",
		"type": "RNAV",
		"updated": "03/28/2011"
	},
	{
		"name": "ZOBTA",
		"latitude": "32-1-30.93 N",
		"longitude": "92-43-47.98 W",
		"state": "LOUISIANA",
		"artcc": "ZFW",
		"type": "RNAV",
		"updated": "03/30/2012"
	},
	{
		"name": "ZOBUL",
		"latitude": "31-27-58.94 N",
		"longitude": "102-43-40.11 W",
		"state": "TEXAS",
		"artcc": "ZFW",
		"type": "RNAV",
		"updated": "12/15/2011"
	},
	{
		"name": "ZOCKS",
		"latitude": "34-39-45.67 N",
		"longitude": "99-30-49.04 W",
		"state": "OKLAHOMA",
		"artcc": "ZFW",
		"type": "MR",
		"updated": "LTS*VORTAC*265.00/12.00"
	},
	{
		"name": "ZODEN",
		"latitude": "31-26-46.15 N",
		"longitude": "100-29-9.36 W",
		"state": "TEXAS",
		"artcc": "ZFW",
		"type": "RNAV",
		"updated": "08/07/2006"
	},
	{
		"name": "ZODOS",
		"latitude": "34-12-27.74 N",
		"longitude": "98-37-11.29 W",
		"state": "OKLAHOMA",
		"artcc": "ZFW",
		"type": "MR",
		"updated": "SHP*TACAN*324.00/15.00"
	},
	{
		"name": "ZOKTO",
		"latitude": "33-42-40.84 N",
		"longitude": "96-36-43.24 W",
		"state": "TEXAS",
		"artcc": "ZFW",
		"type": "RNAV",
		"updated": "07/12/2013"
	},
	{
		"name": "ZOLAT",
		"latitude": "32-30-24.29 N",
		"longitude": "92-1-46.22 W",
		"state": "LOUISIANA",
		"artcc": "ZFW",
		"type": "RP",
		"updated": "MLU*VORTAC*148.47/0.69"
	},
	{
		"name": "ZOLBI",
		"latitude": "32-10-23.52 N",
		"longitude": "99-47-50.11 W",
		"state": "TEXAS",
		"artcc": "ZFW",
		"type": "MR",
		"updated": "DYS*TACAN*/15.00"
	},
	{
		"name": "ZOLEB",
		"latitude": "33-57-50.43 N",
		"longitude": "98-28-44.6 W",
		"state": "TEXAS",
		"artcc": "ZFW",
		"type": "MR",
		"updated": "SHP*TACAN*154.00/1.20"
	},
	{
		"name": "ZOLES",
		"latitude": "33-57-50.31 N",
		"longitude": "98-28-44.57 W",
		"state": "TEXAS",
		"artcc": "ZFW",
		"type": "MR",
		"updated": "SHP*TACAN*149.00/1.20"
	},
	{
		"name": "ZOLIB",
		"latitude": "35-26-29.46 N",
		"longitude": "97-22-47.26 W",
		"state": "OKLAHOMA",
		"artcc": "ZFW",
		"type": "MR",
		"updated": "TIK*TACAN*356.00/0.30"
	},
	{
		"name": "ZOLOM",
		"latitude": "32-16-2.12 N",
		"longitude": "97-23-42.26 W",
		"state": "TEXAS",
		"artcc": "ZFW",
		"type": "RNAV",
		"updated": "04/24/2013"
	},
	{
		"name": "ZOMEG",
		"latitude": "33-22-32.41 N",
		"longitude": "95-26-13.11 W",
		"state": "TEXAS",
		"artcc": "ZFW",
		"type": "RP",
		"updated": "PRX*VOR/DME*169.74/10.00"
	},
	{
		"name": "ZOMLO",
		"latitude": "33-14-42.4 N",
		"longitude": "97-11-49.19 W",
		"state": "TEXAS",
		"artcc": "ZFW",
		"type": "RNAV",
		"updated": "12/30/2010"
	},
	{
		"name": "ZONAP",
		"latitude": "32-19-47.69 N",
		"longitude": "95-22-5.86 W",
		"state": "TEXAS",
		"artcc": "ZFW",
		"type": "RP",
		"updated": "TYR*VOR/DME*124.99/2.37"
	},
	{
		"name": "ZONLO",
		"latitude": "33-58-44.17 N",
		"longitude": "101-49-30.51 W",
		"state": "TEXAS",
		"artcc": "ZFW",
		"type": "RP",
		"updated": "LBB*VORTAC*004.12/17.00"
	},
	{
		"name": "ZONTO",
		"latitude": "32-33-47.23 N",
		"longitude": "96-13-21.13 W",
		"state": "TEXAS",
		"artcc": "ZFW",
		"type": "RP",
		"updated": "BYP*VORTAC*173.42/58.35"
	},
	{
		"name": "ZOOOO",
		"latitude": "32-45-43.91 N",
		"longitude": "98-32-57.36 W",
		"state": "TEXAS",
		"artcc": "ZFW",
		"type": "RNAV",
		"updated": "12/20/2009"
	},
	{
		"name": "ZOPNI",
		"latitude": "33-4-44.69 N",
		"longitude": "102-1-2.27 W",
		"state": "TEXAS",
		"artcc": "ZFW",
		"type": "RP",
		"updated": "LBB*VORTAC*176.91/37.84"
	},
	{
		"name": "ZOPOS",
		"latitude": "31-46-13.12 N",
		"longitude": "99-58-35.39 W",
		"state": "TEXAS",
		"artcc": "ZFW",
		"type": "RNAV",
		"updated": "11/29/2012"
	},
	{
		"name": "ZOPRO",
		"latitude": "35-21-20.37 N",
		"longitude": "97-36-20.44 W",
		"state": "OKLAHOMA",
		"artcc": "ZFW",
		"type": "RP",
		"updated": "LIK*LD*355.96/1.17"
	},
	{
		"name": "ZOPUN",
		"latitude": "33-34-6.48 N",
		"longitude": "101-31-40.32 W",
		"state": "TEXAS",
		"artcc": "ZFW",
		"type": "RP",
		"updated": "LBB*VORTAC*101.80/21.00"
	},
	{
		"name": "ZORDA",
		"latitude": "33-46-52.23 N",
		"longitude": "98-29-24.48 W",
		"state": "TEXAS",
		"artcc": "ZFW",
		"type": "RNAV",
		"updated": "03/08/2016"
	},
	{
		"name": "ZORLA",
		"latitude": "35-51-36.73 N",
		"longitude": "95-50-24.81 W",
		"state": "OKLAHOMA",
		"artcc": "ZFW",
		"type": "RP",
		"updated": "OKM*VOR/DME*359.15/10.09"
	},
	{
		"name": "ZORNO",
		"latitude": "32-45-18.04 N",
		"longitude": "96-44-18.77 W",
		"state": "TEXAS",
		"artcc": "ZFW",
		"type": "RNAV",
		"updated": "07/13/2014"
	},
	{
		"name": "ZOROD",
		"latitude": "32-43-3.95 N",
		"longitude": "93-55-8.42 W",
		"state": "LOUISIANA",
		"artcc": "ZFW",
		"type": "RNAV",
		"updated": "12/30/2005"
	},
	{
		"name": "ZOSKU",
		"latitude": "32-11-11.49 N",
		"longitude": "98-28-55.73 W",
		"state": "TEXAS",
		"artcc": "ZFW",
		"type": "RP",
		"updated": "JEN*VORTAC*267.16/30.83"
	},
	{
		"name": "ZOSOM",
		"latitude": "31-46-48.94 N",
		"longitude": "93-6-39.24 W",
		"state": "LOUISIANA",
		"artcc": "ZFW",
		"type": "RNAV",
		"updated": "04/20/2012"
	},
	{
		"name": "ZOVOC",
		"latitude": "33-28-23.35 N",
		"longitude": "101-49-39.35 W",
		"state": "TEXAS",
		"artcc": "ZFW",
		"type": "RNAV",
		"updated": "07/25/2005"
	},
	{
		"name": "ZOVUG",
		"latitude": "32-18-58.57 N",
		"longitude": "96-37-20.13 W",
		"state": "TEXAS",
		"artcc": "ZFW",
		"type": "RP",
		"updated": "CQY*VORTAC*284.92/22.00"
	},
	{
		"name": "ZUBAG",
		"latitude": "33-28-9.54 N",
		"longitude": "102-44-22.12 W",
		"state": "TEXAS",
		"artcc": "ZFW",
		"type": "RNAV",
		"updated": "06/23/2013"
	},
	{
		"name": "ZUBDO",
		"latitude": "34-8-43.52 N",
		"longitude": "99-20-36.42 W",
		"state": "TEXAS",
		"artcc": "ZFW",
		"type": "RNAV",
		"updated": "05/30/2010"
	},
	{
		"name": "ZUBOV",
		"latitude": "33-30-48.71 N",
		"longitude": "97-54-4.88 W",
		"state": "TEXAS",
		"artcc": "ZFW",
		"type": "RNAV",
		"updated": "07/09/2014"
	},
	{
		"name": "ZUBUM",
		"latitude": "33-39-43.9 N",
		"longitude": "102-31-37.84 W",
		"state": "TEXAS",
		"artcc": "ZFW",
		"type": "RNAV",
		"updated": "05/21/2013"
	},
	{
		"name": "ZUBVA",
		"latitude": "31-37-22.24 N",
		"longitude": "98-9-23.79 W",
		"state": "TEXAS",
		"artcc": "ZFW",
		"type": "RNAV",
		"updated": "05/24/2012"
	},
	{
		"name": "ZUDIS",
		"latitude": "31-24-37.04 N",
		"longitude": "97-18-59.91 W",
		"state": "TEXAS",
		"artcc": "ZFW",
		"type": "RNAV",
		"updated": "12/27/2012"
	},
	{
		"name": "ZUDPA",
		"latitude": "32-28-45.62 N",
		"longitude": "92-35-18.58 W",
		"state": "LOUISIANA",
		"artcc": "ZFW",
		"type": "RNAV",
		"updated": "04/21/2011"
	},
	{
		"name": "ZUGEL",
		"latitude": "35-14-31.92 N",
		"longitude": "95-5-38.75 W",
		"state": "OKLAHOMA",
		"artcc": "ZFW",
		"type": "RNAV",
		"updated": "02/20/2014"
	},
	{
		"name": "ZUKOS",
		"latitude": "33-24-58.61 N",
		"longitude": "94-16-31.96 W",
		"state": "TEXAS",
		"artcc": "ZFW",
		"type": "RP",
		"updated": "TXK*VORTAC*233.13/11.72"
	},
	{
		"name": "ZUKUL",
		"latitude": "34-0-56.62 N",
		"longitude": "98-30-25.23 W",
		"state": "TEXAS",
		"artcc": "ZFW",
		"type": "MR",
		"updated": "SHP*TACAN*329.00/2.20"
	},
	{
		"name": "ZUKVA",
		"latitude": "32-58-45.41 N",
		"longitude": "103-22-41.32 W",
		"state": "NEW MEXICO",
		"artcc": "ZFW",
		"type": "RNAV",
		"updated": "09/30/2014"
	},
	{
		"name": "ZUMIX",
		"latitude": "32-24-2.27 N",
		"longitude": "101-17-43.15 W",
		"state": "TEXAS",
		"artcc": "ZFW",
		"type": "RNAV",
		"updated": "05/06/2013"
	},
	{
		"name": "ZUMKI",
		"latitude": "33-32-16.62 N",
		"longitude": "97-28-56.36 W",
		"state": "TEXAS",
		"artcc": "ZFW",
		"type": "RP",
		"updated": "UKW*VORTAC*083.49/17.00"
	},
	{
		"name": "ZUMSA",
		"latitude": "32-45-0.53 N",
		"longitude": "96-50-22.29 W",
		"state": "TEXAS",
		"artcc": "ZFW",
		"type": "RNAV",
		"updated": "09/03/2010"
	},
	{
		"name": "ZUNAM",
		"latitude": "32-53-49.07 N",
		"longitude": "96-54-10.14 W",
		"state": "TEXAS",
		"artcc": "ZFW",
		"type": "RNAV",
		"updated": "07/13/2014"
	},
	{
		"name": "ZUNAP",
		"latitude": "35-17-18.68 N",
		"longitude": "98-35-45.38 W",
		"state": "OKLAHOMA",
		"artcc": "ZFW",
		"type": "RNAV",
		"updated": "03/06/2013"
	},
	{
		"name": "ZUNTU",
		"latitude": "32-32-39.68 N",
		"longitude": "92-4-9.12 W",
		"state": "LOUISIANA",
		"artcc": "ZFW",
		"type": "RNAV",
		"updated": "03/30/2012"
	},
	{
		"name": "ZUNUV",
		"latitude": "33-59-54.72 N",
		"longitude": "96-46-53.72 W",
		"state": "OKLAHOMA",
		"artcc": "ZFW",
		"type": "RNAV",
		"updated": "04/06/2012"
	},
	{
		"name": "ZUPOM",
		"latitude": "33-49-47.87 N",
		"longitude": "95-21-27.21 W",
		"state": "TEXAS",
		"artcc": "ZFW",
		"type": "RNAV",
		"updated": "09/27/2006"
	},
	{
		"name": "ZUREK",
		"latitude": "32-37-36.14 N",
		"longitude": "96-47-36.22 W",
		"state": "TEXAS",
		"artcc": "ZFW",
		"type": "RNAV",
		"updated": "03/26/2013"
	},
	{
		"name": "ZURER",
		"latitude": "32-29-49.2 N",
		"longitude": "99-7-49.15 W",
		"state": "TEXAS",
		"artcc": "ZFW",
		"type": "RNAV",
		"updated": "01/27/2014"
	},
	{
		"name": "ZUSDA",
		"latitude": "32-30-57.93 N",
		"longitude": "103-3-26.4 W",
		"state": "TEXAS",
		"artcc": "ZFW",
		"type": "RP",
		"updated": "HOB*VORTAC*113.18/13.00"
	},
	{
		"name": "ZUSUK",
		"latitude": "33-5-25.62 N",
		"longitude": "92-58-12.52 W",
		"state": "ARKANSAS",
		"artcc": "ZFW",
		"type": "RNAV",
		"updated": "12/01/2005"
	},
	{
		"name": "ZUTEM",
		"latitude": "34-5-39.55 N",
		"longitude": "94-45-51.13 W",
		"state": "OKLAHOMA",
		"artcc": "ZFW",
		"type": "RNAV",
		"updated": "03/30/2004"
	}
]
