[
	{
		"name": "AAMYY",
		"latitude": "51-30-18.8 N",
		"longitude": "171-9-11.7 E",
		"state": "ALASKA",
		"artcc": "ZAN",
		"type": "RP",
		"updated": "08/01/2007"
	},
	{
		"name": "ACADE",
		"latitude": "69-4-47.75 N",
		"longitude": "165-47-27.19 W",
		"state": "ALASKA",
		"artcc": "ZAN",
		"type": "MR",
		"updated": "LUR*NDB/DME*014.00/14.00"
	},
	{
		"name": "ACATE",
		"latitude": "59-42-50.93 N",
		"longitude": "162-33-9.7 W",
		"state": "ALASKA",
		"artcc": "ZAN",
		"type": "RNAV",
		"updated": "07/07/2009"
	},
	{
		"name": "ACEYE",
		"latitude": "60-34-27.45 N",
		"longitude": "151-23-23.36 W",
		"state": "ALASKA",
		"artcc": "ZAN",
		"type": "RNAV",
		"updated": "07/19/2007"
	},
	{
		"name": "ACIGE",
		"latitude": "60-26-23.3 N",
		"longitude": "151-46-8.04 W",
		"state": "ALASKA",
		"artcc": "ZAN",
		"type": "RP",
		"updated": "ENA*VOR/DME*219.51/20.00"
	},
	{
		"name": "ACIRI",
		"latitude": "67-48-43.25 N",
		"longitude": "164-45-1.2 W",
		"state": "ALASKA",
		"artcc": "ZAN",
		"type": "RNAV",
		"updated": "05/30/2008"
	},
	{
		"name": "ACIVE",
		"latitude": "60-33-59.6 N",
		"longitude": "161-56-34.74 W",
		"state": "ALASKA",
		"artcc": "ZAN",
		"type": "RNAV",
		"updated": "01/28/2004"
	},
	{
		"name": "ACRAN",
		"latitude": "61-4-20.58 N",
		"longitude": "156-29-27.21 W",
		"state": "ALASKA",
		"artcc": "ZAN",
		"type": "RP",
		"updated": "SQA*VOR/DME*248.76/25.00"
	},
	{
		"name": "ACUDU",
		"latitude": "66-52-15.58 N",
		"longitude": "162-23-11.06 W",
		"state": "ALASKA",
		"artcc": "ZAN",
		"type": "RNAV",
		"updated": "12/05/2014"
	},
	{
		"name": "ACYIJ",
		"latitude": "62-14-28.49 N",
		"longitude": "145-29-0.6 W",
		"state": "ALASKA",
		"artcc": "ZAN",
		"type": "RNAV",
		"updated": "03/28/2018"
	},
	{
		"name": "ADKUH",
		"latitude": "59-33-22.49 N",
		"longitude": "139-45-10.8 W",
		"state": "ALASKA",
		"artcc": "ZAN",
		"type": "RP",
		"updated": "YAK*VOR/DME*/4.21"
	},
	{
		"name": "ADLEN",
		"latitude": "64-46-22.95 N",
		"longitude": "169-46-53.99 W",
		"state": "",
		"artcc": "ZAN",
		"type": "RP",
		"updated": "07/03/2017"
	},
	{
		"name": "ADMRL",
		"latitude": "58-11-9.41 N",
		"longitude": "134-39-22.07 W",
		"state": "ALASKA",
		"artcc": "ZAN",
		"type": "RNAV",
		"updated": "08/23/2016"
	},
	{
		"name": "ADREW",
		"latitude": "69-10-10.83 N",
		"longitude": "141-0-9.13 W",
		"state": "ALASKA",
		"artcc": "ZAN",
		"type": "RP",
		"updated": "FYU*VORTAC*009.87/183.89"
	},
	{
		"name": "ADTOQ",
		"latitude": "70-23-59.31 N",
		"longitude": "150-43-38.79 W",
		"state": "ALASKA",
		"artcc": "ZAN",
		"type": "RNAV",
		"updated": "12/10/2011"
	},
	{
		"name": "AFEDI",
		"latitude": "68-32-54.8 N",
		"longitude": "149-33-10.82 W",
		"state": "ALASKA",
		"artcc": "ZAN",
		"type": "RP",
		"updated": "GBH*NDB*321.99"
	},
	{
		"name": "AFPIV",
		"latitude": "54-0-6.96 N",
		"longitude": "166-34-21.49 W",
		"state": "ALASKA",
		"artcc": "ZAN",
		"type": "RNAV",
		"updated": "06/08/2000"
	},
	{
		"name": "AFVEK",
		"latitude": "54-59-26.01 N",
		"longitude": "162-30-4.41 W",
		"state": "ALASKA",
		"artcc": "ZAN",
		"type": "RNAV",
		"updated": "06/01/2009"
	},
	{
		"name": "AFWAF",
		"latitude": "59-53-25.73 N",
		"longitude": "151-24-19.8 W",
		"state": "ALASKA",
		"artcc": "ZAN",
		"type": "RP",
		"updated": "HOM*VOR/DME*353.07/11.00"
	},
	{
		"name": "AGALE",
		"latitude": "66-34-35.8 N",
		"longitude": "145-13-40.04 W",
		"state": "ALASKA",
		"artcc": "ZAN",
		"type": "RNAV",
		"updated": "11/04/2016"
	},
	{
		"name": "AGEME",
		"latitude": "68-11-23.66 N",
		"longitude": "152-25-29.07 W",
		"state": "ALASKA",
		"artcc": "ZAN",
		"type": "RNAV",
		"updated": "12/26/2012"
	},
	{
		"name": "AGEPE",
		"latitude": "62-16-51.87 N",
		"longitude": "163-38-32.92 W",
		"state": "ALASKA",
		"artcc": "ZAN",
		"type": "RP",
		"updated": "ENM*VOR/DME*127.84/38.34"
	},
	{
		"name": "AGESE",
		"latitude": "55-32-44.19 N",
		"longitude": "132-2-34.13 W",
		"state": "ALASKA",
		"artcc": "ZAN",
		"type": "RNAV",
		"updated": "05/01/2014"
	},
	{
		"name": "AGGOV",
		"latitude": "59-45-2.24 N",
		"longitude": "157-25-38.3 W",
		"state": "ALASKA",
		"artcc": "ZAN",
		"type": "RNAV",
		"updated": "06/03/2015"
	},
	{
		"name": "AGIGE",
		"latitude": "58-19-22.77 N",
		"longitude": "135-31-5.49 W",
		"state": "ALASKA",
		"artcc": "ZAN",
		"type": "RP",
		"updated": "SSR*VORTAC*296.86/12.00"
	},
	{
		"name": "AGIVE",
		"latitude": "64-49-38.74 N",
		"longitude": "154-35-59.26 W",
		"state": "ALASKA",
		"artcc": "ZAN",
		"type": "RNAV",
		"updated": "04/12/2007"
	},
	{
		"name": "AGMIF",
		"latitude": "77-0-0 N",
		"longitude": "141-0-0 W",
		"state": "OFFSHORE PACIFIC",
		"artcc": "ZAN",
		"type": "RNAV",
		"updated": "09/23/2015"
	},
	{
		"name": "AGMIV",
		"latitude": "61-45-22.07 N",
		"longitude": "166-5-26.19 W",
		"state": "ALASKA",
		"artcc": "ZAN",
		"type": "MR",
		"updated": "CZF*DME*/1.80"
	},
	{
		"name": "AGONE",
		"latitude": "59-37-26.18 N",
		"longitude": "154-57-11.84 W",
		"state": "ALASKA",
		"artcc": "ZAN",
		"type": "RNAV",
		"updated": "01/09/2009"
	},
	{
		"name": "AGSIH",
		"latitude": "63-52-28.56 N",
		"longitude": "160-47-27.37 W",
		"state": "ALASKA",
		"artcc": "ZAN",
		"type": "RNAV",
		"updated": "02/26/2018"
	},
	{
		"name": "AGUCI",
		"latitude": "59-12-22.23 N",
		"longitude": "135-28-35.73 W",
		"state": "ALASKA",
		"artcc": "ZAN",
		"type": "RNAV",
		"updated": "07/03/2013"
	},
	{
		"name": "AGURA",
		"latitude": "67-27-52 N",
		"longitude": "168-58-24 W",
		"state": "",
		"artcc": "ZAN",
		"type": "RNAV",
		"updated": "12/05/2016"
	},
	{
		"name": "AGXAN",
		"latitude": "71-16-59.72 N",
		"longitude": "155-57-42.64 W",
		"state": "ALASKA",
		"artcc": "ZAN",
		"type": "RP",
		"updated": "BRW*LD*NE CRS/14.98"
	},
	{
		"name": "AHCUJ",
		"latitude": "64-26-7.96 N",
		"longitude": "162-30-7.78 W",
		"state": "ALASKA",
		"artcc": "ZAN",
		"type": "RNAV",
		"updated": "12/16/2009"
	},
	{
		"name": "AHFAX",
		"latitude": "68-4-52.97 N",
		"longitude": "162-50-52.46 W",
		"state": "ALASKA",
		"artcc": "ZAN",
		"type": "RNAV",
		"updated": "07/15/2011"
	},
	{
		"name": "AHVUH",
		"latitude": "64-25-10.5 N",
		"longitude": "156-33-27.79 W",
		"state": "ALASKA",
		"artcc": "ZAN",
		"type": "RP",
		"updated": "GAL*VOR/DME*146.41/20.00"
	},
	{
		"name": "AHZUT",
		"latitude": "64-55-7.34 N",
		"longitude": "158-13-15.45 W",
		"state": "ALASKA",
		"artcc": "ZAN",
		"type": "RNAV",
		"updated": "08/13/2009"
	},
	{
		"name": "AICAP",
		"latitude": "61-10-27.7 N",
		"longitude": "149-59-46.9 W",
		"state": "ALASKA",
		"artcc": "ZAN",
		"type": "RNAV",
		"updated": "08/24/2005"
	},
	{
		"name": "AIDIN",
		"latitude": "58-10-14.78 N",
		"longitude": "134-29-7.78 W",
		"state": "ALASKA",
		"artcc": "ZAN",
		"type": "RNAV",
		"updated": "05/16/2016"
	},
	{
		"name": "AILEE",
		"latitude": "63-36-0.04 N",
		"longitude": "149-32-23.46 W",
		"state": "ALASKA",
		"artcc": "ZAN",
		"type": "RNAV",
		"updated": "05/31/2010"
	},
	{
		"name": "AINKK",
		"latitude": "61-10-5.78 N",
		"longitude": "150-31-17.02 W",
		"state": "ALASKA",
		"artcc": "ZAN",
		"type": "RP",
		"updated": "ENA*VOR/DME*011.38"
	},
	{
		"name": "AJABU",
		"latitude": "64-41-45.13 N",
		"longitude": "162-9-53.84 W",
		"state": "ALASKA",
		"artcc": "ZAN",
		"type": "RNAV",
		"updated": "12/16/2009"
	},
	{
		"name": "AJBOS",
		"latitude": "56-33-21.03 N",
		"longitude": "169-50-56.8 W",
		"state": "ALASKA",
		"artcc": "ZAN",
		"type": "RNAV",
		"updated": "02/09/2018"
	},
	{
		"name": "AKBOY",
		"latitude": "60-17-17.97 N",
		"longitude": "145-17-18.49 W",
		"state": "ALASKA",
		"artcc": "ZAN",
		"type": "RNAV",
		"updated": "03/07/2006"
	},
	{
		"name": "AKELT",
		"latitude": "62-0-55.89 N",
		"longitude": "165-5-38.78 W",
		"state": "ALASKA",
		"artcc": "ZAN",
		"type": "RP",
		"updated": "HPB*VOR/DME*031.07/42.30"
	},
	{
		"name": "AKERE",
		"latitude": "70-6-40.61 N",
		"longitude": "146-29-48.17 W",
		"state": "ALASKA",
		"artcc": "ZAN",
		"type": "RNAV",
		"updated": "06/26/2013"
	},
	{
		"name": "AKGAS",
		"latitude": "61-0-33.43 N",
		"longitude": "154-41-32.62 W",
		"state": "ALASKA",
		"artcc": "ZAN",
		"type": "RP",
		"updated": "SQA*VOR/DME*082.65/28.00"
	},
	{
		"name": "AKHAT",
		"latitude": "57-1-29.85 N",
		"longitude": "136-8-11.85 W",
		"state": "ALASKA",
		"artcc": "ZAN",
		"type": "RNAV",
		"updated": "03/07/2006"
	},
	{
		"name": "AKHOG",
		"latitude": "56-53-37.92 N",
		"longitude": "136-21-44.06 W",
		"state": "ALASKA",
		"artcc": "ZAN",
		"type": "RNAV",
		"updated": "03/10/2006"
	},
	{
		"name": "AKIKE",
		"latitude": "64-37-35.1 N",
		"longitude": "147-43-7.95 W",
		"state": "ALASKA",
		"artcc": "ZAN",
		"type": "RNAV",
		"updated": "05/01/2017"
	},
	{
		"name": "AKISU",
		"latitude": "47-33-2.61 N",
		"longitude": "161-20-0 E",
		"state": "OFFSHORE PACIFIC",
		"artcc": "ZAN",
		"type": "RP",
		"updated": "10/21/2009"
	},
	{
		"name": "AKKID",
		"latitude": "58-56-26.5 N",
		"longitude": "140-19-21.66 W",
		"state": "ALASKA",
		"artcc": "ZAN",
		"type": "RNAV",
		"updated": "03/07/2006"
	},
	{
		"name": "AKMAX",
		"latitude": "62-15-27.05 N",
		"longitude": "151-48-26.77 W",
		"state": "ALASKA",
		"artcc": "ZAN",
		"type": "RP",
		"updated": "TED*VOR/DME*303.99/84.15"
	},
	{
		"name": "AKRAW",
		"latitude": "61-13-51.14 N",
		"longitude": "145-35-2.31 W",
		"state": "ALASKA",
		"artcc": "ZAN",
		"type": "RP",
		"updated": "GKN*VOR/DME*161.08/55.67"
	},
	{
		"name": "AKSEA",
		"latitude": "54-31-39.72 N",
		"longitude": "131-36-41.98 W",
		"state": "ALASKA",
		"artcc": "ZAN",
		"type": "RNAV",
		"updated": "03/07/2006"
	},
	{
		"name": "AKTEA",
		"latitude": "59-57-31.06 N",
		"longitude": "151-26-21.29 W",
		"state": "ALASKA",
		"artcc": "ZAN",
		"type": "RP",
		"updated": "HOM*VOR/DME*347.00/15.00"
	},
	{
		"name": "AKTEX",
		"latitude": "56-30-0 N",
		"longitude": "132-0-0 W",
		"state": "ALASKA",
		"artcc": "ZAN",
		"type": "RNAV",
		"updated": "08/03/2007"
	},
	{
		"name": "AKTIE",
		"latitude": "64-40-0 N",
		"longitude": "155-30-0 W",
		"state": "ALASKA",
		"artcc": "ZAN",
		"type": "RNAV",
		"updated": "07/31/2007"
	},
	{
		"name": "AKUDY",
		"latitude": "66-5-8.08 N",
		"longitude": "161-33-53.66 W",
		"state": "ALASKA",
		"artcc": "ZAN",
		"type": "RNAV",
		"updated": "05/04/2007"
	},
	{
		"name": "AKUMY",
		"latitude": "67-54-28.03 N",
		"longitude": "152-35-0.56 W",
		"state": "ALASKA",
		"artcc": "ZAN",
		"type": "RNAV",
		"updated": "09/02/2009"
	},
	{
		"name": "AKUWU",
		"latitude": "59-19-0 N",
		"longitude": "161-52-0 W",
		"state": "ALASKA",
		"artcc": "ZAN",
		"type": "RNAV",
		"updated": "01/28/2004"
	},
	{
		"name": "AKUXE",
		"latitude": "70-19-32.39 N",
		"longitude": "149-40-12.94 W",
		"state": "ALASKA",
		"artcc": "ZAN",
		"type": "RNAV",
		"updated": "03/04/2002"
	},
	{
		"name": "AKWAY",
		"latitude": "54-30-49.25 N",
		"longitude": "132-2-5.13 W",
		"state": "ALASKA",
		"artcc": "ZAN",
		"type": "RNAV",
		"updated": "03/07/2006"
	},
	{
		"name": "AKZOO",
		"latitude": "60-8-50 N",
		"longitude": "145-28-59.45 W",
		"state": "ALASKA",
		"artcc": "ZAN",
		"type": "RNAV",
		"updated": "03/07/2006"
	},
	{
		"name": "ALATY",
		"latitude": "59-25-16.59 N",
		"longitude": "138-14-27.94 W",
		"state": "ALASKA",
		"artcc": "ZAN",
		"type": "RNAV",
		"updated": "05/18/2016"
	},
	{
		"name": "ALDOZ",
		"latitude": "55-11-34.9 N",
		"longitude": "178-32-13.1 W",
		"state": "ALASKA",
		"artcc": "ZAN",
		"type": "RP",
		"updated": "09/19/2000"
	},
	{
		"name": "ALEUT",
		"latitude": "54-14-16.58 N",
		"longitude": "166-32-51.82 W",
		"state": "ALASKA",
		"artcc": "ZAN",
		"type": "RP",
		"updated": "DUT*NDB/DME*351.00/20.00"
	},
	{
		"name": "ALIEN",
		"latitude": "59-41-6.68 N",
		"longitude": "164-40-54.56 W",
		"state": "ALASKA",
		"artcc": "ZAN",
		"type": "RP",
		"updated": "BET*VORTAC*219.51/108.08"
	},
	{
		"name": "ALMOT",
		"latitude": "63-27-3.13 N",
		"longitude": "161-48-13.19 W",
		"state": "ALASKA",
		"artcc": "ZAN",
		"type": "RP",
		"updated": "UNK*VOR/DME*213.92/40.00"
	},
	{
		"name": "ALNOK",
		"latitude": "61-17-28.16 N",
		"longitude": "149-48-42.1 W",
		"state": "ALASKA",
		"artcc": "ZAN",
		"type": "MR",
		"updated": "EDF*TACAN*312.50/2.50"
	},
	{
		"name": "ALOLE",
		"latitude": "67-33-21.32 N",
		"longitude": "162-59-10.61 W",
		"state": "ALASKA",
		"artcc": "ZAN",
		"type": "RNAV",
		"updated": "05/04/2007"
	},
	{
		"name": "ALTEW",
		"latitude": "63-33-2.39 N",
		"longitude": "144-50-17.02 W",
		"state": "ALASKA",
		"artcc": "ZAN",
		"type": "RP",
		"updated": "BIG*VORTAC*116.00/35.67"
	},
	{
		"name": "ALTEY",
		"latitude": "59-34-48.35 N",
		"longitude": "160-3-7.82 W",
		"state": "ALASKA",
		"artcc": "ZAN",
		"type": "RP",
		"updated": "BET*VORTAC*129.00/89.84"
	},
	{
		"name": "ALUFF",
		"latitude": "56-26-24.9 N",
		"longitude": "173-37-37.2 W",
		"state": "ALASKA",
		"artcc": "ZAN",
		"type": "RP",
		"updated": "09/19/2000"
	},
	{
		"name": "ALUKE",
		"latitude": "62-48-24.15 N",
		"longitude": "155-59-8.48 W",
		"state": "ALASKA",
		"artcc": "ZAN",
		"type": "MW",
		"updated": "06/03/2011"
	},
	{
		"name": "ALUPE",
		"latitude": "59-52-57.04 N",
		"longitude": "154-39-5.04 W",
		"state": "ALASKA",
		"artcc": "ZAN",
		"type": "RP",
		"updated": "AKN*VORTAC*025.96/95.00"
	},
	{
		"name": "ALVAT",
		"latitude": "55-28-30.63 N",
		"longitude": "160-41-43.03 W",
		"state": "ALASKA",
		"artcc": "ZAN",
		"type": "RNAV",
		"updated": "04/13/2006"
	},
	{
		"name": "ALYAN",
		"latitude": "63-47-9.7 N",
		"longitude": "170-6-56.2 W",
		"state": "ALASKA",
		"artcc": "ZAN",
		"type": "RP",
		"updated": "ULL*VOR/DME*049.00/11.00"
	},
	{
		"name": "AMATI",
		"latitude": "77-59-59.96 N",
		"longitude": "168-58-23.99 W",
		"state": "",
		"artcc": "ZAN",
		"type": "RNAV",
		"updated": "07/03/2017"
	},
	{
		"name": "AMOND",
		"latitude": "54-13-37.5 N",
		"longitude": "178-18-9.5 E",
		"state": "ALASKA",
		"artcc": "ZAN",
		"type": "RP",
		"updated": "09/19/2000"
	},
	{
		"name": "AMOTT",
		"latitude": "60-52-26.59 N",
		"longitude": "151-22-23.6 W",
		"state": "ALASKA",
		"artcc": "ZAN",
		"type": "RP",
		"updated": "HOM*VOR/DME*347.00/70.11"
	},
	{
		"name": "AMTEE",
		"latitude": "64-33-15.99 N",
		"longitude": "153-30-41.02 W",
		"state": "ALASKA",
		"artcc": "ZAN",
		"type": "MW",
		"updated": "12/09/2013"
	},
	{
		"name": "AMULE",
		"latitude": "64-25-4.87 N",
		"longitude": "165-16-54.13 W",
		"state": "ALASKA",
		"artcc": "ZAN",
		"type": "RNAV",
		"updated": "08/09/2017"
	},
	{
		"name": "ANDDI",
		"latitude": "61-6-3.44 N",
		"longitude": "150-18-18.79 W",
		"state": "ALASKA",
		"artcc": "ZAN",
		"type": "RNAV",
		"updated": "05/31/2010"
	},
	{
		"name": "ANECA",
		"latitude": "61-53-10.01 N",
		"longitude": "161-55-17.84 W",
		"state": "ALASKA",
		"artcc": "ZAN",
		"type": "RNAV",
		"updated": "03/09/2012"
	},
	{
		"name": "ANESE",
		"latitude": "61-57-45.08 N",
		"longitude": "162-26-38.76 W",
		"state": "ALASKA",
		"artcc": "ZAN",
		"type": "RNAV",
		"updated": "03/09/2012"
	},
	{
		"name": "ANEYA",
		"latitude": "60-42-23.21 N",
		"longitude": "161-55-6.4 W",
		"state": "ALASKA",
		"artcc": "ZAN",
		"type": "RP",
		"updated": "BET*VORTAC*196.48/5.47"
	},
	{
		"name": "ANIAK",
		"latitude": "61-37-2.22 N",
		"longitude": "159-37-52.61 W",
		"state": "ALASKA",
		"artcc": "ZAN",
		"type": "RP",
		"updated": "BET*VORTAC*036.85/81.00"
	},
	{
		"name": "ANNAH",
		"latitude": "55-3-37.47 N",
		"longitude": "131-34-42.24 W",
		"state": "ALASKA",
		"artcc": "ZAN",
		"type": "WP",
		"updated": "11/02/1998"
	},
	{
		"name": "ANORE",
		"latitude": "61-37-39.69 N",
		"longitude": "159-42-12.14 W",
		"state": "ALASKA",
		"artcc": "ZAN",
		"type": "RP",
		"updated": "ANI*LD*109.18/5.96"
	},
	{
		"name": "ANPAF",
		"latitude": "70-10-42.43 N",
		"longitude": "151-15-16.81 W",
		"state": "ALASKA",
		"artcc": "ZAN",
		"type": "RNAV",
		"updated": "07/01/2011"
	},
	{
		"name": "ANUCU",
		"latitude": "66-4-3.54 N",
		"longitude": "161-12-43.47 W",
		"state": "ALASKA",
		"artcc": "ZAN",
		"type": "RP",
		"updated": "BVK*NDB/DME*328.84/5.50"
	},
	{
		"name": "ANWEX",
		"latitude": "64-20-2.42 N",
		"longitude": "165-5-36.56 W",
		"state": "ALASKA",
		"artcc": "ZAN",
		"type": "RP",
		"updated": "OME*VOR/DME*144.37/10.00"
	},
	{
		"name": "APACU",
		"latitude": "66-26-24.01 N",
		"longitude": "159-57-0.38 W",
		"state": "ALASKA",
		"artcc": "ZAN",
		"type": "RNAV",
		"updated": "05/10/2007"
	},
	{
		"name": "APOTE",
		"latitude": "56-37-10.54 N",
		"longitude": "169-48-22.96 W",
		"state": "ALASKA",
		"artcc": "ZAN",
		"type": "RP",
		"updated": "SRI*NDB/DME*286.65/5.93"
	},
	{
		"name": "APPEL",
		"latitude": "65-22-58.47 N",
		"longitude": "146-0-8.91 W",
		"state": "ALASKA",
		"artcc": "ZAN",
		"type": "MR",
		"updated": "FAI*VORTAC*033.57/61.91"
	},
	{
		"name": "APUYO",
		"latitude": "64-25-17.66 N",
		"longitude": "164-41-42.45 W",
		"state": "ALASKA",
		"artcc": "ZAN",
		"type": "RP",
		"updated": "OME*VOR/DME*093.52/15.00"
	},
	{
		"name": "APWIS",
		"latitude": "61-28-56.02 N",
		"longitude": "159-12-4.79 W",
		"state": "ALASKA",
		"artcc": "ZAN",
		"type": "RNAV",
		"updated": "05/17/2005"
	},
	{
		"name": "ARBEZ",
		"latitude": "69-59-59.18 N",
		"longitude": "146-15-10.37 W",
		"state": "ALASKA",
		"artcc": "ZAN",
		"type": "RNAV",
		"updated": "11/01/2017"
	},
	{
		"name": "ARCAL",
		"latitude": "58-30-0 N",
		"longitude": "150-0-0 W",
		"state": "ALASKA",
		"artcc": "ZAN",
		"type": "RNAV",
		"updated": "04/13/2001"
	},
	{
		"name": "ARCON",
		"latitude": "69-56-0.96 N",
		"longitude": "148-25-19.24 W",
		"state": "ALASKA",
		"artcc": "ZAN",
		"type": "RP",
		"updated": "SCC*VOR/DME*163.43/16.00"
	},
	{
		"name": "ARISE",
		"latitude": "59-59-59.98 N",
		"longitude": "146-9-13.47 W",
		"state": "ALASKA",
		"artcc": "ZAN",
		"type": "RP",
		"updated": "MDO*VOR/DME*351.65/35.29"
	},
	{
		"name": "ARORA",
		"latitude": "64-16-4.29 N",
		"longitude": "145-56-59.89 W",
		"state": "ALASKA",
		"artcc": "ZAN",
		"type": "RP",
		"updated": "BIG*VORTAC*316.00/17.00"
	},
	{
		"name": "AROTE",
		"latitude": "61-5-17.6 N",
		"longitude": "149-55-37.32 W",
		"state": "ALASKA",
		"artcc": "ZAN",
		"type": "RNAV",
		"updated": "11/18/2014"
	},
	{
		"name": "AROXE",
		"latitude": "64-22-21.4 N",
		"longitude": "165-27-54.71 W",
		"state": "ALASKA",
		"artcc": "ZAN",
		"type": "RNAV",
		"updated": "08/09/2017"
	},
	{
		"name": "AROYU",
		"latitude": "64-1-1.58 N",
		"longitude": "145-41-34.12 W",
		"state": "ALASKA",
		"artcc": "ZAN",
		"type": "MR",
		"updated": "04/12/2007"
	},
	{
		"name": "ARSEN",
		"latitude": "61-1-8.39 N",
		"longitude": "163-6-6.57 W",
		"state": "ALASKA",
		"artcc": "ZAN",
		"type": "RP",
		"updated": "BET*VORTAC*277.18/40.00"
	},
	{
		"name": "ARTIC",
		"latitude": "69-1-13.92 N",
		"longitude": "148-26-27.72 W",
		"state": "ALASKA",
		"artcc": "ZAN",
		"type": "RP",
		"updated": "SCC*VOR/DME*163.43/71.00"
	},
	{
		"name": "ARUNY",
		"latitude": "64-18-23.74 N",
		"longitude": "147-8-12.13 W",
		"state": "ALASKA",
		"artcc": "ZAN",
		"type": "MR",
		"updated": "EIL*TACAN*164.06/20.93"
	},
	{
		"name": "ARWUC",
		"latitude": "64-16-16.95 N",
		"longitude": "158-51-26.27 W",
		"state": "ALASKA",
		"artcc": "ZAN",
		"type": "RNAV",
		"updated": "06/26/2009"
	},
	{
		"name": "ASLEE",
		"latitude": "61-14-8.4 N",
		"longitude": "150-18-59.82 W",
		"state": "ALASKA",
		"artcc": "ZAN",
		"type": "RNAV",
		"updated": "05/31/2010"
	},
	{
		"name": "ASORT",
		"latitude": "58-21-45.65 N",
		"longitude": "135-49-15.21 W",
		"state": "ALASKA",
		"artcc": "ZAN",
		"type": "RP",
		"updated": "CGL*NDB*250.80"
	},
	{
		"name": "ASOVY",
		"latitude": "59-8-19.76 N",
		"longitude": "158-33-39.44 W",
		"state": "ALASKA",
		"artcc": "ZAN",
		"type": "RNAV",
		"updated": "07/07/2009"
	},
	{
		"name": "ASPIN",
		"latitude": "49-41-56.1 N",
		"longitude": "166-12-59.5 E",
		"state": "ALASKA",
		"artcc": "ZAN",
		"type": "RP",
		"updated": "09/19/2000"
	},
	{
		"name": "ASUKY",
		"latitude": "71-17-2.43 N",
		"longitude": "156-10-14.59 W",
		"state": "ALASKA",
		"artcc": "ZAN",
		"type": "RNAV",
		"updated": "12/22/2017"
	},
	{
		"name": "ASVIW",
		"latitude": "59-45-24.83 N",
		"longitude": "155-15-12.17 W",
		"state": "ALASKA",
		"artcc": "ZAN",
		"type": "RNAV",
		"updated": "10/24/2001"
	},
	{
		"name": "ATAGA",
		"latitude": "59-50-49.27 N",
		"longitude": "142-36-55.35 W",
		"state": "ALASKA",
		"artcc": "ZAN",
		"type": "RP",
		"updated": "CYT*NDB*175.92"
	},
	{
		"name": "ATAGO",
		"latitude": "65-58-30.91 N",
		"longitude": "157-23-21.51 W",
		"state": "ALASKA",
		"artcc": "ZAN",
		"type": "RP",
		"updated": "HSL*VOR/DME*283.92/30.00"
	},
	{
		"name": "ATAYI",
		"latitude": "65-13-59.23 N",
		"longitude": "167-5-7.3 W",
		"state": "ALASKA",
		"artcc": "ZAN",
		"type": "RP",
		"updated": "TNC*NDB/DME*119.87/28.90"
	},
	{
		"name": "ATDAB",
		"latitude": "70-30-39.37 N",
		"longitude": "150-36-29.45 W",
		"state": "ALASKA",
		"artcc": "ZAN",
		"type": "RNAV",
		"updated": "07/24/2009"
	},
	{
		"name": "ATELE",
		"latitude": "55-11-50.67 N",
		"longitude": "162-41-41.08 W",
		"state": "ALASKA",
		"artcc": "ZAN",
		"type": "RNAV",
		"updated": "10/30/2017"
	},
	{
		"name": "ATTNN",
		"latitude": "58-19-7.79 N",
		"longitude": "134-28-11.57 W",
		"state": "ALASKA",
		"artcc": "ZAN",
		"type": "RNAV",
		"updated": "05/16/2016"
	},
	{
		"name": "ATUTE",
		"latitude": "61-26-31.62 N",
		"longitude": "158-51-45.18 W",
		"state": "ALASKA",
		"artcc": "ZAN",
		"type": "RNAV",
		"updated": "09/09/2009"
	},
	{
		"name": "ATYOL",
		"latitude": "60-44-33.68 N",
		"longitude": "148-43-15.09 W",
		"state": "ALASKA",
		"artcc": "ZAN",
		"type": "RP",
		"updated": "CMQ*NDB*105.00"
	},
	{
		"name": "AUGEY",
		"latitude": "59-28-10.96 N",
		"longitude": "152-53-19.4 W",
		"state": "ALASKA",
		"artcc": "ZAN",
		"type": "RP",
		"updated": "HOM*VOR/DME*237.35/46.00"
	},
	{
		"name": "AVELY",
		"latitude": "70-28-49.87 N",
		"longitude": "157-10-43.4 W",
		"state": "ALASKA",
		"artcc": "ZAN",
		"type": "RNAV",
		"updated": "12/22/2005"
	},
	{
		"name": "AVERR",
		"latitude": "61-28-41.8 N",
		"longitude": "149-49-52.78 W",
		"state": "ALASKA",
		"artcc": "ZAN",
		"type": "RNAV",
		"updated": "06/12/2014"
	},
	{
		"name": "AVEYU",
		"latitude": "65-19-33.66 N",
		"longitude": "165-53-23.17 W",
		"state": "ALASKA",
		"artcc": "ZAN",
		"type": "RNAV",
		"updated": "06/21/2005"
	},
	{
		"name": "AVGIY",
		"latitude": "64-46-54.03 N",
		"longitude": "161-49-42.68 W",
		"state": "ALASKA",
		"artcc": "ZAN",
		"type": "RNAV",
		"updated": "12/16/2009"
	},
	{
		"name": "AVICA",
		"latitude": "55-43-8.74 N",
		"longitude": "161-15-29.23 W",
		"state": "ALASKA",
		"artcc": "ZAN",
		"type": "RNAV",
		"updated": "10/07/2003"
	},
	{
		"name": "AVILN",
		"latitude": "59-42-9.62 N",
		"longitude": "157-5-36.46 W",
		"state": "ALASKA",
		"artcc": "ZAN",
		"type": "RNAV",
		"updated": "06/03/2015"
	},
	{
		"name": "AVNAC",
		"latitude": "59-50-5.7 N",
		"longitude": "162-18-3.07 W",
		"state": "ALASKA",
		"artcc": "ZAN",
		"type": "RNAV",
		"updated": "01/21/2016"
	},
	{
		"name": "AVUBA",
		"latitude": "63-10-59 N",
		"longitude": "167-49-46.2 W",
		"state": "ALASKA",
		"artcc": "ZAN",
		"type": "RNAV",
		"updated": "03/11/2009"
	},
	{
		"name": "AVVUH",
		"latitude": "55-1-40.1 N",
		"longitude": "162-17-49.6 W",
		"state": "ALASKA",
		"artcc": "ZAN",
		"type": "RNAV",
		"updated": "10/03/2012"
	},
	{
		"name": "AWACO",
		"latitude": "69-59-18.99 N",
		"longitude": "148-49-55.9 W",
		"state": "ALASKA",
		"artcc": "ZAN",
		"type": "WP",
		"updated": "11/02/1998"
	},
	{
		"name": "AWAKA",
		"latitude": "64-49-41.88 N",
		"longitude": "157-16-44.74 W",
		"state": "ALASKA",
		"artcc": "ZAN",
		"type": "RNAV",
		"updated": "08/19/2009"
	},
	{
		"name": "AWAMY",
		"latitude": "67-50-20.08 N",
		"longitude": "163-19-15.64 W",
		"state": "ALASKA",
		"artcc": "ZAN",
		"type": "RNAV",
		"updated": "09/17/2014"
	},
	{
		"name": "AWIRO",
		"latitude": "66-39-51.53 N",
		"longitude": "144-50-13.36 W",
		"state": "ALASKA",
		"artcc": "ZAN",
		"type": "RNAV",
		"updated": "10/21/2013"
	},
	{
		"name": "AWNID",
		"latitude": "66-41-14.9 N",
		"longitude": "161-25-49.51 W",
		"state": "ALASKA",
		"artcc": "ZAN",
		"type": "RNAV",
		"updated": "11/24/2009"
	},
	{
		"name": "AWOMY",
		"latitude": "59-53-45.85 N",
		"longitude": "154-19-6.54 W",
		"state": "ALASKA",
		"artcc": "ZAN",
		"type": "RP",
		"updated": "ILI*NDB/DME*046.31/20.00"
	},
	{
		"name": "AWXAV",
		"latitude": "58-5-35.99 N",
		"longitude": "157-1-25.89 W",
		"state": "ALASKA",
		"artcc": "ZAN",
		"type": "RNAV",
		"updated": "08/15/2005"
	},
	{
		"name": "AXCUP",
		"latitude": "70-2-21.37 N",
		"longitude": "147-30-22.35 W",
		"state": "ALASKA",
		"artcc": "ZAN",
		"type": "RNAV",
		"updated": "10/23/2008"
	},
	{
		"name": "AXSEM",
		"latitude": "65-0-10.51 N",
		"longitude": "146-43-44.38 W",
		"state": "ALASKA",
		"artcc": "ZAN",
		"type": "MR",
		"updated": "FAI*VORTAC*048.00/35.00"
	},
	{
		"name": "AXUNE",
		"latitude": "70-34-39.04 N",
		"longitude": "156-55-15.03 W",
		"state": "ALASKA",
		"artcc": "ZAN",
		"type": "RNAV",
		"updated": "12/22/2005"
	},
	{
		"name": "AXUTE",
		"latitude": "57-45-44.87 N",
		"longitude": "152-27-1 W",
		"state": "ALASKA",
		"artcc": "ZAN",
		"type": "RNAV",
		"updated": "04/29/2013"
	},
	{
		"name": "AYACO",
		"latitude": "64-48-51.22 N",
		"longitude": "141-23-3.69 W",
		"state": "ALASKA",
		"artcc": "ZAN",
		"type": "RNAV",
		"updated": "03/12/2014"
	},
	{
		"name": "AYAGI",
		"latitude": "62-47-13.5 N",
		"longitude": "155-59-14.69 W",
		"state": "ALASKA",
		"artcc": "ZAN",
		"type": "MW",
		"updated": "07/03/2013"
	},
	{
		"name": "AYAGU",
		"latitude": "66-21-17.4 N",
		"longitude": "153-16-11.59 W",
		"state": "ALASKA",
		"artcc": "ZAN",
		"type": "RNAV",
		"updated": "07/01/2011"
	},
	{
		"name": "AYJAY",
		"latitude": "64-12-30.87 N",
		"longitude": "145-41-6.73 W",
		"state": "ALASKA",
		"artcc": "ZAN",
		"type": "MW",
		"updated": "10/23/2008"
	},
	{
		"name": "AYKID",
		"latitude": "65-50-57.54 N",
		"longitude": "147-16-34.64 W",
		"state": "ALASKA",
		"artcc": "ZAN",
		"type": "RP",
		"updated": "FYU*VORTAC*209.00/65.33"
	},
	{
		"name": "AYOGU",
		"latitude": "60-51-1.31 N",
		"longitude": "153-10-27.27 W",
		"state": "ALASKA",
		"artcc": "ZAN",
		"type": "RP",
		"updated": "ENA*VOR/DME*265.53/60.00"
	},
	{
		"name": "AYWAF",
		"latitude": "60-48-52.08 N",
		"longitude": "162-0-18.11 W",
		"state": "ALASKA",
		"artcc": "ZAN",
		"type": "RNAV",
		"updated": "09/11/2008"
	},
	{
		"name": "AYZOL",
		"latitude": "62-28-16.15 N",
		"longitude": "141-0-0 W",
		"state": "ALASKA",
		"artcc": "ZAN",
		"type": "RP",
		"updated": "ORT*VORTAC*114.23/38.17"
	},
	{
		"name": "AZGUC",
		"latitude": "59-45-0.37 N",
		"longitude": "154-50-26 W",
		"state": "ALASKA",
		"artcc": "ZAN",
		"type": "RNAV",
		"updated": "03/30/2009"
	}
]
