[
	{
		"name": "BABKE",
		"latitude": "68-25-41.34 N",
		"longitude": "166-42-39.02 W",
		"state": "ALASKA",
		"artcc": "ZAN",
		"type": "RNAV",
		"updated": "09/09/2013"
	},
	{
		"name": "BACIZ",
		"latitude": "69-39-44.21 N",
		"longitude": "163-31-9.22 W",
		"state": "ALASKA",
		"artcc": "ZAN",
		"type": "RNAV",
		"updated": "11/19/2004"
	},
	{
		"name": "BACMY",
		"latitude": "65-32-25.55 N",
		"longitude": "146-8-0.37 W",
		"state": "ALASKA",
		"artcc": "ZAN",
		"type": "RNAV",
		"updated": "03/26/2014"
	},
	{
		"name": "BADLE",
		"latitude": "58-16-51.19 N",
		"longitude": "134-56-6.14 W",
		"state": "ALASKA",
		"artcc": "ZAN",
		"type": "RNAV",
		"updated": "10/14/2009"
	},
	{
		"name": "BAERE",
		"latitude": "52-12-11.96 N",
		"longitude": "176-8-8.53 W",
		"state": "ALASKA",
		"artcc": "ZAN",
		"type": "RNAV",
		"updated": "09/17/2014"
	},
	{
		"name": "BAFIN",
		"latitude": "60-19-37.72 N",
		"longitude": "161-25-20.56 W",
		"state": "ALASKA",
		"artcc": "ZAN",
		"type": "RP",
		"updated": "BET*VORTAC*142.44/30.00"
	},
	{
		"name": "BAIGE",
		"latitude": "59-0-0 N",
		"longitude": "149-43-0 W",
		"state": "OFFSHORE PACIFIC",
		"artcc": "ZAN",
		"type": "RNAV",
		"updated": "11/06/2015"
	},
	{
		"name": "BAILY",
		"latitude": "57-54-33.79 N",
		"longitude": "152-54-36.97 W",
		"state": "ALASKA",
		"artcc": "ZAN",
		"type": "RP",
		"updated": "ODK*VOR/DME*280.07/19.99"
	},
	{
		"name": "BAIME",
		"latitude": "65-4-36.48 N",
		"longitude": "164-38-5.1 W",
		"state": "ALASKA",
		"artcc": "ZAN",
		"type": "RP",
		"updated": "OME*VOR/DME*012.75/39.00"
	},
	{
		"name": "BAITT",
		"latitude": "59-0-11.25 N",
		"longitude": "151-51-14.26 W",
		"state": "ALASKA",
		"artcc": "ZAN",
		"type": "RNAV",
		"updated": "11/02/2007"
	},
	{
		"name": "BAKOL",
		"latitude": "69-24-27 N",
		"longitude": "168-58-24 W",
		"state": "",
		"artcc": "ZAN",
		"type": "RNAV",
		"updated": "12/05/2016"
	},
	{
		"name": "BALDS",
		"latitude": "68-3-35.96 N",
		"longitude": "162-51-51.3 W",
		"state": "ALASKA",
		"artcc": "ZAN",
		"type": "RNAV",
		"updated": "05/05/2014"
	},
	{
		"name": "BALIN",
		"latitude": "66-33-54.54 N",
		"longitude": "161-34-32.45 W",
		"state": "ALASKA",
		"artcc": "ZAN",
		"type": "RP",
		"updated": "OTZ*VOR/DME*114.60/30.00"
	},
	{
		"name": "BAMOK",
		"latitude": "56-25-29.96 N",
		"longitude": "172-49-18.03 E",
		"state": "OFFSHORE PACIFIC",
		"artcc": "ZAN",
		"type": "RP",
		"updated": "07/03/2017"
	},
	{
		"name": "BAMVE",
		"latitude": "64-56-2.43 N",
		"longitude": "141-49-17.81 W",
		"state": "ALASKA",
		"artcc": "ZAN",
		"type": "RNAV",
		"updated": "03/12/2014"
	},
	{
		"name": "BANAT",
		"latitude": "62-12-48.58 N",
		"longitude": "165-40-0.61 W",
		"state": "ALASKA",
		"artcc": "ZAN",
		"type": "RNAV",
		"updated": "06/09/2005"
	},
	{
		"name": "BAREL",
		"latitude": "58-48-50.86 N",
		"longitude": "152-24-34.93 W",
		"state": "ALASKA",
		"artcc": "ZAN",
		"type": "RP",
		"updated": "HOM*VOR/DME*194.00/61.33"
	},
	{
		"name": "BARIP",
		"latitude": "74-56-59.96 N",
		"longitude": "168-58-23.99 W",
		"state": "",
		"artcc": "ZAN",
		"type": "RNAV",
		"updated": "07/03/2017"
	},
	{
		"name": "BARLO",
		"latitude": "58-21-37.64 N",
		"longitude": "134-53-21.28 W",
		"state": "ALASKA",
		"artcc": "ZAN",
		"type": "RP",
		"updated": "CGL*NDB*250.77"
	},
	{
		"name": "BARRF",
		"latitude": "57-47-54.64 N",
		"longitude": "152-36-22.03 W",
		"state": "ALASKA",
		"artcc": "ZAN",
		"type": "RNAV",
		"updated": "10/26/2015"
	},
	{
		"name": "BASSU",
		"latitude": "57-21-22.5 N",
		"longitude": "135-26-7.97 W",
		"state": "ALASKA",
		"artcc": "ZAN",
		"type": "RNAV",
		"updated": "11/04/2014"
	},
	{
		"name": "BATAC",
		"latitude": "64-15-10.66 N",
		"longitude": "145-40-37.89 W",
		"state": "ALASKA",
		"artcc": "ZAN",
		"type": "MR",
		"updated": "BIG*VORTAC*341.00/15.00"
	},
	{
		"name": "BATTU",
		"latitude": "59-58-53.39 N",
		"longitude": "162-1-15.7 W",
		"state": "ALASKA",
		"artcc": "ZAN",
		"type": "RNAV",
		"updated": "01/21/2016"
	},
	{
		"name": "BATTY",
		"latitude": "59-3-56.6 N",
		"longitude": "155-4-41.86 W",
		"state": "ALASKA",
		"artcc": "ZAN",
		"type": "RP",
		"updated": "AKN*VORTAC*051.80/56.00"
	},
	{
		"name": "BAVBE",
		"latitude": "67-26-41.03 N",
		"longitude": "163-4-29.05 W",
		"state": "ALASKA",
		"artcc": "ZAN",
		"type": "RNAV",
		"updated": "05/04/2007"
	},
	{
		"name": "BAXTE",
		"latitude": "61-24-14.42 N",
		"longitude": "149-47-46.9 W",
		"state": "ALASKA",
		"artcc": "ZAN",
		"type": "MR",
		"updated": "EDF*TACAN*337.00/9.00"
	},
	{
		"name": "BAYAR",
		"latitude": "67-40-12.24 N",
		"longitude": "164-24-7.85 W",
		"state": "ALASKA",
		"artcc": "ZAN",
		"type": "RNAV",
		"updated": "12/01/2003"
	},
	{
		"name": "BAYKR",
		"latitude": "64-35-53.62 N",
		"longitude": "147-58-13.22 W",
		"state": "ALASKA",
		"artcc": "ZAN",
		"type": "RNAV",
		"updated": "07/24/2012"
	},
	{
		"name": "BAZME",
		"latitude": "52-35-45.49 N",
		"longitude": "173-17-41.14 E",
		"state": "ALASKA",
		"artcc": "ZAN",
		"type": "MW",
		"updated": "04/12/2010"
	},
	{
		"name": "BBELL",
		"latitude": "61-16-50.64 N",
		"longitude": "149-42-49.87 W",
		"state": "ALASKA",
		"artcc": "ZAN",
		"type": "RNAV",
		"updated": "07/18/2012"
	},
	{
		"name": "BBGVP",
		"latitude": "54-34-58.21 N",
		"longitude": "133-6-28.65 W",
		"state": "ALASKA",
		"artcc": "ZAN",
		"type": "CN",
		"updated": "06/07/2002"
	},
	{
		"name": "BDRIK",
		"latitude": "61-21-16.35 N",
		"longitude": "150-59-39.39 W",
		"state": "ALASKA",
		"artcc": "ZAN",
		"type": "RP",
		"updated": "TED*VOR/DME*273.00/32.00"
	},
	{
		"name": "BEBCU",
		"latitude": "56-53-38.83 N",
		"longitude": "158-57-12 W",
		"state": "ALASKA",
		"artcc": "ZAN",
		"type": "RNAV",
		"updated": "01/23/2007"
	},
	{
		"name": "BECAD",
		"latitude": "61-51-55.86 N",
		"longitude": "161-59-36.22 W",
		"state": "ALASKA",
		"artcc": "ZAN",
		"type": "RNAV",
		"updated": "03/09/2012"
	},
	{
		"name": "BECAG",
		"latitude": "63-43-27.86 N",
		"longitude": "152-39-54.94 W",
		"state": "ALASKA",
		"artcc": "ZAN",
		"type": "RNAV",
		"updated": "12/22/2005"
	},
	{
		"name": "BECAY",
		"latitude": "66-32-57.56 N",
		"longitude": "160-9-12.61 W",
		"state": "ALASKA",
		"artcc": "ZAN",
		"type": "RNAV",
		"updated": "05/10/2007"
	},
	{
		"name": "BEECO",
		"latitude": "60-22-45.22 N",
		"longitude": "145-54-10.07 W",
		"state": "ALASKA",
		"artcc": "ZAN",
		"type": "RNAV",
		"updated": "05/17/2005"
	},
	{
		"name": "BEEHM",
		"latitude": "55-35-40.17 N",
		"longitude": "131-42-59.79 W",
		"state": "ALASKA",
		"artcc": "ZAN",
		"type": "WP",
		"updated": "02/26/1998"
	},
	{
		"name": "BEEKS",
		"latitude": "59-45-50.77 N",
		"longitude": "155-34-57.38 W",
		"state": "ALASKA",
		"artcc": "ZAN",
		"type": "RNAV",
		"updated": "01/09/2009"
	},
	{
		"name": "BEETE",
		"latitude": "66-33-35.5 N",
		"longitude": "148-40-49.51 W",
		"state": "ALASKA",
		"artcc": "ZAN",
		"type": "RP",
		"updated": "ENN*VORTAC*343.54/119.00"
	},
	{
		"name": "BEEVE",
		"latitude": "56-22-56.05 N",
		"longitude": "132-25-53.97 W",
		"state": "ALASKA",
		"artcc": "ZAN",
		"type": "RNAV",
		"updated": "11/04/2014"
	},
	{
		"name": "BEFTI",
		"latitude": "62-33-28.06 N",
		"longitude": "144-27-9.48 W",
		"state": "ALASKA",
		"artcc": "ZAN",
		"type": "CN",
		"updated": "02/17/2015"
	},
	{
		"name": "BEJJI",
		"latitude": "63-47-32.79 N",
		"longitude": "160-47-17.45 W",
		"state": "ALASKA",
		"artcc": "ZAN",
		"type": "RNAV",
		"updated": "02/26/2018"
	},
	{
		"name": "BEKAR",
		"latitude": "76-28-13.96 N",
		"longitude": "168-58-23.99 W",
		"state": "",
		"artcc": "ZAN",
		"type": "RNAV",
		"updated": "07/03/2017"
	},
	{
		"name": "BELTZ",
		"latitude": "60-18-32.99 N",
		"longitude": "145-48-45.34 W",
		"state": "ALASKA",
		"artcc": "ZAN",
		"type": "RNAV",
		"updated": "05/17/2005"
	},
	{
		"name": "BEMTE",
		"latitude": "64-29-42.57 N",
		"longitude": "165-19-44.45 W",
		"state": "ALASKA",
		"artcc": "ZAN",
		"type": "RP",
		"updated": "OME*VOR/DME*276.12/2.06"
	},
	{
		"name": "BEOOH",
		"latitude": "62-58-27.56 N",
		"longitude": "155-36-21.3 W",
		"state": "ALASKA",
		"artcc": "ZAN",
		"type": "RNAV",
		"updated": "10/21/2011"
	},
	{
		"name": "BEPOW",
		"latitude": "70-18-47.23 N",
		"longitude": "149-50-57.21 W",
		"state": "ALASKA",
		"artcc": "ZAN",
		"type": "RP",
		"updated": "SCC*VOR/DME*260.91/29.98"
	},
	{
		"name": "BERAC",
		"latitude": "60-28-28.43 N",
		"longitude": "151-23-19.79 W",
		"state": "ALASKA",
		"artcc": "ZAN",
		"type": "RNAV",
		"updated": "07/19/2007"
	},
	{
		"name": "BERGS",
		"latitude": "58-31-9.45 N",
		"longitude": "136-18-26.25 W",
		"state": "ALASKA",
		"artcc": "ZAN",
		"type": "RP",
		"updated": "SSR*VORTAC*282.24/39.00"
	},
	{
		"name": "BERJO",
		"latitude": "67-3-27.93 N",
		"longitude": "162-59-59.76 W",
		"state": "ALASKA",
		"artcc": "ZAN",
		"type": "RP",
		"updated": "OTZ*VOR/DME*298.90/15.00"
	},
	{
		"name": "BERNR",
		"latitude": "58-46-40.64 N",
		"longitude": "135-9-21.94 W",
		"state": "ALASKA",
		"artcc": "ZAN",
		"type": "WP",
		"updated": "02/26/1998"
	},
	{
		"name": "BESAT",
		"latitude": "59-45-0 N",
		"longitude": "179-25-6 E",
		"state": "OFFSHORE PACIFIC",
		"artcc": "ZAN",
		"type": "RP",
		"updated": "06/02/1993"
	},
	{
		"name": "BESAY",
		"latitude": "60-50-46.33 N",
		"longitude": "161-36-12.56 W",
		"state": "ALASKA",
		"artcc": "ZAN",
		"type": "RNAV",
		"updated": "01/28/2004"
	},
	{
		"name": "BETPE",
		"latitude": "62-23-52.04 N",
		"longitude": "154-26-32.27 W",
		"state": "ALASKA",
		"artcc": "ZAN",
		"type": "RNAV",
		"updated": "12/10/2011"
	},
	{
		"name": "BETTR",
		"latitude": "58-16-23.56 N",
		"longitude": "134-22-52.5 W",
		"state": "ALASKA",
		"artcc": "ZAN",
		"type": "RNAV",
		"updated": "05/16/2016"
	},
	{
		"name": "BETUN",
		"latitude": "61-20-30.31 N",
		"longitude": "149-52-17.02 W",
		"state": "ALASKA",
		"artcc": "ZAN",
		"type": "MR",
		"updated": "EDF*TACAN*312.50/6.00"
	},
	{
		"name": "BEUTI",
		"latitude": "56-28-35.56 N",
		"longitude": "132-20-33.49 W",
		"state": "ALASKA",
		"artcc": "ZAN",
		"type": "RNAV",
		"updated": "11/04/2014"
	},
	{
		"name": "BEVAN",
		"latitude": "63-2-10.35 N",
		"longitude": "152-43-49.87 W",
		"state": "ALASKA",
		"artcc": "ZAN",
		"type": "MR",
		"updated": "MCG*VORTAC*066.00/79.00"
	},
	{
		"name": "BEVEH",
		"latitude": "65-28-53.52 N",
		"longitude": "166-54-11.67 W",
		"state": "ALASKA",
		"artcc": "ZAN",
		"type": "RNAV",
		"updated": "04/14/2014"
	},
	{
		"name": "BEVNE",
		"latitude": "59-26-59.46 N",
		"longitude": "161-30-49.3 W",
		"state": "ALASKA",
		"artcc": "ZAN",
		"type": "RNAV",
		"updated": "01/22/2016"
	},
	{
		"name": "BEWEJ",
		"latitude": "64-12-29.05 N",
		"longitude": "160-51-53.29 W",
		"state": "ALASKA",
		"artcc": "ZAN",
		"type": "RNAV",
		"updated": "06/26/2009"
	},
	{
		"name": "BEYAR",
		"latitude": "63-56-30 N",
		"longitude": "147-45-0 W",
		"state": "ALASKA",
		"artcc": "ZAN",
		"type": "MW",
		"updated": "12/10/2013"
	},
	{
		"name": "BEYAS",
		"latitude": "64-43-46.99 N",
		"longitude": "163-15-16.64 W",
		"state": "ALASKA",
		"artcc": "ZAN",
		"type": "RNAV",
		"updated": "10/17/2005"
	},
	{
		"name": "BEYAY",
		"latitude": "60-17-46.26 N",
		"longitude": "151-40-53.5 W",
		"state": "ALASKA",
		"artcc": "ZAN",
		"type": "RP",
		"updated": "ENA*VOR/DME*198.23/24.00"
	},
	{
		"name": "BIBEM",
		"latitude": "62-40-19.8 N",
		"longitude": "141-0-0 W",
		"state": "",
		"artcc": "ZAN",
		"type": "RNAV",
		"updated": "02/08/2007"
	},
	{
		"name": "BIBNE",
		"latitude": "61-48-56.52 N",
		"longitude": "163-0-2.73 W",
		"state": "ALASKA",
		"artcc": "ZAN",
		"type": "RNAV",
		"updated": "04/05/2012"
	},
	{
		"name": "BICAC",
		"latitude": "65-14-19.55 N",
		"longitude": "166-32-35.44 W",
		"state": "ALASKA",
		"artcc": "ZAN",
		"type": "RNAV",
		"updated": "09/28/2004"
	},
	{
		"name": "BIGAY",
		"latitude": "70-7-49.57 N",
		"longitude": "146-24-5.6 W",
		"state": "ALASKA",
		"artcc": "ZAN",
		"type": "RNAV",
		"updated": "10/11/2012"
	},
	{
		"name": "BIHGO",
		"latitude": "66-2-0.7 N",
		"longitude": "161-21-21.09 W",
		"state": "ALASKA",
		"artcc": "ZAN",
		"type": "WP",
		"updated": "05/03/2007"
	},
	{
		"name": "BIITE",
		"latitude": "74-0-0 N",
		"longitude": "141-0-0 W",
		"state": "OFFSHORE PACIFIC",
		"artcc": "ZAN",
		"type": "RNAV",
		"updated": "06/02/2014"
	},
	{
		"name": "BIJGO",
		"latitude": "59-46-23.07 N",
		"longitude": "157-35-9.41 W",
		"state": "ALASKA",
		"artcc": "ZAN",
		"type": "RNAV",
		"updated": "06/03/2015"
	},
	{
		"name": "BIJOU",
		"latitude": "66-13-39.87 N",
		"longitude": "145-50-50.52 W",
		"state": "ALASKA",
		"artcc": "ZAN",
		"type": "RP",
		"updated": "FYU*VORTAC*193.69/25.00"
	},
	{
		"name": "BILBE",
		"latitude": "56-12-20.73 N",
		"longitude": "166-6-46.24 W",
		"state": "ALASKA",
		"artcc": "ZAN",
		"type": "RP",
		"updated": "DUT*NDB/DME*357.02"
	},
	{
		"name": "BILNE",
		"latitude": "52-15-58.64 N",
		"longitude": "174-31-7.37 W",
		"state": "ALASKA",
		"artcc": "ZAN",
		"type": "RNAV",
		"updated": "06/03/2010"
	},
	{
		"name": "BINAL",
		"latitude": "55-45-59.99 N",
		"longitude": "161-59-56.43 W",
		"state": "ALASKA",
		"artcc": "ZAN",
		"type": "RP",
		"updated": "CDB*VORTAC*027.06/40.00"
	},
	{
		"name": "BIQFI",
		"latitude": "70-8-34.28 N",
		"longitude": "151-31-55.38 W",
		"state": "ALASKA",
		"artcc": "ZAN",
		"type": "RNAV",
		"updated": "07/01/2011"
	},
	{
		"name": "BIRAC",
		"latitude": "67-24-49.5 N",
		"longitude": "150-6-22.5 W",
		"state": "ALASKA",
		"artcc": "ZAN",
		"type": "RNAV",
		"updated": "06/27/2005"
	},
	{
		"name": "BIRDI",
		"latitude": "68-53-12.6 N",
		"longitude": "165-59-40.73 W",
		"state": "ALASKA",
		"artcc": "ZAN",
		"type": "MR",
		"updated": "LUR*NDB/DME*050.00/2.00"
	},
	{
		"name": "BISAY",
		"latitude": "59-31-10.69 N",
		"longitude": "155-19-55.17 W",
		"state": "ALASKA",
		"artcc": "ZAN",
		"type": "RNAV",
		"updated": "06/07/2006"
	},
	{
		"name": "BISHO",
		"latitude": "70-10-36.56 N",
		"longitude": "148-39-40.99 W",
		"state": "ALASKA",
		"artcc": "ZAN",
		"type": "RNAV",
		"updated": "10/26/2015"
	},
	{
		"name": "BISXI",
		"latitude": "64-54-35.65 N",
		"longitude": "157-18-55.7 W",
		"state": "ALASKA",
		"artcc": "ZAN",
		"type": "RNAV",
		"updated": "08/20/2009"
	},
	{
		"name": "BITOP",
		"latitude": "59-18-20.42 N",
		"longitude": "155-10-47.74 W",
		"state": "ALASKA",
		"artcc": "ZAN",
		"type": "RP",
		"updated": "AKN*VORTAC*037.71/60.00"
	},
	{
		"name": "BIXER",
		"latitude": "69-27-7.84 N",
		"longitude": "148-25-56.07 W",
		"state": "ALASKA",
		"artcc": "ZAN",
		"type": "RP",
		"updated": "SCC*VOR/DME*163.43/45.00"
	},
	{
		"name": "BIYAD",
		"latitude": "66-34-30 N",
		"longitude": "153-26-14.62 W",
		"state": "ALASKA",
		"artcc": "ZAN",
		"type": "RNAV",
		"updated": "07/01/2011"
	},
	{
		"name": "BIYAN",
		"latitude": "56-51-59.03 N",
		"longitude": "154-8-49.88 W",
		"state": "ALASKA",
		"artcc": "ZAN",
		"type": "RNAV",
		"updated": "02/20/2007"
	},
	{
		"name": "BIYIR",
		"latitude": "64-49-24.12 N",
		"longitude": "161-59-49.4 W",
		"state": "ALASKA",
		"artcc": "ZAN",
		"type": "RNAV",
		"updated": "12/16/2009"
	},
	{
		"name": "BIYTA",
		"latitude": "59-22-3.8 N",
		"longitude": "157-17-20.14 W",
		"state": "ALASKA",
		"artcc": "ZAN",
		"type": "RNAV",
		"updated": "10/05/2007"
	},
	{
		"name": "BLAEK",
		"latitude": "62-43-13.02 N",
		"longitude": "143-56-43.15 W",
		"state": "ALASKA",
		"artcc": "ZAN",
		"type": "RNAV",
		"updated": "02/13/2018"
	},
	{
		"name": "BLIGH",
		"latitude": "60-50-50.03 N",
		"longitude": "146-59-56.93 W",
		"state": "ALASKA",
		"artcc": "ZAN",
		"type": "RP",
		"updated": "JOH*VOR/DME*314.00/25.00"
	},
	{
		"name": "BLOGR",
		"latitude": "57-4-31.5 N",
		"longitude": "135-36-20.61 W",
		"state": "ALASKA",
		"artcc": "ZAN",
		"type": "RNAV",
		"updated": "11/04/2014"
	},
	{
		"name": "BLOWW",
		"latitude": "56-19-24.07 N",
		"longitude": "132-34-0.48 W",
		"state": "ALASKA",
		"artcc": "ZAN",
		"type": "RNAV",
		"updated": "11/04/2014"
	},
	{
		"name": "BLSLE",
		"latitude": "58-15-54.65 N",
		"longitude": "134-21-54.01 W",
		"state": "ALASKA",
		"artcc": "ZAN",
		"type": "RNAV",
		"updated": "05/16/2016"
	},
	{
		"name": "BLUEE",
		"latitude": "71-30-0 N",
		"longitude": "160-0-0 W",
		"state": "ALASKA",
		"artcc": "ZAN",
		"type": "MW",
		"updated": "06/01/2006"
	},
	{
		"name": "BLUGA",
		"latitude": "60-45-50.6 N",
		"longitude": "151-52-42.11 W",
		"state": "ALASKA",
		"artcc": "ZAN",
		"type": "RP",
		"updated": "TED*VOR/DME*229.42/61.13"
	},
	{
		"name": "BNGAL",
		"latitude": "65-7-25.35 N",
		"longitude": "147-14-19.72 W",
		"state": "ALASKA",
		"artcc": "ZAN",
		"type": "MR",
		"updated": "FAI*VORTAC*024.00/27.72"
	},
	{
		"name": "BOCAA",
		"latitude": "55-8-0 N",
		"longitude": "130-40-0 W",
		"state": "ALASKA",
		"artcc": "ZAN",
		"type": "RNAV",
		"updated": "05/16/2016"
	},
	{
		"name": "BODLE",
		"latitude": "61-10-4.44 N",
		"longitude": "149-49-39.24 W",
		"state": "ALASKA",
		"artcc": "ZAN",
		"type": "RNAV",
		"updated": "08/24/2004"
	},
	{
		"name": "BOGAY",
		"latitude": "58-8-7.37 N",
		"longitude": "135-3-44.05 W",
		"state": "ALASKA",
		"artcc": "ZAN",
		"type": "RNAV",
		"updated": "06/09/2014"
	},
	{
		"name": "BOGIE",
		"latitude": "64-22-27.95 N",
		"longitude": "146-50-47.34 W",
		"state": "ALASKA",
		"artcc": "ZAN",
		"type": "MR",
		"updated": "EIL*TACAN*140.00/18.00"
	},
	{
		"name": "BOHBI",
		"latitude": "55-25-5.08 N",
		"longitude": "133-20-51.8 W",
		"state": "ALASKA",
		"artcc": "ZAN",
		"type": "RNAV",
		"updated": "04/29/2013"
	},
	{
		"name": "BOHNU",
		"latitude": "68-26-50.75 N",
		"longitude": "152-0-27.99 W",
		"state": "ALASKA",
		"artcc": "ZAN",
		"type": "RNAV",
		"updated": "12/26/2012"
	},
	{
		"name": "BOLDT",
		"latitude": "70-10-49.87 N",
		"longitude": "148-37-16.11 W",
		"state": "ALASKA",
		"artcc": "ZAN",
		"type": "RNAV",
		"updated": "02/19/2016"
	},
	{
		"name": "BONET",
		"latitude": "64-42-36.2 N",
		"longitude": "152-42-18.82 W",
		"state": "ALASKA",
		"artcc": "ZAN",
		"type": "RP",
		"updated": "ENN*VORTAC*255.05/94.00"
	},
	{
		"name": "BOOKU",
		"latitude": "58-20-22.01 N",
		"longitude": "134-30-6.51 W",
		"state": "ALASKA",
		"artcc": "ZAN",
		"type": "RNAV",
		"updated": "05/16/2016"
	},
	{
		"name": "BOPPA",
		"latitude": "66-32-26.85 N",
		"longitude": "160-10-55.41 W",
		"state": "ALASKA",
		"artcc": "ZAN",
		"type": "RNAV",
		"updated": "05/10/2007"
	},
	{
		"name": "BOREH",
		"latitude": "62-4-39.19 N",
		"longitude": "162-55-33.06 W",
		"state": "ALASKA",
		"artcc": "ZAN",
		"type": "RNAV",
		"updated": "09/11/2012"
	},
	{
		"name": "BORME",
		"latitude": "62-14-30.7 N",
		"longitude": "163-28-53.41 W",
		"state": "ALASKA",
		"artcc": "ZAN",
		"type": "RNAV",
		"updated": "03/16/2012"
	},
	{
		"name": "BOSGE",
		"latitude": "64-44-20.41 N",
		"longitude": "148-0-8.31 W",
		"state": "ALASKA",
		"artcc": "ZAN",
		"type": "RNAV",
		"updated": "05/15/2017"
	},
	{
		"name": "BOTZO",
		"latitude": "59-27-15.47 N",
		"longitude": "139-33-9.09 W",
		"state": "ALASKA",
		"artcc": "ZAN",
		"type": "RNAV",
		"updated": "12/22/2016"
	},
	{
		"name": "BOVJU",
		"latitude": "52-43-31.62 N",
		"longitude": "173-55-31.93 E",
		"state": "ALASKA",
		"artcc": "ZAN",
		"type": "MR",
		"updated": "SYA*VORTAC*272.00/5.00"
	},
	{
		"name": "BOYAR",
		"latitude": "56-0-59.52 N",
		"longitude": "161-18-48.61 W",
		"state": "ALASKA",
		"artcc": "ZAN",
		"type": "RNAV",
		"updated": "10/07/2003"
	},
	{
		"name": "BOYUK",
		"latitude": "64-33-19.45 N",
		"longitude": "165-44-9.01 W",
		"state": "ALASKA",
		"artcc": "ZAN",
		"type": "RP",
		"updated": "OME*LD*278.74/7.15"
	},
	{
		"name": "BOZEL",
		"latitude": "60-41-35.85 N",
		"longitude": "161-54-31.42 W",
		"state": "ALASKA",
		"artcc": "ZAN",
		"type": "RNAV",
		"updated": "05/25/2017"
	},
	{
		"name": "BRBAK",
		"latitude": "64-45-54.65 N",
		"longitude": "147-11-25.21 W",
		"state": "ALASKA",
		"artcc": "ZAN",
		"type": "MW",
		"updated": "10/30/2017"
	},
	{
		"name": "BREMI",
		"latitude": "58-32-54.17 N",
		"longitude": "155-51-26.98 W",
		"state": "ALASKA",
		"artcc": "ZAN",
		"type": "RP",
		"updated": "AKN*VORTAC*094.32/30.00"
	},
	{
		"name": "BRIJE",
		"latitude": "60-26-50.18 N",
		"longitude": "145-18-16.01 W",
		"state": "ALASKA",
		"artcc": "ZAN",
		"type": "RNAV",
		"updated": "09/12/2016"
	},
	{
		"name": "BRINT",
		"latitude": "60-12-32.38 N",
		"longitude": "149-23-49.3 W",
		"state": "ALASKA",
		"artcc": "ZAN",
		"type": "RNAV",
		"updated": "05/03/2011"
	},
	{
		"name": "BRION",
		"latitude": "66-9-38.95 N",
		"longitude": "150-12-25.77 W",
		"state": "ALASKA",
		"artcc": "ZAN",
		"type": "RP",
		"updated": "BTT*VOR/DME*123.95/55.00"
	},
	{
		"name": "BRMST",
		"latitude": "64-37-59.95 N",
		"longitude": "148-11-39.16 W",
		"state": "ALASKA",
		"artcc": "ZAN",
		"type": "RNAV",
		"updated": "10/31/2014"
	},
	{
		"name": "BRODE",
		"latitude": "61-24-1.86 N",
		"longitude": "150-56-28.19 W",
		"state": "ALASKA",
		"artcc": "ZAN",
		"type": "MR",
		"updated": "EDF*TACAN*267.00/35.00"
	},
	{
		"name": "BROIL",
		"latitude": "60-29-19.26 N",
		"longitude": "149-44-17.5 W",
		"state": "ALASKA",
		"artcc": "ZAN",
		"type": "RP",
		"updated": "TED*VOR/DME*152.84/41.38"
	},
	{
		"name": "BRONX",
		"latitude": "70-4-8.44 N",
		"longitude": "155-5-55.16 W",
		"state": "ALASKA",
		"artcc": "ZAN",
		"type": "RP",
		"updated": "BRW*VOR/DME*135.28/80.00"
	},
	{
		"name": "BROUS",
		"latitude": "59-8-30.72 N",
		"longitude": "159-18-24.35 W",
		"state": "ALASKA",
		"artcc": "ZAN",
		"type": "RNAV",
		"updated": "04/18/2018"
	},
	{
		"name": "BRUNI",
		"latitude": "61-57-17.02 N",
		"longitude": "163-52-20.75 W",
		"state": "ALASKA",
		"artcc": "ZAN",
		"type": "RNAV",
		"updated": "03/26/2012"
	},
	{
		"name": "BRWWN",
		"latitude": "57-42-5.39 N",
		"longitude": "152-29-44.01 W",
		"state": "ALASKA",
		"artcc": "ZAN",
		"type": "RNAV",
		"updated": "04/29/2013"
	},
	{
		"name": "BRYCI",
		"latitude": "62-39-49.84 N",
		"longitude": "155-38-11.01 W",
		"state": "ALASKA",
		"artcc": "ZAN",
		"type": "MW",
		"updated": "07/03/2013"
	},
	{
		"name": "BTWEN",
		"latitude": "60-44-25.57 N",
		"longitude": "152-46-0.77 W",
		"state": "ALASKA",
		"artcc": "ZAN",
		"type": "RNAV",
		"updated": "05/31/2010"
	},
	{
		"name": "BUFLO",
		"latitude": "64-10-13.3 N",
		"longitude": "144-41-14.51 W",
		"state": "ALASKA",
		"artcc": "ZAN",
		"type": "MR",
		"updated": "BIG*VORTAC*046.32/28.90"
	},
	{
		"name": "BUGPE",
		"latitude": "59-10-3.05 N",
		"longitude": "158-59-9.56 W",
		"state": "ALASKA",
		"artcc": "ZAN",
		"type": "RP",
		"updated": "DLG*VOR/DME*292.99/16.90"
	},
	{
		"name": "BUKAY",
		"latitude": "54-54-6.78 N",
		"longitude": "162-44-27.6 W",
		"state": "ALASKA",
		"artcc": "ZAN",
		"type": "RNAV",
		"updated": "10/31/2005"
	},
	{
		"name": "BUNUW",
		"latitude": "58-55-42.95 N",
		"longitude": "158-28-11.47 W",
		"state": "ALASKA",
		"artcc": "ZAN",
		"type": "RNAV",
		"updated": "12/16/2009"
	},
	{
		"name": "BURGH",
		"latitude": "64-47-52.79 N",
		"longitude": "147-38-15.56 W",
		"state": "ALASKA",
		"artcc": "ZAN",
		"type": "MW",
		"updated": "08/22/2012"
	},
	{
		"name": "BURMA",
		"latitude": "66-1-7.8 N",
		"longitude": "146-10-56.5 W",
		"state": "ALASKA",
		"artcc": "ZAN",
		"type": "RP",
		"updated": "FYU*VORTAC*193.69/40.00"
	},
	{
		"name": "BURPE",
		"latitude": "57-45-56 N",
		"longitude": "152-31-44.82 W",
		"state": "ALASKA",
		"artcc": "ZAN",
		"type": "RNAV",
		"updated": "10/26/2015"
	},
	{
		"name": "BURRI",
		"latitude": "60-27-30.01 N",
		"longitude": "165-51-40.69 W",
		"state": "ALASKA",
		"artcc": "ZAN",
		"type": "RNAV",
		"updated": "09/18/2006"
	},
	{
		"name": "BURTN",
		"latitude": "56-32-0.04 N",
		"longitude": "169-59-38.53 W",
		"state": "ALASKA",
		"artcc": "ZAN",
		"type": "RNAV",
		"updated": "02/09/2018"
	},
	{
		"name": "BUSRR",
		"latitude": "61-7-0 N",
		"longitude": "155-10-0 W",
		"state": "ALASKA",
		"artcc": "ZAN",
		"type": "MW",
		"updated": "12/10/2013"
	},
	{
		"name": "BUVPE",
		"latitude": "70-6-46.65 N",
		"longitude": "143-23-15.78 W",
		"state": "ALASKA",
		"artcc": "ZAN",
		"type": "RNAV",
		"updated": "09/28/2016"
	},
	{
		"name": "BUWOG",
		"latitude": "65-10-22.63 N",
		"longitude": "152-21-33.39 W",
		"state": "ALASKA",
		"artcc": "ZAN",
		"type": "RNAV",
		"updated": "05/31/2005"
	},
	{
		"name": "BUZUV",
		"latitude": "58-50-40.54 N",
		"longitude": "159-15-14.1 W",
		"state": "ALASKA",
		"artcc": "ZAN",
		"type": "RNAV",
		"updated": "07/07/2009"
	}
]
