	{
		"name": "DABEC",
		"latitude": "55-51-26.48 N",
		"longitude": "159-13-21.94 W",
		"state": "ALASKA",
		"artcc": "ZAN",
		"type": "RNAV",
		"updated": "11/30/2006",
	},
	{
		"name": "DACIA",
		"latitude": "63-57-19.86 N",
		"longitude": "164-42-6.75 W",
		"state": "ALASKA",
		"artcc": "ZAN",
		"type": "RP",
		"updated": "OME*VOR/DME*144.37/35.00",
	},
	{
		"name": "DADYA",
		"latitude": "64-36-14.52 N",
		"longitude": "163-10-45.67 W",
		"state": "ALASKA",
		"artcc": "ZAN",
		"type": "RNAV",
		"updated": "10/18/2005",
	},
	{
		"name": "DAGCA",
		"latitude": "64-25-27.6 N",
		"longitude": "164-53-42.36 W",
		"state": "ALASKA",
		"artcc": "ZAN",
		"type": "RP",
		"updated": "OME*LD*098.77/16.05",
	},
	{
		"name": "DAGKE",
		"latitude": "64-34-44.66 N",
		"longitude": "162-57-31.8 W",
		"state": "ALASKA",
		"artcc": "ZAN",
		"type": "RNAV",
		"updated": "10/17/2005",
	},
	{
		"name": "DAHLS",
		"latitude": "61-21-8.63 N",
		"longitude": "162-32-19.89 W",
		"state": "ALASKA",
		"artcc": "ZAN",
		"type": "RP",
		"updated": "BET*VORTAC*314.93/40.00",
	},
	{
		"name": "DAJOB",
		"latitude": "58-43-42.72 N",
		"longitude": "157-40-37.69 W",
		"state": "ALASKA",
		"artcc": "ZAN",
		"type": "CN",
		"updated": "07/01/2010",
	},
	{
		"name": "DAPCU",
		"latitude": "59-5-27 N",
		"longitude": "138-14-22.2 W",
		"state": "ALASKA",
		"artcc": "ZAN",
		"type": "RNAV",
		"updated": "05/16/2016",
	},
	{
		"name": "DAPRE",
		"latitude": "66-51-31.54 N",
		"longitude": "162-18-48.67 W",
		"state": "ALASKA",
		"artcc": "ZAN",
		"type": "RNAV",
		"updated": "08/09/2017",
	},
	{
		"name": "DARTN",
		"latitude": "66-0-31.93 N",
		"longitude": "153-29-15.86 W",
		"state": "ALASKA",
		"artcc": "ZAN",
		"type": "MW",
		"updated": "12/29/2014",
	},
	{
		"name": "DAVBE",
		"latitude": "61-50-52.64 N",
		"longitude": "161-30-41.89 W",
		"state": "ALASKA",
		"artcc": "ZAN",
		"type": "RNAV",
		"updated": "03/09/2012",
	},
	{
		"name": "DAVIZ",
		"latitude": "65-20-30.94 N",
		"longitude": "168-16-19.7 W",
		"state": "ALASKA",
		"artcc": "ZAN",
		"type": "MW",
		"updated": "04/14/2014",
	},
	{
		"name": "DAWKU",
		"latitude": "53-57-55.76 N",
		"longitude": "166-27-47.42 W",
		"state": "ALASKA",
		"artcc": "ZAN",
		"type": "RNAV",
		"updated": "06/08/2000",
	},
	{
		"name": "DAWNE",
		"latitude": "61-27-34.33 N",
		"longitude": "151-26-40.92 W",
		"state": "ALASKA",
		"artcc": "ZAN",
		"type": "MR",
		"updated": "EDF*TACAN*267.00/49.94",
	},
	{
		"name": "DAYVU",
		"latitude": "56-23-43 N",
		"longitude": "161-2-23.06 W",
		"state": "ALASKA",
		"artcc": "ZAN",
		"type": "CN",
		"updated": "02/17/2015",
	},
	{
		"name": "DCESN",
		"latitude": "61-30-39.47 N",
		"longitude": "149-38-52.88 W",
		"state": "ALASKA",
		"artcc": "ZAN",
		"type": "RNAV",
		"updated": "01/08/2015",
	},
	{
		"name": "DCSIX",
		"latitude": "61-31-46.67 N",
		"longitude": "151-20-50.87 W",
		"state": "ALASKA",
		"artcc": "ZAN",
		"type": "RNAV",
		"updated": "12/10/2011",
	},
	{
		"name": "DDOUG",
		"latitude": "61-21-6.68 N",
		"longitude": "149-57-25.53 W",
		"state": "ALASKA",
		"artcc": "ZAN",
		"type": "RNAV",
		"updated": "07/18/2012",
	},
	{
		"name": "DEADS",
		"latitude": "55-25-22.4 N",
		"longitude": "162-52-40.45 W",
		"state": "ALASKA",
		"artcc": "ZAN",
		"type": "RP",
		"updated": "CDB*VORTAC*325.21/10.01",
	},
	{
		"name": "DEALS",
		"latitude": "59-44-3 N",
		"longitude": "147-31-10.89 W",
		"state": "ALASKA",
		"artcc": "ZAN",
		"type": "RP",
		"updated": "JOH*VOR/DME*194.00/52.75",
	},
	{
		"name": "DEBOT",
		"latitude": "65-32-43.47 N",
		"longitude": "167-55-2.55 W",
		"state": "ALASKA",
		"artcc": "ZAN",
		"type": "MR",
		"updated": "TNC*NDB/DME*159.32/1.00",
	},
	{
		"name": "DEDYA",
		"latitude": "59-14-13.61 N",
		"longitude": "139-26-48.42 W",
		"state": "ALASKA",
		"artcc": "ZAN",
		"type": "RNAV",
		"updated": "06/21/2013",
	},
	{
		"name": "DEEJA",
		"latitude": "58-54-8 N",
		"longitude": "135-0-0 W",
		"state": "ALASKA",
		"artcc": "ZAN",
		"type": "WP",
		"updated": "03/12/2001",
	},
	{
		"name": "DEGEC",
		"latitude": "68-6-30.54 N",
		"longitude": "145-35-44.1 W",
		"state": "ALASKA",
		"artcc": "ZAN",
		"type": "RNAV",
		"updated": "12/01/2005",
	},
	{
		"name": "DEJJE",
		"latitude": "51-56-50.41 N",
		"longitude": "177-15-11.72 W",
		"state": "ALASKA",
		"artcc": "ZAN",
		"type": "RP",
		"updated": "ADK*NDB/DME*275.16/22.00",
	},
	{
		"name": "DEKMO",
		"latitude": "88-52-1.01 N",
		"longitude": "141-0-0 W",
		"state": "OFFSHORE PACIFIC",
		"artcc": "ZAN",
		"type": "RNAV",
		"updated": "06/02/2014",
	},
	{
		"name": "DEKYA",
		"latitude": "66-35-32.41 N",
		"longitude": "160-0-32.24 W",
		"state": "ALASKA",
		"artcc": "ZAN",
		"type": "RNAV",
		"updated": "05/10/2007",
	},
	{
		"name": "DENKE",
		"latitude": "63-56-21.77 N",
		"longitude": "149-23-0.96 W",
		"state": "ALASKA",
		"artcc": "ZAN",
		"type": "RP",
		"updated": "ENN*VORTAC*170.87/40.00",
	},
	{
		"name": "DENRO",
		"latitude": "61-14-19.12 N",
		"longitude": "165-44-51.25 W",
		"state": "ALASKA",
		"artcc": "ZAN",
		"type": "RP",
		"updated": "HPB*VOR/DME*132.88/20.00",
	},
	{
		"name": "DENSN",
		"latitude": "60-38-35.15 N",
		"longitude": "147-2-30 W",
		"state": "ALASKA",
		"artcc": "ZAN",
		"type": "RNAV",
		"updated": "07/18/2012",
	},
	{
		"name": "DEPPA",
		"latitude": "63-58-18.55 N",
		"longitude": "152-6-22.73 W",
		"state": "ALASKA",
		"artcc": "ZAN",
		"type": "RNAV",
		"updated": "12/22/2005",
	},
	{
		"name": "DEPSE",
		"latitude": "56-48-19.89 N",
		"longitude": "132-47-46.32 W",
		"state": "ALASKA",
		"artcc": "ZAN",
		"type": "RNAV",
		"updated": "08/05/2016",
	},
	{
		"name": "DERIK",
		"latitude": "68-57-6.14 N",
		"longitude": "149-43-17.31 W",
		"state": "ALASKA",
		"artcc": "ZAN",
		"type": "RP",
		"updated": "SCC*VOR/DME*183.69/80.00",
	},
	{
		"name": "DERVE",
		"latitude": "65-33-37.8 N",
		"longitude": "156-45-41.16 W",
		"state": "ALASKA",
		"artcc": "ZAN",
		"type": "RNAV",
		"updated": "08/07/2008",
	},
	{
		"name": "DESCA",
		"latitude": "68-9-36.47 N",
		"longitude": "151-37-57.47 W",
		"state": "ALASKA",
		"artcc": "ZAN",
		"type": "RNAV",
		"updated": "12/26/2012",
	},
	{
		"name": "DESOY",
		"latitude": "66-20-59.6 N",
		"longitude": "158-54-47.13 W",
		"state": "ALASKA",
		"artcc": "ZAN",
		"type": "RP",
		"updated": "WLK*VOR/DME*103.60/29.97",
	},
	{
		"name": "DETEY",
		"latitude": "63-12-30.48 N",
		"longitude": "142-22-44.35 W",
		"state": "ALASKA",
		"artcc": "ZAN",
		"type": "RNAV",
		"updated": "10/05/2006",
	},
	{
		"name": "DEVID",
		"latitude": "88-59-59.96 N",
		"longitude": "168-58-23.84 W",
		"state": "",
		"artcc": "ZAN",
		"type": "RNAV",
		"updated": "07/03/2017",
	},
	{
		"name": "DEVKE",
		"latitude": "70-6-44.13 N",
		"longitude": "143-4-14.77 W",
		"state": "ALASKA",
		"artcc": "ZAN",
		"type": "RNAV",
		"updated": "09/28/2016",
	},
	{
		"name": "DEVTE",
		"latitude": "70-24-57.04 N",
		"longitude": "150-31-10.85 W",
		"state": "ALASKA",
		"artcc": "ZAN",
		"type": "RNAV",
		"updated": "07/24/2009",
	},
	{
		"name": "DEYEP",
		"latitude": "65-12-15.59 N",
		"longitude": "145-31-19.8 W",
		"state": "ALASKA",
		"artcc": "ZAN",
		"type": "RP",
		"updated": "FYU*VORTAC*164.30/82.70",
	},
	{
		"name": "DEYGA",
		"latitude": "66-33-52.1 N",
		"longitude": "152-30-46.33 W",
		"state": "ALASKA",
		"artcc": "ZAN",
		"type": "RNAV",
		"updated": "07/08/2011",
	},
	{
		"name": "DEYKI",
		"latitude": "65-14-27.08 N",
		"longitude": "152-37-38.83 W",
		"state": "ALASKA",
		"artcc": "ZAN",
		"type": "RP",
		"updated": "TAL*VOR/DME*269.84/12.00",
	},
	{
		"name": "DEYZI",
		"latitude": "63-53-28.82 N",
		"longitude": "160-48-54.05 W",
		"state": "ALASKA",
		"artcc": "ZAN",
		"type": "RNAV",
		"updated": "04/20/2009",
	},
	{
		"name": "DIATI",
		"latitude": "52-11-12.15 N",
		"longitude": "174-3-28.95 W",
		"state": "ALASKA",
		"artcc": "ZAN",
		"type": "RNAV",
		"updated": "02/12/2010",
	},
	{
		"name": "DIBAC",
		"latitude": "65-22-32.99 N",
		"longitude": "166-35-40 W",
		"state": "ALASKA",
		"artcc": "ZAN",
		"type": "RNAV",
		"updated": "04/14/2014",
	},
	{
		"name": "DIBOL",
		"latitude": "58-21-42.15 N",
		"longitude": "135-12-20.4 W",
		"state": "ALASKA",
		"artcc": "ZAN",
		"type": "RP",
		"updated": "CGL*NDB*250.73",
	},
	{
		"name": "DIBVY",
		"latitude": "64-44-37.99 N",
		"longitude": "157-33-16.81 W",
		"state": "ALASKA",
		"artcc": "ZAN",
		"type": "RP",
		"updated": "HSL*VOR/DME*188.95",
	},
	{
		"name": "DIBWO",
		"latitude": "56-19-43.49 N",
		"longitude": "169-13-13.14 W",
		"state": "ALASKA",
		"artcc": "ZAN",
		"type": "RNAV",
		"updated": "02/09/2018",
	},
	{
		"name": "DICDE",
		"latitude": "66-5-11.16 N",
		"longitude": "163-22-41.58 W",
		"state": "ALASKA",
		"artcc": "ZAN",
		"type": "RNAV",
		"updated": "11/23/2016",
	},
	{
		"name": "DICEC",
		"latitude": "61-50-34.12 N",
		"longitude": "162-7-38.25 W",
		"state": "ALASKA",
		"artcc": "ZAN",
		"type": "RNAV",
		"updated": "03/09/2012",
	},
	{
		"name": "DIDCU",
		"latitude": "59-38-4.46 N",
		"longitude": "151-30-27.24 W",
		"state": "ALASKA",
		"artcc": "ZAN",
		"type": "RNAV",
		"updated": "05/16/2013",
	},
	{
		"name": "DIDGE",
		"latitude": "65-38-32.11 N",
		"longitude": "168-5-16.16 W",
		"state": "ALASKA",
		"artcc": "ZAN",
		"type": "RNAV",
		"updated": "05/12/2004",
	},
	{
		"name": "DIEGG",
		"latitude": "64-24-52.47 N",
		"longitude": "161-15-54.76 W",
		"state": "ALASKA",
		"artcc": "ZAN",
		"type": "RNAV",
		"updated": "09/17/2014",
	},
	{
		"name": "DIFER",
		"latitude": "66-10-52.73 N",
		"longitude": "145-36-39.67 W",
		"state": "ALASKA",
		"artcc": "ZAN",
		"type": "RP",
		"updated": "FYU*VORTAC*179.00/25.00",
	},
	{
		"name": "DIGGS",
		"latitude": "57-5-9.26 N",
		"longitude": "170-14-51.5 W",
		"state": "ALASKA",
		"artcc": "ZAN",
		"type": "RP",
		"updated": "SPY*NDB/DME*176.33/4.29",
	},
	{
		"name": "DIHNU",
		"latitude": "70-17-0.57 N",
		"longitude": "151-25-10.75 W",
		"state": "ALASKA",
		"artcc": "ZAN",
		"type": "RNAV",
		"updated": "02/09/2018",
	},
	{
		"name": "DIKEE",
		"latitude": "63-34-48.85 N",
		"longitude": "145-54-7.58 W",
		"state": "ALASKA",
		"artcc": "ZAN",
		"type": "MW",
		"updated": "12/10/2013",
	},
	{
		"name": "DILAY",
		"latitude": "59-50-21.06 N",
		"longitude": "155-1-42.58 W",
		"state": "ALASKA",
		"artcc": "ZAN",
		"type": "RNAV",
		"updated": "07/11/2005",
	},
	{
		"name": "DINEC",
		"latitude": "67-35-48.54 N",
		"longitude": "164-13-29.56 W",
		"state": "ALASKA",
		"artcc": "ZAN",
		"type": "RNAV",
		"updated": "12/01/2003",
	},
	{
		"name": "DIPYE",
		"latitude": "68-16-25.77 N",
		"longitude": "145-15-57.33 W",
		"state": "ALASKA",
		"artcc": "ZAN",
		"type": "RNAV",
		"updated": "12/01/2005",
	},
	{
		"name": "DISKE",
		"latitude": "64-55-24.5 N",
		"longitude": "147-6-38.66 W",
		"state": "ALASKA",
		"artcc": "ZAN",
		"type": "MW",
		"updated": "05/05/2011",
	},
	{
		"name": "DISTN",
		"latitude": "64-52-48.79 N",
		"longitude": "147-32-27.21 W",
		"state": "ALASKA",
		"artcc": "ZAN",
		"type": "RP",
		"updated": "FAI*VORTAC*047.00/13.00",
	},
	{
		"name": "DISVE",
		"latitude": "60-43-58.39 N",
		"longitude": "161-52-25.38 W",
		"state": "ALASKA",
		"artcc": "ZAN",
		"type": "RNAV",
		"updated": "05/17/2017",
	},
	{
		"name": "DITAY",
		"latitude": "65-14-34.69 N",
		"longitude": "165-53-15.93 W",
		"state": "ALASKA",
		"artcc": "ZAN",
		"type": "RNAV",
		"updated": "09/28/2004",
	},
	{
		"name": "DIXIT",
		"latitude": "60-28-20.17 N",
		"longitude": "151-22-8.48 W",
		"state": "ALASKA",
		"artcc": "ZAN",
		"type": "RP",
		"updated": "ENA*VOR/DME*192.08/10.00",
	},
	{
		"name": "DIYAG",
		"latitude": "64-19-21.47 N",
		"longitude": "162-25-38.53 W",
		"state": "ALASKA",
		"artcc": "ZAN",
		"type": "RNAV",
		"updated": "12/16/2009",
	},
	{
		"name": "DIYAL",
		"latitude": "56-1-37.1 N",
		"longitude": "161-29-42.05 W",
		"state": "ALASKA",
		"artcc": "ZAN",
		"type": "RNAV",
		"updated": "10/07/2003",
	},
	{
		"name": "DIYAV",
		"latitude": "61-32-9.08 N",
		"longitude": "149-37-51.6 W",
		"state": "ALASKA",
		"artcc": "ZAN",
		"type": "RNAV",
		"updated": "12/10/2011",
	},
	{
		"name": "DJINS",
		"latitude": "56-39-22.97 N",
		"longitude": "132-52-30.69 W",
		"state": "ALASKA",
		"artcc": "ZAN",
		"type": "RNAV",
		"updated": "08/05/2016",
	},
	{
		"name": "DMCDS",
		"latitude": "70-5-56.49 N",
		"longitude": "148-39-55.48 W",
		"state": "ALASKA",
		"artcc": "ZAN",
		"type": "RNAV",
		"updated": "02/19/2016",
	},
	{
		"name": "DMYXZ",
		"latitude": "63-49-46.49 N",
		"longitude": "169-56-55.15 W",
		"state": "ALASKA",
		"artcc": "ZAN",
		"type": "CN",
		"updated": "06/21/2010",
	},
	{
		"name": "DODEE",
		"latitude": "65-23-45.43 N",
		"longitude": "156-59-56.56 W",
		"state": "ALASKA",
		"artcc": "ZAN",
		"type": "MR",
		"updated": "GAL*VOR/DME*329.00/40.00",
	},
	{
		"name": "DOHEB",
		"latitude": "70-21-50 N",
		"longitude": "149-6-27.31 W",
		"state": "ALASKA",
		"artcc": "ZAN",
		"type": "RP",
		"updated": "SCC*VOR/DME*282.52/17.21",
	},
	{
		"name": "DOKAC",
		"latitude": "65-46-36.71 N",
		"longitude": "162-54-38.78 W",
		"state": "ALASKA",
		"artcc": "ZAN",
		"type": "RNAV",
		"updated": "12/01/2016",
	},
	{
		"name": "DOKKA",
		"latitude": "60-31-45.25 N",
		"longitude": "151-17-59.09 W",
		"state": "ALASKA",
		"artcc": "ZAN",
		"type": "RP",
		"updated": "ENA*VOR/DME*192.08/6.00",
	},
	{
		"name": "DOKVE",
		"latitude": "63-0-0.06 N",
		"longitude": "154-50-35.31 W",
		"state": "ALASKA",
		"artcc": "ZAN",
		"type": "RNAV",
		"updated": "12/20/2005",
	},
	{
		"name": "DOLPE",
		"latitude": "60-42-59.82 N",
		"longitude": "161-38-14.45 W",
		"state": "ALASKA",
		"artcc": "ZAN",
		"type": "RP",
		"updated": "BET*VORTAC*112.62/6.87",
	},
	{
		"name": "DOMEY",
		"latitude": "65-7-53.76 N",
		"longitude": "148-3-46.93 W",
		"state": "ALASKA",
		"artcc": "ZAN",
		"type": "RP",
		"updated": "ENN*VORTAC*016.96",
	},
	{
		"name": "DOMIE",
		"latitude": "55-26-52.66 N",
		"longitude": "133-29-50.45 W",
		"state": "ALASKA",
		"artcc": "ZAN",
		"type": "RP",
		"updated": "AKW*NDB/DME*223.21/16.00",
	},
	{
		"name": "DONEL",
		"latitude": "63-40-22.27 N",
		"longitude": "145-40-0.43 W",
		"state": "ALASKA",
		"artcc": "ZAN",
		"type": "RP",
		"updated": "BIG*VORTAC*153.14/20.00",
	},
	{
		"name": "DONSY",
		"latitude": "64-56-3.12 N",
		"longitude": "147-37-40.8 W",
		"state": "ALASKA",
		"artcc": "ZAN",
		"type": "RNAV",
		"updated": "10/16/2015",
	},
	{
		"name": "DOOZI",
		"latitude": "55-37-57.14 N",
		"longitude": "132-10-28.73 W",
		"state": "ALASKA",
		"artcc": "ZAN",
		"type": "RP",
		"updated": "ANN*VOR/DME*308.54/40.00",
	},
	{
		"name": "DOPMY",
		"latitude": "59-34-45.04 N",
		"longitude": "139-47-54.2 W",
		"state": "ALASKA",
		"artcc": "ZAN",
		"type": "RNAV",
		"updated": "12/22/2016",
	},
	{
		"name": "DORRF",
		"latitude": "61-14-11.21 N",
		"longitude": "149-59-11.58 W",
		"state": "ALASKA",
		"artcc": "ZAN",
		"type": "MR",
		"updated": "EDF*TACAN*242.05/6.40",
	},
	{
		"name": "DOSEY",
		"latitude": "65-59-2.13 N",
		"longitude": "161-9-43.78 W",
		"state": "ALASKA",
		"artcc": "ZAN",
		"type": "RP",
		"updated": "BVK*NDB/DME*293.39/0.40",
	},
	{
		"name": "DOTKY",
		"latitude": "66-50-51.04 N",
		"longitude": "161-32-33.87 W",
		"state": "ALASKA",
		"artcc": "ZAN",
		"type": "RNAV",
		"updated": "11/24/2009",
	},
	{
		"name": "DOUGE",
		"latitude": "64-38-34.75 N",
		"longitude": "148-9-43.78 W",
		"state": "ALASKA",
		"artcc": "ZAN",
		"type": "RNAV",
		"updated": "03/11/2009",
	},
	{
		"name": "DOUGL",
		"latitude": "61-23-30 N",
		"longitude": "150-12-52.53 W",
		"state": "ALASKA",
		"artcc": "ZAN",
		"type": "WP",
		"updated": "10/02/1995",
	},
	{
		"name": "DOYEG",
		"latitude": "61-14-10.51 N",
		"longitude": "149-59-18.1 W",
		"state": "ALASKA",
		"artcc": "ZAN",
		"type": "MR",
		"updated": "EDF*TACAN*/6.45",
	},
	{
		"name": "DOZEY",
		"latitude": "62-24-4.14 N",
		"longitude": "145-29-3.08 W",
		"state": "ALASKA",
		"artcc": "ZAN",
		"type": "RP",
		"updated": "GKN*VOR/DME*333.05/14.92",
	},
	{
		"name": "DRAPP",
		"latitude": "54-38-37 N",
		"longitude": "178-7-9.2 W",
		"state": "ALASKA",
		"artcc": "ZAN",
		"type": "RP",
		"updated": "09/19/2000",
	},
	{
		"name": "DRIGE",
		"latitude": "63-58-30.1 N",
		"longitude": "160-52-5.45 W",
		"state": "ALASKA",
		"artcc": "ZAN",
		"type": "RP",
		"updated": "UNK*LE*NW CRS/6.00",
	},
	{
		"name": "DRRLL",
		"latitude": "65-22-6.4 N",
		"longitude": "148-17-33.87 W",
		"state": "ALASKA",
		"artcc": "ZAN",
		"type": "RNAV",
		"updated": "07/23/2012",
	},
	{
		"name": "DRW05",
		"latitude": "51-52-50.07 N",
		"longitude": "176-39-3.95 W",
		"state": "ALASKA",
		"artcc": "ZAN",
		"type": "CN",
		"updated": "12/16/2009",
	},
	{
		"name": "DRYST",
		"latitude": "55-12-10.57 N",
		"longitude": "131-37-39.03 W",
		"state": "ALASKA",
		"artcc": "ZAN",
		"type": "RNAV",
		"updated": "05/01/2014",
	},
	{
		"name": "DRYYY",
		"latitude": "59-9-23.4 N",
		"longitude": "138-34-33.6 W",
		"state": "ALASKA",
		"artcc": "ZAN",
		"type": "RNAV",
		"updated": "07/05/2016",
	},
	{
		"name": "DTOUR",
		"latitude": "62-0-40.37 N",
		"longitude": "149-19-30.6 W",
		"state": "ALASKA",
		"artcc": "ZAN",
		"type": "RNAV",
		"updated": "11/27/2015",
	},
	{
		"name": "DUBEY",
		"latitude": "64-9-47.29 N",
		"longitude": "145-30-12.68 W",
		"state": "ALASKA",
		"artcc": "ZAN",
		"type": "MW",
		"updated": "11/28/2006",
	},
	{
		"name": "DUCEK",
		"latitude": "67-55-1.37 N",
		"longitude": "146-4-39.03 W",
		"state": "ALASKA",
		"artcc": "ZAN",
		"type": "RNAV",
		"updated": "12/01/2005",
	},
	{
		"name": "DUCEL",
		"latitude": "64-30-56.61 N",
		"longitude": "155-42-19.21 W",
		"state": "ALASKA",
		"artcc": "ZAN",
		"type": "RNAV",
		"updated": "04/12/2007",
	},
	{
		"name": "DUCEY",
		"latitude": "57-6-9.987 N",
		"longitude": "133-21-34.569 W",
		"state": "ALASKA",
		"artcc": "ZAN",
		"type": "RNAV",
		"updated": "05/24/2002",
	},
	{
		"name": "DUCLA",
		"latitude": "57-1-47.87 N",
		"longitude": "135-37-49.12 W",
		"state": "ALASKA",
		"artcc": "ZAN",
		"type": "RNAV",
		"updated": "06/26/2013",
	},
	{
		"name": "DUGAC",
		"latitude": "55-18-52.49 N",
		"longitude": "161-6-6.43 W",
		"state": "ALASKA",
		"artcc": "ZAN",
		"type": "RP",
		"updated": "HBT*NDB/DME*255.07/20.00",
	},
	{
		"name": "DUGEY",
		"latitude": "66-44-25.49 N",
		"longitude": "159-30-14.55 W",
		"state": "ALASKA",
		"artcc": "ZAN",
		"type": "RNAV",
		"updated": "05/10/2007",
	},
	{
		"name": "DUHGO",
		"latitude": "59-3-11.76 N",
		"longitude": "158-33-38.89 W",
		"state": "ALASKA",
		"artcc": "ZAN",
		"type": "RNAV",
		"updated": "12/16/2009",
	},
	{
		"name": "DUHIV",
		"latitude": "69-48-2.22 N",
		"longitude": "162-29-54.14 W",
		"state": "ALASKA",
		"artcc": "ZAN",
		"type": "RNAV",
		"updated": "11/19/2004",
	},
	{
		"name": "DUKAC",
		"latitude": "65-10-19.58 N",
		"longitude": "152-28-46.52 W",
		"state": "ALASKA",
		"artcc": "ZAN",
		"type": "RNAV",
		"updated": "05/31/2005",
	},
	{
		"name": "DUKEC",
		"latitude": "56-45-22.84 N",
		"longitude": "133-33-41.22 W",
		"state": "ALASKA",
		"artcc": "ZAN",
		"type": "RP",
		"updated": "AFE*NDB/DME*116.09/17.00",
	},
	{
		"name": "DUKGE",
		"latitude": "63-18-23.88 N",
		"longitude": "162-15-54.5 W",
		"state": "ALASKA",
		"artcc": "ZAN",
		"type": "RNAV",
		"updated": "05/05/2005",
	},
	{
		"name": "DUKPE",
		"latitude": "68-52-25.05 N",
		"longitude": "166-1-29.96 W",
		"state": "ALASKA",
		"artcc": "ZAN",
		"type": "MW",
		"updated": "02/24/2014",
	},
	{
		"name": "DUPYA",
		"latitude": "58-48-20.4 N",
		"longitude": "156-55-38.34 W",
		"state": "ALASKA",
		"artcc": "ZAN",
		"type": "RNAV",
		"updated": "07/17/2008",
	},
	{
		"name": "DURAY",
		"latitude": "60-36-46.02 N",
		"longitude": "162-1-48.66 W",
		"state": "ALASKA",
		"artcc": "ZAN",
		"type": "RP",
		"updated": "BET*VORTAC*196.48/12.00",
	},
	{
		"name": "DUSGE",
		"latitude": "61-44-24.18 N",
		"longitude": "164-59-56.64 W",
		"state": "ALASKA",
		"artcc": "ZAN",
		"type": "RNAV",
		"updated": "06/15/2009",
	},
	{
		"name": "DUTKE",
		"latitude": "66-25-2.96 N",
		"longitude": "146-57-36.1 W",
		"state": "ALASKA",
		"artcc": "ZAN",
		"type": "RNAV",
		"updated": "12/28/2004",
	},
	{
		"name": "DUVFU",
		"latitude": "70-25-46.76 N",
		"longitude": "158-7-5.68 W",
		"state": "ALASKA",
		"artcc": "ZAN",
		"type": "RNAV",
		"updated": "12/22/2005",
	},
	{
		"name": "DUVOT",
		"latitude": "62-29-8.27 N",
		"longitude": "141-0-0 W",
		"state": "ALASKA",
		"artcc": "ZAN",
		"type": "RP",
		"updated": "YXQ*NDB*116.75",
	},
	{
		"name": "DUYAN",
		"latitude": "55-30-33.69 N",
		"longitude": "133-10-33.95 W",
		"state": "ALASKA",
		"artcc": "ZAN",
		"type": "RNAV",
		"updated": "08/31/2004",
	},
	{
		"name": "DUYAS",
		"latitude": "59-35-27.99 N",
		"longitude": "157-41-56.75 W",
		"state": "ALASKA",
		"artcc": "ZAN",
		"type": "RNAV",
		"updated": "10/05/2007",
	},
	{
		"name": "DWARF",
		"latitude": "55-22-58.87 N",
		"longitude": "132-14-40.23 W",
		"state": "ALASKA",
		"artcc": "ZAN",
		"type": "RP",
		"updated": "ANN*VOR/DME*289.55/30.00",
	},
