[
	{
		"name": "EARMI",
		"latitude": "63-58-32.62 N",
		"longitude": "161-15-27.69 W",
		"state": "ALASKA",
		"artcc": "ZAN",
		"type": "RP",
		"updated": "UNK*VOR/DME*273.63/16.00"
	},
	{
		"name": "EBAYA",
		"latitude": "64-30-59.2 N",
		"longitude": "163-3-52.08 W",
		"state": "ALASKA",
		"artcc": "ZAN",
		"type": "RNAV",
		"updated": "10/17/2005"
	},
	{
		"name": "EBGEC",
		"latitude": "70-14-42.2 N",
		"longitude": "143-4-1.92 W",
		"state": "ALASKA",
		"artcc": "ZAN",
		"type": "RNAV",
		"updated": "09/28/2016"
	},
	{
		"name": "EBGUY",
		"latitude": "59-36-46.56 N",
		"longitude": "157-40-27.09 W",
		"state": "ALASKA",
		"artcc": "ZAN",
		"type": "RNAV",
		"updated": "07/21/2015"
	},
	{
		"name": "EBIKY",
		"latitude": "64-57-27.61 N",
		"longitude": "157-17-59.35 W",
		"state": "ALASKA",
		"artcc": "ZAN",
		"type": "RP",
		"updated": "HSL*VOR/DME*188.98"
	},
	{
		"name": "EBILE",
		"latitude": "51-57-43.99 N",
		"longitude": "176-24-58.46 W",
		"state": "ALASKA",
		"artcc": "ZAN",
		"type": "RNAV",
		"updated": "05/08/2008"
	},
	{
		"name": "EBLAW",
		"latitude": "70-45-30 N",
		"longitude": "154-14-38 W",
		"state": "ALASKA",
		"artcc": "ZAN",
		"type": "RNAV",
		"updated": "11/27/2015"
	},
	{
		"name": "EBOLE",
		"latitude": "60-28-29.83 N",
		"longitude": "151-0-47.88 W",
		"state": "ALASKA",
		"artcc": "ZAN",
		"type": "RNAV",
		"updated": "07/10/2013"
	},
	{
		"name": "EBSIH",
		"latitude": "61-30-22.8 N",
		"longitude": "158-51-7.38 W",
		"state": "ALASKA",
		"artcc": "ZAN",
		"type": "RNAV",
		"updated": "04/19/2016"
	},
	{
		"name": "EBTOC",
		"latitude": "64-44-0.12 N",
		"longitude": "147-59-52.83 W",
		"state": "ALASKA",
		"artcc": "ZAN",
		"type": "RNAV",
		"updated": "10/16/2015"
	},
	{
		"name": "EBURG",
		"latitude": "71-8-42.97 N",
		"longitude": "157-30-35.82 W",
		"state": "ALASKA",
		"artcc": "ZAN",
		"type": "RP",
		"updated": "VIR*NDB*221.08"
	},
	{
		"name": "ECADU",
		"latitude": "67-58-48.47 N",
		"longitude": "145-55-11.9 W",
		"state": "ALASKA",
		"artcc": "ZAN",
		"type": "RNAV",
		"updated": "12/01/2005"
	},
	{
		"name": "ECAGU",
		"latitude": "65-40-6.6 N",
		"longitude": "156-26-22.95 W",
		"state": "ALASKA",
		"artcc": "ZAN",
		"type": "RNAV",
		"updated": "05/09/2006"
	},
	{
		"name": "ECALI",
		"latitude": "55-49-5.9 N",
		"longitude": "159-18-27.46 W",
		"state": "ALASKA",
		"artcc": "ZAN",
		"type": "RNAV",
		"updated": "01/10/2005"
	},
	{
		"name": "ECAXE",
		"latitude": "60-8-4.13 N",
		"longitude": "149-24-36.67 W",
		"state": "ALASKA",
		"artcc": "ZAN",
		"type": "RNAV",
		"updated": "05/05/2011"
	},
	{
		"name": "ECAYI",
		"latitude": "62-58-31.53 N",
		"longitude": "141-48-4.21 W",
		"state": "ALASKA",
		"artcc": "ZAN",
		"type": "RNAV",
		"updated": "11/14/2006"
	},
	{
		"name": "ECIGO",
		"latitude": "61-32-7.73 N",
		"longitude": "149-29-18.09 W",
		"state": "ALASKA",
		"artcc": "ZAN",
		"type": "RNAV",
		"updated": "12/10/2011"
	},
	{
		"name": "ECIKA",
		"latitude": "62-4-39 N",
		"longitude": "163-17-57.4 W",
		"state": "ALASKA",
		"artcc": "ZAN",
		"type": "RNAV",
		"updated": "04/17/2006"
	},
	{
		"name": "ECIKI",
		"latitude": "61-15-15.28 N",
		"longitude": "150-34-34.08 W",
		"state": "ALASKA",
		"artcc": "ZAN",
		"type": "RNAV",
		"updated": "08/24/2004"
	},
	{
		"name": "ECIPI",
		"latitude": "67-55-48.11 N",
		"longitude": "165-29-58.07 W",
		"state": "ALASKA",
		"artcc": "ZAN",
		"type": "RP",
		"updated": "OTZ*VOR/DME*298.90/93.00"
	},
	{
		"name": "ECKIX",
		"latitude": "62-52-1.45 N",
		"longitude": "164-30-3.25 W",
		"state": "ALASKA",
		"artcc": "ZAN",
		"type": "RNAV",
		"updated": "05/03/2007"
	},
	{
		"name": "ECOLI",
		"latitude": "65-56-49.26 N",
		"longitude": "160-37-46.84 W",
		"state": "ALASKA",
		"artcc": "ZAN",
		"type": "RNAV",
		"updated": "05/04/2007"
	},
	{
		"name": "EDDEE",
		"latitude": "60-52-17.33 N",
		"longitude": "155-34-29.02 W",
		"state": "ALASKA",
		"artcc": "ZAN",
		"type": "RNAV",
		"updated": "11/23/2015"
	},
	{
		"name": "EDELE",
		"latitude": "60-45-57.13 N",
		"longitude": "148-10-55.06 W",
		"state": "ALASKA",
		"artcc": "ZAN",
		"type": "RP",
		"updated": "JOH*VOR/DME*272.81/49.82"
	},
	{
		"name": "EDETE",
		"latitude": "56-28-4.15 N",
		"longitude": "132-16-41.67 W",
		"state": "ALASKA",
		"artcc": "ZAN",
		"type": "RNAV",
		"updated": "11/29/2012"
	},
	{
		"name": "EDGUC",
		"latitude": "58-22-47.5 N",
		"longitude": "157-28-58.57 W",
		"state": "ALASKA",
		"artcc": "ZAN",
		"type": "RNAV",
		"updated": "08/15/2005"
	},
	{
		"name": "EDMON",
		"latitude": "64-5-10.61 N",
		"longitude": "159-50-54.13 W",
		"state": "ALASKA",
		"artcc": "ZAN",
		"type": "RP",
		"updated": "UNK*VOR/DME*046.73/25.00"
	},
	{
		"name": "EDUCE",
		"latitude": "60-15-5.04 N",
		"longitude": "161-1-9.29 W",
		"state": "ALASKA",
		"artcc": "ZAN",
		"type": "RP",
		"updated": "BET*VORTAC*129.00/40.00"
	},
	{
		"name": "EDWUM",
		"latitude": "64-52-11.31 N",
		"longitude": "156-17-28.01 W",
		"state": "ALASKA",
		"artcc": "ZAN",
		"type": "RNAV",
		"updated": "01/26/2010"
	},
	{
		"name": "EEDEN",
		"latitude": "55-53-58.53 N",
		"longitude": "137-0-5.62 W",
		"state": "ALASKA",
		"artcc": "ZAN",
		"type": "RP",
		"updated": "YZP*VOR/DME*294.36"
	},
	{
		"name": "EEEGL",
		"latitude": "61-35-9.99 N",
		"longitude": "149-49-47.83 W",
		"state": "ALASKA",
		"artcc": "ZAN",
		"type": "MR",
		"updated": "EDF*TACAN*337.00/20.00"
	},
	{
		"name": "EEGGL",
		"latitude": "55-32-57.04 N",
		"longitude": "132-2-56.28 W",
		"state": "ALASKA",
		"artcc": "ZAN",
		"type": "RNAV",
		"updated": "01/20/2012"
	},
	{
		"name": "EELLK",
		"latitude": "64-31-49.63 N",
		"longitude": "147-59-51.51 W",
		"state": "ALASKA",
		"artcc": "ZAN",
		"type": "RNAV",
		"updated": "10/16/2015"
	},
	{
		"name": "EERIC",
		"latitude": "58-21-35.94 N",
		"longitude": "134-48-11.37 W",
		"state": "ALASKA",
		"artcc": "ZAN",
		"type": "RNAV",
		"updated": "05/18/2016"
	},
	{
		"name": "EFELA",
		"latitude": "56-34-33.4 N",
		"longitude": "169-43-6.72 W",
		"state": "ALASKA",
		"artcc": "ZAN",
		"type": "RNAV",
		"updated": "02/09/2018"
	},
	{
		"name": "EFYEZ",
		"latitude": "61-5-37 N",
		"longitude": "149-52-47 W",
		"state": "ALASKA",
		"artcc": "ZAN",
		"type": "RNAV",
		"updated": "05/12/2010"
	},
	{
		"name": "EGACU",
		"latitude": "66-58-4.44 N",
		"longitude": "146-33-47.95 W",
		"state": "ALASKA",
		"artcc": "ZAN",
		"type": "RNAV",
		"updated": "02/28/2008"
	},
	{
		"name": "EGAXE",
		"latitude": "63-26-31.64 N",
		"longitude": "143-36-50.29 W",
		"state": "ALASKA",
		"artcc": "ZAN",
		"type": "RP",
		"updated": "ORT*VORTAC*279.55/55.00"
	},
	{
		"name": "EGAYU",
		"latitude": "62-49-36.71 N",
		"longitude": "160-4-22 W",
		"state": "ALASKA",
		"artcc": "ZAN",
		"type": "RNAV",
		"updated": "08/17/2017"
	},
	{
		"name": "EGCUM",
		"latitude": "56-59-28.01 N",
		"longitude": "135-33-23.52 W",
		"state": "ALASKA",
		"artcc": "ZAN",
		"type": "RNAV",
		"updated": "11/04/2014"
	},
	{
		"name": "EGDIQ",
		"latitude": "59-33-27.74 N",
		"longitude": "154-38-32.39 W",
		"state": "ALASKA",
		"artcc": "ZAN",
		"type": "RNAV",
		"updated": "10/24/2001"
	},
	{
		"name": "EGGEN",
		"latitude": "67-56-59.14 N",
		"longitude": "163-4-49.93 W",
		"state": "ALASKA",
		"artcc": "ZAN",
		"type": "RNAV",
		"updated": "07/28/2008"
	},
	{
		"name": "EGGER",
		"latitude": "60-21-25.38 N",
		"longitude": "145-44-31.46 W",
		"state": "ALASKA",
		"artcc": "ZAN",
		"type": "RP",
		"updated": "GCR*NDB*206.15"
	},
	{
		"name": "EGICI",
		"latitude": "62-35-33.21 N",
		"longitude": "164-38-50.24 W",
		"state": "ALASKA",
		"artcc": "ZAN",
		"type": "RNAV",
		"updated": "05/03/2007"
	},
	{
		"name": "EGIXE",
		"latitude": "66-55-39.26 N",
		"longitude": "157-21-50.84 W",
		"state": "ALASKA",
		"artcc": "ZAN",
		"type": "RNAV",
		"updated": "06/26/2009"
	},
	{
		"name": "EGKAJ",
		"latitude": "61-17-45.1 N",
		"longitude": "150-8-57.96 W",
		"state": "ALASKA",
		"artcc": "ZAN",
		"type": "RNAV",
		"updated": "07/18/2012"
	},
	{
		"name": "EGKIL",
		"latitude": "61-14-48.87 N",
		"longitude": "149-51-51.47 W",
		"state": "ALASKA",
		"artcc": "ZAN",
		"type": "MR",
		"updated": "EDF*TACAN*/2.80"
	},
	{
		"name": "EGRAM",
		"latitude": "62-47-16.58 N",
		"longitude": "149-53-55.83 W",
		"state": "ALASKA",
		"artcc": "ZAN",
		"type": "RP",
		"updated": "TKA*VOR/DME*351.94/30.02"
	},
	{
		"name": "EGULL",
		"latitude": "61-20-48 N",
		"longitude": "149-30-48 W",
		"state": "ALASKA",
		"artcc": "ZAN",
		"type": "WP",
		"updated": "10/02/1995"
	},
	{
		"name": "EHZEG",
		"latitude": "62-57-13.6 N",
		"longitude": "149-55-17.17 W",
		"state": "ALASKA",
		"artcc": "ZAN",
		"type": "RNAV",
		"updated": "07/13/2017"
	},
	{
		"name": "EJACI",
		"latitude": "64-28-24.19 N",
		"longitude": "161-54-53.28 W",
		"state": "ALASKA",
		"artcc": "ZAN",
		"type": "RNAV",
		"updated": "12/21/2009"
	},
	{
		"name": "EKAPE",
		"latitude": "70-14-2.75 N",
		"longitude": "145-47-17.4 W",
		"state": "ALASKA",
		"artcc": "ZAN",
		"type": "RNAV",
		"updated": "04/06/2009"
	},
	{
		"name": "EKAYU",
		"latitude": "60-2-28.04 N",
		"longitude": "151-30-5.66 W",
		"state": "ALASKA",
		"artcc": "ZAN",
		"type": "RP",
		"updated": "HOM*VOR/DME*341.12/20.00"
	},
	{
		"name": "EKEPE",
		"latitude": "61-58-40.84 N",
		"longitude": "162-49-50.53 W",
		"state": "ALASKA",
		"artcc": "ZAN",
		"type": "RNAV",
		"updated": "09/11/2012"
	},
	{
		"name": "EKERE",
		"latitude": "68-16-9.52 N",
		"longitude": "166-53-13.6 W",
		"state": "ALASKA",
		"artcc": "ZAN",
		"type": "RNAV",
		"updated": "09/09/2013"
	},
	{
		"name": "EKITY",
		"latitude": "56-29-50.121 N",
		"longitude": "132-24-29.429 W",
		"state": "ALASKA",
		"artcc": "ZAN",
		"type": "RNAV",
		"updated": "05/24/2002"
	},
	{
		"name": "EKNAC",
		"latitude": "66-31-47.98 N",
		"longitude": "145-25-57.35 W",
		"state": "ALASKA",
		"artcc": "ZAN",
		"type": "RNAV",
		"updated": "10/21/2013"
	},
	{
		"name": "EKUCO",
		"latitude": "64-30-11.12 N",
		"longitude": "149-15-1.61 W",
		"state": "ALASKA",
		"artcc": "ZAN",
		"type": "RNAV",
		"updated": "09/09/2009"
	},
	{
		"name": "ELACA",
		"latitude": "65-2-26.11 N",
		"longitude": "147-26-38.38 W",
		"state": "ALASKA",
		"artcc": "ZAN",
		"type": "RNAV",
		"updated": "09/09/2009"
	},
	{
		"name": "ELBEF",
		"latitude": "61-49-46.58 N",
		"longitude": "165-23-32.75 W",
		"state": "ALASKA",
		"artcc": "ZAN",
		"type": "RNAV",
		"updated": "03/09/2012"
	},
	{
		"name": "ELCON",
		"latitude": "65-20-1.98 N",
		"longitude": "153-18-22.76 W",
		"state": "ALASKA",
		"artcc": "ZAN",
		"type": "RP",
		"updated": "TAL*VOR/DME*269.84/30.00"
	},
	{
		"name": "ELDOH",
		"latitude": "59-36-35.01 N",
		"longitude": "152-3-58.25 W",
		"state": "ALASKA",
		"artcc": "ZAN",
		"type": "RP",
		"updated": "HOM*VOR/DME*237.35/19.50"
	},
	{
		"name": "ELESS",
		"latitude": "57-3-56.88 N",
		"longitude": "159-21-21.57 W",
		"state": "ALASKA",
		"artcc": "ZAN",
		"type": "MR",
		"updated": "AKN*VORTAC*200.00/130.00"
	},
	{
		"name": "ELEVE",
		"latitude": "57-45-0.34 N",
		"longitude": "152-24-32.11 W",
		"state": "ALASKA",
		"artcc": "ZAN",
		"type": "WP",
		"updated": "08/30/2015"
	},
	{
		"name": "ELFEE",
		"latitude": "55-17-45.84 N",
		"longitude": "162-47-20.77 W",
		"state": "ALASKA",
		"artcc": "ZAN",
		"type": "RNAV",
		"updated": "02/09/2018"
	},
	{
		"name": "ELIAS",
		"latitude": "61-9-56.19 N",
		"longitude": "150-36-24.86 W",
		"state": "ALASKA",
		"artcc": "ZAN",
		"type": "RP",
		"updated": "TED*VOR/DME*251.87/18.80"
	},
	{
		"name": "ELLAM",
		"latitude": "61-22-41.91 N",
		"longitude": "149-20-20.43 W",
		"state": "ALASKA",
		"artcc": "ZAN",
		"type": "RP",
		"updated": "BGQ*VORTAC*103.19/21.43"
	},
	{
		"name": "ELPEE",
		"latitude": "58-50-59.23 N",
		"longitude": "161-58-56.05 W",
		"state": "ALASKA",
		"artcc": "ZAN",
		"type": "MR",
		"updated": "EHM*NDB/DME*001.75/12.00"
	},
	{
		"name": "ELUMU",
		"latitude": "70-29-34.03 N",
		"longitude": "150-16-45.36 W",
		"state": "ALASKA",
		"artcc": "ZAN",
		"type": "RNAV",
		"updated": "07/24/2009"
	},
	{
		"name": "ELVEK",
		"latitude": "52-43-6.3 N",
		"longitude": "174-3-33.63 E",
		"state": "ALASKA",
		"artcc": "ZAN",
		"type": "MR",
		"updated": "SYA*VORTAC*271.96/0.10"
	},
	{
		"name": "EMHUT",
		"latitude": "58-50-37.97 N",
		"longitude": "158-41-22.13 W",
		"state": "ALASKA",
		"artcc": "ZAN",
		"type": "RP",
		"updated": "DLG*VOR/DME*190.33/10.00"
	},
	{
		"name": "EMIDE",
		"latitude": "63-55-25.37 N",
		"longitude": "149-1-31.67 W",
		"state": "ALASKA",
		"artcc": "ZAN",
		"type": "RNAV",
		"updated": "04/13/2017"
	},
	{
		"name": "EMLAW",
		"latitude": "52-44-26.43 N",
		"longitude": "173-37-30 E",
		"state": "ALASKA",
		"artcc": "ZAN",
		"type": "MR",
		"updated": "SYA*VORTAC*272.00/16.00"
	},
	{
		"name": "EMMAR",
		"latitude": "66-9-15.17 N",
		"longitude": "161-41-46.01 W",
		"state": "ALASKA",
		"artcc": "ZAN",
		"type": "RP",
		"updated": "WLK*VOR/DME*221.72"
	},
	{
		"name": "EMMMO",
		"latitude": "64-26-30.4 N",
		"longitude": "165-0-17.33 W",
		"state": "ALASKA",
		"artcc": "ZAN",
		"type": "RP",
		"updated": "OME*LD*098.77/13.01"
	},
	{
		"name": "EMOWE",
		"latitude": "52-38-43 N",
		"longitude": "174-27-17.63 E",
		"state": "ALASKA",
		"artcc": "ZAN",
		"type": "MR",
		"updated": "SYA*VORTAC*/15.00"
	},
	{
		"name": "EMSOW",
		"latitude": "62-57-31.35 N",
		"longitude": "141-0-0 W",
		"state": "ALASKA",
		"artcc": "ZAN",
		"type": "RP",
		"updated": "ORT*VORTAC*064.00/25.02"
	},
	{
		"name": "ENCOR",
		"latitude": "66-55-58.35 N",
		"longitude": "152-19-54.35 W",
		"state": "ALASKA",
		"artcc": "ZAN",
		"type": "RNAV",
		"updated": "06/09/2005"
	},
	{
		"name": "ENEGU",
		"latitude": "62-43-1.2 N",
		"longitude": "168-39-25.4 W",
		"state": "ALASKA",
		"artcc": "ZAN",
		"type": "RNAV",
		"updated": "03/11/2009"
	},
	{
		"name": "ENEXY",
		"latitude": "70-7-8.09 N",
		"longitude": "146-25-59.43 W",
		"state": "ALASKA",
		"artcc": "ZAN",
		"type": "RNAV",
		"updated": "06/26/2013"
	},
	{
		"name": "ENIBE",
		"latitude": "61-0-21.63 N",
		"longitude": "150-45-1.51 W",
		"state": "ALASKA",
		"artcc": "ZAN",
		"type": "RNAV",
		"updated": "06/21/2017"
	},
	{
		"name": "ENIVE",
		"latitude": "70-20-52.15 N",
		"longitude": "149-20-51.38 W",
		"state": "ALASKA",
		"artcc": "ZAN",
		"type": "RP",
		"updated": "RGN*LD*056.42/5.91"
	},
	{
		"name": "ENSUW",
		"latitude": "70-29-43.52 N",
		"longitude": "156-53-2.78 W",
		"state": "ALASKA",
		"artcc": "ZAN",
		"type": "RNAV",
		"updated": "12/22/2005"
	},
	{
		"name": "ENYUJ",
		"latitude": "59-5-46.79 N",
		"longitude": "158-48-24.73 W",
		"state": "ALASKA",
		"artcc": "ZAN",
		"type": "RP",
		"updated": "DLG*VOR/DME*293.00/10.00"
	},
	{
		"name": "EPEHO",
		"latitude": "69-10-10.19 N",
		"longitude": "160-9-44.45 W",
		"state": "ALASKA",
		"artcc": "ZAN",
		"type": "RNAV",
		"updated": "11/15/2010"
	},
	{
		"name": "EPEYA",
		"latitude": "58-39-4.67 N",
		"longitude": "156-35-41.43 W",
		"state": "ALASKA",
		"artcc": "ZAN",
		"type": "RP",
		"updated": "AKN*VORTAC*115.77/6.60"
	},
	{
		"name": "EPHEX",
		"latitude": "54-59-41.58 N",
		"longitude": "162-34-51.13 W",
		"state": "ALASKA",
		"artcc": "ZAN",
		"type": "RNAV",
		"updated": "10/31/2005"
	},
	{
		"name": "EPLOS",
		"latitude": "59-21-19.4 N",
		"longitude": "177-20-11.3 W",
		"state": "ALASKA",
		"artcc": "ZAN",
		"type": "RNAV",
		"updated": "03/11/2009"
	},
	{
		"name": "EPNOW",
		"latitude": "63-38-24.66 N",
		"longitude": "170-57-43.97 W",
		"state": "ALASKA",
		"artcc": "ZAN",
		"type": "RNAV",
		"updated": "10/05/2011"
	},
	{
		"name": "EPOMY",
		"latitude": "59-0-6.11 N",
		"longitude": "158-15-15.2 W",
		"state": "ALASKA",
		"artcc": "ZAN",
		"type": "RNAV",
		"updated": "12/21/2009"
	},
	{
		"name": "EPUTE",
		"latitude": "61-52-2.72 N",
		"longitude": "161-56-48.38 W",
		"state": "ALASKA",
		"artcc": "ZAN",
		"type": "RNAV",
		"updated": "04/02/2012"
	},
	{
		"name": "EQQUP",
		"latitude": "56-40-1.14 N",
		"longitude": "169-58-2.85 W",
		"state": "ALASKA",
		"artcc": "ZAN",
		"type": "RP",
		"updated": "SRI*NDB/DME*286.90/11.98"
	},
	{
		"name": "ERANE",
		"latitude": "55-33-50.2 N",
		"longitude": "132-37-34.42 W",
		"state": "ALASKA",
		"artcc": "ZAN",
		"type": "RP",
		"updated": "ANN*VOR/DME*289.55/46.98"
	},
	{
		"name": "EREBY",
		"latitude": "60-22-29.4 N",
		"longitude": "151-23-16.25 W",
		"state": "ALASKA",
		"artcc": "ZAN",
		"type": "RNAV",
		"updated": "07/19/2007"
	},
	{
		"name": "ERIYU",
		"latitude": "57-5-39.67 N",
		"longitude": "135-27-4.55 W",
		"state": "ALASKA",
		"artcc": "ZAN",
		"type": "RP",
		"updated": "SIT*DD*W CRS/3.97"
	},
	{
		"name": "ERLAN",
		"latitude": "62-46-35.76 N",
		"longitude": "154-59-32.76 W",
		"state": "ALASKA",
		"artcc": "ZAN",
		"type": "RP",
		"updated": "MCG*VORTAC*102.40/19.99"
	},
	{
		"name": "ERNIK",
		"latitude": "63-39-23.95 N",
		"longitude": "173-6-59.99 W",
		"state": "",
		"artcc": "ZAN",
		"type": "RNAV",
		"updated": "07/03/2017"
	},
	{
		"name": "EROME",
		"latitude": "61-10-52.48 N",
		"longitude": "150-15-24.31 W",
		"state": "ALASKA",
		"artcc": "ZAN",
		"type": "RNAV",
		"updated": "11/18/2014"
	},
	{
		"name": "ERUKE",
		"latitude": "52-40-42.96 N",
		"longitude": "174-17-9.07 E",
		"state": "ALASKA",
		"artcc": "ZAN",
		"type": "MR",
		"updated": "SYA*VORTAC*/8.51"
	},
	{
		"name": "ESAVE",
		"latitude": "66-37-49.71 N",
		"longitude": "159-18-4.32 W",
		"state": "ALASKA",
		"artcc": "ZAN",
		"type": "RNAV",
		"updated": "05/10/2007"
	},
	{
		"name": "ESHOS",
		"latitude": "57-2-42.63 N",
		"longitude": "158-3-45.71 W",
		"state": "ALASKA",
		"artcc": "ZAN",
		"type": "RP",
		"updated": "PDN*NDB/DME*057.85/19.96"
	},
	{
		"name": "ESKAR",
		"latitude": "66-30-27.14 N",
		"longitude": "163-21-32.64 W",
		"state": "ALASKA",
		"artcc": "ZAN",
		"type": "RP",
		"updated": "OTZ*VOR/DME*206.00/30.00"
	},
	{
		"name": "ESOZU",
		"latitude": "64-59-6.86 N",
		"longitude": "147-32-51.6 W",
		"state": "ALASKA",
		"artcc": "ZAN",
		"type": "RP",
		"updated": "FAI*LD*020.08/14.18"
	},
	{
		"name": "ESSAY",
		"latitude": "57-40-39 N",
		"longitude": "152-20-23 W",
		"state": "ALASKA",
		"artcc": "ZAN",
		"type": "RNAV",
		"updated": "05/24/2002"
	},
	{
		"name": "ESWEL",
		"latitude": "57-0-33.27 N",
		"longitude": "158-17-46.61 W",
		"state": "ALASKA",
		"artcc": "ZAN",
		"type": "RP",
		"updated": "PDN*NDB/DME*057.85/12.00"
	},
	{
		"name": "ETDIG",
		"latitude": "55-31-42.5 N",
		"longitude": "132-11-33.32 W",
		"state": "ALASKA",
		"artcc": "ZAN",
		"type": "RNAV",
		"updated": "01/13/2010"
	},
	{
		"name": "ETFAF",
		"latitude": "70-14-27.6 N",
		"longitude": "150-45-23.11 W",
		"state": "ALASKA",
		"artcc": "ZAN",
		"type": "RNAV",
		"updated": "07/08/2011"
	},
	{
		"name": "ETHAN",
		"latitude": "60-49-0 N",
		"longitude": "156-11-0 W",
		"state": "ALASKA",
		"artcc": "ZAN",
		"type": "MW",
		"updated": "12/10/2013"
	},
	{
		"name": "ETIGE",
		"latitude": "67-2-56.97 N",
		"longitude": "146-10-8.29 W",
		"state": "ALASKA",
		"artcc": "ZAN",
		"type": "RNAV",
		"updated": "02/29/2008"
	},
	{
		"name": "ETOCU",
		"latitude": "68-9-40.73 N",
		"longitude": "145-28-26.11 W",
		"state": "ALASKA",
		"artcc": "ZAN",
		"type": "RNAV",
		"updated": "12/01/2005"
	},
	{
		"name": "ETUCO",
		"latitude": "55-23-16 N",
		"longitude": "132-0-27.18 W",
		"state": "ALASKA",
		"artcc": "ZAN",
		"type": "RNAV",
		"updated": "08/31/2004"
	},
	{
		"name": "EVALE",
		"latitude": "66-37-35.94 N",
		"longitude": "159-28-27.92 W",
		"state": "ALASKA",
		"artcc": "ZAN",
		"type": "RNAV",
		"updated": "05/10/2007"
	},
	{
		"name": "EVANN",
		"latitude": "57-14-25.97 N",
		"longitude": "170-11-57.38 W",
		"state": "ALASKA",
		"artcc": "ZAN",
		"type": "RP",
		"updated": "SPY*NDB/DME*002.38/5.16"
	},
	{
		"name": "EVRTS",
		"latitude": "61-19-37.69 N",
		"longitude": "151-3-36.58 W",
		"state": "ALASKA",
		"artcc": "ZAN",
		"type": "RNAV",
		"updated": "12/10/2011"
	},
	{
		"name": "EVUBY",
		"latitude": "70-11-41.74 N",
		"longitude": "151-7-29.31 W",
		"state": "ALASKA",
		"artcc": "ZAN",
		"type": "RNAV",
		"updated": "07/08/2011"
	},
	{
		"name": "EVVOJ",
		"latitude": "65-3-20.21 N",
		"longitude": "147-50-18.1 W",
		"state": "ALASKA",
		"artcc": "ZAN",
		"type": "RP",
		"updated": "FAI*VORTAC*355.00/16.01"
	},
	{
		"name": "EVWIC",
		"latitude": "61-38-14.01 N",
		"longitude": "149-5-15.74 W",
		"state": "ALASKA",
		"artcc": "ZAN",
		"type": "RNAV",
		"updated": "02/09/2018"
	},
	{
		"name": "EWSER",
		"latitude": "54-9-44.92 N",
		"longitude": "166-36-21 W",
		"state": "ALASKA",
		"artcc": "ZAN",
		"type": "RNAV",
		"updated": "06/16/2016"
	},
	{
		"name": "EXIPE",
		"latitude": "58-43-36.42 N",
		"longitude": "157-4-19.23 W",
		"state": "ALASKA",
		"artcc": "ZAN",
		"type": "RP",
		"updated": "AKN*VORTAC*254.85/10.00"
	},
	{
		"name": "EXIWO",
		"latitude": "70-16-10.3 N",
		"longitude": "149-8-39.76 W",
		"state": "ALASKA",
		"artcc": "ZAN",
		"type": "RNAV",
		"updated": "08/24/2017"
	},
	{
		"name": "EXOFY",
		"latitude": "55-33-34.42 N",
		"longitude": "133-6-29.12 W",
		"state": "ALASKA",
		"artcc": "ZAN",
		"type": "RNAV",
		"updated": "04/29/2013"
	},
	{
		"name": "EXUDE",
		"latitude": "58-22-4.86 N",
		"longitude": "134-43-10.03 W",
		"state": "ALASKA",
		"artcc": "ZAN",
		"type": "RNAV",
		"updated": "11/28/2006"
	},
	{
		"name": "EXUME",
		"latitude": "66-34-33.81 N",
		"longitude": "160-3-0.19 W",
		"state": "ALASKA",
		"artcc": "ZAN",
		"type": "RP",
		"updated": "WLK*VOR/DME*209.20/2.00"
	},
	{
		"name": "EYACE",
		"latitude": "65-8-42.6 N",
		"longitude": "166-36-23.4 W",
		"state": "ALASKA",
		"artcc": "ZAN",
		"type": "MW",
		"updated": "03/26/2010"
	},
	{
		"name": "EYAKS",
		"latitude": "60-22-42.05 N",
		"longitude": "145-41-43.53 W",
		"state": "ALASKA",
		"artcc": "ZAN",
		"type": "RP",
		"updated": "GCR*NDB*205.30"
	},
	{
		"name": "EYANA",
		"latitude": "58-12-56.24 N",
		"longitude": "135-2-21.75 W",
		"state": "ALASKA",
		"artcc": "ZAN",
		"type": "RNAV",
		"updated": "11/19/2003"
	},
	{
		"name": "EYARU",
		"latitude": "63-3-29.11 N",
		"longitude": "142-11-5.62 W",
		"state": "ALASKA",
		"artcc": "ZAN",
		"type": "RP",
		"updated": "ORT*VORTAC*288.00/10.00"
	},
	{
		"name": "EYEGO",
		"latitude": "65-7-10.25 N",
		"longitude": "146-32-5 W",
		"state": "ALASKA",
		"artcc": "ZAN",
		"type": "MR",
		"updated": "FAI*VORTAC*041.30/42.31"
	},
	{
		"name": "EYGAL",
		"latitude": "57-1-9.12 N",
		"longitude": "135-30-34.23 W",
		"state": "ALASKA",
		"artcc": "ZAN",
		"type": "RP",
		"updated": "11/04/2014"
	},
	{
		"name": "EYIMO",
		"latitude": "66-36-52.55 N",
		"longitude": "145-3-33.9 W",
		"state": "ALASKA",
		"artcc": "ZAN",
		"type": "RNAV",
		"updated": "10/21/2013"
	},
	{
		"name": "EYOPA",
		"latitude": "61-53-37.02 N",
		"longitude": "161-52-34.69 W",
		"state": "ALASKA",
		"artcc": "ZAN",
		"type": "RNAV",
		"updated": "04/05/2012"
	},
	{
		"name": "EYUYO",
		"latitude": "54-6-3.5 N",
		"longitude": "166-35-38.34 W",
		"state": "ALASKA",
		"artcc": "ZAN",
		"type": "RNAV",
		"updated": "05/18/2016"
	},
	{
		"name": "EZATY",
		"latitude": "64-32-11.76 N",
		"longitude": "164-34-10.38 W",
		"state": "ALASKA",
		"artcc": "ZAN",
		"type": "RP",
		"updated": "OME*VOR/DME*068.77/18.00"
	},
	{
		"name": "EZEXY",
		"latitude": "64-43-47.62 N",
		"longitude": "163-26-22.8 W",
		"state": "ALASKA",
		"artcc": "ZAN",
		"type": "RNAV",
		"updated": "11/05/2013"
	},
	{
		"name": "EZIDU",
		"latitude": "65-17-8.73 N",
		"longitude": "166-20-4.8 W",
		"state": "ALASKA",
		"artcc": "ZAN",
		"type": "RNAV",
		"updated": "04/14/2014"
	},
	{
		"name": "EZZOL",
		"latitude": "62-14-34.02 N",
		"longitude": "150-10-43.8 W",
		"state": "ALASKA",
		"artcc": "ZAN",
		"type": "RNAV",
		"updated": "07/13/2017"
	}
]
