[
	{
		"name": "FABAX",
		"latitude": "69-58-46.05 N",
		"longitude": "143-4-27.47 W",
		"state": "ALASKA",
		"artcc": "ZAN",
		"type": "RNAV",
		"updated": "09/28/2016"
	},
	{
		"name": "FABMU",
		"latitude": "59-5-39.57 N",
		"longitude": "156-6-17.06 W",
		"state": "ALASKA",
		"artcc": "ZAN",
		"type": "RNAV",
		"updated": "09/03/2003"
	},
	{
		"name": "FABSO",
		"latitude": "61-54-8.21 N",
		"longitude": "161-50-39.54 W",
		"state": "ALASKA",
		"artcc": "ZAN",
		"type": "RNAV",
		"updated": "01/17/2008"
	},
	{
		"name": "FACAD",
		"latitude": "59-20-38.7 N",
		"longitude": "139-58-54.87 W",
		"state": "ALASKA",
		"artcc": "ZAN",
		"type": "RNAV",
		"updated": "06/21/2013"
	},
	{
		"name": "FAGIN",
		"latitude": "59-51-56.15 N",
		"longitude": "155-32-43.3 W",
		"state": "ALASKA",
		"artcc": "ZAN",
		"type": "RP",
		"updated": "ILI*NDB/DME*273.43"
	},
	{
		"name": "FAIRE",
		"latitude": "64-9-21.97 N",
		"longitude": "165-21-36.34 W",
		"state": "ALASKA",
		"artcc": "ZAN",
		"type": "RP",
		"updated": "OME*VOR/DME*177.07/20.00"
	},
	{
		"name": "FAKES",
		"latitude": "58-58-56.69 N",
		"longitude": "137-48-28.79 W",
		"state": "ALASKA",
		"artcc": "ZAN",
		"type": "RP",
		"updated": "YAK*VOR/DME*098.48/65.00"
	},
	{
		"name": "FALCO",
		"latitude": "64-59-0.34 N",
		"longitude": "147-21-43.8 W",
		"state": "ALASKA",
		"artcc": "ZAN",
		"type": "MR",
		"updated": "EIL*TACAN*322.00/21.00"
	},
	{
		"name": "FALIK",
		"latitude": "71-17-5.36 N",
		"longitude": "156-35-35.72 W",
		"state": "ALASKA",
		"artcc": "ZAN",
		"type": "RNAV",
		"updated": "01/25/2017"
	},
	{
		"name": "FALIR",
		"latitude": "60-28-27.71 N",
		"longitude": "150-40-14.93 W",
		"state": "ALASKA",
		"artcc": "ZAN",
		"type": "RNAV",
		"updated": "07/19/2007"
	},
	{
		"name": "FALOP",
		"latitude": "66-36-25.79 N",
		"longitude": "159-57-32.09 W",
		"state": "ALASKA",
		"artcc": "ZAN",
		"type": "RNAV",
		"updated": "05/14/2007"
	},
	{
		"name": "FALRO",
		"latitude": "66-47-46.42 N",
		"longitude": "162-18-29.2 W",
		"state": "ALASKA",
		"artcc": "ZAN",
		"type": "RNAV",
		"updated": "08/09/2017"
	},
	{
		"name": "FALRU",
		"latitude": "59-4-56.56 N",
		"longitude": "159-26-10.79 W",
		"state": "ALASKA",
		"artcc": "ZAN",
		"type": "RNAV",
		"updated": "01/20/2004"
	},
	{
		"name": "FALUD",
		"latitude": "61-36-18.78 N",
		"longitude": "159-24-9.92 W",
		"state": "ALASKA",
		"artcc": "ZAN",
		"type": "RNAV",
		"updated": "09/09/2009"
	},
	{
		"name": "FALUX",
		"latitude": "65-2-15.5 N",
		"longitude": "147-26-4.42 W",
		"state": "ALASKA",
		"artcc": "ZAN",
		"type": "RNAV",
		"updated": "03/23/2009"
	},
	{
		"name": "FAMEK",
		"latitude": "61-7-53.72 N",
		"longitude": "154-29-49.7 W",
		"state": "ALASKA",
		"artcc": "ZAN",
		"type": "RNAV",
		"updated": "03/29/2018"
	},
	{
		"name": "FAMUN",
		"latitude": "70-27-57.63 N",
		"longitude": "150-10-3.19 W",
		"state": "ALASKA",
		"artcc": "ZAN",
		"type": "RP",
		"updated": "SCC*VOR/DME*272.16/39.00"
	},
	{
		"name": "FAMUR",
		"latitude": "65-25-47.45 N",
		"longitude": "167-53-9.28 W",
		"state": "ALASKA",
		"artcc": "ZAN",
		"type": "RP",
		"updated": "TNC*NDB/DME*160.00/8.00"
	},
	{
		"name": "FANCI",
		"latitude": "61-18-32.7 N",
		"longitude": "164-48-54.42 W",
		"state": "ALASKA",
		"artcc": "ZAN",
		"type": "RP",
		"updated": "HPB*VOR/DME*094.40/40.00"
	},
	{
		"name": "FANKA",
		"latitude": "60-45-35.75 N",
		"longitude": "151-21-36.35 W",
		"state": "ALASKA",
		"artcc": "ZAN",
		"type": "RP",
		"updated": "ENA*VOR/DME*311.97/10.00"
	},
	{
		"name": "FANUB",
		"latitude": "64-10-36.74 N",
		"longitude": "161-2-29.06 W",
		"state": "ALASKA",
		"artcc": "ZAN",
		"type": "RNAV",
		"updated": "06/26/2009"
	},
	{
		"name": "FAPEP",
		"latitude": "65-35-56.73 N",
		"longitude": "145-2-14.17 W",
		"state": "ALASKA",
		"artcc": "ZAN",
		"type": "RNAV",
		"updated": "03/13/2014"
	},
	{
		"name": "FAPLO",
		"latitude": "60-51-33.17 N",
		"longitude": "161-45-41.04 W",
		"state": "ALASKA",
		"artcc": "ZAN",
		"type": "RNAV",
		"updated": "05/17/2017"
	},
	{
		"name": "FAPUK",
		"latitude": "56-28-16.29 N",
		"longitude": "132-37-15.67 W",
		"state": "ALASKA",
		"artcc": "ZAN",
		"type": "RNAV",
		"updated": "04/29/2013"
	},
	{
		"name": "FAPUN",
		"latitude": "61-38-12.66 N",
		"longitude": "149-18-20.14 W",
		"state": "ALASKA",
		"artcc": "ZAN",
		"type": "RNAV",
		"updated": "07/08/2011"
	},
	{
		"name": "FARME",
		"latitude": "66-56-42.27 N",
		"longitude": "161-32-9.01 W",
		"state": "ALASKA",
		"artcc": "ZAN",
		"type": "RP",
		"updated": "OTZ*VOR/DME*065.97/24.00"
	},
	{
		"name": "FARPU",
		"latitude": "65-55-45.72 N",
		"longitude": "160-56-36.31 W",
		"state": "ALASKA",
		"artcc": "ZAN",
		"type": "RNAV",
		"updated": "05/04/2007"
	},
	{
		"name": "FASGI",
		"latitude": "59-13-16.77 N",
		"longitude": "160-11-6.07 W",
		"state": "ALASKA",
		"artcc": "ZAN",
		"type": "RNAV",
		"updated": "12/21/2005"
	},
	{
		"name": "FATEL",
		"latitude": "60-39-1 N",
		"longitude": "151-9-5.48 W",
		"state": "ALASKA",
		"artcc": "ZAN",
		"type": "RP",
		"updated": "ENA*VOR/DME*012.10/2.50"
	},
	{
		"name": "FATIS",
		"latitude": "66-48-26.35 N",
		"longitude": "159-37-43.01 W",
		"state": "ALASKA",
		"artcc": "ZAN",
		"type": "RNAV",
		"updated": "05/10/2007"
	},
	{
		"name": "FATMU",
		"latitude": "57-0-44.82 N",
		"longitude": "170-26-22.93 W",
		"state": "ALASKA",
		"artcc": "ZAN",
		"type": "RP",
		"updated": "SPY*NDB/DME*208.01/11.00"
	},
	{
		"name": "FATUR",
		"latitude": "66-1-45.73 N",
		"longitude": "153-12-23.33 W",
		"state": "ALASKA",
		"artcc": "ZAN",
		"type": "MW",
		"updated": "12/29/2014"
	},
	{
		"name": "FAVSO",
		"latitude": "65-48-40.69 N",
		"longitude": "168-1-34.3 W",
		"state": "ALASKA",
		"artcc": "ZAN",
		"type": "RNAV",
		"updated": "05/06/2004"
	},
	{
		"name": "FAXEK",
		"latitude": "68-22-0 N",
		"longitude": "145-7-20.81 W",
		"state": "ALASKA",
		"artcc": "ZAN",
		"type": "RNAV",
		"updated": "12/01/2005"
	},
	{
		"name": "FAXOV",
		"latitude": "64-38-54.63 N",
		"longitude": "147-11-29.62 W",
		"state": "ALASKA",
		"artcc": "ZAN",
		"type": "MR",
		"updated": "FAI*VORTAC*092.00/23.00"
	},
	{
		"name": "FEBOD",
		"latitude": "59-45-15.82 N",
		"longitude": "155-2-45.06 W",
		"state": "ALASKA",
		"artcc": "ZAN",
		"type": "RNAV",
		"updated": "01/12/2009"
	},
	{
		"name": "FECFO",
		"latitude": "64-51-10.69 N",
		"longitude": "155-43-12.09 W",
		"state": "ALASKA",
		"artcc": "ZAN",
		"type": "RP",
		"updated": "GAL*VOR/DME*058.23/28.00"
	},
	{
		"name": "FEDBO",
		"latitude": "57-34-47.9 N",
		"longitude": "157-53-23.61 W",
		"state": "ALASKA",
		"artcc": "ZAN",
		"type": "RNAV",
		"updated": "10/07/2003"
	},
	{
		"name": "FEDMA",
		"latitude": "60-46-29.36 N",
		"longitude": "161-41-26.92 W",
		"state": "ALASKA",
		"artcc": "ZAN",
		"type": "RNAV",
		"updated": "01/28/2004"
	},
	{
		"name": "FEDNO",
		"latitude": "61-14-34.22 N",
		"longitude": "149-54-42.64 W",
		"state": "ALASKA",
		"artcc": "ZAN",
		"type": "MR",
		"updated": "EDF*TACAN*/4.20"
	},
	{
		"name": "FEFTU",
		"latitude": "71-12-3.12 N",
		"longitude": "157-21-34.69 W",
		"state": "ALASKA",
		"artcc": "ZAN",
		"type": "RNAV",
		"updated": "05/13/2010"
	},
	{
		"name": "FEGEK",
		"latitude": "66-15-14.77 N",
		"longitude": "162-24-29.59 W",
		"state": "ALASKA",
		"artcc": "ZAN",
		"type": "RNAV",
		"updated": "11/23/2016"
	},
	{
		"name": "FEGEL",
		"latitude": "64-3-20.8 N",
		"longitude": "151-54-47.47 W",
		"state": "ALASKA",
		"artcc": "ZAN",
		"type": "RNAV",
		"updated": "12/22/2005"
	},
	{
		"name": "FEGVI",
		"latitude": "54-57-0.02 N",
		"longitude": "162-27-22.65 W",
		"state": "ALASKA",
		"artcc": "ZAN",
		"type": "RP",
		"updated": "CDB*VORTAC*136.00/22.00"
	},
	{
		"name": "FELAW",
		"latitude": "60-28-9.92 N",
		"longitude": "145-22-26.62 W",
		"state": "ALASKA",
		"artcc": "ZAN",
		"type": "RP",
		"updated": "CDV*LD*E CRS/4.10"
	},
	{
		"name": "FELEN",
		"latitude": "56-58-3.37 N",
		"longitude": "133-56-7.05 W",
		"state": "ALASKA",
		"artcc": "ZAN",
		"type": "RP",
		"updated": "AFE*NDB/DME*265.10/0.80"
	},
	{
		"name": "FELOS",
		"latitude": "66-59-26.14 N",
		"longitude": "158-26-7.36 W",
		"state": "ALASKA",
		"artcc": "ZAN",
		"type": "RNAV",
		"updated": "11/23/2016"
	},
	{
		"name": "FELTI",
		"latitude": "59-11-17.23 N",
		"longitude": "161-58-59.04 W",
		"state": "ALASKA",
		"artcc": "ZAN",
		"type": "RNAV",
		"updated": "10/08/2010"
	},
	{
		"name": "FELUM",
		"latitude": "58-35-46.8 N",
		"longitude": "156-28-39.3 W",
		"state": "ALASKA",
		"artcc": "ZAN",
		"type": "RNAV",
		"updated": "07/17/2008"
	},
	{
		"name": "FELUN",
		"latitude": "64-26-12.1 N",
		"longitude": "146-54-1.53 W",
		"state": "ALASKA",
		"artcc": "ZAN",
		"type": "MR",
		"updated": "EIL*TACAN*/14.00"
	},
	{
		"name": "FEMDA",
		"latitude": "59-40-2.66 N",
		"longitude": "157-24-26.9 W",
		"state": "ALASKA",
		"artcc": "ZAN",
		"type": "RNAV",
		"updated": "10/05/2007"
	},
	{
		"name": "FENLO",
		"latitude": "51-57-22.3 N",
		"longitude": "176-26-0.26 W",
		"state": "ALASKA",
		"artcc": "ZAN",
		"type": "RP",
		"updated": "ADK*NDB/DME*/10.31"
	},
	{
		"name": "FENOM",
		"latitude": "68-7-41.88 N",
		"longitude": "166-40-6.82 W",
		"state": "ALASKA",
		"artcc": "ZAN",
		"type": "RNAV",
		"updated": "09/09/2013"
	},
	{
		"name": "FENUG",
		"latitude": "61-31-35.64 N",
		"longitude": "160-19-16.04 W",
		"state": "ALASKA",
		"artcc": "ZAN",
		"type": "RNAV",
		"updated": "12/28/2004"
	},
	{
		"name": "FEPNO",
		"latitude": "64-27-26.14 N",
		"longitude": "158-24-2.37 W",
		"state": "ALASKA",
		"artcc": "ZAN",
		"type": "RNAV",
		"updated": "06/26/2009"
	},
	{
		"name": "FEPTO",
		"latitude": "64-28-56.66 N",
		"longitude": "165-30-10.99 W",
		"state": "ALASKA",
		"artcc": "ZAN",
		"type": "RNAV",
		"updated": "08/09/2017"
	},
	{
		"name": "FEPUX",
		"latitude": "69-43-22.93 N",
		"longitude": "162-24-47.21 W",
		"state": "ALASKA",
		"artcc": "ZAN",
		"type": "RNAV",
		"updated": "11/19/2004"
	},
	{
		"name": "FEREK",
		"latitude": "64-57-30.93 N",
		"longitude": "147-35-50.73 W",
		"state": "ALASKA",
		"artcc": "ZAN",
		"type": "RP",
		"updated": "FAI*LD*020.08/12.13"
	},
	{
		"name": "FERKU",
		"latitude": "66-47-39.61 N",
		"longitude": "161-14-21.27 W",
		"state": "ALASKA",
		"artcc": "ZAN",
		"type": "RNAV",
		"updated": "11/24/2009"
	},
	{
		"name": "FERSU",
		"latitude": "65-56-34.25 N",
		"longitude": "160-56-56.37 W",
		"state": "ALASKA",
		"artcc": "ZAN",
		"type": "RP",
		"updated": "BVK*NDB/DME*099.24/5.39"
	},
	{
		"name": "FESOL",
		"latitude": "58-38-52.24 N",
		"longitude": "156-35-14.26 W",
		"state": "ALASKA",
		"artcc": "ZAN",
		"type": "RNAV",
		"updated": "09/09/2004"
	},
	{
		"name": "FESVA",
		"latitude": "55-19-4.85 N",
		"longitude": "131-38-57.54 W",
		"state": "ALASKA",
		"artcc": "ZAN",
		"type": "RNAV",
		"updated": "07/17/2008"
	},
	{
		"name": "FETOB",
		"latitude": "59-32-1.61 N",
		"longitude": "139-42-31.18 W",
		"state": "ALASKA",
		"artcc": "ZAN",
		"type": "RP",
		"updated": "YAK*VOR/DME*/2.31"
	},
	{
		"name": "FETUP",
		"latitude": "65-14-38.14 N",
		"longitude": "166-12-54.21 W",
		"state": "ALASKA",
		"artcc": "ZAN",
		"type": "RNAV",
		"updated": "04/14/2014"
	},
	{
		"name": "FEVBO",
		"latitude": "55-44-45.82 N",
		"longitude": "159-15-49.1 W",
		"state": "ALASKA",
		"artcc": "ZAN",
		"type": "RNAV",
		"updated": "05/11/2012"
	},
	{
		"name": "FEVKU",
		"latitude": "59-3-49.19 N",
		"longitude": "160-22-47.29 W",
		"state": "ALASKA",
		"artcc": "ZAN",
		"type": "RNAV",
		"updated": "04/19/2018"
	},
	{
		"name": "FEVON",
		"latitude": "59-14-1.41 N",
		"longitude": "157-20-14.57 W",
		"state": "ALASKA",
		"artcc": "ZAN",
		"type": "RNAV",
		"updated": "10/05/2007"
	},
	{
		"name": "FEVOV",
		"latitude": "70-28-16.19 N",
		"longitude": "155-49-21.39 W",
		"state": "ALASKA",
		"artcc": "ZAN",
		"type": "RNAV",
		"updated": "04/10/2007"
	},
	{
		"name": "FEXIG",
		"latitude": "59-55-59.34 N",
		"longitude": "157-29-48.68 W",
		"state": "ALASKA",
		"artcc": "ZAN",
		"type": "RNAV",
		"updated": "07/21/2015"
	},
	{
		"name": "FEXIM",
		"latitude": "68-36-12.18 N",
		"longitude": "149-40-4.23 W",
		"state": "ALASKA",
		"artcc": "ZAN",
		"type": "RNAV",
		"updated": "07/28/2008"
	},
	{
		"name": "FFITZ",
		"latitude": "62-8-51.79 N",
		"longitude": "152-53-29.55 W",
		"state": "ALASKA",
		"artcc": "ZAN",
		"type": "RP",
		"updated": "MCG*VORTAC*102.40/89.69"
	},
	{
		"name": "FIBAK",
		"latitude": "70-30-41.7 N",
		"longitude": "158-9-29.03 W",
		"state": "ALASKA",
		"artcc": "ZAN",
		"type": "RNAV",
		"updated": "12/22/2005"
	},
	{
		"name": "FIBEB",
		"latitude": "66-7-7.96 N",
		"longitude": "162-55-54.93 W",
		"state": "ALASKA",
		"artcc": "ZAN",
		"type": "RNAV",
		"updated": "11/23/2016"
	},
	{
		"name": "FIBEX",
		"latitude": "64-59-43.72 N",
		"longitude": "147-31-55.12 W",
		"state": "ALASKA",
		"artcc": "ZAN",
		"type": "RP",
		"updated": "FAI*VORTAC*025.00/17.00"
	},
	{
		"name": "FIDAL",
		"latitude": "60-44-2.7 N",
		"longitude": "146-26-0.41 W",
		"state": "ALASKA",
		"artcc": "ZAN",
		"type": "RP",
		"updated": "JOH*VOR/DME*359.78/16.00"
	},
	{
		"name": "FIDIP",
		"latitude": "65-45-31.7 N",
		"longitude": "155-50-33.53 W",
		"state": "ALASKA",
		"artcc": "ZAN",
		"type": "RNAV",
		"updated": "08/07/2008"
	},
	{
		"name": "FIDKA",
		"latitude": "66-50-5.15 N",
		"longitude": "143-26-33.36 W",
		"state": "ALASKA",
		"artcc": "ZAN",
		"type": "RNAV",
		"updated": "07/11/2005"
	},
	{
		"name": "FIDOD",
		"latitude": "66-37-2.38 N",
		"longitude": "152-2-49.46 W",
		"state": "ALASKA",
		"artcc": "ZAN",
		"type": "RNAV",
		"updated": "06/16/2004"
	},
	{
		"name": "FIDRO",
		"latitude": "61-55-56.42 N",
		"longitude": "165-41-14.44 W",
		"state": "ALASKA",
		"artcc": "ZAN",
		"type": "RNAV",
		"updated": "06/15/2009"
	},
	{
		"name": "FIETR",
		"latitude": "61-30-12.01 N",
		"longitude": "149-48-52.69 W",
		"state": "ALASKA",
		"artcc": "ZAN",
		"type": "MR",
		"updated": "EDF*TACAN*337.00/15.00"
	},
	{
		"name": "FIGAN",
		"latitude": "56-13-57.09 N",
		"longitude": "157-47-7.06 W",
		"state": "ALASKA",
		"artcc": "ZAN",
		"type": "RP",
		"updated": "PDN*NDB/DME*130.20"
	},
	{
		"name": "FIGED",
		"latitude": "64-18-35.29 N",
		"longitude": "158-45-49.59 W",
		"state": "ALASKA",
		"artcc": "ZAN",
		"type": "RNAV",
		"updated": "09/01/2005"
	},
	{
		"name": "FIGRO",
		"latitude": "63-59-56.62 N",
		"longitude": "149-27-34.46 W",
		"state": "ALASKA",
		"artcc": "ZAN",
		"type": "RNAV",
		"updated": "04/13/2017"
	},
	{
		"name": "FIGUS",
		"latitude": "57-42-0.22 N",
		"longitude": "152-19-33.17 W",
		"state": "ALASKA",
		"artcc": "ZAN",
		"type": "RNAV",
		"updated": "10/26/2015"
	},
	{
		"name": "FIIAT",
		"latitude": "68-12-35.1 N",
		"longitude": "151-34-51.47 W",
		"state": "ALASKA",
		"artcc": "ZAN",
		"type": "RNAV",
		"updated": "01/23/2008"
	},
	{
		"name": "FIKBU",
		"latitude": "64-37-24.24 N",
		"longitude": "163-17-59.7 W",
		"state": "ALASKA",
		"artcc": "ZAN",
		"type": "RP",
		"updated": "MOS*VOR/DME*246.65/32.00"
	},
	{
		"name": "FIKEV",
		"latitude": "56-30-36.19 N",
		"longitude": "132-28-23.85 W",
		"state": "ALASKA",
		"artcc": "ZAN",
		"type": "RP",
		"updated": "RGL*DD*273.00/4.00"
	},
	{
		"name": "FIKOR",
		"latitude": "70-13-24.64 N",
		"longitude": "150-53-49.85 W",
		"state": "ALASKA",
		"artcc": "ZAN",
		"type": "RNAV",
		"updated": "07/08/2011"
	},
	{
		"name": "FILAD",
		"latitude": "57-34-48.98 N",
		"longitude": "157-44-6.37 W",
		"state": "ALASKA",
		"artcc": "ZAN",
		"type": "RNAV",
		"updated": "10/07/2003"
	},
	{
		"name": "FILAP",
		"latitude": "60-46-36.98 N",
		"longitude": "146-58-0.78 W",
		"state": "ALASKA",
		"artcc": "ZAN",
		"type": "RNAV",
		"updated": "12/10/2011"
	},
	{
		"name": "FILIK",
		"latitude": "63-3-20.37 N",
		"longitude": "154-11-42.9 W",
		"state": "ALASKA",
		"artcc": "ZAN",
		"type": "RNAV",
		"updated": "09/01/2005"
	},
	{
		"name": "FILIN",
		"latitude": "64-42-9.89 N",
		"longitude": "155-32-23.87 W",
		"state": "ALASKA",
		"artcc": "ZAN",
		"type": "RNAV",
		"updated": "03/30/2004"
	},
	{
		"name": "FILKI",
		"latitude": "51-57-19.41 N",
		"longitude": "176-26-8.21 W",
		"state": "ALASKA",
		"artcc": "ZAN",
		"type": "RNAV",
		"updated": "12/16/2009"
	},
	{
		"name": "FIMIB",
		"latitude": "60-43-25.57 N",
		"longitude": "147-43-30.42 W",
		"state": "ALASKA",
		"artcc": "ZAN",
		"type": "RNAV",
		"updated": "12/10/2011"
	},
	{
		"name": "FIMUN",
		"latitude": "61-32-10.1 N",
		"longitude": "149-50-17.81 W",
		"state": "ALASKA",
		"artcc": "ZAN",
		"type": "RNAV",
		"updated": "02/13/2006"
	},
	{
		"name": "FINOD",
		"latitude": "65-32-30.73 N",
		"longitude": "144-27-38.46 W",
		"state": "ALASKA",
		"artcc": "ZAN",
		"type": "RNAV",
		"updated": "03/13/2014"
	},
	{
		"name": "FIPAM",
		"latitude": "56-12-47.79 N",
		"longitude": "132-49-7.53 W",
		"state": "ALASKA",
		"artcc": "ZAN",
		"type": "RNAV",
		"updated": "07/12/2004"
	},
	{
		"name": "FIPDO",
		"latitude": "64-26-8.64 N",
		"longitude": "164-53-8.47 W",
		"state": "ALASKA",
		"artcc": "ZAN",
		"type": "RP",
		"updated": "OME*VOR/DME*096.12/10.00"
	},
	{
		"name": "FIPNU",
		"latitude": "68-10-14.13 N",
		"longitude": "145-26-16.32 W",
		"state": "ALASKA",
		"artcc": "ZAN",
		"type": "RNAV",
		"updated": "12/01/2005"
	},
	{
		"name": "FIPSU",
		"latitude": "67-57-15.93 N",
		"longitude": "148-13-32.93 W",
		"state": "ALASKA",
		"artcc": "ZAN",
		"type": "RNAV",
		"updated": "02/18/2010"
	},
	{
		"name": "FIPUV",
		"latitude": "64-29-33.42 N",
		"longitude": "165-14-33.52 W",
		"state": "ALASKA",
		"artcc": "ZAN",
		"type": "RNAV",
		"updated": "08/09/2017"
	},
	{
		"name": "FIRAV",
		"latitude": "70-18-53.7 N",
		"longitude": "151-3-31.48 W",
		"state": "ALASKA",
		"artcc": "ZAN",
		"type": "RNAV",
		"updated": "12/10/2011"
	},
	{
		"name": "FIRDA",
		"latitude": "69-43-39.41 N",
		"longitude": "163-2-38.94 W",
		"state": "ALASKA",
		"artcc": "ZAN",
		"type": "RNAV",
		"updated": "06/11/2008"
	},
	{
		"name": "FISEP",
		"latitude": "65-10-27.44 N",
		"longitude": "152-7-55.85 W",
		"state": "ALASKA",
		"artcc": "ZAN",
		"type": "RNAV",
		"updated": "05/31/2005"
	},
	{
		"name": "FISHD",
		"latitude": "57-3-46.26 N",
		"longitude": "135-23-23.76 W",
		"state": "ALASKA",
		"artcc": "ZAN",
		"type": "RNAV",
		"updated": "11/04/2014"
	},
	{
		"name": "FISHH",
		"latitude": "61-2-34.69 N",
		"longitude": "160-36-11.28 W",
		"state": "ALASKA",
		"artcc": "ZAN",
		"type": "RP",
		"updated": "BET*VORTAC*052.00/39.00"
	},
	{
		"name": "FISTT",
		"latitude": "57-2-21.47 N",
		"longitude": "135-20-50.97 W",
		"state": "ALASKA",
		"artcc": "ZAN",
		"type": "RNAV",
		"updated": "11/04/2014"
	},
	{
		"name": "FITOD",
		"latitude": "57-7-47.81 N",
		"longitude": "135-31-2.13 W",
		"state": "ALASKA",
		"artcc": "ZAN",
		"type": "RP",
		"updated": "SIT*DD*W CRS/7.01"
	},
	{
		"name": "FITUT",
		"latitude": "65-29-27.13 N",
		"longitude": "156-33-54.37 W",
		"state": "ALASKA",
		"artcc": "ZAN",
		"type": "RP",
		"updated": "HSL*VOR/DME*182.15/14.00"
	},
	{
		"name": "FITUX",
		"latitude": "55-2-51.93 N",
		"longitude": "162-2-32.78 W",
		"state": "ALASKA",
		"artcc": "ZAN",
		"type": "RNAV",
		"updated": "11/19/2004"
	},
	{
		"name": "FIVHD",
		"latitude": "58-6-35.66 N",
		"longitude": "135-17-18.49 W",
		"state": "ALASKA",
		"artcc": "ZAN",
		"type": "RNAV",
		"updated": "11/18/2009"
	},
	{
		"name": "FIWWI",
		"latitude": "67-10-18.19 N",
		"longitude": "163-18-36.8 W",
		"state": "ALASKA",
		"artcc": "ZAN",
		"type": "RP",
		"updated": "OTZ*VOR/DME*298.90/25.00"
	},
	{
		"name": "FJORD",
		"latitude": "60-59-9.9 N",
		"longitude": "146-45-36.96 W",
		"state": "ALASKA",
		"artcc": "ZAN",
		"type": "RNAV",
		"updated": "08/01/2014"
	},
	{
		"name": "FLAAT",
		"latitude": "64-16-24 N",
		"longitude": "146-53-42 W",
		"state": "ALASKA",
		"artcc": "ZAN",
		"type": "MW",
		"updated": "12/10/2013"
	},
	{
		"name": "FLIPS",
		"latitude": "56-34-32.58 N",
		"longitude": "134-52-46.97 W",
		"state": "ALASKA",
		"artcc": "ZAN",
		"type": "RP",
		"updated": "BKA*VORTAC*107.25/28.00"
	},
	{
		"name": "FOBAV",
		"latitude": "56-32-10.15 N",
		"longitude": "132-31-25.82 W",
		"state": "ALASKA",
		"artcc": "ZAN",
		"type": "RNAV",
		"updated": "04/29/2013"
	},
	{
		"name": "FODAL",
		"latitude": "62-47-18.76 N",
		"longitude": "159-34-13.27 W",
		"state": "ALASKA",
		"artcc": "ZAN",
		"type": "RNAV",
		"updated": "08/25/2008"
	},
	{
		"name": "FODEK",
		"latitude": "60-43-14.21 N",
		"longitude": "162-16-50.85 W",
		"state": "ALASKA",
		"artcc": "ZAN",
		"type": "RNAV",
		"updated": "08/25/2008"
	},
	{
		"name": "FODOS",
		"latitude": "67-2-20.46 N",
		"longitude": "150-46-58.98 W",
		"state": "ALASKA",
		"artcc": "ZAN",
		"type": "RNAV",
		"updated": "06/30/2008"
	},
	{
		"name": "FODUV",
		"latitude": "66-8-38.01 N",
		"longitude": "153-15-21.05 W",
		"state": "ALASKA",
		"artcc": "ZAN",
		"type": "MW",
		"updated": "12/29/2014"
	},
	{
		"name": "FODVU",
		"latitude": "61-58-45.62 N",
		"longitude": "150-17-18.69 W",
		"state": "ALASKA",
		"artcc": "ZAN",
		"type": "RNAV",
		"updated": "08/01/2006"
	},
	{
		"name": "FOGID",
		"latitude": "56-43-31.3 N",
		"longitude": "132-42-2.17 W",
		"state": "ALASKA",
		"artcc": "ZAN",
		"type": "RNAV",
		"updated": "04/29/2013"
	},
	{
		"name": "FOHLI",
		"latitude": "70-9-8.78 N",
		"longitude": "146-9-4.35 W",
		"state": "ALASKA",
		"artcc": "ZAN",
		"type": "RNAV",
		"updated": "06/26/2013"
	},
	{
		"name": "FOLAR",
		"latitude": "59-52-24.06 N",
		"longitude": "151-17-44.91 W",
		"state": "ALASKA",
		"artcc": "ZAN",
		"type": "RP",
		"updated": "HOM*VOR/DME*011.24/11.00"
	},
	{
		"name": "FOLIL",
		"latitude": "59-27-25.65 N",
		"longitude": "154-30-43.36 W",
		"state": "ALASKA",
		"artcc": "ZAN",
		"type": "RNAV",
		"updated": "05/26/2006"
	},
	{
		"name": "FOMBU",
		"latitude": "58-18-13.23 N",
		"longitude": "135-0-16.92 W",
		"state": "ALASKA",
		"artcc": "ZAN",
		"type": "RNAV",
		"updated": "08/21/2003"
	},
	{
		"name": "FOMDA",
		"latitude": "52-37-28.63 N",
		"longitude": "174-33-32.14 E",
		"state": "ALASKA",
		"artcc": "ZAN",
		"type": "MR",
		"updated": "SYA*VORTAC*104.03/19.00"
	},
	{
		"name": "FOMUT",
		"latitude": "58-52-48.79 N",
		"longitude": "156-47-57.55 W",
		"state": "ALASKA",
		"artcc": "ZAN",
		"type": "RNAV",
		"updated": "07/17/2008"
	},
	{
		"name": "FONBA",
		"latitude": "70-10-57.62 N",
		"longitude": "148-54-37.06 W",
		"state": "ALASKA",
		"artcc": "ZAN",
		"type": "RNAV",
		"updated": "02/19/2016"
	},
	{
		"name": "FONGE",
		"latitude": "57-5-23.91 N",
		"longitude": "135-39-12.74 W",
		"state": "ALASKA",
		"artcc": "ZAN",
		"type": "WP",
		"updated": "02/26/1998"
	},
	{
		"name": "FONUL",
		"latitude": "70-28-41.32 N",
		"longitude": "150-25-17.94 W",
		"state": "ALASKA",
		"artcc": "ZAN",
		"type": "RNAV",
		"updated": "07/24/2009"
	},
	{
		"name": "FONUR",
		"latitude": "56-45-40.38 N",
		"longitude": "154-5-45.55 W",
		"state": "ALASKA",
		"artcc": "ZAN",
		"type": "RNAV",
		"updated": "02/20/2007"
	},
	{
		"name": "FONUS",
		"latitude": "60-52-49.26 N",
		"longitude": "161-23-27.93 W",
		"state": "ALASKA",
		"artcc": "ZAN",
		"type": "RNAV",
		"updated": "12/03/2008"
	},
	{
		"name": "FOPTY",
		"latitude": "60-24-25.39 N",
		"longitude": "151-26-53.11 W",
		"state": "ALASKA",
		"artcc": "ZAN",
		"type": "RNAV",
		"updated": "10/28/2015"
	},
	{
		"name": "FORAD",
		"latitude": "64-41-6.17 N",
		"longitude": "164-55-4.7 W",
		"state": "ALASKA",
		"artcc": "ZAN",
		"type": "RNAV",
		"updated": "08/09/2017"
	},
	{
		"name": "FORAT",
		"latitude": "60-11-9.53 N",
		"longitude": "144-8-30.57 W",
		"state": "ALASKA",
		"artcc": "ZAN",
		"type": "RP",
		"updated": "JOH*VOR/DME*084.54/75.41"
	},
	{
		"name": "FORAX",
		"latitude": "60-5-2.46 N",
		"longitude": "154-43-30.41 W",
		"state": "ALASKA",
		"artcc": "ZAN",
		"type": "RNAV",
		"updated": "07/18/2012"
	},
	{
		"name": "FORCS",
		"latitude": "52-42-25.25 N",
		"longitude": "174-8-31.8 E",
		"state": "ALASKA",
		"artcc": "ZAN",
		"type": "MR",
		"updated": "SYA*VORTAC*100.00/3.00"
	},
	{
		"name": "FOROD",
		"latitude": "65-31-29.67 N",
		"longitude": "168-11-15.67 W",
		"state": "ALASKA",
		"artcc": "ZAN",
		"type": "RNAV",
		"updated": "05/06/2004"
	},
	{
		"name": "FOROE",
		"latitude": "55-12-20.22 N",
		"longitude": "160-24-22.57 W",
		"state": "ALASKA",
		"artcc": "ZAN",
		"type": "RNAV",
		"updated": "04/13/2006"
	},
	{
		"name": "FOSAV",
		"latitude": "60-57-46.6 N",
		"longitude": "161-5-52.33 W",
		"state": "ALASKA",
		"artcc": "ZAN",
		"type": "RNAV",
		"updated": "03/22/2004"
	},
	{
		"name": "FOSXI",
		"latitude": "62-24-32.13 N",
		"longitude": "150-7-17.41 W",
		"state": "ALASKA",
		"artcc": "ZAN",
		"type": "RNAV",
		"updated": "03/26/2010"
	},
	{
		"name": "FOVAG",
		"latitude": "64-29-44.94 N",
		"longitude": "165-20-55.71 W",
		"state": "ALASKA",
		"artcc": "ZAN",
		"type": "RP",
		"updated": "OME*LD*098.77/3.50"
	},
	{
		"name": "FOVBI",
		"latitude": "58-41-7.82 N",
		"longitude": "135-48-2.49 W",
		"state": "ALASKA",
		"artcc": "ZAN",
		"type": "RP",
		"updated": "SSR*VORTAC*311.00/35.00"
	},
	{
		"name": "FOVIG",
		"latitude": "64-49-11.74 N",
		"longitude": "147-31-43.29 W",
		"state": "ALASKA",
		"artcc": "ZAN",
		"type": "MR",
		"updated": "EIL*TACAN*293.00/15.00"
	},
	{
		"name": "FOVPU",
		"latitude": "59-35-2.83 N",
		"longitude": "151-38-57.89 W",
		"state": "ALASKA",
		"artcc": "ZAN",
		"type": "RNAV",
		"updated": "05/16/2013"
	},
	{
		"name": "FOVSI",
		"latitude": "64-25-38.36 N",
		"longitude": "165-27-17.65 W",
		"state": "ALASKA",
		"artcc": "ZAN",
		"type": "RNAV",
		"updated": "08/09/2017"
	},
	{
		"name": "FOXON",
		"latitude": "61-7-18.54 N",
		"longitude": "149-58-15.59 W",
		"state": "ALASKA",
		"artcc": "ZAN",
		"type": "RNAV",
		"updated": "11/18/2014"
	},
	{
		"name": "FOXSO",
		"latitude": "62-15-0 N",
		"longitude": "146-35-0 W",
		"state": "ALASKA",
		"artcc": "ZAN",
		"type": "RNAV",
		"updated": "07/31/2007"
	},
	{
		"name": "FOXUB",
		"latitude": "64-3-0 N",
		"longitude": "147-59-37.5 W",
		"state": "ALASKA",
		"artcc": "ZAN",
		"type": "MW",
		"updated": "12/10/2013"
	},
	{
		"name": "FOXUL",
		"latitude": "60-21-31.5 N",
		"longitude": "144-53-1.03 W",
		"state": "ALASKA",
		"artcc": "ZAN",
		"type": "RP",
		"updated": "CDV*LD*E CRS/20.14"
	},
	{
		"name": "FOXWE",
		"latitude": "62-30-0 N",
		"longitude": "149-10-0 W",
		"state": "ALASKA",
		"artcc": "ZAN",
		"type": "RNAV",
		"updated": "07/31/2007"
	},
	{
		"name": "FREDE",
		"latitude": "60-38-14.52 N",
		"longitude": "151-10-2.48 W",
		"state": "ALASKA",
		"artcc": "ZAN",
		"type": "RP",
		"updated": "ENA*LD*016.06/5.36"
	},
	{
		"name": "FRENK",
		"latitude": "66-37-11.96 N",
		"longitude": "168-58-23.99 W",
		"state": "OFFSHORE PACIFIC",
		"artcc": "ZAN",
		"type": "WP",
		"updated": "07/03/2017"
	},
	{
		"name": "FRIDA",
		"latitude": "61-43-53.25 N",
		"longitude": "151-36-1.23 W",
		"state": "ALASKA",
		"artcc": "ZAN",
		"type": "RP",
		"updated": "TKA*VOR/DME*212.74"
	},
	{
		"name": "FRIED",
		"latitude": "54-13-18.77 N",
		"longitude": "133-37-56.81 W",
		"state": "ALASKA",
		"artcc": "ZAN",
		"type": "RP",
		"updated": "YZP*VOR/DME*293.59/87.32"
	},
	{
		"name": "FRIZL",
		"latitude": "61-31-28.94 N",
		"longitude": "149-41-13.56 W",
		"state": "ALASKA",
		"artcc": "ZAN",
		"type": "RNAV",
		"updated": "06/12/2014"
	},
	{
		"name": "FRRMN",
		"latitude": "60-26-58.64 N",
		"longitude": "145-17-7.72 W",
		"state": "ALASKA",
		"artcc": "ZAN",
		"type": "RNAV",
		"updated": "11/20/2012"
	},
	{
		"name": "FSHON",
		"latitude": "60-52-22.27 N",
		"longitude": "150-41-1.03 W",
		"state": "ALASKA",
		"artcc": "ZAN",
		"type": "RNAV",
		"updated": "02/21/2018"
	},
	{
		"name": "FUNTR",
		"latitude": "58-10-54.16 N",
		"longitude": "134-59-23.46 W",
		"state": "ALASKA",
		"artcc": "ZAN",
		"type": "RNAV",
		"updated": "08/23/2016"
	},
	{
		"name": "FURDY",
		"latitude": "56-29-52.05 N",
		"longitude": "132-25-42.49 W",
		"state": "ALASKA",
		"artcc": "ZAN",
		"type": "RNAV",
		"updated": "11/04/2014"
	},
	{
		"name": "FURZY",
		"latitude": "63-46-16.21 N",
		"longitude": "148-53-21.95 W",
		"state": "ALASKA",
		"artcc": "ZAN",
		"type": "RNAV",
		"updated": "04/13/2017"
	},
	{
		"name": "FUSON",
		"latitude": "59-30-4.76 N",
		"longitude": "139-57-2.27 W",
		"state": "ALASKA",
		"artcc": "ZAN",
		"type": "RNAV",
		"updated": "03/14/2011"
	}
]
