[
	{
		"name": "GABGE",
		"latitude": "65-53-19.64 N",
		"longitude": "156-5-41.38 W",
		"state": "ALASKA",
		"artcc": "ZAN",
		"type": "RNAV",
		"updated": "08/07/2008"
	},
	{
		"name": "GABRI",
		"latitude": "68-35-17.4 N",
		"longitude": "149-38-45.01 W",
		"state": "ALASKA",
		"artcc": "ZAN",
		"type": "RP",
		"updated": "01/13/2011"
	},
	{
		"name": "GACCU",
		"latitude": "58-44-15.38 N",
		"longitude": "158-35-21.47 W",
		"state": "ALASKA",
		"artcc": "ZAN",
		"type": "RNAV",
		"updated": "12/21/2009"
	},
	{
		"name": "GACEY",
		"latitude": "64-21-29.55 N",
		"longitude": "163-23-9.46 W",
		"state": "ALASKA",
		"artcc": "ZAN",
		"type": "RNAV",
		"updated": "10/17/2005"
	},
	{
		"name": "GADEK",
		"latitude": "62-42-30.67 N",
		"longitude": "155-56-52.75 W",
		"state": "ALASKA",
		"artcc": "ZAN",
		"type": "MW",
		"updated": "06/03/2011"
	},
	{
		"name": "GAGTE",
		"latitude": "59-12-59.24 N",
		"longitude": "155-25-41.79 W",
		"state": "ALASKA",
		"artcc": "ZAN",
		"type": "RNAV",
		"updated": "07/07/2014"
	},
	{
		"name": "GAHAM",
		"latitude": "62-14-58.05 N",
		"longitude": "141-0-0 W",
		"state": "",
		"artcc": "ZAN",
		"type": "RNAV",
		"updated": "06/21/2010"
	},
	{
		"name": "GAITS",
		"latitude": "64-44-47.65 N",
		"longitude": "165-21-51.54 W",
		"state": "ALASKA",
		"artcc": "ZAN",
		"type": "RP",
		"updated": "OME*VOR/DME*338.71/16.00"
	},
	{
		"name": "GAKCE",
		"latitude": "61-49-42.53 N",
		"longitude": "163-38-38.43 W",
		"state": "ALASKA",
		"artcc": "ZAN",
		"type": "RNAV",
		"updated": "03/19/2012"
	},
	{
		"name": "GAKKE",
		"latitude": "58-31-31.03 N",
		"longitude": "156-19-36.92 W",
		"state": "ALASKA",
		"artcc": "ZAN",
		"type": "RNAV",
		"updated": "07/17/2008"
	},
	{
		"name": "GALGE",
		"latitude": "59-26-20.03 N",
		"longitude": "139-33-35.72 W",
		"state": "ALASKA",
		"artcc": "ZAN",
		"type": "RP",
		"updated": "YAK*VOR/DME*128.00/5.10"
	},
	{
		"name": "GANEF",
		"latitude": "52-10-40.42 N",
		"longitude": "173-53-46.38 W",
		"state": "ALASKA",
		"artcc": "ZAN",
		"type": "RNAV",
		"updated": "02/12/2010"
	},
	{
		"name": "GANES",
		"latitude": "63-6-7.67 N",
		"longitude": "156-20-39.26 W",
		"state": "ALASKA",
		"artcc": "ZAN",
		"type": "RP",
		"updated": "MCG*VORTAC*275.74/22.00"
	},
	{
		"name": "GARRS",
		"latitude": "58-19-5.8 N",
		"longitude": "161-20-31.74 W",
		"state": "ALASKA",
		"artcc": "ZAN",
		"type": "RP",
		"updated": "AUB*NDB*246.00"
	},
	{
		"name": "GARRY",
		"latitude": "37-19-6 N",
		"longitude": "150-31-24 E",
		"state": "OFFSHORE PACIFIC",
		"artcc": "ZAN",
		"type": "RP",
		"updated": "03/27/1995"
	},
	{
		"name": "GASTO",
		"latitude": "60-56-38.36 N",
		"longitude": "151-2-43.16 W",
		"state": "ALASKA",
		"artcc": "ZAN",
		"type": "RP",
		"updated": "TED*VOR/DME*229.42/34.40"
	},
	{
		"name": "GATIF",
		"latitude": "51-57-4.23 N",
		"longitude": "176-26-53.37 W",
		"state": "ALASKA",
		"artcc": "ZAN",
		"type": "RP",
		"updated": "ADK*NDB/DME*053.55/9.67"
	},
	{
		"name": "GAYEY",
		"latitude": "60-29-49.09 N",
		"longitude": "161-56-54.23 W",
		"state": "ALASKA",
		"artcc": "ZAN",
		"type": "RNAV",
		"updated": "08/25/2008"
	},
	{
		"name": "GAYLL",
		"latitude": "60-53-6.14 N",
		"longitude": "149-13-11.2 W",
		"state": "ALASKA",
		"artcc": "ZAN",
		"type": "RNAV",
		"updated": "07/18/2012"
	},
	{
		"name": "GECEY",
		"latitude": "56-54-34.99 N",
		"longitude": "132-53-34.34 W",
		"state": "ALASKA",
		"artcc": "ZAN",
		"type": "RNAV",
		"updated": "08/31/2004"
	},
	{
		"name": "GECNE",
		"latitude": "56-47-14.88 N",
		"longitude": "158-50-52.26 W",
		"state": "ALASKA",
		"artcc": "ZAN",
		"type": "RP",
		"updated": "PDN*NDB/DME*197.28/12.00"
	},
	{
		"name": "GEDEE",
		"latitude": "60-56-0.68 N",
		"longitude": "152-10-43.94 W",
		"state": "ALASKA",
		"artcc": "ZAN",
		"type": "RNAV",
		"updated": "03/24/2014"
	},
	{
		"name": "GEIKI",
		"latitude": "58-37-49.74 N",
		"longitude": "136-26-31.01 W",
		"state": "ALASKA",
		"artcc": "ZAN",
		"type": "RNAV",
		"updated": "05/16/2016"
	},
	{
		"name": "GELKE",
		"latitude": "66-30-25.48 N",
		"longitude": "153-0-10.41 W",
		"state": "ALASKA",
		"artcc": "ZAN",
		"type": "RNAV",
		"updated": "06/16/2004"
	},
	{
		"name": "GELRE",
		"latitude": "64-23-14.22 N",
		"longitude": "165-59-17.03 W",
		"state": "ALASKA",
		"artcc": "ZAN",
		"type": "RP",
		"updated": "OME*VOR/DME*242.21/20.00"
	},
	{
		"name": "GENFU",
		"latitude": "55-23-18.64 N",
		"longitude": "163-6-20.78 W",
		"state": "ALASKA",
		"artcc": "ZAN",
		"type": "RP",
		"updated": "CDB*VORTAC*288.79/13.50"
	},
	{
		"name": "GERDE",
		"latitude": "61-53-54.47 N",
		"longitude": "153-23-47.31 W",
		"state": "ALASKA",
		"artcc": "ZAN",
		"type": "MW",
		"updated": "12/10/2013"
	},
	{
		"name": "GERKS",
		"latitude": "58-30-55.45 N",
		"longitude": "151-25-0.45 W",
		"state": "ALASKA",
		"artcc": "ZAN",
		"type": "RP",
		"updated": "HOM*VOR/DME*164.00/71.83"
	},
	{
		"name": "GESSE",
		"latitude": "55-32-17.18 N",
		"longitude": "159-52-40.38 W",
		"state": "ALASKA",
		"artcc": "ZAN",
		"type": "RNAV",
		"updated": "05/11/2012"
	},
	{
		"name": "GESTE",
		"latitude": "68-2-0.91 N",
		"longitude": "152-6-52.66 W",
		"state": "ALASKA",
		"artcc": "ZAN",
		"type": "RNAV",
		"updated": "01/22/2008"
	},
	{
		"name": "GESTI",
		"latitude": "55-25-57.47 N",
		"longitude": "131-57-50.4 W",
		"state": "ALASKA",
		"artcc": "ZAN",
		"type": "RP",
		"updated": "ANN*VOR/DME*308.54/26.00"
	},
	{
		"name": "GEVEY",
		"latitude": "59-18-27.75 N",
		"longitude": "155-17-13.74 W",
		"state": "ALASKA",
		"artcc": "ZAN",
		"type": "RNAV",
		"updated": "05/26/2006"
	},
	{
		"name": "GEYED",
		"latitude": "55-53-57.87 N",
		"longitude": "159-10-17.65 W",
		"state": "ALASKA",
		"artcc": "ZAN",
		"type": "RNAV",
		"updated": "11/14/2006"
	},
	{
		"name": "GEYET",
		"latitude": "63-21-0.01 N",
		"longitude": "143-2-48.19 W",
		"state": "ALASKA",
		"artcc": "ZAN",
		"type": "RNAV",
		"updated": "10/05/2006"
	},
	{
		"name": "GEYHY",
		"latitude": "64-34-43.99 N",
		"longitude": "156-40-0.46 W",
		"state": "ALASKA",
		"artcc": "ZAN",
		"type": "RP",
		"updated": "GAL*VOR/DME*146.41/10.00"
	},
	{
		"name": "GGABI",
		"latitude": "58-19-9.43 N",
		"longitude": "134-42-14.43 W",
		"state": "ALASKA",
		"artcc": "ZAN",
		"type": "RNAV",
		"updated": "05/18/2016"
	},
	{
		"name": "GGOAT",
		"latitude": "64-40-59.86 N",
		"longitude": "148-27-27.76 W",
		"state": "ALASKA",
		"artcc": "ZAN",
		"type": "RNAV",
		"updated": "10/16/2015"
	},
	{
		"name": "GIACO",
		"latitude": "64-7-7.51 N",
		"longitude": "145-29-50.15 W",
		"state": "ALASKA",
		"artcc": "ZAN",
		"type": "MR",
		"updated": "BIG*VORTAC*017.00/9.00"
	},
	{
		"name": "GIBRY",
		"latitude": "60-24-21.64 N",
		"longitude": "166-6-31.27 W",
		"state": "ALASKA",
		"artcc": "ZAN",
		"type": "RNAV",
		"updated": "09/18/2006"
	},
	{
		"name": "GICHY",
		"latitude": "52-38-45.81 N",
		"longitude": "174-34-7.07 E",
		"state": "ALASKA",
		"artcc": "ZAN",
		"type": "MR",
		"updated": "SYA*VORTAC*100.00/19.00"
	},
	{
		"name": "GIDBE",
		"latitude": "66-1-30.64 N",
		"longitude": "162-51-2.46 W",
		"state": "ALASKA",
		"artcc": "ZAN",
		"type": "RNAV",
		"updated": "11/23/2016"
	},
	{
		"name": "GIDCE",
		"latitude": "64-33-19.2 N",
		"longitude": "163-1-22.07 W",
		"state": "ALASKA",
		"artcc": "ZAN",
		"type": "RNAV",
		"updated": "10/17/2005"
	},
	{
		"name": "GIDKE",
		"latitude": "51-59-31.4 N",
		"longitude": "176-19-46.24 W",
		"state": "ALASKA",
		"artcc": "ZAN",
		"type": "CN",
		"updated": "11/28/2006"
	},
	{
		"name": "GIDLE",
		"latitude": "59-56-15.72 N",
		"longitude": "154-54-16.38 W",
		"state": "ALASKA",
		"artcc": "ZAN",
		"type": "RNAV",
		"updated": "07/11/2005"
	},
	{
		"name": "GIGRE",
		"latitude": "67-0-22.81 N",
		"longitude": "163-9-12.57 W",
		"state": "ALASKA",
		"artcc": "ZAN",
		"type": "RNAV",
		"updated": "12/05/2014"
	},
	{
		"name": "GIGZO",
		"latitude": "58-44-15.56 N",
		"longitude": "159-0-31.21 W",
		"state": "ALASKA",
		"artcc": "ZAN",
		"type": "RNAV",
		"updated": "07/07/2009"
	},
	{
		"name": "GIKDE",
		"latitude": "66-47-46.94 N",
		"longitude": "150-40-19.01 W",
		"state": "ALASKA",
		"artcc": "ZAN",
		"type": "RNAV",
		"updated": "07/01/2008"
	},
	{
		"name": "GIMOW",
		"latitude": "66-50-54.07 N",
		"longitude": "156-57-40.67 W",
		"state": "ALASKA",
		"artcc": "ZAN",
		"type": "RNAV",
		"updated": "06/26/2009"
	},
	{
		"name": "GINAA",
		"latitude": "61-51-23.44 N",
		"longitude": "162-12-32.12 W",
		"state": "ALASKA",
		"artcc": "ZAN",
		"type": "RNAV",
		"updated": "03/19/2012"
	},
	{
		"name": "GINTE",
		"latitude": "64-50-21.6 N",
		"longitude": "147-20-36.85 W",
		"state": "ALASKA",
		"artcc": "ZAN",
		"type": "MW",
		"updated": "05/05/2011"
	},
	{
		"name": "GINTT",
		"latitude": "57-1-34.07 N",
		"longitude": "135-19-25.69 W",
		"state": "ALASKA",
		"artcc": "ZAN",
		"type": "RNAV",
		"updated": "11/10/2014"
	},
	{
		"name": "GIRTS",
		"latitude": "55-7-20.59 N",
		"longitude": "131-38-31.27 W",
		"state": "ALASKA",
		"artcc": "ZAN",
		"type": "RP",
		"updated": "ANN*VOR/DME*308.54/4.32"
	},
	{
		"name": "GLACR",
		"latitude": "58-45-28.09 N",
		"longitude": "136-55-36.24 W",
		"state": "ALASKA",
		"artcc": "ZAN",
		"type": "RNAV",
		"updated": "05/16/2016"
	},
	{
		"name": "GLAZZ",
		"latitude": "58-7-10.2 N",
		"longitude": "134-7-57.6 W",
		"state": "ALASKA",
		"artcc": "ZAN",
		"type": "WP",
		"updated": "10/23/2014"
	},
	{
		"name": "GLDHL",
		"latitude": "64-52-21.11 N",
		"longitude": "148-3-19.38 W",
		"state": "ALASKA",
		"artcc": "ZAN",
		"type": "RNAV",
		"updated": "10/24/2014"
	},
	{
		"name": "GLENT",
		"latitude": "55-24-27.72 N",
		"longitude": "162-31-52.63 W",
		"state": "ALASKA",
		"artcc": "ZAN",
		"type": "RP",
		"updated": "CDB*VORTAC*/11.85"
	},
	{
		"name": "GLIBB",
		"latitude": "62-40-15.1 N",
		"longitude": "155-59-50.8 W",
		"state": "ALASKA",
		"artcc": "ZAN",
		"type": "MW",
		"updated": "07/03/2013"
	},
	{
		"name": "GLLOD",
		"latitude": "57-0-0 N",
		"longitude": "149-43-0 W",
		"state": "OFFSHORE PACIFIC",
		"artcc": "ZAN",
		"type": "RNAV",
		"updated": "11/06/2015"
	},
	{
		"name": "GLNCO",
		"latitude": "65-32-27.92 N",
		"longitude": "167-55-2.37 W",
		"state": "ALASKA",
		"artcc": "ZAN",
		"type": "MW",
		"updated": "04/14/2014"
	},
	{
		"name": "GLOOP",
		"latitude": "64-26-54.2 N",
		"longitude": "165-34-22.85 W",
		"state": "ALASKA",
		"artcc": "ZAN",
		"type": "RNAV",
		"updated": "10/08/2014"
	},
	{
		"name": "GLOWS",
		"latitude": "64-26-15.88 N",
		"longitude": "148-15-17.88 W",
		"state": "ALASKA",
		"artcc": "ZAN",
		"type": "RP",
		"updated": "ENN*VORTAC*092.00/23.11"
	},
	{
		"name": "GOBNE",
		"latitude": "69-35-6.73 N",
		"longitude": "163-25-50.92 W",
		"state": "ALASKA",
		"artcc": "ZAN",
		"type": "RNAV",
		"updated": "11/19/2004"
	},
	{
		"name": "GOCEK",
		"latitude": "60-28-6.5 N",
		"longitude": "145-22-11.26 W",
		"state": "ALASKA",
		"artcc": "ZAN",
		"type": "RNAV",
		"updated": "11/20/2012"
	},
	{
		"name": "GOCNE",
		"latitude": "60-40-57.32 N",
		"longitude": "147-4-12.68 W",
		"state": "ALASKA",
		"artcc": "ZAN",
		"type": "RNAV",
		"updated": "12/10/2011"
	},
	{
		"name": "GODBE",
		"latitude": "66-36-59.98 N",
		"longitude": "159-55-9.52 W",
		"state": "ALASKA",
		"artcc": "ZAN",
		"type": "RP",
		"updated": "WLK*VOR/DME*042.81/2.00"
	},
	{
		"name": "GODVE",
		"latitude": "70-19-19.78 N",
		"longitude": "149-43-14.1 W",
		"state": "ALASKA",
		"artcc": "ZAN",
		"type": "RP",
		"updated": "RHF*LD*236.37/3.28"
	},
	{
		"name": "GOLLY",
		"latitude": "64-54-8.91 N",
		"longitude": "149-0-52.01 W",
		"state": "ALASKA",
		"artcc": "ZAN",
		"type": "RP",
		"updated": "ENN*VORTAC*343.54/18.87"
	},
	{
		"name": "GOLOS",
		"latitude": "64-17-17.58 N",
		"longitude": "163-35-13.2 W",
		"state": "ALASKA",
		"artcc": "ZAN",
		"type": "RP",
		"updated": "OME*VOR/DME*093.52/45.00"
	},
	{
		"name": "GOMRE",
		"latitude": "66-30-24.89 N",
		"longitude": "160-38-23.2 W",
		"state": "ALASKA",
		"artcc": "ZAN",
		"type": "RNAV",
		"updated": "05/10/2007"
	},
	{
		"name": "GOOKY",
		"latitude": "64-31-2.24 N",
		"longitude": "165-5-52.52 W",
		"state": "ALASKA",
		"artcc": "ZAN",
		"type": "RNAV",
		"updated": "08/09/2017"
	},
	{
		"name": "GOOSE",
		"latitude": "61-21-54 N",
		"longitude": "150-5-12 W",
		"state": "ALASKA",
		"artcc": "ZAN",
		"type": "WP",
		"updated": "10/02/1995"
	},
	{
		"name": "GORBY",
		"latitude": "56-49-36.4 N",
		"longitude": "132-48-49.09 W",
		"state": "ALASKA",
		"artcc": "ZAN",
		"type": "RNAV",
		"updated": "08/05/2016"
	},
	{
		"name": "GOSKE",
		"latitude": "64-33-1.62 N",
		"longitude": "147-16-29.56 W",
		"state": "ALASKA",
		"artcc": "ZAN",
		"type": "MR",
		"updated": "EIL*TACAN*198.02/7.78"
	},
	{
		"name": "GOTGE",
		"latitude": "65-55-39.73 N",
		"longitude": "162-17-57.67 W",
		"state": "ALASKA",
		"artcc": "ZAN",
		"type": "RNAV",
		"updated": "11/23/2016"
	},
	{
		"name": "GOTSE",
		"latitude": "55-59-13.97 N",
		"longitude": "160-49-33.83 W",
		"state": "ALASKA",
		"artcc": "ZAN",
		"type": "RNAV",
		"updated": "10/07/2003"
	},
	{
		"name": "GOVBE",
		"latitude": "60-53-7.21 N",
		"longitude": "162-0-33.36 W",
		"state": "ALASKA",
		"artcc": "ZAN",
		"type": "RNAV",
		"updated": "08/25/2008"
	},
	{
		"name": "GOYWI",
		"latitude": "62-43-18.63 N",
		"longitude": "163-30-11.18 W",
		"state": "ALASKA",
		"artcc": "ZAN",
		"type": "RNAV",
		"updated": "09/11/2012"
	},
	{
		"name": "GRAAY",
		"latitude": "68-57-50.75 N",
		"longitude": "165-35-10.76 W",
		"state": "ALASKA",
		"artcc": "ZAN",
		"type": "MR",
		"updated": "LUR*NDB/DME*050.00/12.00"
	},
	{
		"name": "GRANL",
		"latitude": "61-13-11.74 N",
		"longitude": "150-10-35.58 W",
		"state": "ALASKA",
		"artcc": "ZAN",
		"type": "MR",
		"updated": "EDF*TACAN*242.05/12.00"
	},
	{
		"name": "GRANY",
		"latitude": "65-5-22.84 N",
		"longitude": "161-0-7.66 W",
		"state": "ALASKA",
		"artcc": "ZAN",
		"type": "MR",
		"updated": "GAL*VOR/DME*260.00/110.00"
	},
	{
		"name": "GRENN",
		"latitude": "61-6-59.57 N",
		"longitude": "151-17-30.22 W",
		"state": "ALASKA",
		"artcc": "ZAN",
		"type": "MR",
		"updated": "EDF*TACAN*235.00/45.00"
	},
	{
		"name": "GRIDE",
		"latitude": "61-7-57.98 N",
		"longitude": "151-7-23.62 W",
		"state": "ALASKA",
		"artcc": "ZAN",
		"type": "MR",
		"updated": "EDF*TACAN*235.00/40.00"
	},
	{
		"name": "GRIZZ",
		"latitude": "57-6-53.81 N",
		"longitude": "148-30-7.15 W",
		"state": "ALASKA",
		"artcc": "ZAN",
		"type": "RP",
		"updated": "10/24/1990"
	},
	{
		"name": "GRUUB",
		"latitude": "61-21-21.15 N",
		"longitude": "150-34-17.94 W",
		"state": "ALASKA",
		"artcc": "ZAN",
		"type": "MR",
		"updated": "EDF*TACAN*267.00/24.00"
	},
	{
		"name": "GRZLE",
		"latitude": "65-11-5.82 N",
		"longitude": "148-8-30.42 W",
		"state": "ALASKA",
		"artcc": "ZAN",
		"type": "RNAV",
		"updated": "07/23/2012"
	},
	{
		"name": "GUBEY",
		"latitude": "56-50-26.73 N",
		"longitude": "154-8-4.85 W",
		"state": "ALASKA",
		"artcc": "ZAN",
		"type": "RNAV",
		"updated": "02/20/2007"
	},
	{
		"name": "GUCEN",
		"latitude": "56-20-53.7 N",
		"longitude": "158-19-40.03 W",
		"state": "ALASKA",
		"artcc": "ZAN",
		"type": "RNAV",
		"updated": "02/13/2004"
	},
	{
		"name": "GUIDE",
		"latitude": "60-56-1.78 N",
		"longitude": "155-9-35.84 W",
		"state": "ALASKA",
		"artcc": "ZAN",
		"type": "MW",
		"updated": "06/27/2011"
	},
	{
		"name": "GULEY",
		"latitude": "64-10-13.83 N",
		"longitude": "157-53-37.55 W",
		"state": "ALASKA",
		"artcc": "ZAN",
		"type": "RNAV",
		"updated": "07/11/2005"
	},
	{
		"name": "GULGE",
		"latitude": "55-30-13.63 N",
		"longitude": "132-5-58.72 W",
		"state": "ALASKA",
		"artcc": "ZAN",
		"type": "RNAV",
		"updated": "08/30/2004"
	},
	{
		"name": "GULME",
		"latitude": "56-28-20.77 N",
		"longitude": "132-19-39.42 W",
		"state": "ALASKA",
		"artcc": "ZAN",
		"type": "RNAV",
		"updated": "11/29/2012"
	},
	{
		"name": "GULVY",
		"latitude": "56-31-8.78 N",
		"longitude": "132-35-16.74 W",
		"state": "ALASKA",
		"artcc": "ZAN",
		"type": "RNAV",
		"updated": "04/01/2002"
	},
	{
		"name": "GUMEE",
		"latitude": "56-45-49.02 N",
		"longitude": "132-59-52.13 W",
		"state": "ALASKA",
		"artcc": "ZAN",
		"type": "RNAV",
		"updated": "08/05/2016"
	},
	{
		"name": "GUMLE",
		"latitude": "58-35-18.69 N",
		"longitude": "135-2-58.46 W",
		"state": "ALASKA",
		"artcc": "ZAN",
		"type": "RNAV",
		"updated": "07/03/2013"
	},
	{
		"name": "GUNRE",
		"latitude": "65-59-17.67 N",
		"longitude": "161-10-32.08 W",
		"state": "ALASKA",
		"artcc": "ZAN",
		"type": "RNAV",
		"updated": "05/04/2007"
	},
	{
		"name": "GUSPE",
		"latitude": "65-10-43.69 N",
		"longitude": "166-1-48.43 W",
		"state": "ALASKA",
		"artcc": "ZAN",
		"type": "RNAV",
		"updated": "04/14/2014"
	},
	{
		"name": "GUSTR",
		"latitude": "62-5-4.6 N",
		"longitude": "153-16-32.49 W",
		"state": "ALASKA",
		"artcc": "ZAN",
		"type": "MR",
		"updated": "EDF*TACAN*280.00/112.00"
	},
	{
		"name": "GUVLE",
		"latitude": "64-47-19.92 N",
		"longitude": "164-56-21.88 W",
		"state": "ALASKA",
		"artcc": "ZAN",
		"type": "RP",
		"updated": "OME*VOR/DME*012.75/20.00"
	},
	{
		"name": "GUYEL",
		"latitude": "65-14-11.36 N",
		"longitude": "166-47-5.09 W",
		"state": "ALASKA",
		"artcc": "ZAN",
		"type": "RNAV",
		"updated": "09/28/2004"
	},
	{
		"name": "GUYER",
		"latitude": "66-45-28.96 N",
		"longitude": "156-30-40.43 W",
		"state": "ALASKA",
		"artcc": "ZAN",
		"type": "RNAV",
		"updated": "10/05/2011"
	},
	{
		"name": "GUYET",
		"latitude": "65-14-30.39 N",
		"longitude": "166-7-31.6 W",
		"state": "ALASKA",
		"artcc": "ZAN",
		"type": "RNAV",
		"updated": "09/28/2004"
	},
	{
		"name": "GUZHA",
		"latitude": "64-7-17.66 N",
		"longitude": "145-20-19.8 W",
		"state": "ALASKA",
		"artcc": "ZAN",
		"type": "MW",
		"updated": "11/28/2006"
	},
	{
		"name": "GYROS",
		"latitude": "65-32-22.76 N",
		"longitude": "145-23-8.01 W",
		"state": "ALASKA",
		"artcc": "ZAN",
		"type": "MR",
		"updated": "FAI*VORTAC*034.00/80.00"
	},
	{
		"name": "GYVES",
		"latitude": "58-7-24.43 N",
		"longitude": "134-31-17.11 W",
		"state": "ALASKA",
		"artcc": "ZAN",
		"type": "RP",
		"updated": "10/24/2014"
	}
]
