	{
		"name": "HAAZY",
		"latitude": "55-49-20.21 N",
		"longitude": "134-23-25.28 W",
		"state": "ALASKA",
		"artcc": "ZAN",
		"type": "RNAV",
		"updated": "07/12/2004",
	},
	{
		"name": "HABIB",
		"latitude": "59-15-59.25 N",
		"longitude": "156-14-41.13 W",
		"state": "ALASKA",
		"artcc": "ZAN",
		"type": "RNAV",
		"updated": "09/03/2003",
	},
	{
		"name": "HABID",
		"latitude": "60-28-29.39 N",
		"longitude": "150-52-55.81 W",
		"state": "ALASKA",
		"artcc": "ZAN",
		"type": "RNAV",
		"updated": "07/10/2013",
	},
	{
		"name": "HABIT",
		"latitude": "35-36-48 N",
		"longitude": "151-16-18 E",
		"state": "OFFSHORE PACIFIC",
		"artcc": "ZAN",
		"type": "RP",
		"updated": "06/29/1987",
	},
	{
		"name": "HADUL",
		"latitude": "61-16-10.07 N",
		"longitude": "149-47-10.2 W",
		"state": "ALASKA",
		"artcc": "ZAN",
		"type": "MR",
		"updated": "EDF*TACAN*312.50/1.00",
	},
	{
		"name": "HAFRU",
		"latitude": "61-32-7.07 N",
		"longitude": "159-22-59.41 W",
		"state": "ALASKA",
		"artcc": "ZAN",
		"type": "RNAV",
		"updated": "04/19/2016",
	},
	{
		"name": "HAGEL",
		"latitude": "61-37-42.9 N",
		"longitude": "166-29-45.94 W",
		"state": "ALASKA",
		"artcc": "ZAN",
		"type": "MW",
		"updated": "02/24/2014",
	},
	{
		"name": "HAGEP",
		"latitude": "52-0-30.03 N",
		"longitude": "176-47-12.03 W",
		"state": "ALASKA",
		"artcc": "ZAN",
		"type": "RNAV",
		"updated": "07/06/2011",
	},
	{
		"name": "HAGGS",
		"latitude": "60-54-40.31 N",
		"longitude": "155-31-36.49 W",
		"state": "ALASKA",
		"artcc": "ZAN",
		"type": "MW",
		"updated": "02/17/2012",
	},
	{
		"name": "HAKEX",
		"latitude": "65-9-35.72 N",
		"longitude": "165-53-8.73 W",
		"state": "ALASKA",
		"artcc": "ZAN",
		"type": "RNAV",
		"updated": "09/28/2004",
	},
	{
		"name": "HAKRO",
		"latitude": "61-44-52.54 N",
		"longitude": "162-24-5.74 W",
		"state": "ALASKA",
		"artcc": "ZAN",
		"type": "RNAV",
		"updated": "03/19/2012",
	},
	{
		"name": "HALEK",
		"latitude": "57-14-39.41 N",
		"longitude": "135-29-39.8 W",
		"state": "ALASKA",
		"artcc": "ZAN",
		"type": "RNAV",
		"updated": "11/04/2014",
	},
	{
		"name": "HALEM",
		"latitude": "62-10-24.98 N",
		"longitude": "165-57-14.7 W",
		"state": "ALASKA",
		"artcc": "ZAN",
		"type": "RP",
		"updated": "HPB*VOR/DME*354.29/40.00",
	},
	{
		"name": "HALEY",
		"latitude": "65-57-39.19 N",
		"longitude": "162-58-23.11 W",
		"state": "ALASKA",
		"artcc": "ZAN",
		"type": "RNAV",
		"updated": "11/23/2016",
	},
	{
		"name": "HALIB",
		"latitude": "56-23-44.02 N",
		"longitude": "132-35-37.36 W",
		"state": "ALASKA",
		"artcc": "ZAN",
		"type": "RNAV",
		"updated": "11/29/2012",
	},
	{
		"name": "HALKU",
		"latitude": "56-37-56.27 N",
		"longitude": "132-48-53.85 W",
		"state": "ALASKA",
		"artcc": "ZAN",
		"type": "RNAV",
		"updated": "04/29/2013",
	},
	{
		"name": "HAMIR",
		"latitude": "64-45-55.16 N",
		"longitude": "147-11-2.24 W",
		"state": "ALASKA",
		"artcc": "ZAN",
		"type": "MR",
		"updated": "EIL*TACAN*322.00/7.10",
	},
	{
		"name": "HAMKU",
		"latitude": "58-52-4.64 N",
		"longitude": "157-2-55.54 W",
		"state": "ALASKA",
		"artcc": "ZAN",
		"type": "RP",
		"updated": "DLG*VOR/DME*083.58/47.36",
	},
	{
		"name": "HAMND",
		"latitude": "60-29-54.73 N",
		"longitude": "154-40-36.21 W",
		"state": "ALASKA",
		"artcc": "ZAN",
		"type": "RNAV",
		"updated": "11/02/2007",
	},
	{
		"name": "HAMUM",
		"latitude": "66-0-52.8 N",
		"longitude": "161-40-16.51 W",
		"state": "ALASKA",
		"artcc": "ZAN",
		"type": "RNAV",
		"updated": "05/04/2007",
	},
	{
		"name": "HANAL",
		"latitude": "58-20-57.36 N",
		"longitude": "134-47-26.22 W",
		"state": "ALASKA",
		"artcc": "ZAN",
		"type": "RNAV",
		"updated": "05/21/2003",
	},
	{
		"name": "HAPIT",
		"latitude": "58-11-57.57 N",
		"longitude": "137-31-12.45 W",
		"state": "ALASKA",
		"artcc": "ZAN",
		"type": "RP",
		"updated": "YAK*VOR/DME*119.03",
	},
	{
		"name": "HAPLO",
		"latitude": "64-35-30.3 N",
		"longitude": "147-2-18.76 W",
		"state": "ALASKA",
		"artcc": "ZAN",
		"type": "MR",
		"updated": "EIL*TACAN*140.00/4.00",
	},
	{
		"name": "HAPNA",
		"latitude": "64-25-18.91 N",
		"longitude": "163-7-29.32 W",
		"state": "ALASKA",
		"artcc": "ZAN",
		"type": "RNAV",
		"updated": "10/13/2005",
	},
	{
		"name": "HARRP",
		"latitude": "64-18-48.37 N",
		"longitude": "148-56-28.12 W",
		"state": "ALASKA",
		"artcc": "ZAN",
		"type": "RNAV",
		"updated": "07/23/2012",
	},
	{
		"name": "HARVZ",
		"latitude": "69-59-59.41 N",
		"longitude": "143-0-9.89 W",
		"state": "ALASKA",
		"artcc": "ZAN",
		"type": "RNAV",
		"updated": "10/26/2017",
	},
	{
		"name": "HASHH",
		"latitude": "56-44-14.87 N",
		"longitude": "132-43-40.27 W",
		"state": "ALASKA",
		"artcc": "ZAN",
		"type": "RNAV",
		"updated": "03/19/2012",
	},
	{
		"name": "HASKO",
		"latitude": "61-4-39.38 N",
		"longitude": "150-16-11.05 W",
		"state": "ALASKA",
		"artcc": "ZAN",
		"type": "RNAV",
		"updated": "04/07/2017",
	},
	{
		"name": "HATIM",
		"latitude": "56-28-31.12 N",
		"longitude": "132-20-35.32 W",
		"state": "ALASKA",
		"artcc": "ZAN",
		"type": "RNAV",
		"updated": "11/29/2012",
	},
	{
		"name": "HATUL",
		"latitude": "60-58-15.43 N",
		"longitude": "149-53-41.3 W",
		"state": "ALASKA",
		"artcc": "ZAN",
		"type": "RP",
		"updated": "TED*VOR/DME*152.84/12.00",
	},
	{
		"name": "HAVAP",
		"latitude": "61-58-58.31 N",
		"longitude": "164-8-54.6 W",
		"state": "ALASKA",
		"artcc": "ZAN",
		"type": "RNAV",
		"updated": "03/19/2012",
	},
	{
		"name": "HAVNI",
		"latitude": "57-11-26.65 N",
		"longitude": "133-59-12.33 W",
		"state": "ALASKA",
		"artcc": "ZAN",
		"type": "RNAV",
		"updated": "06/11/2008",
	},
	{
		"name": "HAWGG",
		"latitude": "64-22-19.87 N",
		"longitude": "146-45-46.99 W",
		"state": "ALASKA",
		"artcc": "ZAN",
		"type": "MR",
		"updated": "EIL*TACAN*134.00/19.00",
	},
	{
		"name": "HAWRD",
		"latitude": "57-8-53.82 N",
		"longitude": "135-32-40.4 W",
		"state": "ALASKA",
		"artcc": "ZAN",
		"type": "RNAV",
		"updated": "11/04/2014",
	},
	{
		"name": "HAXIX",
		"latitude": "56-35-33.99 N",
		"longitude": "132-25-46.55 W",
		"state": "ALASKA",
		"artcc": "ZAN",
		"type": "RNAV",
		"updated": "04/29/2013",
	},
	{
		"name": "HEBEN",
		"latitude": "60-50-37.74 N",
		"longitude": "146-53-35.64 W",
		"state": "ALASKA",
		"artcc": "ZAN",
		"type": "RNAV",
		"updated": "12/10/2011",
	},
	{
		"name": "HEBER",
		"latitude": "70-21-51.78 N",
		"longitude": "148-13-49.67 W",
		"state": "ALASKA",
		"artcc": "ZAN",
		"type": "RNAV",
		"updated": "02/19/2016",
	},
	{
		"name": "HEBOR",
		"latitude": "66-49-6.39 N",
		"longitude": "156-48-40.15 W",
		"state": "ALASKA",
		"artcc": "ZAN",
		"type": "RNAV",
		"updated": "10/05/2011",
	},
	{
		"name": "HEBUX",
		"latitude": "68-44-5.53 N",
		"longitude": "149-51-34.25 W",
		"state": "ALASKA",
		"artcc": "ZAN",
		"type": "RNAV",
		"updated": "08/18/2008",
	},
	{
		"name": "HEDIV",
		"latitude": "58-7-14.18 N",
		"longitude": "135-11-38.34 W",
		"state": "ALASKA",
		"artcc": "ZAN",
		"type": "RNAV",
		"updated": "06/09/2014",
	},
	{
		"name": "HEDOX",
		"latitude": "66-23-5.07 N",
		"longitude": "147-54-51.65 W",
		"state": "ALASKA",
		"artcc": "ZAN",
		"type": "RNAV",
		"updated": "12/28/2004",
	},
	{
		"name": "HEGAN",
		"latitude": "63-53-51.83 N",
		"longitude": "160-48-28.93 W",
		"state": "ALASKA",
		"artcc": "ZAN",
		"type": "RP",
		"updated": "UNK*LE*330.13/1.08",
	},
	{
		"name": "HEGLA",
		"latitude": "64-15-28.92 N",
		"longitude": "158-51-0.8 W",
		"state": "ALASKA",
		"artcc": "ZAN",
		"type": "RNAV",
		"updated": "09/01/2005",
	},
	{
		"name": "HEGPI",
		"latitude": "58-38-22.83 N",
		"longitude": "158-38-59.99 W",
		"state": "ALASKA",
		"artcc": "ZAN",
		"type": "RNAV",
		"updated": "12/21/2009",
	},
	{
		"name": "HEJNO",
		"latitude": "59-42-22.09 N",
		"longitude": "140-3-3.9 W",
		"state": "ALASKA",
		"artcc": "ZAN",
		"type": "RP",
		"updated": "YAK*VOR/DME*293.90/17.00",
	},
	{
		"name": "HEKRA",
		"latitude": "66-51-38.6 N",
		"longitude": "160-36-32.9 W",
		"state": "ALASKA",
		"artcc": "ZAN",
		"type": "RNAV",
		"updated": "11/24/2009",
	},
	{
		"name": "HEKUX",
		"latitude": "55-24-57.79 N",
		"longitude": "131-14-4.75 W",
		"state": "ALASKA",
		"artcc": "ZAN",
		"type": "RNAV",
		"updated": "09/12/2016",
	},
	{
		"name": "HELKI",
		"latitude": "67-1-23.42 N",
		"longitude": "161-4-32.28 W",
		"state": "ALASKA",
		"artcc": "ZAN",
		"type": "RNAV",
		"updated": "07/11/2005",
	},
	{
		"name": "HEMIV",
		"latitude": "56-32-55.63 N",
		"longitude": "132-38-22.96 W",
		"state": "ALASKA",
		"artcc": "ZAN",
		"type": "RP",
		"updated": "RGL*DD*273.00/10.00",
	},
	{
		"name": "HEMRO",
		"latitude": "64-6-22.18 N",
		"longitude": "151-12-50.69 W",
		"state": "ALASKA",
		"artcc": "ZAN",
		"type": "RNAV",
		"updated": "12/27/2005",
	},
	{
		"name": "HEMSU",
		"latitude": "64-33-21 N",
		"longitude": "165-10-34.23 W",
		"state": "ALASKA",
		"artcc": "ZAN",
		"type": "RNAV",
		"updated": "08/09/2017",
	},
	{
		"name": "HENAS",
		"latitude": "58-27-4.5 N",
		"longitude": "156-27-16.44 W",
		"state": "ALASKA",
		"artcc": "ZAN",
		"type": "RNAV",
		"updated": "07/17/2008",
	},
	{
		"name": "HENIM",
		"latitude": "59-29-11.71 N",
		"longitude": "157-24-30.71 W",
		"state": "ALASKA",
		"artcc": "ZAN",
		"type": "RNAV",
		"updated": "10/05/2007",
	},
	{
		"name": "HERAB",
		"latitude": "56-44-49.68 N",
		"longitude": "132-43-10.76 W",
		"state": "ALASKA",
		"artcc": "ZAN",
		"type": "RNAV",
		"updated": "08/05/2016",
	},
	{
		"name": "HERDU",
		"latitude": "66-46-58.72 N",
		"longitude": "163-9-32.69 W",
		"state": "ALASKA",
		"artcc": "ZAN",
		"type": "RP",
		"updated": "OTZ*VOR/DME*232.44/15.93",
	},
	{
		"name": "HEREN",
		"latitude": "55-50-16.13 N",
		"longitude": "160-48-32.53 W",
		"state": "ALASKA",
		"artcc": "ZAN",
		"type": "RNAV",
		"updated": "10/07/2003",
	},
	{
		"name": "HERIL",
		"latitude": "64-50-36.29 N",
		"longitude": "147-45-31.19 W",
		"state": "ALASKA",
		"artcc": "ZAN",
		"type": "RP",
		"updated": "FAI*VORTAC*047.00/7.00",
	},
	{
		"name": "HERLA",
		"latitude": "63-42-59.62 N",
		"longitude": "161-8-10.48 W",
		"state": "ALASKA",
		"artcc": "ZAN",
		"type": "RP",
		"updated": "UNK*VOR/DME*213.92/16.00",
	},
	{
		"name": "HESEX",
		"latitude": "70-11-15.36 N",
		"longitude": "145-51-1.25 W",
		"state": "ALASKA",
		"artcc": "ZAN",
		"type": "RNAV",
		"updated": "06/26/2013",
	},
	{
		"name": "HESOK",
		"latitude": "57-12-47.13 N",
		"longitude": "135-39-45.06 W",
		"state": "ALASKA",
		"artcc": "ZAN",
		"type": "RNAV",
		"updated": "02/17/2006",
	},
	{
		"name": "HESSE",
		"latitude": "65-5-3.87 N",
		"longitude": "148-26-52.87 W",
		"state": "ALASKA",
		"artcc": "ZAN",
		"type": "RP",
		"updated": "ENN*VORTAC*007.00",
	},
	{
		"name": "HESTS",
		"latitude": "64-36-28.81 N",
		"longitude": "158-39-40.31 W",
		"state": "ALASKA",
		"artcc": "ZAN",
		"type": "RNAV",
		"updated": "11/23/2016",
	},
	{
		"name": "HETLI",
		"latitude": "52-48-30.57 N",
		"longitude": "173-15-5.18 E",
		"state": "ALASKA",
		"artcc": "ZAN",
		"type": "MW",
		"updated": "04/12/2010",
	},
	{
		"name": "HETMU",
		"latitude": "64-1-23.73 N",
		"longitude": "145-48-48.38 W",
		"state": "ALASKA",
		"artcc": "ZAN",
		"type": "RP",
		"updated": "BIG*LD*W CRS/3.61",
	},
	{
		"name": "HEVEB",
		"latitude": "61-32-54.23 N",
		"longitude": "150-20-7.18 W",
		"state": "ALASKA",
		"artcc": "ZAN",
		"type": "RP",
		"updated": "TED*VOR/DME*316.83/25.33",
	},
	{
		"name": "HEXAB",
		"latitude": "57-11-22.49 N",
		"longitude": "135-37-41.72 W",
		"state": "ALASKA",
		"artcc": "ZAN",
		"type": "RP",
		"updated": "IME*NDB*295.00",
	},
	{
		"name": "HEXAX",
		"latitude": "65-59-40.49 N",
		"longitude": "145-23-1.26 W",
		"state": "ALASKA",
		"artcc": "ZAN",
		"type": "RNAV",
		"updated": "06/09/2005",
	},
	{
		"name": "HEXEG",
		"latitude": "59-52-11.49 N",
		"longitude": "149-34-19.53 W",
		"state": "ALASKA",
		"artcc": "ZAN",
		"type": "RNAV",
		"updated": "05/20/2011",
	},
	{
		"name": "HEXES",
		"latitude": "58-44-18.05 N",
		"longitude": "156-46-54.2 W",
		"state": "ALASKA",
		"artcc": "ZAN",
		"type": "RNAV",
		"updated": "07/17/2008",
	},
	{
		"name": "HEXOG",
		"latitude": "65-28-25.31 N",
		"longitude": "163-57-20.19 W",
		"state": "ALASKA",
		"artcc": "ZAN",
		"type": "RNAV",
		"updated": "06/15/2005",
	},
	{
		"name": "HIBLI",
		"latitude": "64-38-17.83 N",
		"longitude": "147-4-48.34 W",
		"state": "ALASKA",
		"artcc": "ZAN",
		"type": "MR",
		"updated": "EIL*TACAN*140.00/1.00",
	},
	{
		"name": "HIBOK",
		"latitude": "57-35-19.68 N",
		"longitude": "134-42-35.7 W",
		"state": "ALASKA",
		"artcc": "ZAN",
		"type": "RNAV",
		"updated": "08/31/2004",
	},
	{
		"name": "HIBVU",
		"latitude": "63-7-43.28 N",
		"longitude": "153-52-13.16 W",
		"state": "ALASKA",
		"artcc": "ZAN",
		"type": "RNAV",
		"updated": "09/01/2005",
	},
	{
		"name": "HIDOP",
		"latitude": "62-39-31.3 N",
		"longitude": "150-0-58.83 W",
		"state": "ALASKA",
		"artcc": "ZAN",
		"type": "RNAV",
		"updated": "07/13/2017",
	},
	{
		"name": "HIDOR",
		"latitude": "68-41-44.56 N",
		"longitude": "150-3-39.56 W",
		"state": "ALASKA",
		"artcc": "ZAN",
		"type": "RNAV",
		"updated": "07/30/2008",
	},
	{
		"name": "HIGDO",
		"latitude": "56-59-57.51 N",
		"longitude": "170-27-30.18 W",
		"state": "ALASKA",
		"artcc": "ZAN",
		"type": "RP",
		"updated": "SPY*NDB/DME*208.01/12.00",
	},
	{
		"name": "HIKAX",
		"latitude": "65-36-20.25 N",
		"longitude": "165-44-43.54 W",
		"state": "ALASKA",
		"artcc": "ZAN",
		"type": "RNAV",
		"updated": "06/15/2005",
	},
	{
		"name": "HIKIV",
		"latitude": "66-45-53.2 N",
		"longitude": "150-43-20.98 W",
		"state": "ALASKA",
		"artcc": "ZAN",
		"type": "RNAV",
		"updated": "07/01/2008",
	},
	{
		"name": "HIKPU",
		"latitude": "69-52-41.36 N",
		"longitude": "162-35-3.33 W",
		"state": "ALASKA",
		"artcc": "ZAN",
		"type": "RNAV",
		"updated": "11/19/2004",
	},
	{
		"name": "HILGN",
		"latitude": "68-3-4.99 N",
		"longitude": "162-51-50.87 W",
		"state": "ALASKA",
		"artcc": "ZAN",
		"type": "RNAV",
		"updated": "07/06/2011",
	},
	{
		"name": "HILIM",
		"latitude": "67-58-52.07 N",
		"longitude": "145-55-44.8 W",
		"state": "ALASKA",
		"artcc": "ZAN",
		"type": "RNAV",
		"updated": "12/01/2005",
	},
	{
		"name": "HILNO",
		"latitude": "63-0-44.7 N",
		"longitude": "154-23-7.21 W",
		"state": "ALASKA",
		"artcc": "ZAN",
		"type": "RNAV",
		"updated": "09/01/2005",
	},
	{
		"name": "HILPA",
		"latitude": "63-52-34.08 N",
		"longitude": "152-19-27.24 W",
		"state": "ALASKA",
		"artcc": "ZAN",
		"type": "RNAV",
		"updated": "12/22/2005",
	},
	{
		"name": "HILUM",
		"latitude": "64-31-1.69 N",
		"longitude": "152-0-9.12 W",
		"state": "ALASKA",
		"artcc": "ZAN",
		"type": "MW",
		"updated": "12/10/2013",
	},
	{
		"name": "HIMGA",
		"latitude": "66-34-46.94 N",
		"longitude": "152-22-48.36 W",
		"state": "ALASKA",
		"artcc": "ZAN",
		"type": "RNAV",
		"updated": "07/08/2011",
	},
	{
		"name": "HIMKI",
		"latitude": "52-47-39.97 N",
		"longitude": "173-46-43.36 W",
		"state": "ALASKA",
		"artcc": "ZAN",
		"type": "RNAV",
		"updated": "02/12/2010",
	},
	{
		"name": "HINBU",
		"latitude": "57-42-4.73 N",
		"longitude": "151-53-39.2 W",
		"state": "ALASKA",
		"artcc": "ZAN",
		"type": "RP",
		"updated": "ODK*VOR/DME*093.00/15.02",
	},
	{
		"name": "HINKL",
		"latitude": "56-58-32.57 N",
		"longitude": "170-16-54.64 W",
		"state": "ALASKA",
		"artcc": "ZAN",
		"type": "RP",
		"updated": "SPY*NDB/DME*178.35/11.00",
	},
	{
		"name": "HINSU",
		"latitude": "61-38-0.25 N",
		"longitude": "159-36-24.86 W",
		"state": "ALASKA",
		"artcc": "ZAN",
		"type": "RNAV",
		"updated": "09/09/2009",
	},
	{
		"name": "HIPUD",
		"latitude": "61-40-28.27 N",
		"longitude": "166-9-50.1 W",
		"state": "ALASKA",
		"artcc": "ZAN",
		"type": "MW",
		"updated": "02/24/2014",
	},
	{
		"name": "HIPUM",
		"latitude": "58-52-2.96 N",
		"longitude": "157-16-57.98 W",
		"state": "ALASKA",
		"artcc": "ZAN",
		"type": "RNAV",
		"updated": "03/14/2016",
	},
	{
		"name": "HIRAN",
		"latitude": "69-44-17.27 N",
		"longitude": "162-57-59.45 W",
		"state": "ALASKA",
		"artcc": "ZAN",
		"type": "RNAV",
		"updated": "06/11/2008",
	},
	{
		"name": "HIREM",
		"latitude": "64-1-55.41 N",
		"longitude": "158-28-10.14 W",
		"state": "ALASKA",
		"artcc": "ZAN",
		"type": "RNAV",
		"updated": "07/11/2005",
	},
	{
		"name": "HIRKU",
		"latitude": "65-26-0.35 N",
		"longitude": "168-16-58.27 W",
		"state": "ALASKA",
		"artcc": "ZAN",
		"type": "RNAV",
		"updated": "05/06/2004",
	},
	{
		"name": "HISDI",
		"latitude": "61-7-41.11 N",
		"longitude": "146-17-14.94 W",
		"state": "ALASKA",
		"artcc": "ZAN",
		"type": "RP",
		"updated": "VDZ*DD*SW CRS/2.00",
	},
	{
		"name": "HISKA",
		"latitude": "64-50-26.55 N",
		"longitude": "147-33-13.83 W",
		"state": "ALASKA",
		"artcc": "ZAN",
		"type": "RP",
		"updated": "FAI*VORTAC*057.03/12.00",
	},
	{
		"name": "HISLI",
		"latitude": "70-11-6.93 N",
		"longitude": "146-18-26.76 W",
		"state": "ALASKA",
		"artcc": "ZAN",
		"type": "RNAV",
		"updated": "04/06/2009",
	},
	{
		"name": "HISLO",
		"latitude": "62-14-5.1 N",
		"longitude": "150-7-54.33 W",
		"state": "ALASKA",
		"artcc": "ZAN",
		"type": "RP",
		"updated": "TKA*VOR/DME*172.00/3.90",
	},
	{
		"name": "HISOB",
		"latitude": "65-28-36.89 N",
		"longitude": "156-27-52.48 W",
		"state": "ALASKA",
		"artcc": "ZAN",
		"type": "RP",
		"updated": "HSL*VOR/DME*171.35/14.13",
	},
	{
		"name": "HISTA",
		"latitude": "60-27-2.28 N",
		"longitude": "145-40-33.46 W",
		"state": "ALASKA",
		"artcc": "ZAN",
		"type": "RNAV",
		"updated": "08/26/2002",
	},
	{
		"name": "HITEN",
		"latitude": "55-59-54.41 N",
		"longitude": "161-0-32.29 W",
		"state": "ALASKA",
		"artcc": "ZAN",
		"type": "RNAV",
		"updated": "10/07/2003",
	},
	{
		"name": "HITLI",
		"latitude": "56-30-21.27 N",
		"longitude": "132-26-1.88 W",
		"state": "ALASKA",
		"artcc": "ZAN",
		"type": "RNAV",
		"updated": "04/29/2013",
	},
	{
		"name": "HITRA",
		"latitude": "70-13-5.29 N",
		"longitude": "148-12-18.94 W",
		"state": "ALASKA",
		"artcc": "ZAN",
		"type": "RNAV",
		"updated": "02/19/2016",
	},
	{
		"name": "HIVAD",
		"latitude": "64-55-7.8 N",
		"longitude": "166-51-29.61 W",
		"state": "ALASKA",
		"artcc": "ZAN",
		"type": "MW",
		"updated": "03/29/2010",
	},
	{
		"name": "HIXAK",
		"latitude": "59-43-17.57 N",
		"longitude": "151-15-39.83 W",
		"state": "ALASKA",
		"artcc": "ZAN",
		"type": "RNAV",
		"updated": "05/16/2013",
	},
	{
		"name": "HIXTE",
		"latitude": "60-9-39.93 N",
		"longitude": "164-16-15.85 W",
		"state": "ALASKA",
		"artcc": "ZAN",
		"type": "RNAV",
		"updated": "12/22/2017",
	},
	{
		"name": "HLBLY",
		"latitude": "63-33-50.66 N",
		"longitude": "159-45-41.91 W",
		"state": "ALASKA",
		"artcc": "ZAN",
		"type": "RNAV",
		"updated": "02/10/2012",
	},
	{
		"name": "HMPTN",
		"latitude": "56-11-39.93 N",
		"longitude": "144-0-6.28 W",
		"state": "ALASKA",
		"artcc": "ZAN",
		"type": "RP",
		"updated": "11/28/2006",
	},
	{
		"name": "HNRAY",
		"latitude": "58-3-33.66 N",
		"longitude": "134-15-32.25 W",
		"state": "ALASKA",
		"artcc": "ZAN",
		"type": "RNAV",
		"updated": "05/18/2016",
	},
	{
		"name": "HOBBS",
		"latitude": "61-25-54.26 N",
		"longitude": "150-1-40.51 W",
		"state": "ALASKA",
		"artcc": "ZAN",
		"type": "MR",
		"updated": "EDF*TACAN*307.00/13.00",
	},
	{
		"name": "HOBEV",
		"latitude": "56-46-41.49 N",
		"longitude": "132-46-29.97 W",
		"state": "ALASKA",
		"artcc": "ZAN",
		"type": "RNAV",
		"updated": "08/05/2016",
	},
	{
		"name": "HOBOM",
		"latitude": "65-6-22.88 N",
		"longitude": "149-34-53.26 W",
		"state": "ALASKA",
		"artcc": "ZAN",
		"type": "RNAV",
		"updated": "12/21/2009",
	},
	{
		"name": "HODDY",
		"latitude": "57-44-15.6 N",
		"longitude": "174-10-4.6 W",
		"state": "ALASKA",
		"artcc": "ZAN",
		"type": "RP",
		"updated": "09/19/2000",
	},
	{
		"name": "HODIT",
		"latitude": "55-26-33 N",
		"longitude": "131-50-48 W",
		"state": "ALASKA",
		"artcc": "ZAN",
		"type": "RNAV",
		"updated": "08/31/2004",
	},
	{
		"name": "HODMO",
		"latitude": "66-59-11.16 N",
		"longitude": "157-40-8.52 W",
		"state": "ALASKA",
		"artcc": "ZAN",
		"type": "RNAV",
		"updated": "10/05/2011",
	},
	{
		"name": "HODUM",
		"latitude": "66-42-31.9 N",
		"longitude": "143-31-17.73 W",
		"state": "ALASKA",
		"artcc": "ZAN",
		"type": "RNAV",
		"updated": "07/11/2005",
	},
	{
		"name": "HOGTY",
		"latitude": "56-52-38.29 N",
		"longitude": "135-22-43.71 W",
		"state": "ALASKA",
		"artcc": "ZAN",
		"type": "RNAV",
		"updated": "11/04/2014",
	},
	{
		"name": "HOJOE",
		"latitude": "62-21-24.69 N",
		"longitude": "147-11-48 W",
		"state": "ALASKA",
		"artcc": "ZAN",
		"type": "MW",
		"updated": "11/28/2012",
	},
	{
		"name": "HOKBU",
		"latitude": "54-59-56.31 N",
		"longitude": "161-53-26.65 W",
		"state": "ALASKA",
		"artcc": "ZAN",
		"type": "RNAV",
		"updated": "11/19/2004",
	},
	{
		"name": "HOKLO",
		"latitude": "59-26-4.04 N",
		"longitude": "154-47-18.77 W",
		"state": "ALASKA",
		"artcc": "ZAN",
		"type": "RNAV",
		"updated": "05/26/2006",
	},
	{
		"name": "HOKRI",
		"latitude": "62-18-51.56 N",
		"longitude": "159-36-41.54 W",
		"state": "ALASKA",
		"artcc": "ZAN",
		"type": "RNAV",
		"updated": "12/27/2005",
	},
	{
		"name": "HOKVI",
		"latitude": "61-50-57.74 N",
		"longitude": "163-42-1.87 W",
		"state": "ALASKA",
		"artcc": "ZAN",
		"type": "RNAV",
		"updated": "03/19/2012",
	},
	{
		"name": "HOLIE",
		"latitude": "59-17-48.87 N",
		"longitude": "139-17-8.91 W",
		"state": "ALASKA",
		"artcc": "ZAN",
		"type": "RP",
		"updated": "YAK*VOR/DME*119.03/17.00",
	},
	{
		"name": "HOLIN",
		"latitude": "60-51-2.27 N",
		"longitude": "161-39-30.33 W",
		"state": "ALASKA",
		"artcc": "ZAN",
		"type": "RP",
		"updated": "BET*VORTAC*036.85/6.28",
	},
	{
		"name": "HOMAM",
		"latitude": "65-28-25.01 N",
		"longitude": "167-54-7.57 W",
		"state": "ALASKA",
		"artcc": "ZAN",
		"type": "MW",
		"updated": "04/16/2014",
	},
	{
		"name": "HOMAT",
		"latitude": "64-45-26.52 N",
		"longitude": "147-6-25.91 W",
		"state": "ALASKA",
		"artcc": "ZAN",
		"type": "MW",
		"updated": "05/06/2011",
	},
	{
		"name": "HOMRA",
		"latitude": "59-24-52.28 N",
		"longitude": "155-1-33.11 W",
		"state": "ALASKA",
		"artcc": "ZAN",
		"type": "RNAV",
		"updated": "05/26/2006",
	},
	{
		"name": "HOMUD",
		"latitude": "56-43-43.91 N",
		"longitude": "132-56-46.42 W",
		"state": "ALASKA",
		"artcc": "ZAN",
		"type": "RNAV",
		"updated": "08/08/2016",
	},
	{
		"name": "HONIL",
		"latitude": "68-7-15.49 N",
		"longitude": "145-33-48.93 W",
		"state": "ALASKA",
		"artcc": "ZAN",
		"type": "RNAV",
		"updated": "12/01/2005",
	},
	{
		"name": "HONPO",
		"latitude": "65-29-29.31 N",
		"longitude": "167-54-22.05 W",
		"state": "ALASKA",
		"artcc": "ZAN",
		"type": "MW",
		"updated": "04/14/2014",
	},
	{
		"name": "HONSI",
		"latitude": "65-5-16.72 N",
		"longitude": "152-36-50.17 W",
		"state": "ALASKA",
		"artcc": "ZAN",
		"type": "RNAV",
		"updated": "05/31/2005",
	},
	{
		"name": "HONUT",
		"latitude": "64-45-31.36 N",
		"longitude": "147-57-58.87 W",
		"state": "ALASKA",
		"artcc": "ZAN",
		"type": "RNAV",
		"updated": "05/15/2017",
	},
	{
		"name": "HOODS",
		"latitude": "57-44-34.56 N",
		"longitude": "134-40-53.66 W",
		"state": "ALASKA",
		"artcc": "ZAN",
		"type": "RP",
		"updated": "SSR*VORTAC*124.54/32.00",
	},
	{
		"name": "HOPER",
		"latitude": "61-0-10.11 N",
		"longitude": "149-44-22.6 W",
		"state": "ALASKA",
		"artcc": "ZAN",
		"type": "RP",
		"updated": "TED*VOR/DME*129.00/11.83",
	},
	{
		"name": "HOPUM",
		"latitude": "70-47-13.51 N",
		"longitude": "159-33-26.16 W",
		"state": "ALASKA",
		"artcc": "ZAN",
		"type": "RNAV",
		"updated": "09/23/2009",
	},
	{
		"name": "HORAG",
		"latitude": "66-44-36.99 N",
		"longitude": "151-14-21.02 W",
		"state": "ALASKA",
		"artcc": "ZAN",
		"type": "RP",
		"updated": "BTT*VOR/DME*123.95/12.00",
	},
	{
		"name": "HOREL",
		"latitude": "66-7-52.91 N",
		"longitude": "162-38-48.3 W",
		"state": "ALASKA",
		"artcc": "ZAN",
		"type": "RNAV",
		"updated": "11/23/2016",
	},
	{
		"name": "HORON",
		"latitude": "70-27-48.22 N",
		"longitude": "150-33-49.78 W",
		"state": "ALASKA",
		"artcc": "ZAN",
		"type": "RNAV",
		"updated": "07/24/2009",
	},
	{
		"name": "HORSI",
		"latitude": "64-44-4.57 N",
		"longitude": "154-19-15.24 W",
		"state": "ALASKA",
		"artcc": "ZAN",
		"type": "RP",
		"updated": "TAL*VOR/DME*226.00/60.83",
	},
	{
		"name": "HORTH",
		"latitude": "54-34-41.3 N",
		"longitude": "166-32-52.3 W",
		"state": "ALASKA",
		"artcc": "ZAN",
		"type": "RP",
		"updated": "ELF*NDB*239.19",
	},
	{
		"name": "HORUL",
		"latitude": "61-6-55.29 N",
		"longitude": "146-23-39.26 W",
		"state": "ALASKA",
		"artcc": "ZAN",
		"type": "RP",
		"updated": "VDZ*DD*SW CRS/5.20",
	},
	{
		"name": "HORVA",
		"latitude": "66-29-3.08 N",
		"longitude": "153-11-38.95 W",
		"state": "ALASKA",
		"artcc": "ZAN",
		"type": "RNAV",
		"updated": "06/16/2004",
	},
	{
		"name": "HOSAN",
		"latitude": "64-53-20.88 N",
		"longitude": "147-43-35.15 W",
		"state": "ALASKA",
		"artcc": "ZAN",
		"type": "RP",
		"updated": "CUN*NDB*280.30",
	},
	{
		"name": "HOSAT",
		"latitude": "70-7-38.28 N",
		"longitude": "147-56-11.14 W",
		"state": "ALASKA",
		"artcc": "ZAN",
		"type": "RNAV",
		"updated": "02/19/2016",
	},
	{
		"name": "HOSOR",
		"latitude": "52-5-1.98 N",
		"longitude": "176-32-12.92 W",
		"state": "ALASKA",
		"artcc": "ZAN",
		"type": "RNAV",
		"updated": "12/16/2009",
	},
	{
		"name": "HOTIM",
		"latitude": "61-4-43.74 N",
		"longitude": "153-57-56.61 W",
		"state": "ALASKA",
		"artcc": "ZAN",
		"type": "RNAV",
		"updated": "03/29/2018",
	},
	{
		"name": "HOTKU",
		"latitude": "59-52-57.7 N",
		"longitude": "162-6-29.43 W",
		"state": "ALASKA",
		"artcc": "ZAN",
		"type": "RNAV",
		"updated": "09/09/2009",
	},
	{
		"name": "HOULE",
		"latitude": "61-4-46.06 N",
		"longitude": "150-16-23.87 W",
		"state": "ALASKA",
		"artcc": "ZAN",
		"type": "RNAV",
		"updated": "04/07/2017",
	},
	{
		"name": "HOVMO",
		"latitude": "64-53-30.28 N",
		"longitude": "147-43-17.76 W",
		"state": "ALASKA",
		"artcc": "ZAN",
		"type": "RNAV",
		"updated": "08/10/2012",
	},
	{
		"name": "HOVUK",
		"latitude": "62-16-0.18 N",
		"longitude": "144-58-33.21 W",
		"state": "ALASKA",
		"artcc": "ZAN",
		"type": "RP",
		"updated": "GKN*VOR/DME*039.49/15.00",
	},
	{
		"name": "HOXOG",
		"latitude": "61-51-47.77 N",
		"longitude": "145-25-58.88 W",
		"state": "ALASKA",
		"artcc": "ZAN",
		"type": "RNAV",
		"updated": "10/03/2008",
	},
	{
		"name": "HRDNG",
		"latitude": "64-18-4.42 N",
		"longitude": "146-12-1.5 W",
		"state": "ALASKA",
		"artcc": "ZAN",
		"type": "RP",
		"updated": "FAI*VORTAC*100.80/55.70",
	},
	{
		"name": "HUBAM",
		"latitude": "59-28-6.28 N",
		"longitude": "154-22-17.36 W",
		"state": "ALASKA",
		"artcc": "ZAN",
		"type": "RNAV",
		"updated": "05/26/2006",
	},
	{
		"name": "HUBID",
		"latitude": "57-39-46.92 N",
		"longitude": "157-13-20.11 W",
		"state": "ALASKA",
		"artcc": "ZAN",
		"type": "RNAV",
		"updated": "10/27/2003",
	},
	{
		"name": "HUBNA",
		"latitude": "55-18-35.88 N",
		"longitude": "160-31-1.28 W",
		"state": "ALASKA",
		"artcc": "ZAN",
		"type": "RP",
		"updated": "HBT*NDB/DME*157.00/0.34",
	},
	{
		"name": "HUBOM",
		"latitude": "62-59-27.02 N",
		"longitude": "141-39-45.12 W",
		"state": "ALASKA",
		"artcc": "ZAN",
		"type": "RNAV",
		"updated": "07/08/2011",
	},
	{
		"name": "HUBUV",
		"latitude": "52-0-24.16 N",
		"longitude": "176-47-33.39 W",
		"state": "ALASKA",
		"artcc": "ZAN",
		"type": "RNAV",
		"updated": "12/16/2009",
	},
	{
		"name": "HUDEM",
		"latitude": "61-34-21.55 N",
		"longitude": "166-16-55.02 W",
		"state": "ALASKA",
		"artcc": "ZAN",
		"type": "MW",
		"updated": "02/24/2014",
	},
	{
		"name": "HUDNO",
		"latitude": "63-39-22.55 N",
		"longitude": "161-52-5.31 W",
		"state": "ALASKA",
		"artcc": "ZAN",
		"type": "RNAV",
		"updated": "05/04/2007",
	},
	{
		"name": "HUDUK",
		"latitude": "59-59-38.6 N",
		"longitude": "154-50-9.09 W",
		"state": "ALASKA",
		"artcc": "ZAN",
		"type": "RNAV",
		"updated": "01/12/2009",
	},
	{
		"name": "HUFBU",
		"latitude": "64-34-13.99 N",
		"longitude": "165-50-8.14 W",
		"state": "ALASKA",
		"artcc": "ZAN",
		"type": "RP",
		"updated": "OME*LD*278.74/9.89",
	},
	{
		"name": "HUGAV",
		"latitude": "56-57-46.92 N",
		"longitude": "158-39-18.65 W",
		"state": "ALASKA",
		"artcc": "ZAN",
		"type": "RP",
		"updated": "PDN*NDB/DME*323.00/0.58",
	},
	{
		"name": "HUGVA",
		"latitude": "61-30-58.36 N",
		"longitude": "166-4-7.62 W",
		"state": "ALASKA",
		"artcc": "ZAN",
		"type": "MW",
		"updated": "02/24/2014",
	},
	{
		"name": "HUKUT",
		"latitude": "52-46-24.25 N",
		"longitude": "173-11-38.43 E",
		"state": "ALASKA",
		"artcc": "ZAN",
		"type": "MW",
		"updated": "04/12/2010",
	},
	{
		"name": "HULAS",
		"latitude": "68-46-17.28 N",
		"longitude": "165-27-4.21 W",
		"state": "ALASKA",
		"artcc": "ZAN",
		"type": "RNAV",
		"updated": "02/24/2014",
	},
	{
		"name": "HULIS",
		"latitude": "68-5-56.79 N",
		"longitude": "144-51-36.37 W",
		"state": "ALASKA",
		"artcc": "ZAN",
		"type": "RNAV",
		"updated": "12/01/2005",
	},
	{
		"name": "HULKS",
		"latitude": "70-6-43.41 N",
		"longitude": "144-14-4.46 W",
		"state": "ALASKA",
		"artcc": "ZAN",
		"type": "RNAV",
		"updated": "09/28/2016",
	},
	{
		"name": "HULUD",
		"latitude": "66-57-16.21 N",
		"longitude": "150-15-22.44 W",
		"state": "ALASKA",
		"artcc": "ZAN",
		"type": "RNAV",
		"updated": "02/13/2012",
	},
	{
		"name": "HUMEB",
		"latitude": "62-57-0.41 N",
		"longitude": "142-45-46.02 W",
		"state": "ALASKA",
		"artcc": "ZAN",
		"type": "RNAV",
		"updated": "11/14/2006",
	},
	{
		"name": "HUMIK",
		"latitude": "63-15-30.09 N",
		"longitude": "142-36-43.02 W",
		"state": "ALASKA",
		"artcc": "ZAN",
		"type": "RNAV",
		"updated": "10/05/2006",
	},
	{
		"name": "HUMOD",
		"latitude": "59-29-46.68 N",
		"longitude": "151-53-39.4 W",
		"state": "ALASKA",
		"artcc": "ZAN",
		"type": "RNAV",
		"updated": "05/16/2013",
	},
	{
		"name": "HUMPY",
		"latitude": "60-7-6.81 N",
		"longitude": "145-0-14.43 W",
		"state": "ALASKA",
		"artcc": "ZAN",
		"type": "RP",
		"updated": "MDO*VOR/DME*025.67",
	},
	{
		"name": "HUMRA",
		"latitude": "59-43-8.12 N",
		"longitude": "155-3-49.9 W",
		"state": "ALASKA",
		"artcc": "ZAN",
		"type": "RP",
		"updated": "ILI*NDB/DME*232.54/5.00",
	},
	{
		"name": "HUMVO",
		"latitude": "69-1-25.74 N",
		"longitude": "149-8-9.6 W",
		"state": "ALASKA",
		"artcc": "ZAN",
		"type": "RNAV",
		"updated": "01/13/2011",
	},
	{
		"name": "HUNID",
		"latitude": "66-47-10.1 N",
		"longitude": "162-28-2.51 W",
		"state": "ALASKA",
		"artcc": "ZAN",
		"type": "RNAV",
		"updated": "08/09/2017",
	},
	{
		"name": "HUNTY",
		"latitude": "63-40-44.63 N",
		"longitude": "170-31-14.93 W",
		"state": "ALASKA",
		"artcc": "ZAN",
		"type": "RNAV",
		"updated": "10/05/2011",
	},
	{
		"name": "HUPDA",
		"latitude": "55-29-55.03 N",
		"longitude": "133-11-29.19 W",
		"state": "ALASKA",
		"artcc": "ZAN",
		"type": "RNAV",
		"updated": "06/11/2009",
	},
	{
		"name": "HUPGI",
		"latitude": "66-54-51.74 N",
		"longitude": "156-55-8.67 W",
		"state": "ALASKA",
		"artcc": "ZAN",
		"type": "RNAV",
		"updated": "09/21/2007",
	},
	{
		"name": "HUPUG",
		"latitude": "67-1-24.43 N",
		"longitude": "162-54-26.7 W",
		"state": "ALASKA",
		"artcc": "ZAN",
		"type": "RP",
		"updated": "OTZ*VOR/DME*298.00/12.00",
	},
	{
		"name": "HURAS",
		"latitude": "56-38-51.47 N",
		"longitude": "132-56-28.28 W",
		"state": "ALASKA",
		"artcc": "ZAN",
		"type": "RNAV",
		"updated": "03/19/2012",
	},
	{
		"name": "HURKI",
		"latitude": "61-4-22.99 N",
		"longitude": "149-56-37.91 W",
		"state": "ALASKA",
		"artcc": "ZAN",
		"type": "RNAV",
		"updated": "11/18/2014",
	},
	{
		"name": "HUSUG",
		"latitude": "65-26-17.31 N",
		"longitude": "146-27-34.62 W",
		"state": "ALASKA",
		"artcc": "ZAN",
		"type": "MR",
		"updated": "FAI*VORTAC*024.00/55.00",
	},
	{
		"name": "HUTIL",
		"latitude": "64-17-10.1 N",
		"longitude": "145-40-22.58 W",
		"state": "ALASKA",
		"artcc": "ZAN",
		"type": "RP",
		"updated": "BIG*VORTAC*340.90/17.00",
	},
	{
		"name": "HUTOS",
		"latitude": "62-57-34.28 N",
		"longitude": "141-56-34.43 W",
		"state": "ALASKA",
		"artcc": "ZAN",
		"type": "RP",
		"updated": "ORT*VORTAC*288.00/1.11",
	},
	{
		"name": "HUVAD",
		"latitude": "67-0-46.14 N",
		"longitude": "150-45-56 W",
		"state": "ALASKA",
		"artcc": "ZAN",
		"type": "RNAV",
		"updated": "07/30/2007",
	},
	{
		"name": "HUVAT",
		"latitude": "61-28-29.5 N",
		"longitude": "165-41-25.91 W",
		"state": "ALASKA",
		"artcc": "ZAN",
		"type": "RNAV",
		"updated": "08/01/2007",
	},
	{
		"name": "HUVDI",
		"latitude": "54-12-59.97 N",
		"longitude": "165-50-48.39 W",
		"state": "ALASKA",
		"artcc": "ZAN",
		"type": "RNAV",
		"updated": "06/02/2014",
	},
	{
		"name": "HUVOT",
		"latitude": "63-8-30.74 N",
		"longitude": "155-33-7.52 W",
		"state": "ALASKA",
		"artcc": "ZAN",
		"type": "RP",
		"updated": "MCG*VORTAC*349.00/11.60",
	},
	{
		"name": "HUXOD",
		"latitude": "68-1-23.9 N",
		"longitude": "152-54-4.04 W",
		"state": "ALASKA",
		"artcc": "ZAN",
		"type": "RNAV",
		"updated": "12/27/2012",
	},
	{
		"name": "HUXUN",
		"latitude": "65-37-55.25 N",
		"longitude": "156-32-56.02 W",
		"state": "ALASKA",
		"artcc": "ZAN",
		"type": "RNAV",
		"updated": "08/07/2008",
	},
	{
		"name": "HWKGV",
		"latitude": "63-19-38.71 N",
		"longitude": "141-0-0 W",
		"state": "ALASKA",
		"artcc": "ZAN",
		"type": "CN",
		"updated": "08/01/2002",
	},
	{
		"name": "HWTCC",
		"latitude": "54-41-51.9 N",
		"longitude": "131-13-37.8 W",
		"state": "ALASKA",
		"artcc": "ZAN",
		"type": "CN",
		"updated": "07/14/2003",
	},
	{
		"name": "HYLEE",
		"latitude": "57-19-3.13 N",
		"longitude": "169-55-6.61 W",
		"state": "ALASKA",
		"artcc": "ZAN",
		"type": "RP",
		"updated": "SPY*NDB/DME*036.57/14.10",
	},
	{
		"name": "HYSON",
		"latitude": "61-14-11.25 N",
		"longitude": "150-18-40.98 W",
		"state": "ALASKA",
		"artcc": "ZAN",
		"type": "MR",
		"updated": "TED*VOR/DME*274.19/11.00",
	},
