	{
		"name": "IANNN",
		"latitude": "58-14-39.9 N",
		"longitude": "157-28-16.06 W",
		"state": "ALASKA",
		"artcc": "ZAN",
		"type": "RNAV",
		"updated": "08/15/2005",
	},
	{
		"name": "IBBEB",
		"latitude": "62-23-59.99 N",
		"longitude": "159-42-32.24 W",
		"state": "ALASKA",
		"artcc": "ZAN",
		"type": "RNAV",
		"updated": "01/30/2006",
	},
	{
		"name": "IBECA",
		"latitude": "67-1-19.47 N",
		"longitude": "145-50-28.9 W",
		"state": "ALASKA",
		"artcc": "ZAN",
		"type": "RNAV",
		"updated": "03/03/2008",
	},
	{
		"name": "IBHAX",
		"latitude": "63-28-42.85 N",
		"longitude": "162-7-37.12 W",
		"state": "ALASKA",
		"artcc": "ZAN",
		"type": "RNAV",
		"updated": "05/05/2005",
	},
	{
		"name": "IBIBE",
		"latitude": "70-22-42.98 N",
		"longitude": "150-19-28.52 W",
		"state": "ALASKA",
		"artcc": "ZAN",
		"type": "RNAV",
		"updated": "07/24/2009",
	},
	{
		"name": "IBISE",
		"latitude": "56-48-2.53 N",
		"longitude": "132-57-0.86 W",
		"state": "ALASKA",
		"artcc": "ZAN",
		"type": "RNAV",
		"updated": "08/08/2016",
	},
	{
		"name": "ICADI",
		"latitude": "58-36-43.68 N",
		"longitude": "156-10-34.46 W",
		"state": "ALASKA",
		"artcc": "ZAN",
		"type": "RP",
		"updated": "AKN*VORTAC*094.32/19.27",
	},
	{
		"name": "ICALE",
		"latitude": "63-58-57.13 N",
		"longitude": "149-5-46.77 W",
		"state": "ALASKA",
		"artcc": "ZAN",
		"type": "RNAV",
		"updated": "04/13/2017",
	},
	{
		"name": "ICALU",
		"latitude": "61-32-0.52 N",
		"longitude": "160-22-47.16 W",
		"state": "ALASKA",
		"artcc": "ZAN",
		"type": "RNAV",
		"updated": "12/28/2004",
	},
	{
		"name": "ICARU",
		"latitude": "61-32-9.09 N",
		"longitude": "150-12-59.53 W",
		"state": "ALASKA",
		"artcc": "ZAN",
		"type": "RNAV",
		"updated": "12/10/2011",
	},
	{
		"name": "ICCOH",
		"latitude": "62-21-31.2 N",
		"longitude": "145-31-24.45 W",
		"state": "ALASKA",
		"artcc": "ZAN",
		"type": "RNAV",
		"updated": "05/18/2010",
	},
	{
		"name": "ICEBI",
		"latitude": "64-26-56.88 N",
		"longitude": "149-27-21.82 W",
		"state": "ALASKA",
		"artcc": "ZAN",
		"type": "RNAV",
		"updated": "09/09/2009",
	},
	{
		"name": "ICEEE",
		"latitude": "64-8-6.9 N",
		"longitude": "166-34-40.2 W",
		"state": "ALASKA",
		"artcc": "ZAN",
		"type": "RNAV",
		"updated": "03/11/2009",
	},
	{
		"name": "ICELU",
		"latitude": "57-0-11.37 N",
		"longitude": "135-24-16.56 W",
		"state": "ALASKA",
		"artcc": "ZAN",
		"type": "RP",
		"updated": "BKA*VORTAC*009.10/9.90",
	},
	{
		"name": "ICICL",
		"latitude": "61-10-6 N",
		"longitude": "150-14-48 W",
		"state": "ALASKA",
		"artcc": "ZAN",
		"type": "WP",
		"updated": "10/02/1995",
	},
	{
		"name": "ICICU",
		"latitude": "55-21-49.77 N",
		"longitude": "160-11-34.7 W",
		"state": "ALASKA",
		"artcc": "ZAN",
		"type": "RNAV",
		"updated": "04/17/2006",
	},
	{
		"name": "ICILI",
		"latitude": "57-10-3.34 N",
		"longitude": "135-46-50.39 W",
		"state": "ALASKA",
		"artcc": "ZAN",
		"type": "RP",
		"updated": "BKA*VORTAC*318.00/20.00",
	},
	{
		"name": "ICKUP",
		"latitude": "56-32-13.32 N",
		"longitude": "132-49-33.2 W",
		"state": "ALASKA",
		"artcc": "ZAN",
		"type": "RNAV",
		"updated": "04/01/2002",
	},
	{
		"name": "ICUKU",
		"latitude": "64-48-25.3 N",
		"longitude": "147-52-51.86 W",
		"state": "ALASKA",
		"artcc": "ZAN",
		"type": "RNAV",
		"updated": "03/11/2009",
	},
	{
		"name": "ICYOH",
		"latitude": "54-2-28.82 N",
		"longitude": "166-24-8.86 W",
		"state": "ALASKA",
		"artcc": "ZAN",
		"type": "RNAV",
		"updated": "06/08/2000",
	},
	{
		"name": "IDACU",
		"latitude": "59-43-46.95 N",
		"longitude": "151-14-16.08 W",
		"state": "ALASKA",
		"artcc": "ZAN",
		"type": "RP",
		"updated": "HOM*LE*038.03/8.17",
	},
	{
		"name": "IDAME",
		"latitude": "59-26-59.79 N",
		"longitude": "145-34-7.31 W",
		"state": "ALASKA",
		"artcc": "ZAN",
		"type": "RP",
		"updated": "MDO*VOR/DME*067.62/24.00",
	},
	{
		"name": "IDBIW",
		"latitude": "59-35-25.19 N",
		"longitude": "154-57-49.74 W",
		"state": "ALASKA",
		"artcc": "ZAN",
		"type": "RNAV",
		"updated": "07/18/2012",
	},
	{
		"name": "IDOSE",
		"latitude": "70-4-40.31 N",
		"longitude": "145-35-22.35 W",
		"state": "ALASKA",
		"artcc": "ZAN",
		"type": "RNAV",
		"updated": "06/26/2013",
	},
	{
		"name": "IDROD",
		"latitude": "63-20-20.4 N",
		"longitude": "169-21-20.1 W",
		"state": "ALASKA",
		"artcc": "ZAN",
		"type": "RNAV",
		"updated": "03/11/2009",
	},
	{
		"name": "IFHIX",
		"latitude": "61-7-30 N",
		"longitude": "150-14-0 W",
		"state": "ALASKA",
		"artcc": "ZAN",
		"type": "RNAV",
		"updated": "07/11/2005",
	},
	{
		"name": "IFNIZ",
		"latitude": "67-38-5.55 N",
		"longitude": "162-21-41.61 W",
		"state": "ALASKA",
		"artcc": "ZAN",
		"type": "RNAV",
		"updated": "11/05/2015",
	},
	{
		"name": "IGASE",
		"latitude": "70-19-53.58 N",
		"longitude": "150-16-34.1 W",
		"state": "ALASKA",
		"artcc": "ZAN",
		"type": "RNAV",
		"updated": "07/24/2009",
	},
	{
		"name": "IGETE",
		"latitude": "66-59-8.47 N",
		"longitude": "146-55-41.13 W",
		"state": "ALASKA",
		"artcc": "ZAN",
		"type": "RNAV",
		"updated": "02/29/2008",
	},
	{
		"name": "IGLUU",
		"latitude": "58-8-53.27 N",
		"longitude": "134-25-0.76 W",
		"state": "ALASKA",
		"artcc": "ZAN",
		"type": "RNAV",
		"updated": "05/18/2016",
	},
	{
		"name": "IGONE",
		"latitude": "65-58-29.63 N",
		"longitude": "161-7-21.85 W",
		"state": "ALASKA",
		"artcc": "ZAN",
		"type": "RNAV",
		"updated": "05/04/2007",
	},
	{
		"name": "IHIHI",
		"latitude": "64-38-13.44 N",
		"longitude": "165-5-49.78 W",
		"state": "ALASKA",
		"artcc": "ZAN",
		"type": "RP",
		"updated": "OME*VOR/DME*012.75/10.00",
	},
	{
		"name": "IHNIT",
		"latitude": "59-40-46.75 N",
		"longitude": "156-56-7.7 W",
		"state": "ALASKA",
		"artcc": "ZAN",
		"type": "RNAV",
		"updated": "11/28/2005",
	},
	{
		"name": "IHOPO",
		"latitude": "67-48-59.28 N",
		"longitude": "162-48-29.16 W",
		"state": "ALASKA",
		"artcc": "ZAN",
		"type": "RNAV",
		"updated": "11/05/2015",
	},
	{
		"name": "IHTUD",
		"latitude": "61-32-43.56 N",
		"longitude": "159-21-43.7 W",
		"state": "ALASKA",
		"artcc": "ZAN",
		"type": "RP",
		"updated": "ANI*NDB*097.59",
	},
	{
		"name": "IIVRY",
		"latitude": "55-55-0 N",
		"longitude": "144-20-0 W",
		"state": "OFFSHORE PACIFIC",
		"artcc": "ZAN",
		"type": "RNAV",
		"updated": "11/06/2015",
	},
	{
		"name": "IKIVE",
		"latitude": "66-48-33.84 N",
		"longitude": "152-5-36.88 W",
		"state": "ALASKA",
		"artcc": "ZAN",
		"type": "RNAV",
		"updated": "03/16/2018",
	},
	{
		"name": "IKIZY",
		"latitude": "61-31-22.81 N",
		"longitude": "160-31-20.42 W",
		"state": "ALASKA",
		"artcc": "ZAN",
		"type": "RNAV",
		"updated": "12/28/2004",
	},
	{
		"name": "IKOCI",
		"latitude": "66-54-34.32 N",
		"longitude": "156-52-34.18 W",
		"state": "ALASKA",
		"artcc": "ZAN",
		"type": "RNAV",
		"updated": "09/21/2007",
	},
	{
		"name": "IKONS",
		"latitude": "67-56-18.86 N",
		"longitude": "163-3-42.2 W",
		"state": "ALASKA",
		"artcc": "ZAN",
		"type": "RNAV",
		"updated": "11/05/2015",
	},
	{
		"name": "IKUFU",
		"latitude": "61-40-17.62 N",
		"longitude": "159-51-25.01 W",
		"state": "ALASKA",
		"artcc": "ZAN",
		"type": "RP",
		"updated": "ANI*LD*109.18/11.09",
	},
	{
		"name": "IKULE",
		"latitude": "58-36-50.72 N",
		"longitude": "158-29-54.03 W",
		"state": "ALASKA",
		"artcc": "ZAN",
		"type": "RNAV",
		"updated": "12/21/2009",
	},
	{
		"name": "IKUXE",
		"latitude": "62-56-4.89 N",
		"longitude": "142-9-39.61 W",
		"state": "ALASKA",
		"artcc": "ZAN",
		"type": "RNAV",
		"updated": "07/08/2011",
	},
	{
		"name": "IKWEY",
		"latitude": "60-19-20.61 N",
		"longitude": "144-54-58.72 W",
		"state": "ALASKA",
		"artcc": "ZAN",
		"type": "RNAV",
		"updated": "11/01/2010",
	},
	{
		"name": "ILALE",
		"latitude": "59-33-52.58 N",
		"longitude": "154-13-7.8 W",
		"state": "ALASKA",
		"artcc": "ZAN",
		"type": "RNAV",
		"updated": "05/26/2006",
	},
	{
		"name": "ILAVE",
		"latitude": "68-6-3.8 N",
		"longitude": "145-36-28.76 W",
		"state": "ALASKA",
		"artcc": "ZAN",
		"type": "RNAV",
		"updated": "12/01/2005",
	},
	{
		"name": "ILNUW",
		"latitude": "59-42-50.65 N",
		"longitude": "151-12-1.51 W",
		"state": "ALASKA",
		"artcc": "ZAN",
		"type": "RNAV",
		"updated": "05/16/2013",
	},
	{
		"name": "ILOCE",
		"latitude": "63-43-35.43 N",
		"longitude": "170-20-28.53 W",
		"state": "ALASKA",
		"artcc": "ZAN",
		"type": "RP",
		"updated": "ULL*VOR/DME*049.00/4.00",
	},
	{
		"name": "ILOND",
		"latitude": "57-54-55.81 N",
		"longitude": "152-23-13.07 W",
		"state": "ALASKA",
		"artcc": "ZAN",
		"type": "RNAV",
		"updated": "10/26/2015",
	},
	{
		"name": "ILOXE",
		"latitude": "68-46-25.63 N",
		"longitude": "149-39-26.4 W",
		"state": "ALASKA",
		"artcc": "ZAN",
		"type": "RNAV",
		"updated": "07/28/2008",
	},
	{
		"name": "ILTAF",
		"latitude": "64-49-58.53 N",
		"longitude": "147-49-12.92 W",
		"state": "ALASKA",
		"artcc": "ZAN",
		"type": "RP",
		"updated": "FAI*VORTAC*047.00/5.30",
	},
	{
		"name": "ILWAF",
		"latitude": "57-6-11.14 N",
		"longitude": "135-27-45.44 W",
		"state": "ALASKA",
		"artcc": "ZAN",
		"type": "RNAV",
		"updated": "06/26/2013",
	},
	{
		"name": "IMARE",
		"latitude": "64-33-29.6 N",
		"longitude": "147-17-20.31 W",
		"state": "ALASKA",
		"artcc": "ZAN",
		"type": "RP",
		"updated": "FAI*VORTAC*106.67/23.65",
	},
	{
		"name": "IMEVE",
		"latitude": "60-19-35.24 N",
		"longitude": "166-40-9.3 W",
		"state": "ALASKA",
		"artcc": "ZAN",
		"type": "RNAV",
		"updated": "09/19/2006",
	},
	{
		"name": "IMHID",
		"latitude": "64-51-58.08 N",
		"longitude": "147-30-56.83 W",
		"state": "ALASKA",
		"artcc": "ZAN",
		"type": "RNAV",
		"updated": "05/01/2017",
	},
	{
		"name": "IMOME",
		"latitude": "58-16-28.59 N",
		"longitude": "135-25-53.45 W",
		"state": "ALASKA",
		"artcc": "ZAN",
		"type": "RP",
		"updated": "SSR*VORTAC*296.86/8.00",
	},
	{
		"name": "INDEY",
		"latitude": "65-40-56.94 N",
		"longitude": "145-21-25.74 W",
		"state": "ALASKA",
		"artcc": "ZAN",
		"type": "RNAV",
		"updated": "03/13/2014",
	},
	{
		"name": "INDRA",
		"latitude": "59-14-50.46 N",
		"longitude": "158-18-27.5 W",
		"state": "ALASKA",
		"artcc": "ZAN",
		"type": "RP",
		"updated": "DLG*VOR/DME*011.31/17.00",
	},
	{
		"name": "INEME",
		"latitude": "61-1-16.58 N",
		"longitude": "161-54-53.13 W",
		"state": "ALASKA",
		"artcc": "ZAN",
		"type": "RNAV",
		"updated": "05/17/2017",
	},
	{
		"name": "INEYO",
		"latitude": "61-2-42.55 N",
		"longitude": "146-58-10.04 W",
		"state": "ALASKA",
		"artcc": "ZAN",
		"type": "CN",
		"updated": "01/07/2013",
	},
	{
		"name": "INFRA",
		"latitude": "61-4-41.44 N",
		"longitude": "149-55-7.41 W",
		"state": "ALASKA",
		"artcc": "ZAN",
		"type": "RNAV",
		"updated": "04/07/2017",
	},
	{
		"name": "INICE",
		"latitude": "61-35-46.33 N",
		"longitude": "149-44-51.82 W",
		"state": "ALASKA",
		"artcc": "ZAN",
		"type": "RNAV",
		"updated": "02/29/2008",
	},
	{
		"name": "INIYU",
		"latitude": "66-53-5.2 N",
		"longitude": "162-28-5.28 W",
		"state": "ALASKA",
		"artcc": "ZAN",
		"type": "RP",
		"updated": "OTZ*VOR/DME*076.82/1.70",
	},
	{
		"name": "INNOL",
		"latitude": "58-6-32.76 N",
		"longitude": "151-55-45.01 W",
		"state": "ALASKA",
		"artcc": "ZAN",
		"type": "RP",
		"updated": "ODK*VOR/DME*019.00/24.03",
	},
	{
		"name": "INOTY",
		"latitude": "52-35-17.85 N",
		"longitude": "174-37-45.89 W",
		"state": "ALASKA",
		"artcc": "ZAN",
		"type": "RNAV",
		"updated": "02/12/2010",
	},
	{
		"name": "INTON",
		"latitude": "68-19-10.37 N",
		"longitude": "151-24-47.94 W",
		"state": "ALASKA",
		"artcc": "ZAN",
		"type": "RNAV",
		"updated": "12/27/2012",
	},
	{
		"name": "IPELE",
		"latitude": "65-31-4.81 N",
		"longitude": "144-13-38.12 W",
		"state": "ALASKA",
		"artcc": "ZAN",
		"type": "RNAV",
		"updated": "03/13/2014",
	},
	{
		"name": "IPERE",
		"latitude": "64-47-1.76 N",
		"longitude": "141-10-41.31 W",
		"state": "ALASKA",
		"artcc": "ZAN",
		"type": "RNAV",
		"updated": "03/12/2014",
	},
	{
		"name": "IPIBY",
		"latitude": "67-54-35.76 N",
		"longitude": "163-1-42.95 W",
		"state": "ALASKA",
		"artcc": "ZAN",
		"type": "RNAV",
		"updated": "11/05/2015",
	},
	{
		"name": "IPIYA",
		"latitude": "55-33-26.57 N",
		"longitude": "133-6-26.47 W",
		"state": "ALASKA",
		"artcc": "ZAN",
		"type": "RNAV",
		"updated": "06/11/2009",
	},
	{
		"name": "IPOXE",
		"latitude": "64-17-33.48 N",
		"longitude": "158-48-20.52 W",
		"state": "ALASKA",
		"artcc": "ZAN",
		"type": "RNAV",
		"updated": "07/11/2005",
	},
	{
		"name": "IPOYU",
		"latitude": "60-23-26.14 N",
		"longitude": "161-59-14.2 W",
		"state": "ALASKA",
		"artcc": "ZAN",
		"type": "RNAV",
		"updated": "04/02/2008",
	},
	{
		"name": "IPUME",
		"latitude": "66-31-23.53 N",
		"longitude": "151-48-41.4 W",
		"state": "ALASKA",
		"artcc": "ZAN",
		"type": "RNAV",
		"updated": "07/08/2011",
	},
	{
		"name": "IQUQU",
		"latitude": "70-16-30.87 N",
		"longitude": "150-28-39.03 W",
		"state": "ALASKA",
		"artcc": "ZAN",
		"type": "RNAV",
		"updated": "07/08/2011",
	},
	{
		"name": "IRACI",
		"latitude": "59-26-7.64 N",
		"longitude": "151-50-29.9 W",
		"state": "ALASKA",
		"artcc": "ZAN",
		"type": "RNAV",
		"updated": "05/17/2013",
	},
	{
		"name": "IRERE",
		"latitude": "60-33-13.6 N",
		"longitude": "151-23-48.22 W",
		"state": "ALASKA",
		"artcc": "ZAN",
		"type": "RP",
		"updated": "HOM*VOR/DME*347.00/50.83",
	},
	{
		"name": "IRIQU",
		"latitude": "70-27-12.12 N",
		"longitude": "157-41-31.02 W",
		"state": "ALASKA",
		"artcc": "ZAN",
		"type": "RNAV",
		"updated": "12/27/2005",
	},
	{
		"name": "IRONC",
		"latitude": "62-24-25.02 N",
		"longitude": "149-4-58.84 W",
		"state": "ALASKA",
		"artcc": "ZAN",
		"type": "RNAV",
		"updated": "05/31/2010",
	},
	{
		"name": "IRSAW",
		"latitude": "66-40-55.67 N",
		"longitude": "157-10-21.54 W",
		"state": "ALASKA",
		"artcc": "ZAN",
		"type": "RNAV",
		"updated": "06/26/2009",
	},
	{
		"name": "IRUCU",
		"latitude": "62-54-27.6 N",
		"longitude": "155-27-21.42 W",
		"state": "ALASKA",
		"artcc": "ZAN",
		"type": "RP",
		"updated": "MCG*VORTAC*102.40/5.00",
	},
	{
		"name": "IRUGE",
		"latitude": "68-2-29.88 N",
		"longitude": "162-52-37.17 W",
		"state": "ALASKA",
		"artcc": "ZAN",
		"type": "RNAV",
		"updated": "10/14/2011",
	},
	{
		"name": "IRUNE",
		"latitude": "56-41-28.25 N",
		"longitude": "132-41-0.89 W",
		"state": "ALASKA",
		"artcc": "ZAN",
		"type": "RNAV",
		"updated": "11/04/2014",
	},
	{
		"name": "IRUWU",
		"latitude": "54-3-48.1 N",
		"longitude": "166-35-7.85 W",
		"state": "ALASKA",
		"artcc": "ZAN",
		"type": "RNAV",
		"updated": "06/08/2000",
	},
	{
		"name": "ISACC",
		"latitude": "61-20-51.56 N",
		"longitude": "150-14-45.14 W",
		"state": "ALASKA",
		"artcc": "ZAN",
		"type": "RNAV",
		"updated": "12/10/2011",
	},
	{
		"name": "ISERY",
		"latitude": "58-18-37.16 N",
		"longitude": "137-4-10.76 W",
		"state": "ALASKA",
		"artcc": "ZAN",
		"type": "RNAV",
		"updated": "05/16/2016",
	},
	{
		"name": "ISFAX",
		"latitude": "70-5-35 N",
		"longitude": "147-14-48.97 W",
		"state": "ALASKA",
		"artcc": "ZAN",
		"type": "RNAV",
		"updated": "08/06/2008",
	},
	{
		"name": "ITAWU",
		"latitude": "57-4-19.3 N",
		"longitude": "158-57-39.41 W",
		"state": "ALASKA",
		"artcc": "ZAN",
		"type": "RNAV",
		"updated": "01/23/2007",
	},
	{
		"name": "ITHER",
		"latitude": "61-4-47.83 N",
		"longitude": "149-55-26.77 W",
		"state": "ALASKA",
		"artcc": "ZAN",
		"type": "RNAV",
		"updated": "04/07/2017",
	},
	{
		"name": "ITHOD",
		"latitude": "63-48-24.45 N",
		"longitude": "169-47-8.52 W",
		"state": "ALASKA",
		"artcc": "ZAN",
		"type": "RP",
		"updated": "ULL*VOR/DME*059.00/19.49",
	},
	{
		"name": "ITKIC",
		"latitude": "61-50-38.48 N",
		"longitude": "166-2-42.93 W",
		"state": "ALASKA",
		"artcc": "ZAN",
		"type": "RP",
		"updated": "HPB*VOR/DME*354.29/20.00",
	},
	{
		"name": "ITUHO",
		"latitude": "70-21-24.36 N",
		"longitude": "150-53-45.71 W",
		"state": "ALASKA",
		"artcc": "ZAN",
		"type": "RNAV",
		"updated": "02/09/2018",
	},
	{
		"name": "ITUXE",
		"latitude": "67-15-28.07 N",
		"longitude": "150-12-1.83 W",
		"state": "ALASKA",
		"artcc": "ZAN",
		"type": "RNAV",
		"updated": "08/24/2017",
	},
	{
		"name": "IVANN",
		"latitude": "61-23-0.21 N",
		"longitude": "150-34-25.31 W",
		"state": "ALASKA",
		"artcc": "ZAN",
		"type": "RP",
		"updated": "BGQ*VORTAC*218.59/20.74",
	},
	{
		"name": "IVOXE",
		"latitude": "57-5-4.69 N",
		"longitude": "169-53-27.97 W",
		"state": "ALASKA",
		"artcc": "ZAN",
		"type": "RP",
		"updated": "SPY*NDB/DME*101.04/12.00",
	},
	{
		"name": "IVUXE",
		"latitude": "58-52-50.92 N",
		"longitude": "162-2-37.26 W",
		"state": "ALASKA",
		"artcc": "ZAN",
		"type": "MW",
		"updated": "11/17/2015",
	},
	{
		"name": "IWREB",
		"latitude": "56-52-44.65 N",
		"longitude": "158-59-8.34 W",
		"state": "ALASKA",
		"artcc": "ZAN",
		"type": "RP",
		"updated": "PDN*NDB/DME*232.00/12.00",
	},
	{
		"name": "IXIQE",
		"latitude": "62-9-43.43 N",
		"longitude": "150-7-36.03 W",
		"state": "ALASKA",
		"artcc": "ZAN",
		"type": "RNAV",
		"updated": "07/13/2017",
	},
	{
		"name": "IYANE",
		"latitude": "62-52-11.04 N",
		"longitude": "142-43-0.25 W",
		"state": "ALASKA",
		"artcc": "ZAN",
		"type": "RNAV",
		"updated": "11/14/2006",
	},
	{
		"name": "IYAPI",
		"latitude": "70-6-46.32 N",
		"longitude": "143-55-3.47 W",
		"state": "ALASKA",
		"artcc": "ZAN",
		"type": "RNAV",
		"updated": "09/29/2016",
	},
	{
		"name": "IYAYA",
		"latitude": "59-58-14.51 N",
		"longitude": "154-51-13.84 W",
		"state": "ALASKA",
		"artcc": "ZAN",
		"type": "RNAV",
		"updated": "07/11/2005",
	},
	{
		"name": "IYICU",
		"latitude": "62-9-42.68 N",
		"longitude": "145-27-19.15 W",
		"state": "ALASKA",
		"artcc": "ZAN",
		"type": "RP",
		"updated": "GKN*VOR/DME*323.00/0.59",
	},
	{
		"name": "IYIPE",
		"latitude": "67-6-12.52 N",
		"longitude": "150-52-12.27 W",
		"state": "ALASKA",
		"artcc": "ZAN",
		"type": "RNAV",
		"updated": "02/13/2012",
	},
	{
		"name": "IYOKO",
		"latitude": "62-57-19.21 N",
		"longitude": "163-38-15.24 W",
		"state": "ALASKA",
		"artcc": "ZAN",
		"type": "RNAV",
		"updated": "12/01/2003",
	},
	{
		"name": "IYOLU",
		"latitude": "67-7-49.53 N",
		"longitude": "150-55-4.66 W",
		"state": "ALASKA",
		"artcc": "ZAN",
		"type": "RNAV",
		"updated": "07/20/2007",
	},
	{
		"name": "IYOYI",
		"latitude": "57-14-35.01 N",
		"longitude": "135-43-41.71 W",
		"state": "ALASKA",
		"artcc": "ZAN",
		"type": "CN",
		"updated": "12/22/2005",
	},
	{
		"name": "IYUTE",
		"latitude": "66-55-45.27 N",
		"longitude": "157-9-41.75 W",
		"state": "ALASKA",
		"artcc": "ZAN",
		"type": "RNAV",
		"updated": "09/21/2007",
	},
	{
		"name": "IYUVE",
		"latitude": "70-1-45.81 N",
		"longitude": "146-30-57.69 W",
		"state": "ALASKA",
		"artcc": "ZAN",
		"type": "RNAV",
		"updated": "08/06/2008",
	},
	{
		"name": "IYUWI",
		"latitude": "56-49-41.53 N",
		"longitude": "159-12-39.93 W",
		"state": "ALASKA",
		"artcc": "ZAN",
		"type": "RP",
		"updated": "PDN*NDB/DME*232.00/20.03",
	},
