[
	{
		"name": "JABAP",
		"latitude": "53-58-18.13 N",
		"longitude": "166-32-52.32 W",
		"state": "ALASKA",
		"artcc": "ZAN",
		"type": "RP",
		"updated": "DUT*NDB/DME*351.00/4.00"
	},
	{
		"name": "JABLU",
		"latitude": "67-8-7.59 N",
		"longitude": "157-28-52.08 W",
		"state": "ALASKA",
		"artcc": "ZAN",
		"type": "RNAV",
		"updated": "10/05/2011"
	},
	{
		"name": "JABUV",
		"latitude": "61-39-55.83 N",
		"longitude": "149-57-32.88 W",
		"state": "ALASKA",
		"artcc": "ZAN",
		"type": "RNAV",
		"updated": "08/03/2006"
	},
	{
		"name": "JADAM",
		"latitude": "59-21-7.35 N",
		"longitude": "155-43-57.08 W",
		"state": "ALASKA",
		"artcc": "ZAN",
		"type": "RNAV",
		"updated": "09/03/2003"
	},
	{
		"name": "JADAS",
		"latitude": "70-25-32.33 N",
		"longitude": "150-22-23.74 W",
		"state": "ALASKA",
		"artcc": "ZAN",
		"type": "RNAV",
		"updated": "07/24/2009"
	},
	{
		"name": "JADEV",
		"latitude": "62-52-15.78 N",
		"longitude": "163-45-15.61 W",
		"state": "ALASKA",
		"artcc": "ZAN",
		"type": "RNAV",
		"updated": "06/21/2005"
	},
	{
		"name": "JADPI",
		"latitude": "53-56-16.92 N",
		"longitude": "166-32-20.06 W",
		"state": "ALASKA",
		"artcc": "ZAN",
		"type": "RP",
		"updated": "DUT*NDB/DME*000.13/2.02"
	},
	{
		"name": "JADSA",
		"latitude": "58-53-31.27 N",
		"longitude": "161-54-46.03 W",
		"state": "ALASKA",
		"artcc": "ZAN",
		"type": "RNAV",
		"updated": "09/24/2014"
	},
	{
		"name": "JAGGU",
		"latitude": "64-44-40.37 N",
		"longitude": "157-42-36.75 W",
		"state": "ALASKA",
		"artcc": "ZAN",
		"type": "RP",
		"updated": "GAL*VOR/DME*254.34/24.00"
	},
	{
		"name": "JAGIT",
		"latitude": "60-57-34.4 N",
		"longitude": "141-0-0 W",
		"state": "",
		"artcc": "ZAN",
		"type": "RNAV",
		"updated": "06/21/2010"
	},
	{
		"name": "JAGMA",
		"latitude": "65-17-17.2 N",
		"longitude": "167-30-55.86 W",
		"state": "ALASKA",
		"artcc": "ZAN",
		"type": "MW",
		"updated": "04/14/2014"
	},
	{
		"name": "JAGTI",
		"latitude": "66-45-21.48 N",
		"longitude": "157-32-55.05 W",
		"state": "ALASKA",
		"artcc": "ZAN",
		"type": "RNAV",
		"updated": "06/26/2009"
	},
	{
		"name": "JAGUT",
		"latitude": "62-1-29.45 N",
		"longitude": "161-43-38.49 W",
		"state": "ALASKA",
		"artcc": "ZAN",
		"type": "RNAV",
		"updated": "03/19/2012"
	},
	{
		"name": "JAKAB",
		"latitude": "64-50-18.4 N",
		"longitude": "147-29-35.95 W",
		"state": "ALASKA",
		"artcc": "ZAN",
		"type": "MW",
		"updated": "05/06/2011"
	},
	{
		"name": "JAKEG",
		"latitude": "52-42-14.99 N",
		"longitude": "174-9-18.45 E",
		"state": "ALASKA",
		"artcc": "ZAN",
		"type": "MR",
		"updated": "SYA*VORTAC*/3.50"
	},
	{
		"name": "JAKII",
		"latitude": "64-25-51 N",
		"longitude": "166-0-45 W",
		"state": "ALASKA",
		"artcc": "ZAN",
		"type": "RNAV",
		"updated": "10/26/2015"
	},
	{
		"name": "JAKMU",
		"latitude": "61-6-35.25 N",
		"longitude": "149-51-12.63 W",
		"state": "ALASKA",
		"artcc": "ZAN",
		"type": "RNAV",
		"updated": "04/07/2017"
	},
	{
		"name": "JAKOW",
		"latitude": "67-1-20.39 N",
		"longitude": "157-56-35.64 W",
		"state": "ALASKA",
		"artcc": "ZAN",
		"type": "RNAV",
		"updated": "11/23/2016"
	},
	{
		"name": "JAKUD",
		"latitude": "56-48-34.33 N",
		"longitude": "132-54-14.68 W",
		"state": "ALASKA",
		"artcc": "ZAN",
		"type": "RNAV",
		"updated": "08/08/2016"
	},
	{
		"name": "JALEX",
		"latitude": "51-54-48 N",
		"longitude": "176-33-25.67 W",
		"state": "ALASKA",
		"artcc": "ZAN",
		"type": "RNAV",
		"updated": "05/08/2008"
	},
	{
		"name": "JALNO",
		"latitude": "63-56-55.15 N",
		"longitude": "160-50-51.55 W",
		"state": "ALASKA",
		"artcc": "ZAN",
		"type": "RP",
		"updated": "UNK*LE*330.13/4.32"
	},
	{
		"name": "JALNU",
		"latitude": "65-49-16.77 N",
		"longitude": "162-29-38.1 W",
		"state": "ALASKA",
		"artcc": "ZAN",
		"type": "RNAV",
		"updated": "11/23/2016"
	},
	{
		"name": "JAMMM",
		"latitude": "64-51-29.66 N",
		"longitude": "147-16-26.93 W",
		"state": "ALASKA",
		"artcc": "ZAN",
		"type": "MW",
		"updated": "03/09/2016"
	},
	{
		"name": "JAMOB",
		"latitude": "58-21-28.55 N",
		"longitude": "134-35-51.21 W",
		"state": "ALASKA",
		"artcc": "ZAN",
		"type": "RNAV",
		"updated": "10/24/2014"
	},
	{
		"name": "JAMPA",
		"latitude": "58-22-12.75 N",
		"longitude": "134-41-9.48 W",
		"state": "ALASKA",
		"artcc": "ZAN",
		"type": "RNAV",
		"updated": "07/12/2004"
	},
	{
		"name": "JAMUR",
		"latitude": "65-52-35.31 N",
		"longitude": "160-44-12.93 W",
		"state": "ALASKA",
		"artcc": "ZAN",
		"type": "RNAV",
		"updated": "05/04/2010"
	},
	{
		"name": "JAMZE",
		"latitude": "58-21-2.02 N",
		"longitude": "134-32-40.98 W",
		"state": "ALASKA",
		"artcc": "ZAN",
		"type": "RNAV",
		"updated": "10/24/2014"
	},
	{
		"name": "JANEM",
		"latitude": "55-31-36.65 N",
		"longitude": "132-0-36.38 W",
		"state": "ALASKA",
		"artcc": "ZAN",
		"type": "RNAV",
		"updated": "07/17/2008"
	},
	{
		"name": "JANNT",
		"latitude": "52-4-17.88 N",
		"longitude": "178-15-37.23 W",
		"state": "ALASKA",
		"artcc": "ZAN",
		"type": "RNAV",
		"updated": "06/15/2005"
	},
	{
		"name": "JANVO",
		"latitude": "61-26-23.44 N",
		"longitude": "160-2-36.42 W",
		"state": "ALASKA",
		"artcc": "ZAN",
		"type": "RNAV",
		"updated": "09/11/2012"
	},
	{
		"name": "JAPKI",
		"latitude": "68-30-14.64 N",
		"longitude": "164-15-22.04 W",
		"state": "ALASKA",
		"artcc": "ZAN",
		"type": "RNAV",
		"updated": "08/22/2012"
	},
	{
		"name": "JASGO",
		"latitude": "60-19-46.34 N",
		"longitude": "151-32-28.92 W",
		"state": "ALASKA",
		"artcc": "ZAN",
		"type": "RP",
		"updated": "HOM*VOR/DME*341.12/37.39"
	},
	{
		"name": "JASOB",
		"latitude": "65-21-28.25 N",
		"longitude": "167-52-34.25 W",
		"state": "ALASKA",
		"artcc": "ZAN",
		"type": "MW",
		"updated": "04/14/2014"
	},
	{
		"name": "JAVAH",
		"latitude": "65-3-40.09 N",
		"longitude": "147-21-15.88 W",
		"state": "ALASKA",
		"artcc": "ZAN",
		"type": "MR",
		"updated": "FAI*VORTAC*025.60/23.00"
	},
	{
		"name": "JAXAL",
		"latitude": "56-4-14.64 N",
		"longitude": "132-38-43.7 W",
		"state": "ALASKA",
		"artcc": "ZAN",
		"type": "RNAV",
		"updated": "12/12/2008"
	},
	{
		"name": "JAXVI",
		"latitude": "64-19-14.2 N",
		"longitude": "165-18-25 W",
		"state": "ALASKA",
		"artcc": "ZAN",
		"type": "RP",
		"updated": "OME*VOR/DME*177.08/10.00"
	},
	{
		"name": "JAYQE",
		"latitude": "64-43-27.03 N",
		"longitude": "160-46-46.17 W",
		"state": "ALASKA",
		"artcc": "ZAN",
		"type": "RP",
		"updated": "MOS*VOR/DME*070.55/33.30"
	},
	{
		"name": "JAYVE",
		"latitude": "63-33-39.28 N",
		"longitude": "171-40-6.32 W",
		"state": "ALASKA",
		"artcc": "ZAN",
		"type": "RNAV",
		"updated": "01/15/2015"
	},
	{
		"name": "JEBIP",
		"latitude": "61-32-10.11 N",
		"longitude": "150-0-26.25 W",
		"state": "ALASKA",
		"artcc": "ZAN",
		"type": "RNAV",
		"updated": "12/11/2011"
	},
	{
		"name": "JEBOL",
		"latitude": "62-4-12.42 N",
		"longitude": "150-11-55.31 W",
		"state": "ALASKA",
		"artcc": "ZAN",
		"type": "RP",
		"updated": "TKA*VOR/DME*171.87/13.99"
	},
	{
		"name": "JEDIT",
		"latitude": "64-10-41.5 N",
		"longitude": "158-58-57.88 W",
		"state": "ALASKA",
		"artcc": "ZAN",
		"type": "RNAV",
		"updated": "09/01/2005"
	},
	{
		"name": "JEGNO",
		"latitude": "55-18-3.2 N",
		"longitude": "162-47-33.14 W",
		"state": "ALASKA",
		"artcc": "ZAN",
		"type": "RP",
		"updated": "CDB*VORTAC*328.70/2.11"
	},
	{
		"name": "JEGTU",
		"latitude": "67-40-36.92 N",
		"longitude": "164-44-35.17 W",
		"state": "ALASKA",
		"artcc": "ZAN",
		"type": "RP",
		"updated": "OTZ*VOR/DME*298.90/70.00"
	},
	{
		"name": "JEGVO",
		"latitude": "58-39-54.29 N",
		"longitude": "158-48-6.74 W",
		"state": "ALASKA",
		"artcc": "ZAN",
		"type": "RNAV",
		"updated": "12/21/2009"
	},
	{
		"name": "JEJZO",
		"latitude": "56-34-25.96 N",
		"longitude": "169-43-3.22 W",
		"state": "ALASKA",
		"artcc": "ZAN",
		"type": "RNAV",
		"updated": "06/14/2001"
	},
	{
		"name": "JEKEX",
		"latitude": "59-23-25.46 N",
		"longitude": "151-48-10.08 W",
		"state": "ALASKA",
		"artcc": "ZAN",
		"type": "RP",
		"updated": "HOM*VOR/DME*194.00/21.91"
	},
	{
		"name": "JEKLI",
		"latitude": "65-46-30.66 N",
		"longitude": "167-21-22.98 W",
		"state": "ALASKA",
		"artcc": "ZAN",
		"type": "RNAV",
		"updated": "07/26/2012"
	},
	{
		"name": "JEKPU",
		"latitude": "67-49-50.93 N",
		"longitude": "146-14-56.65 W",
		"state": "ALASKA",
		"artcc": "ZAN",
		"type": "RP",
		"updated": "FYU*VORTAC*318.74/79.00"
	},
	{
		"name": "JELLE",
		"latitude": "66-51-38.95 N",
		"longitude": "158-55-5.72 W",
		"state": "ALASKA",
		"artcc": "ZAN",
		"type": "RP",
		"updated": "WLK*VOR/DME*041.87/30.00"
	},
	{
		"name": "JEMED",
		"latitude": "66-53-57.69 N",
		"longitude": "162-43-51.91 W",
		"state": "ALASKA",
		"artcc": "ZAN",
		"type": "RNAV",
		"updated": "08/09/2017"
	},
	{
		"name": "JEMGA",
		"latitude": "64-48-47.49 N",
		"longitude": "165-7-52.26 W",
		"state": "ALASKA",
		"artcc": "ZAN",
		"type": "RP",
		"updated": "OME*VOR/DME*358.00/20.00"
	},
	{
		"name": "JEMOT",
		"latitude": "61-3-16.16 N",
		"longitude": "150-5-12.06 W",
		"state": "ALASKA",
		"artcc": "ZAN",
		"type": "RNAV",
		"updated": "11/18/2014"
	},
	{
		"name": "JEMTU",
		"latitude": "62-6-56.44 N",
		"longitude": "163-17-44.94 W",
		"state": "ALASKA",
		"artcc": "ZAN",
		"type": "RP",
		"updated": "SMA*LE*350.44/3.73"
	},
	{
		"name": "JEMUM",
		"latitude": "66-0-26.14 N",
		"longitude": "162-33-37.32 W",
		"state": "ALASKA",
		"artcc": "ZAN",
		"type": "RNAV",
		"updated": "11/23/2016"
	},
	{
		"name": "JENBA",
		"latitude": "59-18-33.21 N",
		"longitude": "157-2-52.87 W",
		"state": "ALASKA",
		"artcc": "ZAN",
		"type": "RNAV",
		"updated": "10/05/2007"
	},
	{
		"name": "JENEP",
		"latitude": "56-37-38.17 N",
		"longitude": "132-29-6.58 W",
		"state": "ALASKA",
		"artcc": "ZAN",
		"type": "RNAV",
		"updated": "08/30/2004"
	},
	{
		"name": "JENSU",
		"latitude": "68-31-12.88 N",
		"longitude": "166-36-26.65 W",
		"state": "ALASKA",
		"artcc": "ZAN",
		"type": "RNAV",
		"updated": "09/09/2013"
	},
	{
		"name": "JEPGI",
		"latitude": "64-30-44.08 N",
		"longitude": "165-13-6.12 W",
		"state": "ALASKA",
		"artcc": "ZAN",
		"type": "RNAV",
		"updated": "08/09/2017"
	},
	{
		"name": "JEPRU",
		"latitude": "59-3-20.24 N",
		"longitude": "161-51-41.88 W",
		"state": "ALASKA",
		"artcc": "ZAN",
		"type": "RNAV",
		"updated": "06/26/2017"
	},
	{
		"name": "JERDU",
		"latitude": "57-9-35.42 N",
		"longitude": "132-52-6.48 W",
		"state": "ALASKA",
		"artcc": "ZAN",
		"type": "RP",
		"updated": "PSG*DD*344.00/21.68"
	},
	{
		"name": "JEROK",
		"latitude": "64-26-39.59 N",
		"longitude": "165-30-46.83 W",
		"state": "ALASKA",
		"artcc": "ZAN",
		"type": "RNAV",
		"updated": "08/09/2017"
	},
	{
		"name": "JESIK",
		"latitude": "58-13-54.3 N",
		"longitude": "134-37-36.09 W",
		"state": "ALASKA",
		"artcc": "ZAN",
		"type": "RNAV",
		"updated": "10/24/2014"
	},
	{
		"name": "JESOK",
		"latitude": "68-33-10.63 N",
		"longitude": "149-35-42.12 W",
		"state": "ALASKA",
		"artcc": "ZAN",
		"type": "RNAV",
		"updated": "07/28/2008"
	},
	{
		"name": "JESOT",
		"latitude": "70-6-47.19 N",
		"longitude": "143-40-39.78 W",
		"state": "ALASKA",
		"artcc": "ZAN",
		"type": "RNAV",
		"updated": "09/29/2016"
	},
	{
		"name": "JESRU",
		"latitude": "74-56-48 N",
		"longitude": "141-0-0 W",
		"state": "OFFSHORE PACIFIC",
		"artcc": "ZAN",
		"type": "RNAV",
		"updated": "05/29/2014"
	},
	{
		"name": "JESUX",
		"latitude": "59-57-50.52 N",
		"longitude": "154-51-50.75 W",
		"state": "ALASKA",
		"artcc": "ZAN",
		"type": "RNAV",
		"updated": "07/11/2005"
	},
	{
		"name": "JESZU",
		"latitude": "64-38-54.7 N",
		"longitude": "165-19-20.57 W",
		"state": "ALASKA",
		"artcc": "ZAN",
		"type": "RP",
		"updated": "OME*VOR/DME*338.71/10.00"
	},
	{
		"name": "JETAD",
		"latitude": "65-49-25.86 N",
		"longitude": "155-58-6.31 W",
		"state": "ALASKA",
		"artcc": "ZAN",
		"type": "RNAV",
		"updated": "08/07/2008"
	},
	{
		"name": "JETAS",
		"latitude": "58-20-51.04 N",
		"longitude": "134-31-22.47 W",
		"state": "ALASKA",
		"artcc": "ZAN",
		"type": "RNAV",
		"updated": "10/30/2014"
	},
	{
		"name": "JETPI",
		"latitude": "60-38-18.04 N",
		"longitude": "162-16-1.41 W",
		"state": "ALASKA",
		"artcc": "ZAN",
		"type": "RNAV",
		"updated": "08/26/2008"
	},
	{
		"name": "JETUT",
		"latitude": "57-7-28.23 N",
		"longitude": "135-55-9.64 W",
		"state": "ALASKA",
		"artcc": "ZAN",
		"type": "RP",
		"updated": "BKA*VORTAC*303.00/20.00"
	},
	{
		"name": "JEVUM",
		"latitude": "67-8-39.43 N",
		"longitude": "151-21-31.06 W",
		"state": "ALASKA",
		"artcc": "ZAN",
		"type": "RP",
		"updated": "EAV*NDB*357.62"
	},
	{
		"name": "JEXET",
		"latitude": "57-44-54.98 N",
		"longitude": "152-20-20.58 W",
		"state": "ALASKA",
		"artcc": "ZAN",
		"type": "RNAV",
		"updated": "10/26/2015"
	},
	{
		"name": "JEXEV",
		"latitude": "61-36-54.44 N",
		"longitude": "165-29-57.96 W",
		"state": "ALASKA",
		"artcc": "ZAN",
		"type": "RNAV",
		"updated": "08/01/2007"
	},
	{
		"name": "JEXIM",
		"latitude": "58-41-15.25 N",
		"longitude": "136-19-8.07 W",
		"state": "ALASKA",
		"artcc": "ZAN",
		"type": "RNAV",
		"updated": "10/30/2014"
	},
	{
		"name": "JEXOD",
		"latitude": "57-3-22.23 N",
		"longitude": "135-36-3.07 W",
		"state": "ALASKA",
		"artcc": "ZAN",
		"type": "RNAV",
		"updated": "11/04/2014"
	},
	{
		"name": "JIBUG",
		"latitude": "59-45-33.96 N",
		"longitude": "155-18-33.3 W",
		"state": "ALASKA",
		"artcc": "ZAN",
		"type": "RNAV",
		"updated": "01/12/2009"
	},
	{
		"name": "JIBVO",
		"latitude": "60-5-8.72 N",
		"longitude": "154-38-16 W",
		"state": "ALASKA",
		"artcc": "ZAN",
		"type": "RNAV",
		"updated": "01/12/2009"
	},
	{
		"name": "JIDGA",
		"latitude": "66-57-40.4 N",
		"longitude": "157-42-22.45 W",
		"state": "ALASKA",
		"artcc": "ZAN",
		"type": "RNAV",
		"updated": "09/21/2007"
	},
	{
		"name": "JIDKU",
		"latitude": "61-24-18.34 N",
		"longitude": "165-47-5.3 W",
		"state": "ALASKA",
		"artcc": "ZAN",
		"type": "RNAV",
		"updated": "08/01/2007"
	},
	{
		"name": "JIGMI",
		"latitude": "58-10-41.33 N",
		"longitude": "135-6-5.36 W",
		"state": "ALASKA",
		"artcc": "ZAN",
		"type": "RNAV",
		"updated": "05/21/2003"
	},
	{
		"name": "JIGMU",
		"latitude": "57-49-1.49 N",
		"longitude": "152-37-12.2 W",
		"state": "ALASKA",
		"artcc": "ZAN",
		"type": "RNAV",
		"updated": "10/26/2015"
	},
	{
		"name": "JIGTI",
		"latitude": "67-3-2.22 N",
		"longitude": "151-59-55.88 W",
		"state": "ALASKA",
		"artcc": "ZAN",
		"type": "RNAV",
		"updated": "11/15/2010"
	},
	{
		"name": "JIKAB",
		"latitude": "62-11-10.79 N",
		"longitude": "145-27-53.72 W",
		"state": "ALASKA",
		"artcc": "ZAN",
		"type": "RNAV",
		"updated": "05/18/2010"
	},
	{
		"name": "JIKAL",
		"latitude": "59-16-17.6 N",
		"longitude": "157-11-34.3 W",
		"state": "ALASKA",
		"artcc": "ZAN",
		"type": "RNAV",
		"updated": "10/05/2007"
	},
	{
		"name": "JIKAN",
		"latitude": "61-5-2.34 N",
		"longitude": "146-39-14.75 W",
		"state": "ALASKA",
		"artcc": "ZAN",
		"type": "RP",
		"updated": "VDZ*DD*SW CRS/13.00"
	},
	{
		"name": "JIKOV",
		"latitude": "63-16-42.39 N",
		"longitude": "162-5-29.41 W",
		"state": "ALASKA",
		"artcc": "ZAN",
		"type": "RNAV",
		"updated": "05/05/2005"
	},
	{
		"name": "JIKSA",
		"latitude": "66-10-13.23 N",
		"longitude": "162-19-59.02 W",
		"state": "ALASKA",
		"artcc": "ZAN",
		"type": "RNAV",
		"updated": "11/29/2010"
	},
	{
		"name": "JIKUN",
		"latitude": "58-21-43.82 N",
		"longitude": "135-35-7.21 W",
		"state": "ALASKA",
		"artcc": "ZAN",
		"type": "RP",
		"updated": "SSR*VORTAC*297.15/15.17"
	},
	{
		"name": "JIMAV",
		"latitude": "54-54-28.88 N",
		"longitude": "162-7-40.44 W",
		"state": "ALASKA",
		"artcc": "ZAN",
		"type": "RNAV",
		"updated": "11/19/2004"
	},
	{
		"name": "JIMON",
		"latitude": "57-56-28.39 N",
		"longitude": "152-21-2.7 W",
		"state": "ALASKA",
		"artcc": "ZAN",
		"type": "RP",
		"updated": "ODK*VOR/DME*344.00/10.02"
	},
	{
		"name": "JINAG",
		"latitude": "62-31-41.72 N",
		"longitude": "150-8-1.88 W",
		"state": "ALASKA",
		"artcc": "ZAN",
		"type": "RNAV",
		"updated": "07/13/2017"
	},
	{
		"name": "JINEP",
		"latitude": "60-17-30.44 N",
		"longitude": "144-39-10.18 W",
		"state": "ALASKA",
		"artcc": "ZAN",
		"type": "RNAV",
		"updated": "09/12/2016"
	},
	{
		"name": "JINUV",
		"latitude": "64-43-58.7 N",
		"longitude": "157-29-33.39 W",
		"state": "ALASKA",
		"artcc": "ZAN",
		"type": "RNAV",
		"updated": "08/01/2008"
	},
	{
		"name": "JINXX",
		"latitude": "61-34-4.22 N",
		"longitude": "149-22-27.3 W",
		"state": "ALASKA",
		"artcc": "ZAN",
		"type": "MR",
		"updated": "EDF*TACAN*013.00/22.00"
	},
	{
		"name": "JIPAK",
		"latitude": "65-6-32.36 N",
		"longitude": "166-46-39.96 W",
		"state": "ALASKA",
		"artcc": "ZAN",
		"type": "RP",
		"updated": "TNC*NDB/DME*119.85/39.69"
	},
	{
		"name": "JIPAV",
		"latitude": "66-34-2.56 N",
		"longitude": "145-16-6.59 W",
		"state": "ALASKA",
		"artcc": "ZAN",
		"type": "RNAV",
		"updated": "10/21/2013"
	},
	{
		"name": "JIPEG",
		"latitude": "55-12-24 N",
		"longitude": "131-39-24 W",
		"state": "ALASKA",
		"artcc": "ZAN",
		"type": "RNAV",
		"updated": "08/31/2004"
	},
	{
		"name": "JIPEN",
		"latitude": "64-42-14.21 N",
		"longitude": "148-20-46.57 W",
		"state": "ALASKA",
		"artcc": "ZAN",
		"type": "RNAV",
		"updated": "10/16/2015"
	},
	{
		"name": "JIRIG",
		"latitude": "64-43-50.25 N",
		"longitude": "148-1-3.46 W",
		"state": "ALASKA",
		"artcc": "ZAN",
		"type": "RNAV",
		"updated": "08/10/2012"
	},
	{
		"name": "JIROP",
		"latitude": "59-7-47.68 N",
		"longitude": "160-18-4.19 W",
		"state": "ALASKA",
		"artcc": "ZAN",
		"type": "RNAV",
		"updated": "04/19/2018"
	},
	{
		"name": "JISGI",
		"latitude": "63-13-50.55 N",
		"longitude": "155-31-27.2 W",
		"state": "ALASKA",
		"artcc": "ZAN",
		"type": "RP",
		"updated": "MCG*VORTAC*349.00/17.00"
	},
	{
		"name": "JISKO",
		"latitude": "65-15-14.58 N",
		"longitude": "152-37-18.47 W",
		"state": "ALASKA",
		"artcc": "ZAN",
		"type": "RNAV",
		"updated": "05/31/2005"
	},
	{
		"name": "JISPE",
		"latitude": "67-58-32.82 N",
		"longitude": "163-1-47.42 W",
		"state": "ALASKA",
		"artcc": "ZAN",
		"type": "RNAV",
		"updated": "11/05/2015"
	},
	{
		"name": "JISTU",
		"latitude": "71-17-4.93 N",
		"longitude": "156-29-9.71 W",
		"state": "ALASKA",
		"artcc": "ZAN",
		"type": "RP",
		"updated": "BRW*VOR/DME*064.23/5.88"
	},
	{
		"name": "JITOT",
		"latitude": "62-45-45.18 N",
		"longitude": "141-32-46.55 W",
		"state": "ALASKA",
		"artcc": "ZAN",
		"type": "RP",
		"updated": "ORT*VORTAC*113.63/15.00"
	},
	{
		"name": "JIVCO",
		"latitude": "58-56-11.54 N",
		"longitude": "156-16-44.35 W",
		"state": "ALASKA",
		"artcc": "ZAN",
		"type": "RNAV",
		"updated": "11/15/2010"
	},
	{
		"name": "JIVEM",
		"latitude": "58-32-4.36 N",
		"longitude": "156-43-33.8 W",
		"state": "ALASKA",
		"artcc": "ZAN",
		"type": "RNAV",
		"updated": "03/14/2016"
	},
	{
		"name": "JIVKO",
		"latitude": "61-41-21.89 N",
		"longitude": "165-23-50.49 W",
		"state": "ALASKA",
		"artcc": "ZAN",
		"type": "RNAV",
		"updated": "08/01/2007"
	},
	{
		"name": "JIVNU",
		"latitude": "61-6-41.5 N",
		"longitude": "149-51-31.88 W",
		"state": "ALASKA",
		"artcc": "ZAN",
		"type": "RNAV",
		"updated": "04/07/2017"
	},
	{
		"name": "JIVUB",
		"latitude": "69-58-6.21 N",
		"longitude": "147-22-47.95 W",
		"state": "ALASKA",
		"artcc": "ZAN",
		"type": "RNAV",
		"updated": "08/06/2008"
	},
	{
		"name": "JIXAX",
		"latitude": "65-36-25.76 N",
		"longitude": "156-27-26.27 W",
		"state": "ALASKA",
		"artcc": "ZAN",
		"type": "RP",
		"updated": "HSL*VOR/DME*182.15/6.50"
	},
	{
		"name": "JIXIB",
		"latitude": "61-4-59.01 N",
		"longitude": "155-34-29.29 W",
		"state": "ALASKA",
		"artcc": "ZAN",
		"type": "MW",
		"updated": "11/02/2017"
	},
	{
		"name": "JIXUM",
		"latitude": "62-42-58.88 N",
		"longitude": "155-21-18.6 W",
		"state": "ALASKA",
		"artcc": "ZAN",
		"type": "MW",
		"updated": "06/03/2011"
	},
	{
		"name": "JIYOU",
		"latitude": "58-19-17.65 N",
		"longitude": "157-35-45.1 W",
		"state": "ALASKA",
		"artcc": "ZAN",
		"type": "RNAV",
		"updated": "08/15/2005"
	},
	{
		"name": "JIZPU",
		"latitude": "54-24-42.32 N",
		"longitude": "131-19-18.36 W",
		"state": "ALASKA",
		"artcc": "ZAN",
		"type": "RNAV",
		"updated": "09/21/2014"
	},
	{
		"name": "JJRDN",
		"latitude": "63-14-10.68 N",
		"longitude": "152-55-29.22 W",
		"state": "ALASKA",
		"artcc": "ZAN",
		"type": "RNAV",
		"updated": "01/19/2017"
	},
	{
		"name": "JMAAL",
		"latitude": "60-53-4.67 N",
		"longitude": "146-48-0.98 W",
		"state": "ALASKA",
		"artcc": "ZAN",
		"type": "RP",
		"updated": "JOH*VOR/DME*328.37/25.00"
	},
	{
		"name": "JOANY",
		"latitude": "62-44-48.48 N",
		"longitude": "156-16-29.47 W",
		"state": "ALASKA",
		"artcc": "ZAN",
		"type": "RP",
		"updated": "MCG*VORTAC*217.33/22.00"
	},
	{
		"name": "JOBAG",
		"latitude": "70-19-43.04 N",
		"longitude": "145-50-10.52 W",
		"state": "ALASKA",
		"artcc": "ZAN",
		"type": "RNAV",
		"updated": "06/26/2013"
	},
	{
		"name": "JOBNO",
		"latitude": "58-13-49.86 N",
		"longitude": "135-33-6.15 W",
		"state": "ALASKA",
		"artcc": "ZAN",
		"type": "RP",
		"updated": "SSR*VORTAC*269.00/9.83"
	},
	{
		"name": "JOCGI",
		"latitude": "61-30-36.59 N",
		"longitude": "160-41-39.21 W",
		"state": "ALASKA",
		"artcc": "ZAN",
		"type": "RNAV",
		"updated": "12/28/2004"
	},
	{
		"name": "JODBI",
		"latitude": "61-40-15.93 N",
		"longitude": "149-10-4.94 W",
		"state": "ALASKA",
		"artcc": "ZAN",
		"type": "RNAV",
		"updated": "06/12/2014"
	},
	{
		"name": "JODRO",
		"latitude": "60-5-15.2 N",
		"longitude": "147-45-23.47 W",
		"state": "ALASKA",
		"artcc": "ZAN",
		"type": "RNAV",
		"updated": "02/13/2012"
	},
	{
		"name": "JOGAK",
		"latitude": "62-18-14.15 N",
		"longitude": "145-31-53.25 W",
		"state": "ALASKA",
		"artcc": "ZAN",
		"type": "RP",
		"updated": "GKN*VOR/DME*323.00/9.40"
	},
	{
		"name": "JOGMO",
		"latitude": "57-7-27.3 N",
		"longitude": "154-47-11.97 W",
		"state": "ALASKA",
		"artcc": "ZAN",
		"type": "RP",
		"updated": "AKN*VORTAC*130.00"
	},
	{
		"name": "JOGUP",
		"latitude": "64-52-33.17 N",
		"longitude": "147-45-3.42 W",
		"state": "ALASKA",
		"artcc": "ZAN",
		"type": "RNAV",
		"updated": "05/01/2017"
	},
	{
		"name": "JOGUR",
		"latitude": "64-19-42.03 N",
		"longitude": "158-43-6.02 W",
		"state": "ALASKA",
		"artcc": "ZAN",
		"type": "RNAV",
		"updated": "06/08/2017"
	},
	{
		"name": "JOHBU",
		"latitude": "56-49-56.74 N",
		"longitude": "132-55-30.16 W",
		"state": "ALASKA",
		"artcc": "ZAN",
		"type": "RNAV",
		"updated": "08/01/2007"
	},
	{
		"name": "JOHNI",
		"latitude": "62-27-43.67 N",
		"longitude": "163-15-50.04 W",
		"state": "ALASKA",
		"artcc": "ZAN",
		"type": "RP",
		"updated": "BET*VORTAC*324.41/109.02"
	},
	{
		"name": "JOJOE",
		"latitude": "57-2-29.18 N",
		"longitude": "134-13-20.72 W",
		"state": "ALASKA",
		"artcc": "ZAN",
		"type": "RNAV",
		"updated": "06/11/2008"
	},
	{
		"name": "JOKAP",
		"latitude": "63-54-46.48 N",
		"longitude": "150-58-29.25 W",
		"state": "ALASKA",
		"artcc": "ZAN",
		"type": "RNAV",
		"updated": "06/09/2005"
	},
	{
		"name": "JOKOD",
		"latitude": "67-57-10.18 N",
		"longitude": "164-44-16.07 W",
		"state": "ALASKA",
		"artcc": "ZAN",
		"type": "RNAV",
		"updated": "05/30/2008"
	},
	{
		"name": "JOKTI",
		"latitude": "68-3-35.47 N",
		"longitude": "145-43-25.29 W",
		"state": "ALASKA",
		"artcc": "ZAN",
		"type": "RNAV",
		"updated": "12/01/2005"
	},
	{
		"name": "JOLTO",
		"latitude": "56-58-2.65 N",
		"longitude": "133-58-23.3 W",
		"state": "ALASKA",
		"artcc": "ZAN",
		"type": "RNAV",
		"updated": "08/31/2004"
	},
	{
		"name": "JONKI",
		"latitude": "58-8-35.41 N",
		"longitude": "134-27-9.99 W",
		"state": "ALASKA",
		"artcc": "ZAN",
		"type": "RNAV",
		"updated": "08/23/2016"
	},
	{
		"name": "JONSY",
		"latitude": "64-33-37.09 N",
		"longitude": "147-0-29.85 W",
		"state": "ALASKA",
		"artcc": "ZAN",
		"type": "MW",
		"updated": "10/30/2017"
	},
	{
		"name": "JONTA",
		"latitude": "70-4-24.82 N",
		"longitude": "148-5-37.51 W",
		"state": "ALASKA",
		"artcc": "ZAN",
		"type": "RNAV",
		"updated": "02/19/2016"
	},
	{
		"name": "JOPMO",
		"latitude": "70-29-33.87 N",
		"longitude": "150-16-47.08 W",
		"state": "ALASKA",
		"artcc": "ZAN",
		"type": "RNAV",
		"updated": "11/12/2014"
	},
	{
		"name": "JOPRI",
		"latitude": "62-49-44.96 N",
		"longitude": "155-10-37.82 W",
		"state": "ALASKA",
		"artcc": "ZAN",
		"type": "RP",
		"updated": "MCG*VORTAC*102.40/14.00"
	},
	{
		"name": "JOPUT",
		"latitude": "66-52-33.35 N",
		"longitude": "162-26-44.31 W",
		"state": "ALASKA",
		"artcc": "ZAN",
		"type": "RNAV",
		"updated": "08/09/2017"
	},
	{
		"name": "JORIR",
		"latitude": "59-45-12.83 N",
		"longitude": "155-0-18.47 W",
		"state": "ALASKA",
		"artcc": "ZAN",
		"type": "RNAV",
		"updated": "03/30/2009"
	},
	{
		"name": "JOROG",
		"latitude": "62-58-16.55 N",
		"longitude": "155-36-19.12 W",
		"state": "ALASKA",
		"artcc": "ZAN",
		"type": "RP",
		"updated": "MCG*LE*N CRS/1.50"
	},
	{
		"name": "JOSAD",
		"latitude": "59-48-51.04 N",
		"longitude": "161-58-0.023 W",
		"state": "ALASKA",
		"artcc": "ZAN",
		"type": "RNAV",
		"updated": "01/29/2016"
	},
	{
		"name": "JOSKI",
		"latitude": "60-28-29.97 N",
		"longitude": "150-56-46.42 W",
		"state": "ALASKA",
		"artcc": "ZAN",
		"type": "RP",
		"updated": "OLT*NDB/DME*251.04/2.00"
	},
	{
		"name": "JOSNU",
		"latitude": "62-49-48.19 N",
		"longitude": "159-34-15.04 W",
		"state": "ALASKA",
		"artcc": "ZAN",
		"type": "RNAV",
		"updated": "08/26/2008"
	},
	{
		"name": "JOSQO",
		"latitude": "60-9-15.59 N",
		"longitude": "164-0-16.64 W",
		"state": "ALASKA",
		"artcc": "ZAN",
		"type": "RNAV",
		"updated": "12/22/2017"
	},
	{
		"name": "JOSRA",
		"latitude": "57-44-49.73 N",
		"longitude": "152-15-45.05 W",
		"state": "ALASKA",
		"artcc": "ZAN",
		"type": "RP",
		"updated": "RWO*NDB*116.57"
	},
	{
		"name": "JOSUA",
		"latitude": "62-38-11.62 N",
		"longitude": "156-17-1.65 W",
		"state": "ALASKA",
		"artcc": "ZAN",
		"type": "MW",
		"updated": "07/05/2013"
	},
	{
		"name": "JOTAT",
		"latitude": "51-52-23.41 N",
		"longitude": "176-40-52.08 W",
		"state": "ALASKA",
		"artcc": "ZAN",
		"type": "RNAV",
		"updated": "12/16/2009"
	},
	{
		"name": "JOTBI",
		"latitude": "60-28-29.33 N",
		"longitude": "151-10-24.69 W",
		"state": "ALASKA",
		"artcc": "ZAN",
		"type": "RP",
		"updated": "ENA*VOR/DME*156.62"
	},
	{
		"name": "JOTOK",
		"latitude": "55-12-22.21 N",
		"longitude": "160-29-29.45 W",
		"state": "ALASKA",
		"artcc": "ZAN",
		"type": "RP",
		"updated": "HBT*NDB/DME*157.00/6.64"
	},
	{
		"name": "JOTPU",
		"latitude": "61-27-40.32 N",
		"longitude": "165-46-59.5 W",
		"state": "ALASKA",
		"artcc": "ZAN",
		"type": "RP",
		"updated": "HPB*VOR/DME*094.41/10.60"
	},
	{
		"name": "JOTUG",
		"latitude": "64-38-47.14 N",
		"longitude": "148-10-13.53 W",
		"state": "ALASKA",
		"artcc": "ZAN",
		"type": "RNAV",
		"updated": "09/17/2009"
	},
	{
		"name": "JOTWI",
		"latitude": "59-26-24.51 N",
		"longitude": "139-31-29.44 W",
		"state": "ALASKA",
		"artcc": "ZAN",
		"type": "RP",
		"updated": "YAK*VOR/DME*/5.68"
	},
	{
		"name": "JOVRY",
		"latitude": "58-56-8.28 N",
		"longitude": "158-57-50.96 W",
		"state": "ALASKA",
		"artcc": "ZAN",
		"type": "RNAV",
		"updated": "07/08/2011"
	},
	{
		"name": "JOVVO",
		"latitude": "70-7-44.88 N",
		"longitude": "149-10-14.15 W",
		"state": "ALASKA",
		"artcc": "ZAN",
		"type": "RP",
		"updated": "SCC*VOR/DME*238.06/16.00"
	},
	{
		"name": "JOXIX",
		"latitude": "63-23-17.24 N",
		"longitude": "162-15-26.08 W",
		"state": "ALASKA",
		"artcc": "ZAN",
		"type": "RNAV",
		"updated": "05/04/2010"
	},
	{
		"name": "JOZPO",
		"latitude": "62-9-11.97 N",
		"longitude": "150-16-33.62 W",
		"state": "ALASKA",
		"artcc": "ZAN",
		"type": "RNAV",
		"updated": "03/29/2010"
	},
	{
		"name": "JTSKI",
		"latitude": "61-56-6.04 N",
		"longitude": "166-1-12.79 W",
		"state": "ALASKA",
		"artcc": "ZAN",
		"type": "RP",
		"updated": "HPB*VOR/DME*354.29/25.52"
	},
	{
		"name": "JUBAL",
		"latitude": "59-8-8.06 N",
		"longitude": "158-25-2.48 W",
		"state": "ALASKA",
		"artcc": "ZAN",
		"type": "RP",
		"updated": "DLG*LE*N CRS/6.67"
	},
	{
		"name": "JUDAN",
		"latitude": "64-37-59.43 N",
		"longitude": "163-16-24.77 W",
		"state": "ALASKA",
		"artcc": "ZAN",
		"type": "RNAV",
		"updated": "10/19/2005"
	},
	{
		"name": "JUDBU",
		"latitude": "61-0-12.96 N",
		"longitude": "154-29-4.28 W",
		"state": "ALASKA",
		"artcc": "ZAN",
		"type": "RNAV",
		"updated": "03/29/2018"
	},
	{
		"name": "JUDRU",
		"latitude": "66-35-19.9 N",
		"longitude": "152-17-59.09 W",
		"state": "ALASKA",
		"artcc": "ZAN",
		"type": "RNAV",
		"updated": "07/08/2011"
	},
	{
		"name": "JUGAX",
		"latitude": "60-33-0.27 N",
		"longitude": "165-56-26.25 W",
		"state": "ALASKA",
		"artcc": "ZAN",
		"type": "RNAV",
		"updated": "10/10/2006"
	},
	{
		"name": "JUGID",
		"latitude": "62-40-45.67 N",
		"longitude": "159-34-8.63 W",
		"state": "ALASKA",
		"artcc": "ZAN",
		"type": "RNAV",
		"updated": "08/26/2008"
	},
	{
		"name": "JUGLO",
		"latitude": "61-23-4.54 N",
		"longitude": "165-58-11.42 W",
		"state": "ALASKA",
		"artcc": "ZAN",
		"type": "RNAV",
		"updated": "07/08/2011"
	},
	{
		"name": "JUJXI",
		"latitude": "64-58-30 N",
		"longitude": "168-2-30 W",
		"state": "ALASKA",
		"artcc": "ZAN",
		"type": "RNAV",
		"updated": "05/17/2011"
	},
	{
		"name": "JUKAN",
		"latitude": "63-18-10.57 N",
		"longitude": "142-49-20.29 W",
		"state": "ALASKA",
		"artcc": "ZAN",
		"type": "RNAV",
		"updated": "10/05/2006"
	},
	{
		"name": "JUKEL",
		"latitude": "64-27-28.17 N",
		"longitude": "157-58-22.16 W",
		"state": "ALASKA",
		"artcc": "ZAN",
		"type": "RNAV",
		"updated": "11/23/2016"
	},
	{
		"name": "JUKEP",
		"latitude": "61-0-1.26 N",
		"longitude": "150-20-29.03 W",
		"state": "ALASKA",
		"artcc": "ZAN",
		"type": "RP",
		"updated": "TED*VOR/DME*209.95/15.00"
	},
	{
		"name": "JUKIS",
		"latitude": "56-49-14.76 N",
		"longitude": "132-50-42.87 W",
		"state": "ALASKA",
		"artcc": "ZAN",
		"type": "RNAV",
		"updated": "12/30/2011"
	},
	{
		"name": "JUKTI",
		"latitude": "64-56-43.6 N",
		"longitude": "163-35-0.91 W",
		"state": "ALASKA",
		"artcc": "ZAN",
		"type": "RNAV",
		"updated": "11/05/2013"
	},
	{
		"name": "JUKVA",
		"latitude": "62-10-40.05 N",
		"longitude": "158-38-22.87 W",
		"state": "ALASKA",
		"artcc": "ZAN",
		"type": "RNAV",
		"updated": "02/27/2014"
	},
	{
		"name": "JULES",
		"latitude": "55-18-36.26 N",
		"longitude": "131-25-43.07 W",
		"state": "ALASKA",
		"artcc": "ZAN",
		"type": "WP",
		"updated": "02/26/1998"
	},
	{
		"name": "JULIN",
		"latitude": "61-5-54.84 N",
		"longitude": "150-3-17.18 W",
		"state": "ALASKA",
		"artcc": "ZAN",
		"type": "RNAV",
		"updated": "11/18/2014"
	},
	{
		"name": "JULMU",
		"latitude": "59-44-1.97 N",
		"longitude": "151-13-33.24 W",
		"state": "ALASKA",
		"artcc": "ZAN",
		"type": "RNAV",
		"updated": "05/17/2013"
	},
	{
		"name": "JULON",
		"latitude": "51-52-6.58 N",
		"longitude": "176-41-8.37 W",
		"state": "ALASKA",
		"artcc": "ZAN",
		"type": "RNAV",
		"updated": "12/16/2009"
	},
	{
		"name": "JUMAS",
		"latitude": "66-45-29.47 N",
		"longitude": "162-9-4.42 W",
		"state": "ALASKA",
		"artcc": "ZAN",
		"type": "RP",
		"updated": "OTZ*VOR/DME*114.60/12.00"
	},
	{
		"name": "JUMKI",
		"latitude": "56-28-20.41 N",
		"longitude": "132-25-19.54 W",
		"state": "ALASKA",
		"artcc": "ZAN",
		"type": "RP",
		"updated": "LVD*VOR/DME*069.00/22.00"
	},
	{
		"name": "JUMOX",
		"latitude": "55-27-29.9 N",
		"longitude": "160-40-37.41 W",
		"state": "ALASKA",
		"artcc": "ZAN",
		"type": "RNAV",
		"updated": "04/17/2006"
	},
	{
		"name": "JUMUL",
		"latitude": "60-6-43.98 N",
		"longitude": "154-57-59.14 W",
		"state": "ALASKA",
		"artcc": "ZAN",
		"type": "RNAV",
		"updated": "01/12/2009"
	},
	{
		"name": "JUMUT",
		"latitude": "70-10-37.27 N",
		"longitude": "146-23-35.69 W",
		"state": "ALASKA",
		"artcc": "ZAN",
		"type": "RNAV",
		"updated": "04/06/2009"
	},
	{
		"name": "JUNKY",
		"latitude": "59-43-0.1 N",
		"longitude": "148-40-0.15 W",
		"state": "ALASKA",
		"artcc": "ZAN",
		"type": "MR",
		"updated": "HOM*VOR/DME*073.50/84.78"
	},
	{
		"name": "JUNUB",
		"latitude": "64-33-22.77 N",
		"longitude": "155-23-19.44 W",
		"state": "ALASKA",
		"artcc": "ZAN",
		"type": "RNAV",
		"updated": "06/11/2008"
	},
	{
		"name": "JUPTU",
		"latitude": "60-30-24.95 N",
		"longitude": "145-32-34.35 W",
		"state": "ALASKA",
		"artcc": "ZAN",
		"type": "RNAV",
		"updated": "09/12/2016"
	},
	{
		"name": "JURAS",
		"latitude": "59-52-31.08 N",
		"longitude": "154-58-50.52 W",
		"state": "ALASKA",
		"artcc": "ZAN",
		"type": "RNAV",
		"updated": "07/11/2005"
	},
	{
		"name": "JURBA",
		"latitude": "64-38-47.86 N",
		"longitude": "165-37-9.53 W",
		"state": "ALASKA",
		"artcc": "ZAN",
		"type": "RNAV",
		"updated": "08/09/2017"
	},
	{
		"name": "JUSIV",
		"latitude": "64-48-31.32 N",
		"longitude": "147-30-32.14 W",
		"state": "ALASKA",
		"artcc": "ZAN",
		"type": "RNAV",
		"updated": "08/10/2012"
	},
	{
		"name": "JUSTM",
		"latitude": "59-44-43.47 N",
		"longitude": "154-37-53.82 W",
		"state": "ALASKA",
		"artcc": "ZAN",
		"type": "RNAV",
		"updated": "04/06/2009"
	},
	{
		"name": "JUTAN",
		"latitude": "58-29-55.35 N",
		"longitude": "156-38-39.97 W",
		"state": "ALASKA",
		"artcc": "ZAN",
		"type": "RNAV",
		"updated": "06/21/2005"
	},
	{
		"name": "JUTBU",
		"latitude": "62-43-23.88 N",
		"longitude": "142-58-15.5 W",
		"state": "ALASKA",
		"artcc": "ZAN",
		"type": "RP",
		"updated": "ORT*VORTAC*221.64/32.08"
	},
	{
		"name": "JUTGO",
		"latitude": "57-43-33.86 N",
		"longitude": "152-2-33.12 W",
		"state": "ALASKA",
		"artcc": "ZAN",
		"type": "RP",
		"updated": "ODK*VOR/DME*093.00/10.02"
	},
	{
		"name": "JUTIX",
		"latitude": "66-52-43.77 N",
		"longitude": "162-28-50.02 W",
		"state": "ALASKA",
		"artcc": "ZAN",
		"type": "RNAV",
		"updated": "12/05/2014"
	},
	{
		"name": "JUTOL",
		"latitude": "59-25-55.62 N",
		"longitude": "154-48-59.9 W",
		"state": "ALASKA",
		"artcc": "ZAN",
		"type": "RP",
		"updated": "05/26/2006"
	},
	{
		"name": "JUTUP",
		"latitude": "62-58-43.04 N",
		"longitude": "154-31-57.83 W",
		"state": "ALASKA",
		"artcc": "ZAN",
		"type": "RNAV",
		"updated": "09/01/2005"
	},
	{
		"name": "JUTUX",
		"latitude": "60-5-56.72 N",
		"longitude": "154-48-7.33 W",
		"state": "ALASKA",
		"artcc": "ZAN",
		"type": "RNAV",
		"updated": "01/12/2009"
	},
	{
		"name": "JUVEM",
		"latitude": "55-33-3.99 N",
		"longitude": "132-15-10.94 W",
		"state": "ALASKA",
		"artcc": "ZAN",
		"type": "RNAV",
		"updated": "03/14/2011"
	},
	{
		"name": "JUVLA",
		"latitude": "57-50-9.92 N",
		"longitude": "152-2-9.59 W",
		"state": "ALASKA",
		"artcc": "ZAN",
		"type": "RNAV",
		"updated": "08/30/2015"
	},
	{
		"name": "JUXUG",
		"latitude": "59-42-6.09 N",
		"longitude": "163-47-18.57 W",
		"state": "ALASKA",
		"artcc": "ZAN",
		"type": "RNAV",
		"updated": "12/22/2017"
	}
]
