	{
		"name": "LACEG",
		"latitude": "58-32-26.32 N",
		"longitude": "135-38-39.43 W",
		"state": "ALASKA",
		"artcc": "ZAN",
		"type": "RP",
		"updated": "SSR*VORTAC*311.00/25.00",
	},
	{
		"name": "LACIL",
		"latitude": "69-30-17.91 N",
		"longitude": "155-0-34.13 W",
		"state": "ALASKA",
		"artcc": "ZAN",
		"type": "RNAV",
		"updated": "06/09/2005",
	},
	{
		"name": "LACNI",
		"latitude": "63-11-23.06 N",
		"longitude": "163-18-30.5 W",
		"state": "ALASKA",
		"artcc": "ZAN",
		"type": "RNAV",
		"updated": "12/01/2003",
	},
	{
		"name": "LAEVO",
		"latitude": "60-54-53.06 N",
		"longitude": "161-24-48.51 W",
		"state": "ALASKA",
		"artcc": "ZAN",
		"type": "RNAV",
		"updated": "05/17/2017",
	},
	{
		"name": "LAHEY",
		"latitude": "82-0-0 N",
		"longitude": "141-0-0 W",
		"state": "OFFSHORE PACIFIC",
		"artcc": "ZAN",
		"type": "RNAV",
		"updated": "09/23/2015",
	},
	{
		"name": "LAINN",
		"latitude": "61-35-10.05 N",
		"longitude": "151-4-14.18 W",
		"state": "ALASKA",
		"artcc": "ZAN",
		"type": "MR",
		"updated": "EDF*TACAN*280.54/42.48",
	},
	{
		"name": "LAIRE",
		"latitude": "58-48-14.67 N",
		"longitude": "140-31-43.36 W",
		"state": "ALASKA",
		"artcc": "ZAN",
		"type": "RP",
		"updated": "YAK*VOR/DME*192.99/50.47",
	},
	{
		"name": "LAKPE",
		"latitude": "55-16-11.12 N",
		"longitude": "131-53-3.34 W",
		"state": "ALASKA",
		"artcc": "ZAN",
		"type": "RNAV",
		"updated": "03/14/2011",
	},
	{
		"name": "LANEY",
		"latitude": "55-46-48.72 N",
		"longitude": "163-7-10.13 W",
		"state": "ALASKA",
		"artcc": "ZAN",
		"type": "MR",
		"updated": "CDB*VORTAC*325.24/33.00",
	},
	{
		"name": "LAPLE",
		"latitude": "55-26-48.93 N",
		"longitude": "162-26-24.18 W",
		"state": "ALASKA",
		"artcc": "ZAN",
		"type": "RP",
		"updated": "CDB*VORTAC*/15.73",
	},
	{
		"name": "LARCE",
		"latitude": "66-34-32.39 N",
		"longitude": "159-46-29.81 W",
		"state": "ALASKA",
		"artcc": "ZAN",
		"type": "RNAV",
		"updated": "05/10/2007",
	},
	{
		"name": "LAREE",
		"latitude": "65-47-0 N",
		"longitude": "150-42-0 W",
		"state": "ALASKA",
		"artcc": "ZAN",
		"type": "MW",
		"updated": "12/10/2013",
	},
	{
		"name": "LARSA",
		"latitude": "63-59-35.95 N",
		"longitude": "172-22-41.99 W",
		"state": "",
		"artcc": "ZAN",
		"type": "RNAV",
		"updated": "05/20/2015",
	},
	{
		"name": "LASOE",
		"latitude": "56-13-31.92 N",
		"longitude": "132-21-43.6 W",
		"state": "ALASKA",
		"artcc": "ZAN",
		"type": "RNAV",
		"updated": "10/24/2014",
	},
	{
		"name": "LASVE",
		"latitude": "59-0-2.61 N",
		"longitude": "159-5-37.45 W",
		"state": "ALASKA",
		"artcc": "ZAN",
		"type": "RNAV",
		"updated": "01/20/2004",
	},
	{
		"name": "LATCH",
		"latitude": "56-0-45.21 N",
		"longitude": "134-35-53.84 W",
		"state": "ALASKA",
		"artcc": "ZAN",
		"type": "RP",
		"updated": "BKA*VORTAC*127.66/60.00",
	},
	{
		"name": "LATNA",
		"latitude": "64-27-40.26 N",
		"longitude": "155-22-14.62 W",
		"state": "ALASKA",
		"artcc": "ZAN",
		"type": "MW",
		"updated": "12/10/2013",
	},
	{
		"name": "LATRY",
		"latitude": "55-12-56.77 N",
		"longitude": "131-28-28.98 W",
		"state": "ALASKA",
		"artcc": "ZAN",
		"type": "RNAV",
		"updated": "07/18/2008",
	},
	{
		"name": "LAZAT",
		"latitude": "57-42-23.72 N",
		"longitude": "152-30-16 W",
		"state": "ALASKA",
		"artcc": "ZAN",
		"type": "RNAV",
		"updated": "05/24/2002",
	},
	{
		"name": "LEBTE",
		"latitude": "64-38-50.47 N",
		"longitude": "158-10-52.32 W",
		"state": "ALASKA",
		"artcc": "ZAN",
		"type": "RNAV",
		"updated": "11/23/2016",
	},
	{
		"name": "LECIB",
		"latitude": "66-44-58.53 N",
		"longitude": "145-24-21.84 W",
		"state": "ALASKA",
		"artcc": "ZAN",
		"type": "RP",
		"updated": "FYU*VORTAC*323.75/11.00",
	},
	{
		"name": "LECIC",
		"latitude": "56-58-20.24 N",
		"longitude": "159-0-18.75 W",
		"state": "ALASKA",
		"artcc": "ZAN",
		"type": "RNAV",
		"updated": "02/02/2007",
	},
	{
		"name": "LEDHO",
		"latitude": "71-2-0.45 N",
		"longitude": "156-26-9.73 W",
		"state": "ALASKA",
		"artcc": "ZAN",
		"type": "RP",
		"updated": "BRW*VOR/DME*135.46/16.00",
	},
	{
		"name": "LEESL",
		"latitude": "85-30-0 N",
		"longitude": "141-0-0 W",
		"state": "OFFSHORE PACIFIC",
		"artcc": "ZAN",
		"type": "RNAV",
		"updated": "09/09/2014",
	},
	{
		"name": "LEMMR",
		"latitude": "55-17-4.81 N",
		"longitude": "162-23-28.22 W",
		"state": "ALASKA",
		"artcc": "ZAN",
		"type": "RNAV",
		"updated": "12/04/2012",
	},
	{
		"name": "LEMRE",
		"latitude": "64-4-32.51 N",
		"longitude": "158-55-3.52 W",
		"state": "ALASKA",
		"artcc": "ZAN",
		"type": "RNAV",
		"updated": "09/01/2005",
	},
	{
		"name": "LENAH",
		"latitude": "64-36-6.59 N",
		"longitude": "165-39-34.06 W",
		"state": "ALASKA",
		"artcc": "ZAN",
		"type": "RNAV",
		"updated": "08/09/2017",
	},
	{
		"name": "LENOW",
		"latitude": "64-31-4.58 N",
		"longitude": "158-31-55.87 W",
		"state": "ALASKA",
		"artcc": "ZAN",
		"type": "RNAV",
		"updated": "06/26/2009",
	},
	{
		"name": "LEPGE",
		"latitude": "69-58-45.34 N",
		"longitude": "144-13-50.35 W",
		"state": "ALASKA",
		"artcc": "ZAN",
		"type": "RNAV",
		"updated": "09/29/2016",
	},
	{
		"name": "LERYI",
		"latitude": "57-1-3.72 N",
		"longitude": "135-23-22.89 W",
		"state": "ALASKA",
		"artcc": "ZAN",
		"type": "RP",
		"updated": "BKA*VORTAC*009.10/10.90",
	},
	{
		"name": "LESAD",
		"latitude": "61-11-9.3 N",
		"longitude": "168-56-8.8 W",
		"state": "ALASKA",
		"artcc": "ZAN",
		"type": "RNAV",
		"updated": "03/11/2009",
	},
	{
		"name": "LETPE",
		"latitude": "55-20-26 N",
		"longitude": "160-33-1.29 W",
		"state": "ALASKA",
		"artcc": "ZAN",
		"type": "RNAV",
		"updated": "04/17/2006",
	},
	{
		"name": "LETUN",
		"latitude": "82-9-38.96 N",
		"longitude": "168-58-23.98 W",
		"state": "",
		"artcc": "ZAN",
		"type": "RNAV",
		"updated": "07/03/2017",
	},
	{
		"name": "LEVGE",
		"latitude": "66-55-36.72 N",
		"longitude": "151-30-29.64 W",
		"state": "ALASKA",
		"artcc": "ZAN",
		"type": "RNAV",
		"updated": "07/20/2007",
	},
	{
		"name": "LEWYY",
		"latitude": "60-30-12.98 N",
		"longitude": "151-28-15.47 W",
		"state": "ALASKA",
		"artcc": "ZAN",
		"type": "RNAV",
		"updated": "03/24/2014",
	},
	{
		"name": "LEYIT",
		"latitude": "61-37-28.42 N",
		"longitude": "149-31-1.39 W",
		"state": "ALASKA",
		"artcc": "ZAN",
		"type": "RNAV",
		"updated": "07/08/2011",
	},
	{
		"name": "LEYIY",
		"latitude": "70-9-38.45 N",
		"longitude": "146-26-12.96 W",
		"state": "ALASKA",
		"artcc": "ZAN",
		"type": "RNAV",
		"updated": "08/06/2008",
	},
	{
		"name": "LEYSE",
		"latitude": "67-5-37.36 N",
		"longitude": "159-47-57.21 W",
		"state": "ALASKA",
		"artcc": "ZAN",
		"type": "RNAV",
		"updated": "07/07/2005",
	},
	{
		"name": "LIBER",
		"latitude": "64-2-57.64 N",
		"longitude": "148-30-29.65 W",
		"state": "ALASKA",
		"artcc": "ZAN",
		"type": "RP",
		"updated": "ENN*VORTAC*134.37",
	},
	{
		"name": "LICIT",
		"latitude": "67-45-29.31 N",
		"longitude": "152-23-34.62 W",
		"state": "ALASKA",
		"artcc": "ZAN",
		"type": "RNAV",
		"updated": "12/27/2012",
	},
	{
		"name": "LICUG",
		"latitude": "58-6-58.09 N",
		"longitude": "157-15-55.35 W",
		"state": "ALASKA",
		"artcc": "ZAN",
		"type": "RNAV",
		"updated": "08/15/2005",
	},
	{
		"name": "LIFCO",
		"latitude": "57-2-25.21 N",
		"longitude": "135-33-47.75 W",
		"state": "ALASKA",
		"artcc": "ZAN",
		"type": "RNAV",
		"updated": "11/04/2014",
	},
	{
		"name": "LIFFE",
		"latitude": "61-21-58.57 N",
		"longitude": "149-59-46.42 W",
		"state": "ALASKA",
		"artcc": "ZAN",
		"type": "RNAV",
		"updated": "07/18/2012",
	},
	{
		"name": "LIJFY",
		"latitude": "56-30-50.72 N",
		"longitude": "169-26-29.6 W",
		"state": "ALASKA",
		"artcc": "ZAN",
		"type": "RP",
		"updated": "SRI*NDB/DME*106.61/7.74",
	},
	{
		"name": "LIJHA",
		"latitude": "60-38-33.1 N",
		"longitude": "162-10-43.5 W",
		"state": "ALASKA",
		"artcc": "ZAN",
		"type": "RNAV",
		"updated": "09/29/2008",
	},
	{
		"name": "LIKIY",
		"latitude": "60-52-43.82 N",
		"longitude": "162-10-45.31 W",
		"state": "ALASKA",
		"artcc": "ZAN",
		"type": "RNAV",
		"updated": "08/26/2008",
	},
	{
		"name": "LIKUQ",
		"latitude": "62-58-29.64 N",
		"longitude": "164-30-52.27 W",
		"state": "ALASKA",
		"artcc": "ZAN",
		"type": "RNAV",
		"updated": "05/03/2007",
	},
	{
		"name": "LILDE",
		"latitude": "55-16-20.5 N",
		"longitude": "133-48-33.9 W",
		"state": "ALASKA",
		"artcc": "ZAN",
		"type": "RNAV",
		"updated": "04/30/2013",
	},
	{
		"name": "LILES",
		"latitude": "64-38-56.97 N",
		"longitude": "165-11-33.13 W",
		"state": "ALASKA",
		"artcc": "ZAN",
		"type": "RP",
		"updated": "OME*VOR/DME*358.00/10.00",
	},
	{
		"name": "LIPDE",
		"latitude": "64-51-26 N",
		"longitude": "147-21-45.18 W",
		"state": "ALASKA",
		"artcc": "ZAN",
		"type": "MR",
		"updated": "FAI*VORTAC*057.03/17.00",
	},
	{
		"name": "LISEY",
		"latitude": "63-20-41.03 N",
		"longitude": "143-10-0.19 W",
		"state": "ALASKA",
		"artcc": "ZAN",
		"type": "RNAV",
		"updated": "12/20/2005",
	},
	{
		"name": "LISKI",
		"latitude": "70-24-17.95 N",
		"longitude": "168-58-23.99 W",
		"state": "",
		"artcc": "ZAN",
		"type": "RNAV",
		"updated": "07/03/2017",
	},
	{
		"name": "LITHE",
		"latitude": "61-10-0.2 N",
		"longitude": "150-24-7.29 W",
		"state": "ALASKA",
		"artcc": "ZAN",
		"type": "RNAV",
		"updated": "11/18/2014",
	},
	{
		"name": "LIVEN",
		"latitude": "65-23-6.09 N",
		"longitude": "148-55-17.46 W",
		"state": "ALASKA",
		"artcc": "ZAN",
		"type": "RP",
		"updated": "ENN*VORTAC*343.54/48.02",
	},
	{
		"name": "LIVIC",
		"latitude": "56-49-12 N",
		"longitude": "132-49-0 W",
		"state": "ALASKA",
		"artcc": "ZAN",
		"type": "RNAV",
		"updated": "08/30/2004",
	},
	{
		"name": "LIVME",
		"latitude": "60-52-16.42 N",
		"longitude": "155-18-7.21 W",
		"state": "ALASKA",
		"artcc": "ZAN",
		"type": "MW",
		"updated": "11/23/2015",
	},
	{
		"name": "LIYEK",
		"latitude": "59-42-56.02 N",
		"longitude": "164-18-51.09 W",
		"state": "ALASKA",
		"artcc": "ZAN",
		"type": "RNAV",
		"updated": "12/26/2017",
	},
	{
		"name": "LIYRE",
		"latitude": "66-42-56.21 N",
		"longitude": "162-9-20.03 W",
		"state": "ALASKA",
		"artcc": "ZAN",
		"type": "RNAV",
		"updated": "12/05/2014",
	},
	{
		"name": "LIYYA",
		"latitude": "55-17-30 N",
		"longitude": "160-52-42 W",
		"state": "ALASKA",
		"artcc": "ZAN",
		"type": "MW",
		"updated": "12/12/2013",
	},
	{
		"name": "LLMAR",
		"latitude": "59-30-59.32 N",
		"longitude": "140-12-14.66 W",
		"state": "ALASKA",
		"artcc": "ZAN",
		"type": "RP",
		"updated": "YAK*VOR/DME*251.39/17.00",
	},
	{
		"name": "LMPEE",
		"latitude": "61-23-2.28 N",
		"longitude": "149-58-30.75 W",
		"state": "ALASKA",
		"artcc": "ZAN",
		"type": "RNAV",
		"updated": "07/18/2012",
	},
	{
		"name": "LOCIB",
		"latitude": "61-5-27.99 N",
		"longitude": "146-35-43.83 W",
		"state": "ALASKA",
		"artcc": "ZAN",
		"type": "RP",
		"updated": "VDZ*DD*SW CRS/11.24",
	},
	{
		"name": "LOFTT",
		"latitude": "57-2-2.16 N",
		"longitude": "135-20-16.23 W",
		"state": "ALASKA",
		"artcc": "ZAN",
		"type": "RNAV",
		"updated": "11/04/2014",
	},
	{
		"name": "LOHNE",
		"latitude": "56-30-0 N",
		"longitude": "140-0-0 W",
		"state": "ALASKA",
		"artcc": "ZAN",
		"type": "RP",
		"updated": "12/06/1999",
	},
	{
		"name": "LONOK",
		"latitude": "52-9-6.5 N",
		"longitude": "175-32-55.01 W",
		"state": "ALASKA",
		"artcc": "ZAN",
		"type": "RP",
		"updated": "ADK*NDB/DME*060.64/45.00",
	},
	{
		"name": "LOTIC",
		"latitude": "66-53-1.6 N",
		"longitude": "162-23-31.61 W",
		"state": "ALASKA",
		"artcc": "ZAN",
		"type": "RP",
		"updated": "OTZ*VOR/DME*076.81/3.50",
	},
	{
		"name": "LOUMA",
		"latitude": "63-38-29.49 N",
		"longitude": "148-55-5.67 W",
		"state": "ALASKA",
		"artcc": "ZAN",
		"type": "RNAV",
		"updated": "04/13/2017",
	},
	{
		"name": "LOUPS",
		"latitude": "66-51-50.51 N",
		"longitude": "157-39-9.44 W",
		"state": "ALASKA",
		"artcc": "ZAN",
		"type": "RNAV",
		"updated": "11/23/2016",
	},
	{
		"name": "LOVLY",
		"latitude": "60-24-40.11 N",
		"longitude": "146-0-0.27 W",
		"state": "ALASKA",
		"artcc": "ZAN",
		"type": "RNAV",
		"updated": "01/25/2013",
	},
	{
		"name": "LOVYI",
		"latitude": "62-2-46.54 N",
		"longitude": "163-18-7.65 W",
		"state": "ALASKA",
		"artcc": "ZAN",
		"type": "RNAV",
		"updated": "04/13/2006",
	},
	{
		"name": "LOWES",
		"latitude": "59-3-45.94 N",
		"longitude": "158-29-15.47 W",
		"state": "ALASKA",
		"artcc": "ZAN",
		"type": "RP",
		"updated": "DLG*LE*191.83/1.78",
	},
	{
		"name": "LUBEE",
		"latitude": "61-30-2.13 N",
		"longitude": "150-3-37.04 W",
		"state": "ALASKA",
		"artcc": "ZAN",
		"type": "MR",
		"updated": "EDF*TACAN*312.50/17.00",
	},
	{
		"name": "LUBKE",
		"latitude": "65-10-44.92 N",
		"longitude": "152-13-0.44 W",
		"state": "ALASKA",
		"artcc": "ZAN",
		"type": "RP",
		"updated": "TAL*VOR/DME*257.93/1.00",
	},
	{
		"name": "LUCIY",
		"latitude": "64-12-26.53 N",
		"longitude": "158-56-4.04 W",
		"state": "ALASKA",
		"artcc": "ZAN",
		"type": "RNAV",
		"updated": "09/01/2005",
	},
	{
		"name": "LUCOF",
		"latitude": "70-23-41.54 N",
		"longitude": "150-10-4.11 W",
		"state": "ALASKA",
		"artcc": "ZAN",
		"type": "RNAV",
		"updated": "07/24/2009",
	},
	{
		"name": "LUCOR",
		"latitude": "64-14-54.39 N",
		"longitude": "157-49-8.04 W",
		"state": "ALASKA",
		"artcc": "ZAN",
		"type": "MR",
		"updated": "GAL*VOR/DME*200.00/40.00",
	},
	{
		"name": "LUCPI",
		"latitude": "67-2-36 N",
		"longitude": "157-40-32.4 W",
		"state": "ALASKA",
		"artcc": "ZAN",
		"type": "RNAV",
		"updated": "09/26/2007",
	},
	{
		"name": "LUKEC",
		"latitude": "55-34-45.24 N",
		"longitude": "133-4-33.59 W",
		"state": "ALASKA",
		"artcc": "ZAN",
		"type": "RNAV",
		"updated": "07/12/2004",
	},
	{
		"name": "LULIC",
		"latitude": "59-29-17.63 N",
		"longitude": "139-37-8.58 W",
		"state": "ALASKA",
		"artcc": "ZAN",
		"type": "RP",
		"updated": "YAK*VOR/DME*/1.62",
	},
	{
		"name": "LULOW",
		"latitude": "56-30-27.489 N",
		"longitude": "132-26-20.4 W",
		"state": "ALASKA",
		"artcc": "ZAN",
		"type": "RNAV",
		"updated": "05/24/2002",
	},
	{
		"name": "LUMES",
		"latitude": "53-24-41.96 N",
		"longitude": "167-12-58.03 E",
		"state": "",
		"artcc": "ZAN",
		"type": "RNAV",
		"updated": "07/03/2017",
	},
	{
		"name": "LURUN",
		"latitude": "85-24-59.96 N",
		"longitude": "168-58-23.99 W",
		"state": "",
		"artcc": "ZAN",
		"type": "RNAV",
		"updated": "07/03/2017",
	},
	{
		"name": "LUSBY",
		"latitude": "59-5-5.16 N",
		"longitude": "158-26-17.38 W",
		"state": "ALASKA",
		"artcc": "ZAN",
		"type": "RNAV",
		"updated": "07/08/2009",
	},
	{
		"name": "LUYIP",
		"latitude": "62-55-9.75 N",
		"longitude": "142-17-38.15 W",
		"state": "ALASKA",
		"artcc": "ZAN",
		"type": "RP",
		"updated": "11/14/2006",
	},
	{
		"name": "LYNNS",
		"latitude": "58-21-40.67 N",
		"longitude": "135-4-44.84 W",
		"state": "ALASKA",
		"artcc": "ZAN",
		"type": "RP",
		"updated": "CGL*NDB*250.75",
	},
	{
		"name": "LYNUP",
		"latitude": "58-21-32.81 N",
		"longitude": "134-37-4.12 W",
		"state": "ALASKA",
		"artcc": "ZAN",
		"type": "RNAV",
		"updated": "10/24/2014",
	},
	{
		"name": "LYRIC",
		"latitude": "57-39-58.71 N",
		"longitude": "135-40-58.96 W",
		"state": "ALASKA",
		"artcc": "ZAN",
		"type": "RP",
		"updated": "BKA*VORTAC*335.00/48.71",
	},
	{
		"name": "LYYLE",
		"latitude": "50-30-54.8 N",
		"longitude": "175-56-43.2 E",
		"state": "ALASKA",
		"artcc": "ZAN",
		"type": "RP",
		"updated": "09/19/2000",
	},
