	{
		"name": "NABOE",
		"latitude": "60-15-0 N",
		"longitude": "154-0-0 W",
		"state": "ALASKA",
		"artcc": "ZAN",
		"type": "RNAV",
		"updated": "08/01/2007",
	},
	{
		"name": "NACIP",
		"latitude": "59-23-17.51 N",
		"longitude": "160-38-6.01 W",
		"state": "ALASKA",
		"artcc": "ZAN",
		"type": "RP",
		"updated": "TOG*NDB/DME*322.69/21.08",
	},
	{
		"name": "NAGKI",
		"latitude": "64-32-1.04 N",
		"longitude": "165-36-42.01 W",
		"state": "ALASKA",
		"artcc": "ZAN",
		"type": "RP",
		"updated": "OME*VOR/DME*276.60/9.75",
	},
	{
		"name": "NAJIL",
		"latitude": "61-10-7.88 N",
		"longitude": "150-23-12.68 W",
		"state": "ALASKA",
		"artcc": "ZAN",
		"type": "RNAV",
		"updated": "05/31/2005",
	},
	{
		"name": "NAKED",
		"latitude": "60-37-34.49 N",
		"longitude": "147-23-23.87 W",
		"state": "ALASKA",
		"artcc": "ZAN",
		"type": "RP",
		"updated": "JOH*VOR/DME*272.81/25.00",
	},
	{
		"name": "NAKNE",
		"latitude": "59-40-38.39 N",
		"longitude": "157-19-43.57 W",
		"state": "ALASKA",
		"artcc": "ZAN",
		"type": "MW",
		"updated": "12/10/2013",
	},
	{
		"name": "NAKWA",
		"latitude": "57-14-50.49 N",
		"longitude": "135-24-17.84 W",
		"state": "ALASKA",
		"artcc": "ZAN",
		"type": "WP",
		"updated": "02/26/1998",
	},
	{
		"name": "NAKWE",
		"latitude": "59-20-0 N",
		"longitude": "158-0-0 W",
		"state": "ALASKA",
		"artcc": "ZAN",
		"type": "RNAV",
		"updated": "07/31/2007",
	},
	{
		"name": "NALIM",
		"latitude": "86-20-23.96 N",
		"longitude": "168-58-23.96 W",
		"state": "",
		"artcc": "ZAN",
		"type": "RNAV",
		"updated": "07/03/2017",
	},
	{
		"name": "NAMCO",
		"latitude": "61-35-32.07 N",
		"longitude": "160-43-16.99 W",
		"state": "ALASKA",
		"artcc": "ZAN",
		"type": "RNAV",
		"updated": "12/29/2004",
	},
	{
		"name": "NAMWE",
		"latitude": "81-0-0 N",
		"longitude": "141-0-0 W",
		"state": "OFFSHORE PACIFIC",
		"artcc": "ZAN",
		"type": "RNAV",
		"updated": "09/23/2015",
	},
	{
		"name": "NANDY",
		"latitude": "56-49-58.4 N",
		"longitude": "177-20-53.4 E",
		"state": "ALASKA",
		"artcc": "ZAN",
		"type": "RP",
		"updated": "09/19/2000",
	},
	{
		"name": "NANRE",
		"latitude": "66-10-17.88 N",
		"longitude": "162-9-0.78 W",
		"state": "ALASKA",
		"artcc": "ZAN",
		"type": "RNAV",
		"updated": "11/23/2016",
	},
	{
		"name": "NANZA",
		"latitude": "60-18-29.9 N",
		"longitude": "168-2-35.6 W",
		"state": "ALASKA",
		"artcc": "ZAN",
		"type": "RP",
		"updated": "09/19/2000",
	},
	{
		"name": "NAPAC",
		"latitude": "60-41-41.54 N",
		"longitude": "161-54-41.62 W",
		"state": "ALASKA",
		"artcc": "ZAN",
		"type": "RNAV",
		"updated": "05/17/2017",
	},
	{
		"name": "NAPTO",
		"latitude": "60-47-17.51 N",
		"longitude": "150-21-52.27 W",
		"state": "ALASKA",
		"artcc": "ZAN",
		"type": "RP",
		"updated": "TED*VOR/DME*189.54/25.72",
	},
	{
		"name": "NARIY",
		"latitude": "66-1-44.44 N",
		"longitude": "162-37-56.18 W",
		"state": "ALASKA",
		"artcc": "ZAN",
		"type": "RNAV",
		"updated": "12/01/2016",
	},
	{
		"name": "NARRI",
		"latitude": "58-6-46.86 N",
		"longitude": "135-15-40.08 W",
		"state": "ALASKA",
		"artcc": "ZAN",
		"type": "RNAV",
		"updated": "06/09/2014",
	},
	{
		"name": "NASKE",
		"latitude": "55-28-25.43 N",
		"longitude": "133-16-34.46 W",
		"state": "ALASKA",
		"artcc": "ZAN",
		"type": "RNAV",
		"updated": "04/30/2013",
	},
	{
		"name": "NATES",
		"latitude": "54-56-0.77 N",
		"longitude": "171-58-28.89 E",
		"state": "OFFSHORE PACIFIC",
		"artcc": "ZAN",
		"type": "RNAV",
		"updated": "06/13/2017",
	},
	{
		"name": "NATSE",
		"latitude": "65-41-25.34 N",
		"longitude": "145-35-53.37 W",
		"state": "ALASKA",
		"artcc": "ZAN",
		"type": "RNAV",
		"updated": "03/13/2014",
	},
	{
		"name": "NAVIC",
		"latitude": "60-39-59.69 N",
		"longitude": "162-9-8.22 W",
		"state": "ALASKA",
		"artcc": "ZAN",
		"type": "RP",
		"updated": "BET*VORTAC*219.78/12.00",
	},
	{
		"name": "NAVIY",
		"latitude": "59-7-53.87 N",
		"longitude": "135-20-3.23 W",
		"state": "ALASKA",
		"artcc": "ZAN",
		"type": "RNAV",
		"updated": "06/04/2003",
	},
	{
		"name": "NAXXY",
		"latitude": "57-43-59 N",
		"longitude": "152-20-23 W",
		"state": "ALASKA",
		"artcc": "ZAN",
		"type": "RNAV",
		"updated": "05/24/2002",
	},
	{
		"name": "NAYBI",
		"latitude": "61-34-30.21 N",
		"longitude": "149-51-56.11 W",
		"state": "ALASKA",
		"artcc": "ZAN",
		"type": "RNAV",
		"updated": "08/01/2006",
	},
	{
		"name": "NAYLD",
		"latitude": "59-3-8.6 N",
		"longitude": "174-12-28 W",
		"state": "ALASKA",
		"artcc": "ZAN",
		"type": "RP",
		"updated": "09/19/2000",
	},
	{
		"name": "NAYTI",
		"latitude": "57-5-29.22 N",
		"longitude": "133-20-22.34 W",
		"state": "ALASKA",
		"artcc": "ZAN",
		"type": "RNAV",
		"updated": "12/12/2011",
	},
	{
		"name": "NEAMO",
		"latitude": "56-21-11.69 N",
		"longitude": "132-22-40.47 W",
		"state": "ALASKA",
		"artcc": "ZAN",
		"type": "RNAV",
		"updated": "11/29/2012",
	},
	{
		"name": "NEARR",
		"latitude": "60-43-20.7 N",
		"longitude": "152-3-57.79 W",
		"state": "ALASKA",
		"artcc": "ZAN",
		"type": "RP",
		"updated": "TED*VOR/DME*229.42",
	},
	{
		"name": "NECDI",
		"latitude": "63-0-13.23 N",
		"longitude": "155-35-42.37 W",
		"state": "ALASKA",
		"artcc": "ZAN",
		"type": "RP",
		"updated": "MCG*VORTAC*349.00/3.20",
	},
	{
		"name": "NECIC",
		"latitude": "60-21-15.72 N",
		"longitude": "165-4-0.52 W",
		"state": "ALASKA",
		"artcc": "ZAN",
		"type": "RNAV",
		"updated": "01/19/2006",
	},
	{
		"name": "NECID",
		"latitude": "56-58-45.81 N",
		"longitude": "134-5-55.8 W",
		"state": "ALASKA",
		"artcc": "ZAN",
		"type": "RNAV",
		"updated": "08/31/2004",
	},
	{
		"name": "NECIK",
		"latitude": "61-27-20.31 N",
		"longitude": "166-3-35.24 W",
		"state": "ALASKA",
		"artcc": "ZAN",
		"type": "RNAV",
		"updated": "07/08/2011",
	},
	{
		"name": "NECSI",
		"latitude": "66-42-24.33 N",
		"longitude": "162-45-44.54 W",
		"state": "ALASKA",
		"artcc": "ZAN",
		"type": "RP",
		"updated": "OTZ*VOR/DME*191.22/12.00",
	},
	{
		"name": "NECYI",
		"latitude": "60-46-35.04 N",
		"longitude": "146-31-24.4 W",
		"state": "ALASKA",
		"artcc": "ZAN",
		"type": "RNAV",
		"updated": "11/07/2011",
	},
	{
		"name": "NEDNE",
		"latitude": "67-1-45.43 N",
		"longitude": "150-33-43.97 W",
		"state": "ALASKA",
		"artcc": "ZAN",
		"type": "RNAV",
		"updated": "02/13/2012",
	},
	{
		"name": "NEDPY",
		"latitude": "68-2-54.89 N",
		"longitude": "162-52-14 W",
		"state": "ALASKA",
		"artcc": "ZAN",
		"type": "RNAV",
		"updated": "01/20/2012",
	},
	{
		"name": "NEELL",
		"latitude": "60-57-57.1 N",
		"longitude": "151-3-41.2 W",
		"state": "ALASKA",
		"artcc": "ZAN",
		"type": "RNAV",
		"updated": "05/31/2010",
	},
	{
		"name": "NELAE",
		"latitude": "58-22-14.66 N",
		"longitude": "134-45-9.34 W",
		"state": "ALASKA",
		"artcc": "ZAN",
		"type": "RNAV",
		"updated": "11/28/2006",
	},
	{
		"name": "NELLI",
		"latitude": "60-29-8.79 N",
		"longitude": "147-56-47.92 W",
		"state": "ALASKA",
		"artcc": "ZAN",
		"type": "RP",
		"updated": "JOH*VOR/DME*253.00/40.00",
	},
	{
		"name": "NELTE",
		"latitude": "65-8-23.11 N",
		"longitude": "152-38-34.96 W",
		"state": "ALASKA",
		"artcc": "ZAN",
		"type": "RP",
		"updated": "TAL*VOR/DME*240.40/12.00",
	},
	{
		"name": "NEMCU",
		"latitude": "70-37-59.53 N",
		"longitude": "159-22-8.43 W",
		"state": "ALASKA",
		"artcc": "ZAN",
		"type": "RNAV",
		"updated": "09/25/2009",
	},
	{
		"name": "NEMDE",
		"latitude": "66-50-43.63 N",
		"longitude": "162-5-3.26 W",
		"state": "ALASKA",
		"artcc": "ZAN",
		"type": "RNAV",
		"updated": "12/26/2017",
	},
	{
		"name": "NENAS",
		"latitude": "64-48-20.05 N",
		"longitude": "149-42-41.73 W",
		"state": "ALASKA",
		"artcc": "ZAN",
		"type": "RP",
		"updated": "CUN*NDB*248.00",
	},
	{
		"name": "NENIY",
		"latitude": "64-48-6.7 N",
		"longitude": "161-30-39.64 W",
		"state": "ALASKA",
		"artcc": "ZAN",
		"type": "RNAV",
		"updated": "09/01/2005",
	},
	{
		"name": "NEONN",
		"latitude": "60-49-19.27 N",
		"longitude": "165-0-36.4 W",
		"state": "ALASKA",
		"artcc": "ZAN",
		"type": "WP",
		"updated": "07/16/1996",
	},
	{
		"name": "NEPEY",
		"latitude": "70-17-43.96 N",
		"longitude": "150-5-42.86 W",
		"state": "ALASKA",
		"artcc": "ZAN",
		"type": "RNAV",
		"updated": "10/21/2011",
	},
	{
		"name": "NEREE",
		"latitude": "56-32-35.79 N",
		"longitude": "132-30-34.47 W",
		"state": "ALASKA",
		"artcc": "ZAN",
		"type": "RNAV",
		"updated": "05/02/2013",
	},
	{
		"name": "NESGE",
		"latitude": "60-29-25.12 N",
		"longitude": "145-31-18.98 W",
		"state": "ALASKA",
		"artcc": "ZAN",
		"type": "RNAV",
		"updated": "08/23/2002",
	},
	{
		"name": "NESYI",
		"latitude": "55-39-39.37 N",
		"longitude": "133-20-50.01 W",
		"state": "ALASKA",
		"artcc": "ZAN",
		"type": "RNAV",
		"updated": "06/11/2009",
	},
	{
		"name": "NETCO",
		"latitude": "66-53-11.75 N",
		"longitude": "160-21-21.08 W",
		"state": "ALASKA",
		"artcc": "ZAN",
		"type": "RNAV",
		"updated": "11/24/2009",
	},
	{
		"name": "NEUTR",
		"latitude": "86-30-0 N",
		"longitude": "141-0-0 W",
		"state": "OFFSHORE PACIFIC",
		"artcc": "ZAN",
		"type": "RNAV",
		"updated": "01/26/2011",
	},
	{
		"name": "NEYBI",
		"latitude": "62-11-47.38 N",
		"longitude": "159-45-51.73 W",
		"state": "ALASKA",
		"artcc": "ZAN",
		"type": "RNAV",
		"updated": "12/27/2005",
	},
	{
		"name": "NEYIC",
		"latitude": "57-7-55 N",
		"longitude": "134-8-42.9 W",
		"state": "ALASKA",
		"artcc": "ZAN",
		"type": "RNAV",
		"updated": "06/11/2008",
	},
	{
		"name": "NHCOL",
		"latitude": "61-18-15.88 N",
		"longitude": "150-15-12.19 W",
		"state": "ALASKA",
		"artcc": "ZAN",
		"type": "RNAV",
		"updated": "06/01/2010",
	},
	{
		"name": "NIBLK",
		"latitude": "55-31-56.27 N",
		"longitude": "132-3-34.61 W",
		"state": "ALASKA",
		"artcc": "ZAN",
		"type": "WP",
		"updated": "02/27/1998",
	},
	{
		"name": "NICHO",
		"latitude": "61-15-0 N",
		"longitude": "156-0-0 W",
		"state": "ALASKA",
		"artcc": "ZAN",
		"type": "WP",
		"updated": "02/15/1996",
	},
	{
		"name": "NICIB",
		"latitude": "63-11-0.6 N",
		"longitude": "155-35-37.25 W",
		"state": "ALASKA",
		"artcc": "ZAN",
		"type": "RP",
		"updated": "MCG*LE*N CRS/14.26",
	},
	{
		"name": "NICIP",
		"latitude": "63-1-1.51 N",
		"longitude": "141-25-23.97 W",
		"state": "ALASKA",
		"artcc": "ZAN",
		"type": "RP",
		"updated": "07/08/2011",
	},
	{
		"name": "NICLS",
		"latitude": "60-59-16.17 N",
		"longitude": "155-34-29.17 W",
		"state": "ALASKA",
		"artcc": "ZAN",
		"type": "MW",
		"updated": "11/23/2015",
	},
	{
		"name": "NICRI",
		"latitude": "62-8-27.03 N",
		"longitude": "163-37-12.2 W",
		"state": "ALASKA",
		"artcc": "ZAN",
		"type": "RNAV",
		"updated": "03/19/2012",
	},
	{
		"name": "NIGKI",
		"latitude": "59-39-23.77 N",
		"longitude": "151-26-43.33 W",
		"state": "ALASKA",
		"artcc": "ZAN",
		"type": "RP",
		"updated": "HOM*LE*038.03/0.48",
	},
	{
		"name": "NIKIN",
		"latitude": "80-49-35.96 N",
		"longitude": "168-58-23.98 W",
		"state": "",
		"artcc": "ZAN",
		"type": "RNAV",
		"updated": "07/03/2017",
	},
	{
		"name": "NIKLL",
		"latitude": "53-44-47.1 N",
		"longitude": "169-13-54.5 E",
		"state": "ALASKA",
		"artcc": "ZAN",
		"type": "RP",
		"updated": "08/01/2007",
	},
	{
		"name": "NIMLE",
		"latitude": "58-13-36.15 N",
		"longitude": "135-3-5.56 W",
		"state": "ALASKA",
		"artcc": "ZAN",
		"type": "RNAV",
		"updated": "08/21/2003",
	},
	{
		"name": "NINIY",
		"latitude": "66-35-49.98 N",
		"longitude": "159-57-32.37 W",
		"state": "ALASKA",
		"artcc": "ZAN",
		"type": "RNAV",
		"updated": "05/10/2007",
	},
	{
		"name": "NINZA",
		"latitude": "60-23-22.7 N",
		"longitude": "145-8-13.5 W",
		"state": "ALASKA",
		"artcc": "ZAN",
		"type": "RNAV",
		"updated": "11/23/2012",
	},
	{
		"name": "NIPPI",
		"latitude": "49-42-38.4 N",
		"longitude": "159-20-48.3 E",
		"state": "OFFSHORE PACIFIC",
		"artcc": "ZAN",
		"type": "RP",
		"updated": "09/19/2000",
	},
	{
		"name": "NIPSE",
		"latitude": "60-32-58.34 N",
		"longitude": "161-44-26.82 W",
		"state": "ALASKA",
		"artcc": "ZAN",
		"type": "RNAV",
		"updated": "05/17/2017",
	},
	{
		"name": "NIRLY",
		"latitude": "57-0-52.8 N",
		"longitude": "132-59-44.25 W",
		"state": "ALASKA",
		"artcc": "ZAN",
		"type": "RNAV",
		"updated": "03/26/2012",
	},
	{
		"name": "NIRRI",
		"latitude": "58-50-5.71 N",
		"longitude": "156-59-28.67 W",
		"state": "ALASKA",
		"artcc": "ZAN",
		"type": "RP",
		"updated": "AKN*VORTAC*295.71/10.00",
	},
	{
		"name": "NIRUW",
		"latitude": "57-9-42.65 N",
		"longitude": "158-42-13.19 W",
		"state": "ALASKA",
		"artcc": "ZAN",
		"type": "RNAV",
		"updated": "02/09/2018",
	},
	{
		"name": "NIRVE",
		"latitude": "60-39-17.66 N",
		"longitude": "162-14-14.72 W",
		"state": "ALASKA",
		"artcc": "ZAN",
		"type": "RNAV",
		"updated": "05/17/2017",
	},
	{
		"name": "NITYI",
		"latitude": "66-51-9.63 N",
		"longitude": "152-1-30.22 W",
		"state": "ALASKA",
		"artcc": "ZAN",
		"type": "RP",
		"updated": "BTT*VOR/DME*235.00/12.00",
	},
	{
		"name": "NIVUE",
		"latitude": "65-13-3.12 N",
		"longitude": "156-34-35.07 W",
		"state": "ALASKA",
		"artcc": "ZAN",
		"type": "RP",
		"updated": "HSL*VOR/DME*171.35/30.00",
	},
	{
		"name": "NIWCY",
		"latitude": "62-20-43.82 N",
		"longitude": "145-42-0.24 W",
		"state": "ALASKA",
		"artcc": "ZAN",
		"type": "RNAV",
		"updated": "11/01/2006",
	},
	{
		"name": "NIXON",
		"latitude": "63-16-15.84 N",
		"longitude": "155-48-32.6 W",
		"state": "ALASKA",
		"artcc": "ZAN",
		"type": "RP",
		"updated": "MCG*VORTAC*325.46/20.00",
	},
	{
		"name": "NIYTI",
		"latitude": "61-43-9.13 N",
		"longitude": "150-0-53.84 W",
		"state": "ALASKA",
		"artcc": "ZAN",
		"type": "RNAV",
		"updated": "08/03/2006",
	},
	{
		"name": "NIYYI",
		"latitude": "59-31-11.77 N",
		"longitude": "157-1-35.2 W",
		"state": "ALASKA",
		"artcc": "ZAN",
		"type": "RNAV",
		"updated": "06/03/2015",
	},
	{
		"name": "NKLES",
		"latitude": "58-19-0.42 N",
		"longitude": "134-28-7.19 W",
		"state": "ALASKA",
		"artcc": "ZAN",
		"type": "RNAV",
		"updated": "05/18/2016",
	},
	{
		"name": "NNOOK",
		"latitude": "64-57-27.42 N",
		"longitude": "147-56-50.79 W",
		"state": "ALASKA",
		"artcc": "ZAN",
		"type": "RNAV",
		"updated": "07/23/2012",
	},
	{
		"name": "NOCIL",
		"latitude": "64-39-44.14 N",
		"longitude": "163-22-4.59 W",
		"state": "ALASKA",
		"artcc": "ZAN",
		"type": "RNAV",
		"updated": "10/13/2005",
	},
	{
		"name": "NODCU",
		"latitude": "61-55-23.61 N",
		"longitude": "163-7-45.11 W",
		"state": "ALASKA",
		"artcc": "ZAN",
		"type": "WP",
		"updated": "11/02/1998",
	},
	{
		"name": "NODIC",
		"latitude": "57-30-48 N",
		"longitude": "134-38-42 W",
		"state": "ALASKA",
		"artcc": "ZAN",
		"type": "RNAV",
		"updated": "08/31/2004",
	},
	{
		"name": "NODLE",
		"latitude": "61-17-0 N",
		"longitude": "152-0-0 W",
		"state": "ALASKA",
		"artcc": "ZAN",
		"type": "RNAV",
		"updated": "05/10/2007",
	},
	{
		"name": "NOEND",
		"latitude": "61-7-59.48 N",
		"longitude": "148-28-0 W",
		"state": "ALASKA",
		"artcc": "ZAN",
		"type": "RNAV",
		"updated": "06/01/2010",
	},
	{
		"name": "NOFGY",
		"latitude": "64-33-35.64 N",
		"longitude": "165-0-23.92 W",
		"state": "ALASKA",
		"artcc": "ZAN",
		"type": "RNAV",
		"updated": "08/09/2017",
	},
	{
		"name": "NOGAE",
		"latitude": "58-36-32.42 N",
		"longitude": "156-58-56.77 W",
		"state": "ALASKA",
		"artcc": "ZAN",
		"type": "RP",
		"updated": "AKN*VORTAC*210.11/10.00",
	},
	{
		"name": "NOKFE",
		"latitude": "67-12-55.29 N",
		"longitude": "152-32-5.2 W",
		"state": "ALASKA",
		"artcc": "ZAN",
		"type": "RNAV",
		"updated": "11/15/2010",
	},
	{
		"name": "NOLTE",
		"latitude": "61-8-17.28 N",
		"longitude": "146-57-50.28 W",
		"state": "ALASKA",
		"artcc": "ZAN",
		"type": "RP",
		"updated": "MNL*NDB*246.00",
	},
	{
		"name": "NOLTI",
		"latitude": "59-32-45.94 N",
		"longitude": "171-54-8.73 W",
		"state": "OFFSHORE PACIFIC",
		"artcc": "ZAN",
		"type": "RNAV",
		"updated": "02/17/2016",
	},
	{
		"name": "NONDA",
		"latitude": "60-19-15.5 N",
		"longitude": "153-47-57.6 W",
		"state": "ALASKA",
		"artcc": "ZAN",
		"type": "RP",
		"updated": "AKN*VORTAC*025.96/131.75",
	},
	{
		"name": "NONIC",
		"latitude": "57-21-14.71 N",
		"longitude": "170-19-10.28 W",
		"state": "ALASKA",
		"artcc": "ZAN",
		"type": "RNAV",
		"updated": "10/09/2010",
	},
	{
		"name": "NONTE",
		"latitude": "59-2-38.79 N",
		"longitude": "159-16-30.27 W",
		"state": "ALASKA",
		"artcc": "ZAN",
		"type": "RNAV",
		"updated": "01/20/2004",
	},
	{
		"name": "NOPOL",
		"latitude": "90-0-0 N",
		"longitude": "0-0-0 E",
		"state": "OFFSHORE PACIFIC",
		"artcc": "ZAN",
		"type": "RNAV",
		"updated": "04/28/2015",
	},
	{
		"name": "NOSHO",
		"latitude": "61-7-0 N",
		"longitude": "163-0-0 W",
		"state": "ALASKA",
		"artcc": "ZAN",
		"type": "RP",
		"updated": "09/19/2000",
	},
	{
		"name": "NOSKY",
		"latitude": "59-34-34.35 N",
		"longitude": "154-24-36.93 W",
		"state": "ALASKA",
		"artcc": "ZAN",
		"type": "RP",
		"updated": "ILI*NDB/DME*107.01/18.38",
	},
	{
		"name": "NOTIE",
		"latitude": "62-39-39.67 N",
		"longitude": "160-11-12.25 W",
		"state": "ALASKA",
		"artcc": "ZAN",
		"type": "RNAV",
		"updated": "07/29/2008",
	},
	{
		"name": "NOTSO",
		"latitude": "65-43-1.91 N",
		"longitude": "144-42-21.38 W",
		"state": "ALASKA",
		"artcc": "ZAN",
		"type": "MR",
		"updated": "FAI*VORTAC*034.00/100.00",
	},
	{
		"name": "NOVET",
		"latitude": "59-3-15.72 N",
		"longitude": "157-28-28.92 W",
		"state": "ALASKA",
		"artcc": "ZAN",
		"type": "MR",
		"updated": "AKN*VORTAC*295.71/30.00",
	},
	{
		"name": "NOWEL",
		"latitude": "60-29-2.11 N",
		"longitude": "148-28-30.73 W",
		"state": "ALASKA",
		"artcc": "ZAN",
		"type": "RP",
		"updated": "MDO*VOR/DME*297.81/90.51",
	},
	{
		"name": "NOYIR",
		"latitude": "67-4-19.1 N",
		"longitude": "151-10-38.52 W",
		"state": "ALASKA",
		"artcc": "ZAN",
		"type": "RNAV",
		"updated": "03/16/2018",
	},
	{
		"name": "NRKEY",
		"latitude": "50-12-25 N",
		"longitude": "160-22-39 E",
		"state": "OFFSHORE PACIFIC",
		"artcc": "ZAN",
		"type": "RNAV",
		"updated": "06/13/2017",
	},
	{
		"name": "NUANC",
		"latitude": "62-21-24.99 N",
		"longitude": "159-33-21.28 W",
		"state": "ALASKA",
		"artcc": "ZAN",
		"type": "RNAV",
		"updated": "09/25/2009",
	},
	{
		"name": "NUBDE",
		"latitude": "64-26-11.58 N",
		"longitude": "146-54-3.74 W",
		"state": "ALASKA",
		"artcc": "ZAN",
		"type": "MR",
		"updated": "EIL*TACAN*140.00/14.00",
	},
	{
		"name": "NUBDY",
		"latitude": "61-47-23.32 N",
		"longitude": "159-42-26.05 W",
		"state": "ALASKA",
		"artcc": "ZAN",
		"type": "RNAV",
		"updated": "04/19/2016",
	},
	{
		"name": "NUDTI",
		"latitude": "68-9-48.48 N",
		"longitude": "145-27-0.6 W",
		"state": "ALASKA",
		"artcc": "ZAN",
		"type": "RNAV",
		"updated": "12/01/2005",
	},
	{
		"name": "NUGIC",
		"latitude": "59-31-6.02 N",
		"longitude": "146-12-47.67 W",
		"state": "ALASKA",
		"artcc": "ZAN",
		"type": "RNAV",
		"updated": "12/12/2011",
	},
	{
		"name": "NUGPE",
		"latitude": "64-42-41.06 N",
		"longitude": "165-49-10.22 W",
		"state": "ALASKA",
		"artcc": "ZAN",
		"type": "RP",
		"updated": "OME*VOR/DME*302.19/20.00",
	},
	{
		"name": "NUKRE",
		"latitude": "63-2-39.66 N",
		"longitude": "155-36-4.74 W",
		"state": "ALASKA",
		"artcc": "ZAN",
		"type": "RP",
		"updated": "MCG*LE*N CRS/5.90",
	},
	{
		"name": "NULUK",
		"latitude": "58-22-55.3 N",
		"longitude": "177-6-8.6 W",
		"state": "ALASKA",
		"artcc": "ZAN",
		"type": "RP",
		"updated": "09/19/2000",
	},
	{
		"name": "NUNIC",
		"latitude": "63-18-48.03 N",
		"longitude": "142-43-55.87 W",
		"state": "ALASKA",
		"artcc": "ZAN",
		"type": "RNAV",
		"updated": "12/20/2005",
	},
	{
		"name": "NURDS",
		"latitude": "61-3-44.6 N",
		"longitude": "150-7-14.59 W",
		"state": "ALASKA",
		"artcc": "ZAN",
		"type": "RNAV",
		"updated": "11/18/2014",
	},
	{
		"name": "NURTE",
		"latitude": "62-55-33.73 N",
		"longitude": "154-45-36.34 W",
		"state": "ALASKA",
		"artcc": "ZAN",
		"type": "RNAV",
		"updated": "09/01/2005",
	},
	{
		"name": "NUTUW",
		"latitude": "59-33-17.62 N",
		"longitude": "155-16-1.04 W",
		"state": "ALASKA",
		"artcc": "ZAN",
		"type": "RP",
		"updated": "AKN*VORTAC*025.96/67.83",
	},
	{
		"name": "NUVGE",
		"latitude": "57-46-10.08 N",
		"longitude": "152-22-13.05 W",
		"state": "ALASKA",
		"artcc": "ZAN",
		"type": "RNAV",
		"updated": "10/26/2015",
	},
	{
		"name": "NUXTE",
		"latitude": "64-4-23.32 N",
		"longitude": "145-37-18.77 W",
		"state": "ALASKA",
		"artcc": "ZAN",
		"type": "MW",
		"updated": "11/28/2006",
	},
	{
		"name": "NUYIL",
		"latitude": "60-29-26.69 N",
		"longitude": "162-6-59.01 W",
		"state": "ALASKA",
		"artcc": "ZAN",
		"type": "RNAV",
		"updated": "08/26/2008",
	},
	{
		"name": "NUYIR",
		"latitude": "70-20-52.51 N",
		"longitude": "158-4-31.11 W",
		"state": "ALASKA",
		"artcc": "ZAN",
		"type": "RNAV",
		"updated": "12/27/2005",
	},
	{
		"name": "NUZAN",
		"latitude": "51-39-27.5 N",
		"longitude": "163-38-41.8 E",
		"state": "OFFSHORE PACIFIC",
		"artcc": "ZAN",
		"type": "RNAV",
		"updated": "02/13/2012",
	},
	{
		"name": "NYMPH",
		"latitude": "53-24-31.6 N",
		"longitude": "168-14-23.4 E",
		"state": "OFFSHORE PACIFIC",
		"artcc": "ZAN",
		"type": "RP",
		"updated": "06/13/2017",
	},
