	{
		"name": "OBACE",
		"latitude": "56-24-0.34 N",
		"longitude": "134-28-14.56 W",
		"state": "ALASKA",
		"artcc": "ZAN",
		"type": "RNAV",
		"updated": "07/12/2004",
	},
	{
		"name": "OBCIN",
		"latitude": "71-17-1.87 N",
		"longitude": "157-21-44.23 W",
		"state": "ALASKA",
		"artcc": "ZAN",
		"type": "RNAV",
		"updated": "12/26/2017",
	},
	{
		"name": "OBETE",
		"latitude": "60-53-29.93 N",
		"longitude": "161-50-21.18 W",
		"state": "ALASKA",
		"artcc": "ZAN",
		"type": "RNAV",
		"updated": "08/26/2008",
	},
	{
		"name": "OBEXE",
		"latitude": "60-27-8.95 N",
		"longitude": "165-4-38.9 W",
		"state": "ALASKA",
		"artcc": "ZAN",
		"type": "RNAV",
		"updated": "09/12/2012",
	},
	{
		"name": "OBLAE",
		"latitude": "65-29-46.12 N",
		"longitude": "156-38-6.15 W",
		"state": "ALASKA",
		"artcc": "ZAN",
		"type": "RNAV",
		"updated": "08/07/2008",
	},
	{
		"name": "OBMOE",
		"latitude": "56-49-9.5 N",
		"longitude": "132-51-10.7 W",
		"state": "ALASKA",
		"artcc": "ZAN",
		"type": "RNAV",
		"updated": "08/08/2016",
	},
	{
		"name": "OBOYD",
		"latitude": "56-3-56.75 N",
		"longitude": "177-58-42.5 E",
		"state": "OFFSHORE PACIFIC",
		"artcc": "ZAN",
		"type": "RNAV",
		"updated": "02/01/2011",
	},
	{
		"name": "OBUKE",
		"latitude": "57-28-55.62 N",
		"longitude": "158-7-1.03 W",
		"state": "ALASKA",
		"artcc": "ZAN",
		"type": "RP",
		"updated": "PDN*NDB/DME*012.43/36.16",
	},
	{
		"name": "OCDIJ",
		"latitude": "59-4-45.69 N",
		"longitude": "158-16-30.61 W",
		"state": "ALASKA",
		"artcc": "ZAN",
		"type": "RP",
		"updated": "DLG*VOR/DME*044.08/10.00",
	},
	{
		"name": "OCEKI",
		"latitude": "59-50-21.47 N",
		"longitude": "156-50-37.07 W",
		"state": "ALASKA",
		"artcc": "ZAN",
		"type": "RNAV",
		"updated": "06/03/2015",
	},
	{
		"name": "OCENO",
		"latitude": "57-34-47.6 N",
		"longitude": "157-13-23.03 W",
		"state": "ALASKA",
		"artcc": "ZAN",
		"type": "RNAV",
		"updated": "10/07/2003",
	},
	{
		"name": "OCITA",
		"latitude": "58-57-18.24 N",
		"longitude": "157-5-21.34 W",
		"state": "ALASKA",
		"artcc": "ZAN",
		"type": "RNAV",
		"updated": "03/14/2016",
	},
	{
		"name": "OCKAS",
		"latitude": "61-33-15.55 N",
		"longitude": "149-5-13.88 W",
		"state": "ALASKA",
		"artcc": "ZAN",
		"type": "RNAV",
		"updated": "02/09/2018",
	},
	{
		"name": "OCOCU",
		"latitude": "67-5-8.9 N",
		"longitude": "151-45-0.43 W",
		"state": "ALASKA",
		"artcc": "ZAN",
		"type": "RP",
		"updated": "EAV*NDB*319.34",
	},
	{
		"name": "OCOTA",
		"latitude": "70-13-0.87 N",
		"longitude": "148-13-8.54 W",
		"state": "ALASKA",
		"artcc": "ZAN",
		"type": "RP",
		"updated": "SCC*VOR/DME*058.06/4.16",
	},
	{
		"name": "OCULA",
		"latitude": "65-12-1.64 N",
		"longitude": "152-38-55.48 W",
		"state": "ALASKA",
		"artcc": "ZAN",
		"type": "RP",
		"updated": "TAL*VOR/DME*257.93/12.00",
	},
	{
		"name": "OCULT",
		"latitude": "59-31-9.4 N",
		"longitude": "140-37-45.73 W",
		"state": "ALASKA",
		"artcc": "ZAN",
		"type": "RP",
		"updated": "YAK*VOR/DME*251.39/30.00",
	},
	{
		"name": "ODECO",
		"latitude": "57-10-33.98 N",
		"longitude": "133-9-13.23 W",
		"state": "ALASKA",
		"artcc": "ZAN",
		"type": "RNAV",
		"updated": "03/26/2012",
	},
	{
		"name": "ODEPE",
		"latitude": "58-13-2.78 N",
		"longitude": "135-31-34.74 W",
		"state": "ALASKA",
		"artcc": "ZAN",
		"type": "RNAV",
		"updated": "10/26/2012",
	},
	{
		"name": "ODEYO",
		"latitude": "55-18-2.24 N",
		"longitude": "131-37-10.4 W",
		"state": "ALASKA",
		"artcc": "ZAN",
		"type": "RNAV",
		"updated": "08/31/2004",
	},
	{
		"name": "ODGAW",
		"latitude": "69-45-53.52 N",
		"longitude": "162-46-3.67 W",
		"state": "ALASKA",
		"artcc": "ZAN",
		"type": "RNAV",
		"updated": "06/11/2008",
	},
	{
		"name": "ODIFU",
		"latitude": "64-49-9.87 N",
		"longitude": "147-29-16.74 W",
		"state": "ALASKA",
		"artcc": "ZAN",
		"type": "RNAV",
		"updated": "05/15/2017",
	},
	{
		"name": "ODIHY",
		"latitude": "62-58-12.1 N",
		"longitude": "164-41-48.39 W",
		"state": "ALASKA",
		"artcc": "ZAN",
		"type": "RNAV",
		"updated": "05/03/2007",
	},
	{
		"name": "ODMEE",
		"latitude": "66-46-3.01 N",
		"longitude": "161-29-11.03 W",
		"state": "ALASKA",
		"artcc": "ZAN",
		"type": "RNAV",
		"updated": "11/24/2009",
	},
	{
		"name": "ODOWO",
		"latitude": "55-5-31.1 N",
		"longitude": "162-38-51.56 W",
		"state": "ALASKA",
		"artcc": "ZAN",
		"type": "RP",
		"updated": "CDB*VORTAC*/11.41",
	},
	{
		"name": "ODTIP",
		"latitude": "68-4-57.56 N",
		"longitude": "162-50-49.64 W",
		"state": "ALASKA",
		"artcc": "ZAN",
		"type": "RNAV",
		"updated": "11/05/2015",
	},
	{
		"name": "ODUWU",
		"latitude": "61-35-31.23 N",
		"longitude": "149-28-34.98 W",
		"state": "ALASKA",
		"artcc": "ZAN",
		"type": "RNAV",
		"updated": "06/12/2014",
	},
	{
		"name": "ODUXE",
		"latitude": "70-9-38.26 N",
		"longitude": "146-4-53.8 W",
		"state": "ALASKA",
		"artcc": "ZAN",
		"type": "RNAV",
		"updated": "06/26/2013",
	},
	{
		"name": "ODWUJ",
		"latitude": "59-0-30.25 N",
		"longitude": "158-52-23.9 W",
		"state": "ALASKA",
		"artcc": "ZAN",
		"type": "RP",
		"updated": "DLG*VOR/DME*260.03/10.00",
	},
	{
		"name": "OFJEN",
		"latitude": "64-39-35.54 N",
		"longitude": "147-49-49.56 W",
		"state": "ALASKA",
		"artcc": "ZAN",
		"type": "RNAV",
		"updated": "05/12/2017",
	},
	{
		"name": "OFORD",
		"latitude": "57-32-10.7 N",
		"longitude": "176-48-5 W",
		"state": "ALASKA",
		"artcc": "ZAN",
		"type": "RP",
		"updated": "09/19/2000",
	},
	{
		"name": "OFQIM",
		"latitude": "62-35-50.58 N",
		"longitude": "164-28-2.44 W",
		"state": "ALASKA",
		"artcc": "ZAN",
		"type": "RNAV",
		"updated": "05/03/2007",
	},
	{
		"name": "OFRAM",
		"latitude": "61-36-4.41 N",
		"longitude": "158-45-43.28 W",
		"state": "ALASKA",
		"artcc": "ZAN",
		"type": "RNAV",
		"updated": "09/09/2009",
	},
	{
		"name": "OFVIZ",
		"latitude": "70-24-15.88 N",
		"longitude": "150-14-14.59 W",
		"state": "ALASKA",
		"artcc": "ZAN",
		"type": "RNAV",
		"updated": "12/12/2011",
	},
	{
		"name": "OGDEN",
		"latitude": "49-29-12.9 N",
		"longitude": "161-2-15.5 E",
		"state": "ALASKA",
		"artcc": "ZAN",
		"type": "RP",
		"updated": "09/19/2000",
	},
	{
		"name": "OGEGE",
		"latitude": "56-55-46.03 N",
		"longitude": "158-46-27.61 W",
		"state": "ALASKA",
		"artcc": "ZAN",
		"type": "RNAV",
		"updated": "03/30/2018",
	},
	{
		"name": "OGEME",
		"latitude": "58-21-24 N",
		"longitude": "135-0-31.71 W",
		"state": "ALASKA",
		"artcc": "ZAN",
		"type": "RNAV",
		"updated": "11/28/2006",
	},
	{
		"name": "OGGOE",
		"latitude": "58-17-8 N",
		"longitude": "173-34-58 W",
		"state": "ALASKA",
		"artcc": "ZAN",
		"type": "RP",
		"updated": "09/19/2000",
	},
	{
		"name": "OGLOQ",
		"latitude": "59-44-31.37 N",
		"longitude": "151-4-51.46 W",
		"state": "ALASKA",
		"artcc": "ZAN",
		"type": "RNAV",
		"updated": "05/17/2013",
	},
	{
		"name": "OGOLY",
		"latitude": "61-13-35.43 N",
		"longitude": "150-46-14.69 W",
		"state": "ALASKA",
		"artcc": "ZAN",
		"type": "RNAV",
		"updated": "12/12/2011",
	},
	{
		"name": "OGSEE",
		"latitude": "52-40-30.22 N",
		"longitude": "173-13-21.13 E",
		"state": "ALASKA",
		"artcc": "ZAN",
		"type": "MW",
		"updated": "04/12/2010",
	},
	{
		"name": "OHECY",
		"latitude": "64-58-17.85 N",
		"longitude": "147-34-23.24 W",
		"state": "ALASKA",
		"artcc": "ZAN",
		"type": "RP",
		"updated": "CUN*NDB*329.05",
	},
	{
		"name": "OILEE",
		"latitude": "69-15-21.32 N",
		"longitude": "147-29-35.49 W",
		"state": "ALASKA",
		"artcc": "ZAN",
		"type": "RP",
		"updated": "SCC*VOR/DME*143.82/60.00",
	},
	{
		"name": "OJURA",
		"latitude": "60-57-43.5 N",
		"longitude": "162-30-14.83 W",
		"state": "ALASKA",
		"artcc": "ZAN",
		"type": "RNAV",
		"updated": "07/03/2013",
	},
	{
		"name": "OJWAW",
		"latitude": "55-30-42.77 N",
		"longitude": "131-59-2.66 W",
		"state": "ALASKA",
		"artcc": "ZAN",
		"type": "RNAV",
		"updated": "03/14/2011",
	},
	{
		"name": "OKAYI",
		"latitude": "56-30-36.64 N",
		"longitude": "132-23-39.6 W",
		"state": "ALASKA",
		"artcc": "ZAN",
		"type": "RNAV",
		"updated": "04/30/2013",
	},
	{
		"name": "OKDIE",
		"latitude": "54-47-28.1 N",
		"longitude": "162-19-59.07 W",
		"state": "ALASKA",
		"artcc": "ZAN",
		"type": "RNAV",
		"updated": "11/19/2004",
	},
	{
		"name": "OKEZU",
		"latitude": "68-2-57.26 N",
		"longitude": "162-39-14.11 W",
		"state": "ALASKA",
		"artcc": "ZAN",
		"type": "RNAV",
		"updated": "11/05/2015",
	},
	{
		"name": "OKIKE",
		"latitude": "71-0-40.94 N",
		"longitude": "154-21-11.73 W",
		"state": "ALASKA",
		"artcc": "ZAN",
		"type": "RP",
		"updated": "BRW*VOR/DME*088.25/50.00",
	},
	{
		"name": "OKVAW",
		"latitude": "57-40-0 N",
		"longitude": "133-45-0 W",
		"state": "ALASKA",
		"artcc": "ZAN",
		"type": "RNAV",
		"updated": "07/12/2004",
	},
	{
		"name": "OKXAC",
		"latitude": "64-43-36.85 N",
		"longitude": "148-9-47.76 W",
		"state": "ALASKA",
		"artcc": "ZAN",
		"type": "RNAV",
		"updated": "05/15/2017",
	},
	{
		"name": "OLARU",
		"latitude": "62-28-52.33 N",
		"longitude": "141-0-0 W",
		"state": "ALASKA",
		"artcc": "ZAN",
		"type": "RP",
		"updated": "ORT*VORTAC*113.63/37.71",
	},
	{
		"name": "OLATE",
		"latitude": "59-43-12.174 N",
		"longitude": "161-46-25.454 W",
		"state": "ALASKA",
		"artcc": "ZAN",
		"type": "RNAV",
		"updated": "01/25/2016",
	},
	{
		"name": "OLAYA",
		"latitude": "58-54-33.62 N",
		"longitude": "156-25-48.3 W",
		"state": "ALASKA",
		"artcc": "ZAN",
		"type": "RP",
		"updated": "AKN*VORTAC*026.02/15.00",
	},
	{
		"name": "OLCOT",
		"latitude": "51-25-48.7 N",
		"longitude": "165-33-20.7 E",
		"state": "ALASKA",
		"artcc": "ZAN",
		"type": "RP",
		"updated": "09/19/2000",
	},
	{
		"name": "OLITE",
		"latitude": "65-11-13.38 N",
		"longitude": "152-22-26.28 W",
		"state": "ALASKA",
		"artcc": "ZAN",
		"type": "RP",
		"updated": "TAL*VOR/DME*257.93/5.00",
	},
	{
		"name": "OLLEO",
		"latitude": "61-3-19.45 N",
		"longitude": "146-53-12.7 W",
		"state": "ALASKA",
		"artcc": "ZAN",
		"type": "RP",
		"updated": "MNL*NDB*236.35",
	},
	{
		"name": "OLLER",
		"latitude": "58-33-4.03 N",
		"longitude": "157-5-48.01 W",
		"state": "ALASKA",
		"artcc": "ZAN",
		"type": "RP",
		"updated": "AKN*VORTAC*210.11/15.00",
	},
	{
		"name": "OLOOK",
		"latitude": "56-33-7.2 N",
		"longitude": "169-49-19.35 W",
		"state": "ALASKA",
		"artcc": "ZAN",
		"type": "RP",
		"updated": "SRI*NDB/DME*246.23/5.93",
	},
	{
		"name": "OLTON",
		"latitude": "63-53-17.96 N",
		"longitude": "172-34-23.99 W",
		"state": "",
		"artcc": "ZAN",
		"type": "RNAV",
		"updated": "05/20/2015",
	},
	{
		"name": "OLUTE",
		"latitude": "61-56-20.6 N",
		"longitude": "150-22-2.99 W",
		"state": "ALASKA",
		"artcc": "ZAN",
		"type": "RNAV",
		"updated": "01/19/2017",
	},
	{
		"name": "OLVIE",
		"latitude": "66-35-29.92 N",
		"longitude": "143-55-14.99 W",
		"state": "ALASKA",
		"artcc": "ZAN",
		"type": "RNAV",
		"updated": "12/20/2005",
	},
	{
		"name": "OMEDE",
		"latitude": "66-58-21.22 N",
		"longitude": "145-34-24.71 W",
		"state": "ALASKA",
		"artcc": "ZAN",
		"type": "RP",
		"updated": "FYU*VORTAC*323.74/25.00",
	},
	{
		"name": "OMEKA",
		"latitude": "78-10-35.92 N",
		"longitude": "141-0-0 W",
		"state": "OFFSHORE PACIFIC",
		"artcc": "ZAN",
		"type": "RNAV",
		"updated": "06/27/2014",
	},
	{
		"name": "OMOME",
		"latitude": "70-17-58.79 N",
		"longitude": "151-25-5.22 W",
		"state": "ALASKA",
		"artcc": "ZAN",
		"type": "RNAV",
		"updated": "12/12/2011",
	},
	{
		"name": "OMOTO",
		"latitude": "48-59-42.8 N",
		"longitude": "160-0-39.1 E",
		"state": "OFFSHORE PACIFIC",
		"artcc": "ZAN",
		"type": "RP",
		"updated": "09/19/2000",
	},
	{
		"name": "OMPAE",
		"latitude": "67-4-42.05 N",
		"longitude": "162-40-12.6 W",
		"state": "ALASKA",
		"artcc": "ZAN",
		"type": "RP",
		"updated": "OTZ*VOR/DME*330.24/12.00",
	},
	{
		"name": "OMPUE",
		"latitude": "64-54-46.35 N",
		"longitude": "147-38-58.46 W",
		"state": "ALASKA",
		"artcc": "ZAN",
		"type": "RNAV",
		"updated": "05/15/2017",
	},
	{
		"name": "OMSUN",
		"latitude": "61-20-10.98 N",
		"longitude": "141-0-0 W",
		"state": "",
		"artcc": "ZAN",
		"type": "RNAV",
		"updated": "05/19/2011",
	},
	{
		"name": "OMTOJ",
		"latitude": "64-52-36.18 N",
		"longitude": "147-7-57.71 W",
		"state": "ALASKA",
		"artcc": "ZAN",
		"type": "MR",
		"updated": "FAI*VORTAC*057.03/23.00",
	},
	{
		"name": "ONABE",
		"latitude": "64-24-10.31 N",
		"longitude": "162-45-47.33 W",
		"state": "ALASKA",
		"artcc": "ZAN",
		"type": "RNAV",
		"updated": "12/21/2009",
	},
	{
		"name": "ONEIL",
		"latitude": "54-12-8.8 N",
		"longitude": "172-40-50.9 E",
		"state": "OFFSHORE PACIFIC",
		"artcc": "ZAN",
		"type": "RNAV",
		"updated": "05/13/2016",
	},
	{
		"name": "ONEOX",
		"latitude": "58-46-0.5 N",
		"longitude": "171-19-0.6 W",
		"state": "OFFSHORE PACIFIC",
		"artcc": "ZAN",
		"type": "WP",
		"updated": "09/19/2000",
	},
	{
		"name": "ONEPY",
		"latitude": "61-58-45.37 N",
		"longitude": "163-18-29.49 W",
		"state": "ALASKA",
		"artcc": "ZAN",
		"type": "RNAV",
		"updated": "03/19/2012",
	},
	{
		"name": "OOSIK",
		"latitude": "70-26-21.95 N",
		"longitude": "149-59-8.99 W",
		"state": "ALASKA",
		"artcc": "ZAN",
		"type": "RP",
		"updated": "SCC*VOR/DME*272.16/35.00",
	},
	{
		"name": "OOTKA",
		"latitude": "64-10-57.83 N",
		"longitude": "164-56-8.18 W",
		"state": "ALASKA",
		"artcc": "ZAN",
		"type": "RP",
		"updated": "OME*VOR/DME*144.37/20.00",
	},
	{
		"name": "OPAKE",
		"latitude": "53-0-4.4 N",
		"longitude": "169-53-33.9 E",
		"state": "ALASKA",
		"artcc": "ZAN",
		"type": "RP",
		"updated": "08/01/2007",
	},
	{
		"name": "OPEPE",
		"latitude": "66-58-58.9 N",
		"longitude": "160-18-28.78 W",
		"state": "ALASKA",
		"artcc": "ZAN",
		"type": "RNAV",
		"updated": "07/19/2005",
	},
	{
		"name": "OPHET",
		"latitude": "50-57-26.7 N",
		"longitude": "164-22-53.4 E",
		"state": "ALASKA",
		"artcc": "ZAN",
		"type": "RP",
		"updated": "09/19/2000",
	},
	{
		"name": "OPUGE",
		"latitude": "59-49-9.42 N",
		"longitude": "154-15-10.88 W",
		"state": "ALASKA",
		"artcc": "ZAN",
		"type": "RNAV",
		"updated": "03/30/2009",
	},
	{
		"name": "ORACE",
		"latitude": "64-46-55.12 N",
		"longitude": "147-55-25.5 W",
		"state": "ALASKA",
		"artcc": "ZAN",
		"type": "RNAV",
		"updated": "09/09/2009",
	},
	{
		"name": "ORAIL",
		"latitude": "60-22-17.18 N",
		"longitude": "150-47-45.69 W",
		"state": "ALASKA",
		"artcc": "ZAN",
		"type": "RP",
		"updated": "HOM*VOR/DME*011.24/44.51",
	},
	{
		"name": "ORCCA",
		"latitude": "60-15-0 N",
		"longitude": "163-0-0 W",
		"state": "ALASKA",
		"artcc": "ZAN",
		"type": "RP",
		"updated": "09/19/2000",
	},
	{
		"name": "ORDAE",
		"latitude": "63-42-5.92 N",
		"longitude": "162-1-31.08 W",
		"state": "ALASKA",
		"artcc": "ZAN",
		"type": "RNAV",
		"updated": "05/04/2007",
	},
	{
		"name": "ORDDY",
		"latitude": "70-27-31.78 N",
		"longitude": "150-29-38.61 W",
		"state": "ALASKA",
		"artcc": "ZAN",
		"type": "RNAV",
		"updated": "12/13/2011",
	},
	{
		"name": "OREGO",
		"latitude": "57-5-51.88 N",
		"longitude": "169-56-44.89 W",
		"state": "ALASKA",
		"artcc": "ZAN",
		"type": "RP",
		"updated": "SPY*NDB/DME*098.06/10.00",
	},
	{
		"name": "ORICU",
		"latitude": "61-26-28.01 N",
		"longitude": "165-54-5.16 W",
		"state": "ALASKA",
		"artcc": "ZAN",
		"type": "RNAV",
		"updated": "09/11/2007",
	},
	{
		"name": "ORIXE",
		"latitude": "70-14-30.98 N",
		"longitude": "147-56-7.69 W",
		"state": "ALASKA",
		"artcc": "ZAN",
		"type": "RNAV",
		"updated": "09/01/2017",
	},
	{
		"name": "ORIZY",
		"latitude": "64-36-14.48 N",
		"longitude": "156-17-31.91 W",
		"state": "ALASKA",
		"artcc": "ZAN",
		"type": "RNAV",
		"updated": "07/29/2008",
	},
	{
		"name": "ORSOE",
		"latitude": "68-5-59.55 N",
		"longitude": "162-48-20.49 W",
		"state": "ALASKA",
		"artcc": "ZAN",
		"type": "RNAV",
		"updated": "11/05/2015",
	},
	{
		"name": "ORTHO",
		"latitude": "56-23-38.07 N",
		"longitude": "132-14-45.41 W",
		"state": "ALASKA",
		"artcc": "ZAN",
		"type": "RNAV",
		"updated": "11/04/2014",
	},
	{
		"name": "ORUYO",
		"latitude": "57-7-47.4 N",
		"longitude": "158-28-25.34 W",
		"state": "ALASKA",
		"artcc": "ZAN",
		"type": "RP",
		"updated": "PDN*NDB/DME*012.43/12.00",
	},
	{
		"name": "ORVIL",
		"latitude": "59-30-49.2 N",
		"longitude": "167-32-26.8 W",
		"state": "ALASKA",
		"artcc": "ZAN",
		"type": "RP",
		"updated": "09/19/2000",
	},
	{
		"name": "ORVIT",
		"latitude": "78-59-59.96 N",
		"longitude": "168-58-23.98 W",
		"state": "",
		"artcc": "ZAN",
		"type": "RNAV",
		"updated": "07/03/2017",
	},
	{
		"name": "OSALE",
		"latitude": "59-1-3.78 N",
		"longitude": "155-36-1.37 W",
		"state": "ALASKA",
		"artcc": "ZAN",
		"type": "RNAV",
		"updated": "07/07/2014",
	},
	{
		"name": "OSBOE",
		"latitude": "57-48-7.57 N",
		"longitude": "152-27-12.75 W",
		"state": "ALASKA",
		"artcc": "ZAN",
		"type": "RP",
		"updated": "ODK*VOR/DME*280.07/3.99",
	},
	{
		"name": "OSIBE",
		"latitude": "56-59-37.16 N",
		"longitude": "132-53-47.67 W",
		"state": "ALASKA",
		"artcc": "ZAN",
		"type": "RNAV",
		"updated": "08/31/2004",
	},
	{
		"name": "OSKOE",
		"latitude": "58-47-13.64 N",
		"longitude": "156-27-22.24 W",
		"state": "ALASKA",
		"artcc": "ZAN",
		"type": "RP",
		"updated": "AKN*VORTAC*051.80/9.99",
	},
	{
		"name": "OSNAE",
		"latitude": "66-47-49.78 N",
		"longitude": "144-49-58.2 W",
		"state": "ALASKA",
		"artcc": "ZAN",
		"type": "RNAV",
		"updated": "10/28/2013",
	},
	{
		"name": "OSORE",
		"latitude": "70-22-33.22 N",
		"longitude": "148-28-30.17 W",
		"state": "ALASKA",
		"artcc": "ZAN",
		"type": "RNAV",
		"updated": "02/19/2016",
	},
	{
		"name": "OSPUF",
		"latitude": "61-15-6.35 N",
		"longitude": "150-17-44.21 W",
		"state": "ALASKA",
		"artcc": "ZAN",
		"type": "RNAV",
		"updated": "07/11/2005",
	},
	{
		"name": "OSUBE",
		"latitude": "64-9-24.12 N",
		"longitude": "146-15-37.99 W",
		"state": "ALASKA",
		"artcc": "ZAN",
		"type": "RP",
		"updated": "BIG*VORTAC*279.88/17.00",
	},
	{
		"name": "OTECI",
		"latitude": "66-51-31.01 N",
		"longitude": "156-34-23.13 W",
		"state": "ALASKA",
		"artcc": "ZAN",
		"type": "RNAV",
		"updated": "09/21/2007",
	},
	{
		"name": "OTECO",
		"latitude": "63-4-45.23 N",
		"longitude": "155-35-57.85 W",
		"state": "ALASKA",
		"artcc": "ZAN",
		"type": "RP",
		"updated": "MCG*LE*N CRS/8.00",
	},
	{
		"name": "OTEME",
		"latitude": "52-45-48.31 N",
		"longitude": "173-24-2.3 E",
		"state": "ALASKA",
		"artcc": "ZAN",
		"type": "MW",
		"updated": "04/12/2010",
	},
	{
		"name": "OTIPE",
		"latitude": "55-15-8.31 N",
		"longitude": "160-30-10.22 W",
		"state": "ALASKA",
		"artcc": "ZAN",
		"type": "RP",
		"updated": "HBT*NDB/DME*157.00/3.84",
	},
	{
		"name": "OTIZO",
		"latitude": "64-41-21.59 N",
		"longitude": "148-5-33.95 W",
		"state": "ALASKA",
		"artcc": "ZAN",
		"type": "RNAV",
		"updated": "05/12/2017",
	},
	{
		"name": "OTOPE",
		"latitude": "66-52-29.33 N",
		"longitude": "162-55-44.18 W",
		"state": "ALASKA",
		"artcc": "ZAN",
		"type": "RNAV",
		"updated": "08/09/2017",
	},
	{
		"name": "OTOYU",
		"latitude": "65-41-15.74 N",
		"longitude": "156-22-55.25 W",
		"state": "ALASKA",
		"artcc": "ZAN",
		"type": "RP",
		"updated": "HSL*VOR/DME*182.15/1.30",
	},
	{
		"name": "OTTUR",
		"latitude": "56-29-29.07 N",
		"longitude": "132-23-26.98 W",
		"state": "ALASKA",
		"artcc": "ZAN",
		"type": "RNAV",
		"updated": "11/04/2014",
	},
	{
		"name": "OUTER",
		"latitude": "61-16-0.04 N",
		"longitude": "149-46-27.07 W",
		"state": "ALASKA",
		"artcc": "ZAN",
		"type": "RNAV",
		"updated": "07/18/2012",
	},
	{
		"name": "OVEME",
		"latitude": "66-32-51.43 N",
		"longitude": "145-21-19.4 W",
		"state": "ALASKA",
		"artcc": "ZAN",
		"type": "RNAV",
		"updated": "11/04/2016",
	},
	{
		"name": "OVEWU",
		"latitude": "63-24-3.54 N",
		"longitude": "162-11-22.32 W",
		"state": "ALASKA",
		"artcc": "ZAN",
		"type": "RNAV",
		"updated": "05/05/2005",
	},
	{
		"name": "OVIPE",
		"latitude": "63-41-36.63 N",
		"longitude": "170-27-55.15 W",
		"state": "ALASKA",
		"artcc": "ZAN",
		"type": "RNAV",
		"updated": "10/05/2011",
	},
	{
		"name": "OVIXE",
		"latitude": "63-6-31.68 N",
		"longitude": "142-18-37.14 W",
		"state": "ALASKA",
		"artcc": "ZAN",
		"type": "CN",
		"updated": "11/14/2006",
	},
	{
		"name": "OVIYI",
		"latitude": "60-7-13.42 N",
		"longitude": "162-4-24.49 W",
		"state": "ALASKA",
		"artcc": "ZAN",
		"type": "RNAV",
		"updated": "04/02/2008",
	},
	{
		"name": "OVKUY",
		"latitude": "58-2-23.49 N",
		"longitude": "157-8-38.37 W",
		"state": "ALASKA",
		"artcc": "ZAN",
		"type": "RNAV",
		"updated": "08/15/2005",
	},
	{
		"name": "OVOCE",
		"latitude": "62-29-33.07 N",
		"longitude": "159-44-47.45 W",
		"state": "ALASKA",
		"artcc": "ZAN",
		"type": "RNAV",
		"updated": "08/26/2008",
	},
	{
		"name": "OWACU",
		"latitude": "71-2-18.64 N",
		"longitude": "157-10-17.05 W",
		"state": "ALASKA",
		"artcc": "ZAN",
		"type": "RP",
		"updated": "BRW*VOR/DME*188.99/16.00",
	},
	{
		"name": "OWGAT",
		"latitude": "61-31-6.19 N",
		"longitude": "149-31-45.03 W",
		"state": "ALASKA",
		"artcc": "ZAN",
		"type": "RNAV",
		"updated": "03/03/2008",
	},
	{
		"name": "OWGIM",
		"latitude": "53-58-49.55 N",
		"longitude": "166-34-6.88 W",
		"state": "ALASKA",
		"artcc": "ZAN",
		"type": "RNAV",
		"updated": "06/08/2000",
	},
	{
		"name": "OWILY",
		"latitude": "58-6-0 N",
		"longitude": "134-52-0 W",
		"state": "ALASKA",
		"artcc": "ZAN",
		"type": "RNAV",
		"updated": "06/24/2013",
	},
	{
		"name": "OWTER",
		"latitude": "57-39-36.62 N",
		"longitude": "152-25-53.5 W",
		"state": "ALASKA",
		"artcc": "ZAN",
		"type": "RNAV",
		"updated": "07/21/2016",
	},
	{
		"name": "OWWIY",
		"latitude": "70-29-35.8 N",
		"longitude": "150-21-22.31 W",
		"state": "ALASKA",
		"artcc": "ZAN",
		"type": "RNAV",
		"updated": "12/13/2011",
	},
	{
		"name": "OWXUP",
		"latitude": "61-1-56.06 N",
		"longitude": "147-26-17.63 W",
		"state": "ALASKA",
		"artcc": "ZAN",
		"type": "RNAV",
		"updated": "07/18/2012",
	},
	{
		"name": "OWXUY",
		"latitude": "55-36-23.64 N",
		"longitude": "133-32-6.24 W",
		"state": "ALASKA",
		"artcc": "ZAN",
		"type": "RNAV",
		"updated": "07/12/2004",
	},
	{
		"name": "OXLIP",
		"latitude": "59-32-59.03 N",
		"longitude": "139-44-24.48 W",
		"state": "ALASKA",
		"artcc": "ZAN",
		"type": "RNAV",
		"updated": "12/22/2016",
	},
	{
		"name": "OYASA",
		"latitude": "62-51-28.26 N",
		"longitude": "160-8-18.77 W",
		"state": "ALASKA",
		"artcc": "ZAN",
		"type": "RNAV",
		"updated": "07/29/2008",
	},
	{
		"name": "OYECU",
		"latitude": "55-24-6.35 N",
		"longitude": "131-47-35.98 W",
		"state": "ALASKA",
		"artcc": "ZAN",
		"type": "RP",
		"updated": "ECH*LD*NW CRS/4.80",
	},
	{
		"name": "OYUTO",
		"latitude": "65-13-35.07 N",
		"longitude": "146-33-36.32 W",
		"state": "ALASKA",
		"artcc": "ZAN",
		"type": "MR",
		"updated": "FAI*VORTAC*033.57/45.00",
	},
	{
		"name": "OZKOF",
		"latitude": "59-35-6.62 N",
		"longitude": "151-38-47.26 W",
		"state": "ALASKA",
		"artcc": "ZAN",
		"type": "RP",
		"updated": "HOM*LE*SW CRS/7.00",
	},
	{
		"name": "OZYIB",
		"latitude": "70-33-51.48 N",
		"longitude": "160-31-22.48 W",
		"state": "ALASKA",
		"artcc": "ZAN",
		"type": "RNAV",
		"updated": "09/24/2009",
	},
