	{
		"name": "PAAYY",
		"latitude": "58-17-30.79 N",
		"longitude": "134-25-15.44 W",
		"state": "ALASKA",
		"artcc": "ZAN",
		"type": "RNAV",
		"updated": "05/18/2016",
	},
	{
		"name": "PABGE",
		"latitude": "55-9-0.22 N",
		"longitude": "162-41-16.01 W",
		"state": "ALASKA",
		"artcc": "ZAN",
		"type": "RP",
		"updated": "CDB*VORTAC*143.11/7.65",
	},
	{
		"name": "PACHA",
		"latitude": "61-10-4.26 N",
		"longitude": "150-0-30.46 W",
		"state": "ALASKA",
		"artcc": "ZAN",
		"type": "RNAV",
		"updated": "11/18/2014",
	},
	{
		"name": "PACKI",
		"latitude": "62-50-54.4 N",
		"longitude": "159-57-28.4 W",
		"state": "ALASKA",
		"artcc": "ZAN",
		"type": "RNAV",
		"updated": "07/29/2008",
	},
	{
		"name": "PADOE",
		"latitude": "65-45-4.06 N",
		"longitude": "156-11-25.01 W",
		"state": "ALASKA",
		"artcc": "ZAN",
		"type": "RNAV",
		"updated": "08/07/2008",
	},
	{
		"name": "PAGGI",
		"latitude": "64-31-19.23 N",
		"longitude": "146-9-18.41 W",
		"state": "ALASKA",
		"artcc": "ZAN",
		"type": "MR",
		"updated": "BIG*VORTAC*317.00/33.20",
	},
	{
		"name": "PAHSI",
		"latitude": "56-57-30 N",
		"longitude": "134-40-0 W",
		"state": "ALASKA",
		"artcc": "ZAN",
		"type": "RNAV",
		"updated": "04/13/2010",
	},
	{
		"name": "PALBE",
		"latitude": "62-58-36.74 N",
		"longitude": "155-49-19.11 W",
		"state": "ALASKA",
		"artcc": "ZAN",
		"type": "MW",
		"updated": "07/05/2013",
	},
	{
		"name": "PALIN",
		"latitude": "60-44-18.7 N",
		"longitude": "168-44-15.8 W",
		"state": "ALASKA",
		"artcc": "ZAN",
		"type": "RNAV",
		"updated": "03/11/2009",
	},
	{
		"name": "PARZY",
		"latitude": "64-16-26.81 N",
		"longitude": "161-7-56.87 W",
		"state": "ALASKA",
		"artcc": "ZAN",
		"type": "RNAV",
		"updated": "06/26/2009",
	},
	{
		"name": "PASGE",
		"latitude": "55-30-19.61 N",
		"longitude": "133-11-56.87 W",
		"state": "ALASKA",
		"artcc": "ZAN",
		"type": "RNAV",
		"updated": "08/31/2004",
	},
	{
		"name": "PASRO",
		"latitude": "48-17-6.9 N",
		"longitude": "160-40-31.8 E",
		"state": "OFFSHORE PACIFIC",
		"artcc": "ZAN",
		"type": "RP",
		"updated": "09/19/2000",
	},
	{
		"name": "PAWLA",
		"latitude": "61-31-18.05 N",
		"longitude": "158-48-44.69 W",
		"state": "ALASKA",
		"artcc": "ZAN",
		"type": "RNAV",
		"updated": "09/09/2009",
	},
	{
		"name": "PAXON",
		"latitude": "62-58-53.46 N",
		"longitude": "145-33-56.07 W",
		"state": "ALASKA",
		"artcc": "ZAN",
		"type": "RP",
		"updated": "GKN*VOR/DME*333.38/50.00",
	},
	{
		"name": "PAYDI",
		"latitude": "61-4-36.02 N",
		"longitude": "146-42-50.37 W",
		"state": "ALASKA",
		"artcc": "ZAN",
		"type": "RP",
		"updated": "VDZ*DD*SW CRS/14.80",
	},
	{
		"name": "PAYIS",
		"latitude": "66-50-19.44 N",
		"longitude": "156-11-31.98 W",
		"state": "ALASKA",
		"artcc": "ZAN",
		"type": "RNAV",
		"updated": "10/05/2011",
	},
	{
		"name": "PAYKO",
		"latitude": "60-50-33.76 N",
		"longitude": "161-21-46.16 W",
		"state": "ALASKA",
		"artcc": "ZAN",
		"type": "RNAV",
		"updated": "03/22/2004",
	},
	{
		"name": "PAYOR",
		"latitude": "64-44-22.15 N",
		"longitude": "158-3-10.01 W",
		"state": "ALASKA",
		"artcc": "ZAN",
		"type": "RNAV",
		"updated": "12/01/2016",
	},
	{
		"name": "PEASY",
		"latitude": "83-0-0 N",
		"longitude": "141-0-0 W",
		"state": "OFFSHORE PACIFIC",
		"artcc": "ZAN",
		"type": "RNAV",
		"updated": "11/17/2014",
	},
	{
		"name": "PEDTI",
		"latitude": "61-44-29.58 N",
		"longitude": "150-2-17.7 W",
		"state": "ALASKA",
		"artcc": "ZAN",
		"type": "RNAV",
		"updated": "08/03/2006",
	},
	{
		"name": "PEDUJ",
		"latitude": "58-58-4.38 N",
		"longitude": "158-52-12.8 W",
		"state": "ALASKA",
		"artcc": "ZAN",
		"type": "RP",
		"updated": "DLG*VOR/DME*246.02/10.00",
	},
	{
		"name": "PEGPE",
		"latitude": "60-21-40.1 N",
		"longitude": "166-21-25.34 W",
		"state": "ALASKA",
		"artcc": "ZAN",
		"type": "RNAV",
		"updated": "09/18/2006",
	},
	{
		"name": "PEKDY",
		"latitude": "57-43-10.7 N",
		"longitude": "152-30-32 W",
		"state": "ALASKA",
		"artcc": "ZAN",
		"type": "RNAV",
		"updated": "08/19/2008",
	},
	{
		"name": "PELDE",
		"latitude": "64-38-19.42 N",
		"longitude": "147-4-39.51 W",
		"state": "ALASKA",
		"artcc": "ZAN",
		"type": "MR",
		"updated": "EIL*TACAN*/1.00",
	},
	{
		"name": "PELTE",
		"latitude": "58-0-45.33 N",
		"longitude": "135-17-48 W",
		"state": "ALASKA",
		"artcc": "ZAN",
		"type": "RP",
		"updated": "SSR*VORTAC*166.93/10.00",
	},
	{
		"name": "PEMOW",
		"latitude": "71-23-33.15 N",
		"longitude": "156-2-49.29 W",
		"state": "ALASKA",
		"artcc": "ZAN",
		"type": "RP",
		"updated": "05/18/2010",
	},
	{
		"name": "PENIE",
		"latitude": "60-48-27.53 N",
		"longitude": "161-48-41.88 W",
		"state": "ALASKA",
		"artcc": "ZAN",
		"type": "RP",
		"updated": "BET*LD*012.47/2.58",
	},
	{
		"name": "PEPIC",
		"latitude": "56-59-44.91 N",
		"longitude": "134-16-23.73 W",
		"state": "ALASKA",
		"artcc": "ZAN",
		"type": "RNAV",
		"updated": "08/31/2004",
	},
	{
		"name": "PEPPI",
		"latitude": "60-42-40.24 N",
		"longitude": "147-52-3.77 W",
		"state": "ALASKA",
		"artcc": "ZAN",
		"type": "RP",
		"updated": "JOH*VOR/DME*272.81/40.00",
	},
	{
		"name": "PEPVE",
		"latitude": "61-29-2.32 N",
		"longitude": "149-34-40.09 W",
		"state": "ALASKA",
		"artcc": "ZAN",
		"type": "RP",
		"updated": "TED*VOR/DME*012.00/22.00",
	},
	{
		"name": "PERCI",
		"latitude": "67-1-16.48 N",
		"longitude": "162-6-40.2 W",
		"state": "ALASKA",
		"artcc": "ZAN",
		"type": "RNAV",
		"updated": "06/09/2005",
	},
	{
		"name": "PEREE",
		"latitude": "58-21-33.68 N",
		"longitude": "135-34-40.54 W",
		"state": "ALASKA",
		"artcc": "ZAN",
		"type": "RNAV",
		"updated": "10/26/2012",
	},
	{
		"name": "PERZO",
		"latitude": "64-40-22.99 N",
		"longitude": "148-7-20.15 W",
		"state": "ALASKA",
		"artcc": "ZAN",
		"type": "RNAV",
		"updated": "05/10/2017",
	},
	{
		"name": "PESGE",
		"latitude": "65-48-46.65 N",
		"longitude": "148-4-29.63 W",
		"state": "ALASKA",
		"artcc": "ZAN",
		"type": "RNAV",
		"updated": "02/18/2010",
	},
	{
		"name": "PETRZ",
		"latitude": "61-20-18 N",
		"longitude": "149-16-30 W",
		"state": "ALASKA",
		"artcc": "ZAN",
		"type": "WP",
		"updated": "10/02/1995",
	},
	{
		"name": "PEWUK",
		"latitude": "56-40-31.84 N",
		"longitude": "158-58-49.51 W",
		"state": "ALASKA",
		"artcc": "ZAN",
		"type": "RP",
		"updated": "PDN*NDB/DME*197.28/20.03",
	},
	{
		"name": "PEYKI",
		"latitude": "61-44-42.04 N",
		"longitude": "165-19-14.07 W",
		"state": "ALASKA",
		"artcc": "ZAN",
		"type": "RNAV",
		"updated": "08/01/2007",
	},
	{
		"name": "PEYUG",
		"latitude": "70-18-51.46 N",
		"longitude": "148-53-49.56 W",
		"state": "ALASKA",
		"artcc": "ZAN",
		"type": "RP",
		"updated": "SCC*VOR/DME*282.52/12.00",
	},
	{
		"name": "PEZUM",
		"latitude": "63-58-20.22 N",
		"longitude": "171-47-53.01 W",
		"state": "ALASKA",
		"artcc": "ZAN",
		"type": "RNAV",
		"updated": "11/24/2014",
	},
	{
		"name": "PHINK",
		"latitude": "55-0-0 N",
		"longitude": "140-0-0 W",
		"state": "OFFSHORE PACIFIC",
		"artcc": "ZAN",
		"type": "RNAV",
		"updated": "11/06/2015",
	},
	{
		"name": "PHOMM",
		"latitude": "63-8-5.98 N",
		"longitude": "155-50-21.95 W",
		"state": "ALASKA",
		"artcc": "ZAN",
		"type": "MW",
		"updated": "11/26/2013",
	},
	{
		"name": "PHOTO",
		"latitude": "64-58-37.94 N",
		"longitude": "165-4-8.75 W",
		"state": "ALASKA",
		"artcc": "ZAN",
		"type": "RP",
		"updated": "OME*VOR/DME*358.00/30.00",
	},
	{
		"name": "PIBIC",
		"latitude": "66-40-6.62 N",
		"longitude": "151-31-25.38 W",
		"state": "ALASKA",
		"artcc": "ZAN",
		"type": "RNAV",
		"updated": "04/19/2018",
	},
	{
		"name": "PIBIY",
		"latitude": "67-44-38.46 N",
		"longitude": "164-34-58.02 W",
		"state": "ALASKA",
		"artcc": "ZAN",
		"type": "RNAV",
		"updated": "05/30/2008",
	},
	{
		"name": "PICNI",
		"latitude": "62-56-20.25 N",
		"longitude": "163-59-29.91 W",
		"state": "ALASKA",
		"artcc": "ZAN",
		"type": "RP",
		"updated": "ENM*VOR/DME*041.35/16.54",
	},
	{
		"name": "PILUN",
		"latitude": "72-0-0 N",
		"longitude": "168-58-24 W",
		"state": "",
		"artcc": "ZAN",
		"type": "RNAV",
		"updated": "09/23/2015",
	},
	{
		"name": "PIMBE",
		"latitude": "70-0-1.78 N",
		"longitude": "148-49-10.38 W",
		"state": "ALASKA",
		"artcc": "ZAN",
		"type": "RNAV",
		"updated": "02/19/2016",
	},
	{
		"name": "PINAG",
		"latitude": "83-29-59.96 N",
		"longitude": "168-58-23.98 W",
		"state": "",
		"artcc": "ZAN",
		"type": "RNAV",
		"updated": "07/03/2017",
	},
	{
		"name": "PINSO",
		"latitude": "53-28-8.6 N",
		"longitude": "173-22-40.8 E",
		"state": "OFFSHORE PACIFIC",
		"artcc": "ZAN",
		"type": "RNAV",
		"updated": "05/13/2016",
	},
	{
		"name": "PINTT",
		"latitude": "56-43-2.4 N",
		"longitude": "176-18-26.6 W",
		"state": "ALASKA",
		"artcc": "ZAN",
		"type": "RP",
		"updated": "09/09/2005",
	},
	{
		"name": "PIPET",
		"latitude": "69-12-11.36 N",
		"longitude": "148-26-14.49 W",
		"state": "ALASKA",
		"artcc": "ZAN",
		"type": "RP",
		"updated": "SCC*VOR/DME*163.43/60.00",
	},
	{
		"name": "PIVIY",
		"latitude": "59-27-29.55 N",
		"longitude": "146-17-38.7 W",
		"state": "ALASKA",
		"artcc": "ZAN",
		"type": "RNAV",
		"updated": "11/25/2005",
	},
	{
		"name": "PIYIL",
		"latitude": "66-26-26.89 N",
		"longitude": "160-30-50.51 W",
		"state": "ALASKA",
		"artcc": "ZAN",
		"type": "RNAV",
		"updated": "05/10/2007",
	},
	{
		"name": "PIYIR",
		"latitude": "62-5-32.76 N",
		"longitude": "158-24-6.96 W",
		"state": "ALASKA",
		"artcc": "ZAN",
		"type": "RNAV",
		"updated": "02/27/2014",
	},
	{
		"name": "PIYOB",
		"latitude": "64-27-9.63 N",
		"longitude": "165-38-18.56 W",
		"state": "ALASKA",
		"artcc": "ZAN",
		"type": "RNAV",
		"updated": "08/09/2017",
	},
	{
		"name": "PIYSO",
		"latitude": "62-2-38.47 N",
		"longitude": "159-57-36.23 W",
		"state": "ALASKA",
		"artcc": "ZAN",
		"type": "RNAV",
		"updated": "12/27/2005",
	},
	{
		"name": "PLADO",
		"latitude": "52-15-16.3 N",
		"longitude": "170-32-2.1 E",
		"state": "ALASKA",
		"artcc": "ZAN",
		"type": "RP",
		"updated": "08/01/2007",
	},
	{
		"name": "PLICK",
		"latitude": "59-29-29.27 N",
		"longitude": "151-54-27.66 W",
		"state": "ALASKA",
		"artcc": "ZAN",
		"type": "RP",
		"updated": "HOM*LE*SW CRS/16.77",
	},
	{
		"name": "PLOMB",
		"latitude": "56-28-59.87 N",
		"longitude": "132-21-42.71 W",
		"state": "ALASKA",
		"artcc": "ZAN",
		"type": "RNAV",
		"updated": "11/29/2012",
	},
	{
		"name": "POCPI",
		"latitude": "60-30-43.36 N",
		"longitude": "165-5-2.31 W",
		"state": "ALASKA",
		"artcc": "ZAN",
		"type": "RNAV",
		"updated": "09/12/2012",
	},
	{
		"name": "POCYI",
		"latitude": "63-10-30.24 N",
		"longitude": "155-44-57.44 W",
		"state": "ALASKA",
		"artcc": "ZAN",
		"type": "RP",
		"updated": "MCG*VORTAC*325.46/14.00",
	},
	{
		"name": "PODHY",
		"latitude": "62-22-17.71 N",
		"longitude": "145-20-48.63 W",
		"state": "ALASKA",
		"artcc": "ZAN",
		"type": "RNAV",
		"updated": "11/01/2006",
	},
	{
		"name": "PODKE",
		"latitude": "68-59-30.64 N",
		"longitude": "163-7-52.26 W",
		"state": "ALASKA",
		"artcc": "ZAN",
		"type": "RNAV",
		"updated": "06/10/2010",
	},
	{
		"name": "POETT",
		"latitude": "58-42-38.66 N",
		"longitude": "166-59-46.3 W",
		"state": "OFFSHORE PACIFIC",
		"artcc": "ZAN",
		"type": "RP",
		"updated": "SPY*NDB/DME*033.57/139.36",
	},
	{
		"name": "POLYC",
		"latitude": "63-31-0 N",
		"longitude": "150-0-0 W",
		"state": "ALASKA",
		"artcc": "ZAN",
		"type": "RNAV",
		"updated": "07/13/2017",
	},
	{
		"name": "PONMO",
		"latitude": "56-56-57.65 N",
		"longitude": "135-23-56.98 W",
		"state": "ALASKA",
		"artcc": "ZAN",
		"type": "WP",
		"updated": "11/04/2014",
	},
	{
		"name": "POOFF",
		"latitude": "55-17-56.37 N",
		"longitude": "178-37-4.84 E",
		"state": "OFFSHORE PACIFIC",
		"artcc": "ZAN",
		"type": "RNAV",
		"updated": "01/26/2011",
	},
	{
		"name": "POPSE",
		"latitude": "68-30-58.52 N",
		"longitude": "149-32-32.46 W",
		"state": "ALASKA",
		"artcc": "ZAN",
		"type": "RP",
		"updated": "07/28/2008",
	},
	{
		"name": "PORGE",
		"latitude": "59-23-0 N",
		"longitude": "163-0-0 W",
		"state": "ALASKA",
		"artcc": "ZAN",
		"type": "RP",
		"updated": "09/19/2000",
	},
	{
		"name": "PORIC",
		"latitude": "66-20-10.67 N",
		"longitude": "162-40-2.75 W",
		"state": "ALASKA",
		"artcc": "ZAN",
		"type": "RNAV",
		"updated": "12/01/2016",
	},
	{
		"name": "PORTO",
		"latitude": "57-14-14.96 N",
		"longitude": "135-34-54.49 W",
		"state": "ALASKA",
		"artcc": "ZAN",
		"type": "WP",
		"updated": "02/27/1998",
	},
	{
		"name": "POTAT",
		"latitude": "67-55-55.1 N",
		"longitude": "141-0-9.8 W",
		"state": "",
		"artcc": "ZAN",
		"type": "RP",
		"updated": "YOC*NDB*276.25",
	},
	{
		"name": "POTLE",
		"latitude": "56-45-37.36 N",
		"longitude": "132-58-9.24 W",
		"state": "ALASKA",
		"artcc": "ZAN",
		"type": "RNAV",
		"updated": "08/08/2016",
	},
	{
		"name": "POVLE",
		"latitude": "63-57-45.76 N",
		"longitude": "145-36-48.42 W",
		"state": "ALASKA",
		"artcc": "ZAN",
		"type": "MW",
		"updated": "11/28/2006",
	},
	{
		"name": "POVPE",
		"latitude": "62-56-45.74 N",
		"longitude": "155-6-2.59 W",
		"state": "ALASKA",
		"artcc": "ZAN",
		"type": "RP",
		"updated": "MCG*VORTAC*072.00/14.00",
	},
	{
		"name": "POWAL",
		"latitude": "50-24-20.6 N",
		"longitude": "165-30-48.6 E",
		"state": "ALASKA",
		"artcc": "ZAN",
		"type": "RP",
		"updated": "09/19/2000",
	},
	{
		"name": "POYIC",
		"latitude": "64-36-28.54 N",
		"longitude": "163-32-22.24 W",
		"state": "ALASKA",
		"artcc": "ZAN",
		"type": "RNAV",
		"updated": "10/17/2005",
	},
	{
		"name": "POYIT",
		"latitude": "63-34-0.36 N",
		"longitude": "162-28-17.13 W",
		"state": "ALASKA",
		"artcc": "ZAN",
		"type": "RNAV",
		"updated": "05/04/2007",
	},
	{
		"name": "POYNE",
		"latitude": "55-23-23.79 N",
		"longitude": "160-36-12.2 W",
		"state": "ALASKA",
		"artcc": "ZAN",
		"type": "RNAV",
		"updated": "04/13/2006",
	},
	{
		"name": "POYOK",
		"latitude": "64-56-53.94 N",
		"longitude": "154-49-34.18 W",
		"state": "ALASKA",
		"artcc": "ZAN",
		"type": "RNAV",
		"updated": "04/12/2007",
	},
	{
		"name": "PPERL",
		"latitude": "56-30-0 N",
		"longitude": "156-0-0 W",
		"state": "OFFSHORE PACIFIC",
		"artcc": "ZAN",
		"type": "RNAV",
		"updated": "11/06/2015",
	},
	{
		"name": "PRONN",
		"latitude": "56-29-41.56 N",
		"longitude": "132-49-26.12 W",
		"state": "ALASKA",
		"artcc": "ZAN",
		"type": "RNAV",
		"updated": "11/29/2012",
	},
	{
		"name": "PRYCE",
		"latitude": "52-14-17 N",
		"longitude": "128-45-0 W",
		"state": "",
		"artcc": "ZAN",
		"type": "RP",
		"updated": "10/06/2016",
	},
	{
		"name": "PTERS",
		"latitude": "61-8-24.95 N",
		"longitude": "148-29-26.16 W",
		"state": "ALASKA",
		"artcc": "ZAN",
		"type": "RNAV",
		"updated": "07/18/2012",
	},
	{
		"name": "PTRIC",
		"latitude": "58-20-28.48 N",
		"longitude": "134-40-51.64 W",
		"state": "ALASKA",
		"artcc": "ZAN",
		"type": "RNAV",
		"updated": "05/18/2016",
	},
	{
		"name": "PTZGR",
		"latitude": "57-20-0.1 N",
		"longitude": "173-41-0.3 W",
		"state": "ALASKA",
		"artcc": "ZAN",
		"type": "WP",
		"updated": "08/01/2005",
	},
	{
		"name": "PUBME",
		"latitude": "58-52-12.24 N",
		"longitude": "159-0-11.06 W",
		"state": "ALASKA",
		"artcc": "ZAN",
		"type": "RNAV",
		"updated": "07/08/2009",
	},
	{
		"name": "PUBUE",
		"latitude": "56-44-48.33 N",
		"longitude": "132-57-59.69 W",
		"state": "ALASKA",
		"artcc": "ZAN",
		"type": "RNAV",
		"updated": "08/08/2016",
	},
	{
		"name": "PUCIB",
		"latitude": "70-13-50.83 N",
		"longitude": "147-33-6.23 W",
		"state": "ALASKA",
		"artcc": "ZAN",
		"type": "RNAV",
		"updated": "08/06/2008",
	},
	{
		"name": "PUCID",
		"latitude": "58-33-28.45 N",
		"longitude": "156-23-45.38 W",
		"state": "ALASKA",
		"artcc": "ZAN",
		"type": "RP",
		"updated": "AKN*VORTAC*115.76",
	},
	{
		"name": "PUCOY",
		"latitude": "62-41-44.51 N",
		"longitude": "160-10-41.86 W",
		"state": "ALASKA",
		"artcc": "ZAN",
		"type": "RNAV",
		"updated": "07/29/2008",
	},
	{
		"name": "PUGGY",
		"latitude": "57-57-7.9 N",
		"longitude": "170-45-39.4 W",
		"state": "ALASKA",
		"artcc": "ZAN",
		"type": "RP",
		"updated": "09/19/2000",
	},
	{
		"name": "PULIY",
		"latitude": "67-30-29.79 N",
		"longitude": "163-1-27.45 W",
		"state": "ALASKA",
		"artcc": "ZAN",
		"type": "RNAV",
		"updated": "05/04/2007",
	},
	{
		"name": "PULKE",
		"latitude": "58-23-46.22 N",
		"longitude": "135-38-51.84 W",
		"state": "ALASKA",
		"artcc": "ZAN",
		"type": "RNAV",
		"updated": "06/04/2003",
	},
	{
		"name": "PUNNI",
		"latitude": "58-37-29.26 N",
		"longitude": "156-32-17.54 W",
		"state": "ALASKA",
		"artcc": "ZAN",
		"type": "RP",
		"updated": "AKN*LD*SE CRS/3.71",
	},
	{
		"name": "PUPBI",
		"latitude": "61-22-6.13 N",
		"longitude": "165-55-42.88 W",
		"state": "ALASKA",
		"artcc": "ZAN",
		"type": "RP",
		"updated": "HPB*VOR/DME*132.88/10.60",
	},
	{
		"name": "PUROC",
		"latitude": "61-13-0.75 N",
		"longitude": "150-12-37.54 W",
		"state": "ALASKA",
		"artcc": "ZAN",
		"type": "MR",
		"updated": "EDF*TACAN*/13.00",
	},
	{
		"name": "PUROY",
		"latitude": "57-50-25.8 N",
		"longitude": "134-49-11.01 W",
		"state": "ALASKA",
		"artcc": "ZAN",
		"type": "RNAV",
		"updated": "10/23/2008",
	},
	{
		"name": "PUTDU",
		"latitude": "62-2-39.19 N",
		"longitude": "160-9-57.32 W",
		"state": "ALASKA",
		"artcc": "ZAN",
		"type": "RNAV",
		"updated": "12/27/2005",
	},
	{
		"name": "PUTIY",
		"latitude": "55-28-9.86 N",
		"longitude": "131-54-37.09 W",
		"state": "ALASKA",
		"artcc": "ZAN",
		"type": "RP",
		"updated": "ECH*LD*NW CRS/10.50",
	},
	{
		"name": "PUUKE",
		"latitude": "57-46-43.45 N",
		"longitude": "152-33-51.97 W",
		"state": "ALASKA",
		"artcc": "ZAN",
		"type": "RNAV",
		"updated": "10/26/2015",
	},
	{
		"name": "PUVPE",
		"latitude": "58-9-5.69 N",
		"longitude": "135-24-32.75 W",
		"state": "ALASKA",
		"artcc": "ZAN",
		"type": "RNAV",
		"updated": "06/28/2013",
	},
	{
		"name": "PUYIC",
		"latitude": "60-36-8.83 N",
		"longitude": "161-59-19.31 W",
		"state": "ALASKA",
		"artcc": "ZAN",
		"type": "RNAV",
		"updated": "10/07/2009",
	},
	{
		"name": "PUYIP",
		"latitude": "55-32-45.22 N",
		"longitude": "133-22-44.48 W",
		"state": "ALASKA",
		"artcc": "ZAN",
		"type": "RNAV",
		"updated": "06/11/2009",
	},
	{
		"name": "PUYVO",
		"latitude": "64-3-19.8 N",
		"longitude": "149-19-45 W",
		"state": "ALASKA",
		"artcc": "ZAN",
		"type": "RP",
		"updated": "ENN*VORTAC*170.87/32.86",
	},
