	{
		"name": "RABSE",
		"latitude": "69-44-21.52 N",
		"longitude": "163-36-29.84 W",
		"state": "ALASKA",
		"artcc": "ZAN",
		"type": "RNAV",
		"updated": "11/19/2004",
	},
	{
		"name": "RABUE",
		"latitude": "65-37-29.36 N",
		"longitude": "156-53-18.93 W",
		"state": "ALASKA",
		"artcc": "ZAN",
		"type": "RNAV",
		"updated": "08/07/2008",
	},
	{
		"name": "RACOC",
		"latitude": "56-48-57.34 N",
		"longitude": "158-54-6.02 W",
		"state": "ALASKA",
		"artcc": "ZAN",
		"type": "RNAV",
		"updated": "01/23/2007",
	},
	{
		"name": "RADKY",
		"latitude": "58-8-0.39 N",
		"longitude": "134-29-55.53 W",
		"state": "ALASKA",
		"artcc": "ZAN",
		"type": "RP",
		"updated": "CGL*NDB*134.79",
	},
	{
		"name": "RAGES",
		"latitude": "59-21-43.36 N",
		"longitude": "158-12-22.14 W",
		"state": "ALASKA",
		"artcc": "ZAN",
		"type": "RP",
		"updated": "AKN*VORTAC*295.01/59.16",
	},
	{
		"name": "RAKOF",
		"latitude": "56-45-30.55 N",
		"longitude": "135-18-37.06 W",
		"state": "ALASKA",
		"artcc": "ZAN",
		"type": "RNAV",
		"updated": "10/24/2014",
	},
	{
		"name": "RALRY",
		"latitude": "58-51-47.56 N",
		"longitude": "158-40-47.84 W",
		"state": "ALASKA",
		"artcc": "ZAN",
		"type": "RNAV",
		"updated": "07/08/2011",
	},
	{
		"name": "RAMAW",
		"latitude": "64-44-5.35 N",
		"longitude": "157-12-4.39 W",
		"state": "ALASKA",
		"artcc": "ZAN",
		"type": "RNAV",
		"updated": "07/26/2012",
	},
	{
		"name": "RAMEL",
		"latitude": "84-29-59.96 N",
		"longitude": "168-58-23.97 W",
		"state": "",
		"artcc": "ZAN",
		"type": "RNAV",
		"updated": "07/03/2017",
	},
	{
		"name": "RAMMA",
		"latitude": "61-13-24 N",
		"longitude": "149-23-0 W",
		"state": "ALASKA",
		"artcc": "ZAN",
		"type": "RNAV",
		"updated": "08/03/2011",
	},
	{
		"name": "RAMPA",
		"latitude": "65-21-55.23 N",
		"longitude": "149-50-41.12 W",
		"state": "ALASKA",
		"artcc": "ZAN",
		"type": "RP",
		"updated": "ENN*VORTAC*316.49/50.65",
	},
	{
		"name": "RANMO",
		"latitude": "60-43-45.6 N",
		"longitude": "147-16-37.2 W",
		"state": "ALASKA",
		"artcc": "ZAN",
		"type": "RP",
		"updated": "JOH*VOR/DME*289.00/25.00",
	},
	{
		"name": "RANND",
		"latitude": "56-57-51.64 N",
		"longitude": "169-59-34.89 W",
		"state": "ALASKA",
		"artcc": "ZAN",
		"type": "RP",
		"updated": "SPY*NDB/DME*135.74/14.00",
	},
	{
		"name": "RAPEE",
		"latitude": "64-35-31.68 N",
		"longitude": "147-2-11.45 W",
		"state": "ALASKA",
		"artcc": "ZAN",
		"type": "MR",
		"updated": "EIL*TACAN*/4.00",
	},
	{
		"name": "RAPOC",
		"latitude": "67-10-10.23 N",
		"longitude": "146-2-15.09 W",
		"state": "ALASKA",
		"artcc": "ZAN",
		"type": "RNAV",
		"updated": "03/03/2008",
	},
	{
		"name": "RAPUE",
		"latitude": "57-28-48.41 N",
		"longitude": "157-13-26.52 W",
		"state": "ALASKA",
		"artcc": "ZAN",
		"type": "RNAV",
		"updated": "10/07/2003",
	},
	{
		"name": "RAPYU",
		"latitude": "60-40-3 N",
		"longitude": "147-21-14.4 W",
		"state": "ALASKA",
		"artcc": "ZAN",
		"type": "RP",
		"updated": "JOH*VOR/DME*279.00/25.00",
	},
	{
		"name": "RATNE",
		"latitude": "60-54-7.48 N",
		"longitude": "161-21-16.72 W",
		"state": "ALASKA",
		"artcc": "ZAN",
		"type": "RNAV",
		"updated": "02/29/2012",
	},
	{
		"name": "RAVAC",
		"latitude": "66-37-4.24 N",
		"longitude": "144-49-49.82 W",
		"state": "ALASKA",
		"artcc": "ZAN",
		"type": "RP",
		"updated": "FYU*VORTAC*055.99/11.00",
	},
	{
		"name": "RAVOY",
		"latitude": "65-51-29.04 N",
		"longitude": "163-10-1.92 W",
		"state": "ALASKA",
		"artcc": "ZAN",
		"type": "RNAV",
		"updated": "12/01/2016",
	},
	{
		"name": "RAYKO",
		"latitude": "66-55-44.56 N",
		"longitude": "159-44-38.94 W",
		"state": "ALASKA",
		"artcc": "ZAN",
		"type": "RNAV",
		"updated": "07/07/2005",
	},
	{
		"name": "RAYMD",
		"latitude": "55-35-53.52 N",
		"longitude": "160-12-33.45 W",
		"state": "ALASKA",
		"artcc": "ZAN",
		"type": "RP",
		"updated": "HBT*NDB/DME*016.75/20.00",
	},
	{
		"name": "RAYRE",
		"latitude": "56-54-43.55 N",
		"longitude": "135-28-6.49 W",
		"state": "ALASKA",
		"artcc": "ZAN",
		"type": "WP",
		"updated": "02/27/1998",
	},
	{
		"name": "RBURT",
		"latitude": "58-21-28.75 N",
		"longitude": "134-35-52.71 W",
		"state": "ALASKA",
		"artcc": "ZAN",
		"type": "RNAV",
		"updated": "05/18/2016",
	},
	{
		"name": "RDFLG",
		"latitude": "63-35-27.26 N",
		"longitude": "143-51-0.14 W",
		"state": "ALASKA",
		"artcc": "ZAN",
		"type": "RP",
		"updated": "ORT*VORTAC*283.28/65.26",
	},
	{
		"name": "REBOY",
		"latitude": "59-9-38.01 N",
		"longitude": "160-15-44.31 W",
		"state": "ALASKA",
		"artcc": "ZAN",
		"type": "RNAV",
		"updated": "04/18/2018",
	},
	{
		"name": "RECOR",
		"latitude": "66-50-21.64 N",
		"longitude": "146-43-41.2 W",
		"state": "ALASKA",
		"artcc": "ZAN",
		"type": "RNAV",
		"updated": "03/03/2008",
	},
	{
		"name": "REDOE",
		"latitude": "61-48-59.1 N",
		"longitude": "165-12-44.82 W",
		"state": "ALASKA",
		"artcc": "ZAN",
		"type": "RNAV",
		"updated": "03/19/2012",
	},
	{
		"name": "REDOY",
		"latitude": "61-42-47.65 N",
		"longitude": "159-33-30.28 W",
		"state": "ALASKA",
		"artcc": "ZAN",
		"type": "RNAV",
		"updated": "09/09/2009",
	},
	{
		"name": "REDXX",
		"latitude": "61-54-33 N",
		"longitude": "149-7-46 W",
		"state": "ALASKA",
		"artcc": "ZAN",
		"type": "RNAV",
		"updated": "05/07/2015",
	},
	{
		"name": "REEBA",
		"latitude": "65-5-4.48 N",
		"longitude": "151-0-52.61 W",
		"state": "ALASKA",
		"artcc": "ZAN",
		"type": "RP",
		"updated": "TAL*VOR/DME*081.18/30.00",
	},
	{
		"name": "REGNE",
		"latitude": "70-5-54.18 N",
		"longitude": "146-30-48.68 W",
		"state": "ALASKA",
		"artcc": "ZAN",
		"type": "RNAV",
		"updated": "10/11/2012",
	},
	{
		"name": "REJXO",
		"latitude": "63-43-25.81 N",
		"longitude": "170-20-54.1 W",
		"state": "ALASKA",
		"artcc": "ZAN",
		"type": "RNAV",
		"updated": "10/05/2011",
	},
	{
		"name": "RELMY",
		"latitude": "65-33-8.68 N",
		"longitude": "146-10-9.5 W",
		"state": "ALASKA",
		"artcc": "ZAN",
		"type": "RP",
		"updated": "FAI*VORTAC*024.00/65.00",
	},
	{
		"name": "RELOC",
		"latitude": "67-0-40.97 N",
		"longitude": "159-46-17.74 W",
		"state": "ALASKA",
		"artcc": "ZAN",
		"type": "RNAV",
		"updated": "07/07/2005",
	},
	{
		"name": "REMBY",
		"latitude": "60-40-0 N",
		"longitude": "146-0-0 W",
		"state": "ALASKA",
		"artcc": "ZAN",
		"type": "WP",
		"updated": "07/25/2012",
	},
	{
		"name": "REREE",
		"latitude": "57-45-0.6 N",
		"longitude": "152-24-46.66 W",
		"state": "ALASKA",
		"artcc": "ZAN",
		"type": "RP",
		"updated": "ADQ*LD*078.03/3.48",
	},
	{
		"name": "RESTO",
		"latitude": "65-9-56.42 N",
		"longitude": "147-8-11.24 W",
		"state": "ALASKA",
		"artcc": "ZAN",
		"type": "MR",
		"updated": "EIL*TACAN*339.00/30.92",
	},
	{
		"name": "RESUM",
		"latitude": "84-14-45.22 N",
		"longitude": "141-0-0 W",
		"state": "OFFSHORE PACIFIC",
		"artcc": "ZAN",
		"type": "RNAV",
		"updated": "06/02/2014",
	},
	{
		"name": "RESVE",
		"latitude": "62-1-59.57 N",
		"longitude": "165-48-42.83 W",
		"state": "ALASKA",
		"artcc": "ZAN",
		"type": "RNAV",
		"updated": "06/16/2009",
	},
	{
		"name": "REZTO",
		"latitude": "57-1-1.57 N",
		"longitude": "132-54-36.49 W",
		"state": "ALASKA",
		"artcc": "ZAN",
		"type": "RNAV",
		"updated": "12/13/2011",
	},
	{
		"name": "RIBIT",
		"latitude": "55-54-20 N",
		"longitude": "129-55-7 W",
		"state": "",
		"artcc": "ZAN",
		"type": "RNAV",
		"updated": "02/16/2010",
	},
	{
		"name": "RICKR",
		"latitude": "61-14-11.78 N",
		"longitude": "149-59-20.13 W",
		"state": "ALASKA",
		"artcc": "ZAN",
		"type": "RNAV",
		"updated": "12/13/2011",
	},
	{
		"name": "RICOC",
		"latitude": "61-54-57.86 N",
		"longitude": "145-37-8.88 W",
		"state": "ALASKA",
		"artcc": "ZAN",
		"type": "RP",
		"updated": "GKN*VOR/DME*175.82/15.10",
	},
	{
		"name": "RICVO",
		"latitude": "62-55-10.39 N",
		"longitude": "163-41-14.62 W",
		"state": "ALASKA",
		"artcc": "ZAN",
		"type": "RP",
		"updated": "OME*VOR/DME*144.37/103.08",
	},
	{
		"name": "RIDOY",
		"latitude": "55-10-21.12 N",
		"longitude": "162-42-12.01 W",
		"state": "ALASKA",
		"artcc": "ZAN",
		"type": "RP",
		"updated": "CDB*VORTAC*/6.20",
	},
	{
		"name": "RIFFS",
		"latitude": "63-32-32.04 N",
		"longitude": "148-56-17.23 W",
		"state": "ALASKA",
		"artcc": "ZAN",
		"type": "RNAV",
		"updated": "04/13/2017",
	},
	{
		"name": "RIGAE",
		"latitude": "61-36-57.57 N",
		"longitude": "149-12-11.63 W",
		"state": "ALASKA",
		"artcc": "ZAN",
		"type": "RNAV",
		"updated": "07/08/2011",
	},
	{
		"name": "RIGGG",
		"latitude": "70-8-14.51 N",
		"longitude": "147-12-26.83 W",
		"state": "ALASKA",
		"artcc": "ZAN",
		"type": "RP",
		"updated": "SCC*VOR/DME*081.00/25.00",
	},
	{
		"name": "RIGGS",
		"latitude": "68-56-25.58 N",
		"longitude": "147-12-11.32 W",
		"state": "ALASKA",
		"artcc": "ZAN",
		"type": "RP",
		"updated": "SCC*VOR/DME*143.82/80.00",
	},
	{
		"name": "RIGTE",
		"latitude": "55-28-19.39 N",
		"longitude": "162-39-37.19 W",
		"state": "ALASKA",
		"artcc": "ZAN",
		"type": "RNAV",
		"updated": "10/03/2012",
	},
	{
		"name": "RIKKO",
		"latitude": "59-9-43.46 N",
		"longitude": "135-25-52.33 W",
		"state": "ALASKA",
		"artcc": "ZAN",
		"type": "RNAV",
		"updated": "07/03/2013",
	},
	{
		"name": "RIMSE",
		"latitude": "64-40-45.33 N",
		"longitude": "148-6-39.79 W",
		"state": "ALASKA",
		"artcc": "ZAN",
		"type": "RNAV",
		"updated": "10/27/2014",
	},
	{
		"name": "RINGO",
		"latitude": "59-45-0.82 N",
		"longitude": "154-54-7.47 W",
		"state": "ALASKA",
		"artcc": "ZAN",
		"type": "RP",
		"updated": "AKN*VORTAC*025.96/84.00",
	},
	{
		"name": "RINLE",
		"latitude": "70-10-16.09 N",
		"longitude": "148-43-22.92 W",
		"state": "ALASKA",
		"artcc": "ZAN",
		"type": "RNAV",
		"updated": "02/19/2016",
	},
	{
		"name": "RIPOY",
		"latitude": "66-32-17.44 N",
		"longitude": "152-44-21.66 W",
		"state": "ALASKA",
		"artcc": "ZAN",
		"type": "RNAV",
		"updated": "07/08/2011",
	},
	{
		"name": "RIPUE",
		"latitude": "64-35-1.39 N",
		"longitude": "165-59-24.44 W",
		"state": "ALASKA",
		"artcc": "ZAN",
		"type": "RP",
		"updated": "OME*VOR/DME*276.60/20.00",
	},
	{
		"name": "RIROE",
		"latitude": "66-49-38.1 N",
		"longitude": "162-51-57.48 W",
		"state": "ALASKA",
		"artcc": "ZAN",
		"type": "RP",
		"updated": "08/09/2017",
	},
	{
		"name": "RIROQ",
		"latitude": "70-29-16.39 N",
		"longitude": "160-25-32.92 W",
		"state": "ALASKA",
		"artcc": "ZAN",
		"type": "RNAV",
		"updated": "09/25/2009",
	},
	{
		"name": "RITUE",
		"latitude": "66-54-45.17 N",
		"longitude": "146-49-40.09 W",
		"state": "ALASKA",
		"artcc": "ZAN",
		"type": "RNAV",
		"updated": "11/18/2008",
	},
	{
		"name": "RIVOR",
		"latitude": "64-9-46.97 N",
		"longitude": "146-9-22.5 W",
		"state": "ALASKA",
		"artcc": "ZAN",
		"type": "RP",
		"updated": "BIG*VORTAC*286.74/15.00",
	},
	{
		"name": "RIVVA",
		"latitude": "61-53-18.72 N",
		"longitude": "145-29-14.83 W",
		"state": "ALASKA",
		"artcc": "ZAN",
		"type": "RP",
		"updated": "GKN*VOR/DME*161.08/16.00",
	},
	{
		"name": "RIXAE",
		"latitude": "57-49-43.8 N",
		"longitude": "152-2-43.6 W",
		"state": "ALASKA",
		"artcc": "ZAN",
		"type": "RP",
		"updated": "ODK*VOR/DME*056.98/10.02",
	},
	{
		"name": "RIYOK",
		"latitude": "64-49-23.62 N",
		"longitude": "163-30-6.08 W",
		"state": "ALASKA",
		"artcc": "ZAN",
		"type": "RNAV",
		"updated": "11/05/2013",
	},
	{
		"name": "RIYON",
		"latitude": "68-1-19.73 N",
		"longitude": "145-48-51.67 W",
		"state": "ALASKA",
		"artcc": "ZAN",
		"type": "RNAV",
		"updated": "12/01/2005",
	},
	{
		"name": "RNDRR",
		"latitude": "64-38-37.34 N",
		"longitude": "147-25-41.22 W",
		"state": "ALASKA",
		"artcc": "ZAN",
		"type": "RNAV",
		"updated": "05/01/2017",
	},
	{
		"name": "RNICH",
		"latitude": "61-16-40.92 N",
		"longitude": "150-20-42 W",
		"state": "ALASKA",
		"artcc": "ZAN",
		"type": "MR",
		"updated": "EDF*TACAN*257.00/16.74",
	},
	{
		"name": "ROAAD",
		"latitude": "64-44-40.06 N",
		"longitude": "147-29-35.23 W",
		"state": "ALASKA",
		"artcc": "ZAN",
		"type": "RNAV",
		"updated": "07/26/2012",
	},
	{
		"name": "ROBES",
		"latitude": "61-5-51.28 N",
		"longitude": "146-11-25.28 W",
		"state": "ALASKA",
		"artcc": "ZAN",
		"type": "RP",
		"updated": "JOH*VOR/DME*359.78/39.00",
	},
	{
		"name": "ROBUE",
		"latitude": "62-27-7.11 N",
		"longitude": "160-14-14.04 W",
		"state": "ALASKA",
		"artcc": "ZAN",
		"type": "RNAV",
		"updated": "07/29/2008",
	},
	{
		"name": "ROCES",
		"latitude": "70-8-34.29 N",
		"longitude": "144-8-15.59 W",
		"state": "ALASKA",
		"artcc": "ZAN",
		"type": "RNAV",
		"updated": "09/29/2016",
	},
	{
		"name": "ROCET",
		"latitude": "62-36-0 N",
		"longitude": "171-40-0 W",
		"state": "ALASKA",
		"artcc": "ZAN",
		"type": "RNAV",
		"updated": "04/16/2009",
	},
	{
		"name": "ROCMU",
		"latitude": "66-48-22.25 N",
		"longitude": "160-18-11.88 W",
		"state": "ALASKA",
		"artcc": "ZAN",
		"type": "RNAV",
		"updated": "11/24/2009",
	},
	{
		"name": "ROCOL",
		"latitude": "56-47-44.67 N",
		"longitude": "132-46-30.64 W",
		"state": "ALASKA",
		"artcc": "ZAN",
		"type": "RNAV",
		"updated": "08/31/2004",
	},
	{
		"name": "ROCON",
		"latitude": "58-16-39.83 N",
		"longitude": "134-59-9.2 W",
		"state": "ALASKA",
		"artcc": "ZAN",
		"type": "RNAV",
		"updated": "06/04/2003",
	},
	{
		"name": "RODER",
		"latitude": "68-37-42.25 N",
		"longitude": "149-36-57.72 W",
		"state": "ALASKA",
		"artcc": "ZAN",
		"type": "RP",
		"updated": "GBH*NDB*321.99",
	},
	{
		"name": "RODMN",
		"latitude": "57-28-5.46 N",
		"longitude": "135-22-34.85 W",
		"state": "ALASKA",
		"artcc": "ZAN",
		"type": "RNAV",
		"updated": "10/24/2014",
	},
	{
		"name": "RODOC",
		"latitude": "56-50-13.98 N",
		"longitude": "132-54-28.3 W",
		"state": "ALASKA",
		"artcc": "ZAN",
		"type": "RNAV",
		"updated": "12/13/2011",
	},
	{
		"name": "RODOY",
		"latitude": "62-3-14.9 N",
		"longitude": "161-25-12.88 W",
		"state": "ALASKA",
		"artcc": "ZAN",
		"type": "RNAV",
		"updated": "04/06/2004",
	},
	{
		"name": "ROFZU",
		"latitude": "54-17-26.62 N",
		"longitude": "166-22-0.89 W",
		"state": "ALASKA",
		"artcc": "ZAN",
		"type": "RNAV",
		"updated": "06/08/2000",
	},
	{
		"name": "ROGOC",
		"latitude": "58-48-11.76 N",
		"longitude": "160-40-10.31 W",
		"state": "ALASKA",
		"artcc": "ZAN",
		"type": "RP",
		"updated": "TOG*NDB/DME*195.36",
	},
	{
		"name": "ROGVE",
		"latitude": "60-2-12.17 N",
		"longitude": "162-5-59.49 W",
		"state": "ALASKA",
		"artcc": "ZAN",
		"type": "RNAV",
		"updated": "04/02/2008",
	},
	{
		"name": "ROHAN",
		"latitude": "59-26-18.44 N",
		"longitude": "139-47-53.46 W",
		"state": "ALASKA",
		"artcc": "ZAN",
		"type": "RNAV",
		"updated": "06/24/2013",
	},
	{
		"name": "ROHHN",
		"latitude": "61-46-40.29 N",
		"longitude": "150-58-22.5 W",
		"state": "ALASKA",
		"artcc": "ZAN",
		"type": "RP",
		"updated": "BGQ*VORTAC*275.00/31.37",
	},
	{
		"name": "ROJAM",
		"latitude": "65-20-0 N",
		"longitude": "150-5-0 W",
		"state": "ALASKA",
		"artcc": "ZAN",
		"type": "MW",
		"updated": "12/10/2013",
	},
	{
		"name": "ROJAR",
		"latitude": "60-33-36.8 N",
		"longitude": "150-56-55.13 W",
		"state": "ALASKA",
		"artcc": "ZAN",
		"type": "RP",
		"updated": "ENA*VOR/DME*095.08/8.00",
	},
	{
		"name": "ROKIY",
		"latitude": "56-58-33.51 N",
		"longitude": "135-21-6.21 W",
		"state": "ALASKA",
		"artcc": "ZAN",
		"type": "RNAV",
		"updated": "10/24/2014",
	},
	{
		"name": "ROLLR",
		"latitude": "60-51-22.88 N",
		"longitude": "162-12-20.22 W",
		"state": "ALASKA",
		"artcc": "ZAN",
		"type": "RP",
		"updated": "BET*VORTAC*277.18/12.00",
	},
	{
		"name": "ROLOE",
		"latitude": "65-3-46.74 N",
		"longitude": "147-7-40.25 W",
		"state": "ALASKA",
		"artcc": "ZAN",
		"type": "MR",
		"updated": "EIL*TACAN*339.00/24.65",
	},
	{
		"name": "ROLOY",
		"latitude": "59-0-5.74 N",
		"longitude": "155-26-55.89 W",
		"state": "ALASKA",
		"artcc": "ZAN",
		"type": "RNAV",
		"updated": "07/07/2014",
	},
	{
		"name": "ROMAC",
		"latitude": "60-36-11.39 N",
		"longitude": "161-59-32.15 W",
		"state": "ALASKA",
		"artcc": "ZAN",
		"type": "RNAV",
		"updated": "05/17/2017",
	},
	{
		"name": "RONOC",
		"latitude": "57-25-24.73 N",
		"longitude": "134-41-9.64 W",
		"state": "ALASKA",
		"artcc": "ZAN",
		"type": "RNAV",
		"updated": "08/31/2004",
	},
	{
		"name": "RONYE",
		"latitude": "66-55-40.06 N",
		"longitude": "158-2-34.75 W",
		"state": "ALASKA",
		"artcc": "ZAN",
		"type": "RNAV",
		"updated": "11/23/2016",
	},
	{
		"name": "ROPEE",
		"latitude": "64-59-1.85 N",
		"longitude": "147-33-1.07 W",
		"state": "ALASKA",
		"artcc": "ZAN",
		"type": "RNAV",
		"updated": "08/10/2012",
	},
	{
		"name": "ROSII",
		"latitude": "64-57-45.74 N",
		"longitude": "153-14-36.51 W",
		"state": "ALASKA",
		"artcc": "ZAN",
		"type": "RP",
		"updated": "TAL*VOR/DME*226.00/30.00",
	},
	{
		"name": "ROSOC",
		"latitude": "66-12-39.42 N",
		"longitude": "166-16-49.87 W",
		"state": "ALASKA",
		"artcc": "ZAN",
		"type": "RNAV",
		"updated": "06/27/2005",
	},
	{
		"name": "ROVZU",
		"latitude": "58-13-30 N",
		"longitude": "134-39-0 W",
		"state": "ALASKA",
		"artcc": "ZAN",
		"type": "RNAV",
		"updated": "07/12/2004",
	},
	{
		"name": "ROXOE",
		"latitude": "55-37-11.79 N",
		"longitude": "159-33-32.08 W",
		"state": "ALASKA",
		"artcc": "ZAN",
		"type": "RNAV",
		"updated": "01/10/2005",
	},
	{
		"name": "ROYBO",
		"latitude": "65-48-51.97 N",
		"longitude": "161-10-37.22 W",
		"state": "ALASKA",
		"artcc": "ZAN",
		"type": "RNAV",
		"updated": "05/03/2007",
	},
	{
		"name": "ROYLE",
		"latitude": "55-18-9.23 N",
		"longitude": "131-37-22.24 W",
		"state": "ALASKA",
		"artcc": "ZAN",
		"type": "RNAV",
		"updated": "09/12/2016",
	},
	{
		"name": "ROYOY",
		"latitude": "64-31-11.98 N",
		"longitude": "149-33-23.51 W",
		"state": "ALASKA",
		"artcc": "ZAN",
		"type": "RNAV",
		"updated": "09/09/2009",
	},
	{
		"name": "ROZMO",
		"latitude": "55-17-14.13 N",
		"longitude": "131-35-47.97 W",
		"state": "ALASKA",
		"artcc": "ZAN",
		"type": "RNAV",
		"updated": "07/21/2008",
	},
	{
		"name": "RRBEN",
		"latitude": "62-48-0 N",
		"longitude": "150-39-0 W",
		"state": "ALASKA",
		"artcc": "ZAN",
		"type": "RNAV",
		"updated": "04/20/2015",
	},
	{
		"name": "RRIDG",
		"latitude": "58-21-32.53 N",
		"longitude": "134-37-57.57 W",
		"state": "ALASKA",
		"artcc": "ZAN",
		"type": "RNAV",
		"updated": "10/24/2014",
	},
	{
		"name": "RRLND",
		"latitude": "58-52-19.02 N",
		"longitude": "161-47-14.62 W",
		"state": "ALASKA",
		"artcc": "ZAN",
		"type": "MW",
		"updated": "10/31/2017",
	},
	{
		"name": "RRROB",
		"latitude": "61-19-30.7 N",
		"longitude": "150-37-1.34 W",
		"state": "ALASKA",
		"artcc": "ZAN",
		"type": "RNAV",
		"updated": "12/13/2011",
	},
	{
		"name": "RUBBY",
		"latitude": "65-7-58.82 N",
		"longitude": "155-30-57.06 W",
		"state": "ALASKA",
		"artcc": "ZAN",
		"type": "MW",
		"updated": "12/10/2013",
	},
	{
		"name": "RUBYO",
		"latitude": "64-47-32.11 N",
		"longitude": "155-16-56.85 W",
		"state": "ALASKA",
		"artcc": "ZAN",
		"type": "RNAV",
		"updated": "06/11/2008",
	},
	{
		"name": "RUDOC",
		"latitude": "55-21-25.84 N",
		"longitude": "133-33-27.09 W",
		"state": "ALASKA",
		"artcc": "ZAN",
		"type": "RNAV",
		"updated": "08/31/2004",
	},
	{
		"name": "RUFVY",
		"latitude": "59-56-34.16 N",
		"longitude": "164-2-3.72 W",
		"state": "ALASKA",
		"artcc": "ZAN",
		"type": "RNAV",
		"updated": "07/24/2013",
	},
	{
		"name": "RUFZA",
		"latitude": "63-47-52.52 N",
		"longitude": "170-3-36.13 W",
		"state": "ALASKA",
		"artcc": "ZAN",
		"type": "RNAV",
		"updated": "10/05/2011",
	},
	{
		"name": "RUGSE",
		"latitude": "66-46-3.89 N",
		"longitude": "143-19-5.79 W",
		"state": "ALASKA",
		"artcc": "ZAN",
		"type": "RNAV",
		"updated": "07/11/2005",
	},
	{
		"name": "RUJUV",
		"latitude": "59-45-28.05 N",
		"longitude": "155-13-13.24 W",
		"state": "ALASKA",
		"artcc": "ZAN",
		"type": "RNAV",
		"updated": "01/12/2009",
	},
	{
		"name": "RUKIE",
		"latitude": "58-11-2.64 N",
		"longitude": "135-38-11.07 W",
		"state": "ALASKA",
		"artcc": "ZAN",
		"type": "RP",
		"updated": "SSR*VORTAC*252.00/12.00",
	},
	{
		"name": "RUKOY",
		"latitude": "63-1-28.91 N",
		"longitude": "154-19-53.5 W",
		"state": "ALASKA",
		"artcc": "ZAN",
		"type": "RNAV",
		"updated": "09/01/2005",
	},
	{
		"name": "RUNOC",
		"latitude": "61-6-29.39 N",
		"longitude": "146-27-15.31 W",
		"state": "ALASKA",
		"artcc": "ZAN",
		"type": "RP",
		"updated": "VDZ*DD*SW CRS/7.00",
	},
	{
		"name": "RUNOF",
		"latitude": "60-27-58.43 N",
		"longitude": "145-21-35.14 W",
		"state": "ALASKA",
		"artcc": "ZAN",
		"type": "RNAV",
		"updated": "09/12/2016",
	},
	{
		"name": "RUNTL",
		"latitude": "61-26-27.02 N",
		"longitude": "151-29-31.65 W",
		"state": "ALASKA",
		"artcc": "ZAN",
		"type": "RP",
		"updated": "TED*VOR/DME*273.00/47.27",
	},
	{
		"name": "RUNTZ",
		"latitude": "61-22-54.87 N",
		"longitude": "150-15-31.09 W",
		"state": "ALASKA",
		"artcc": "ZAN",
		"type": "RNAV",
		"updated": "01/20/2015",
	},
	{
		"name": "RUNUW",
		"latitude": "52-0-14.53 N",
		"longitude": "176-9-3.43 W",
		"state": "ALASKA",
		"artcc": "ZAN",
		"type": "RP",
		"updated": "ADK*NDB/DME*060.64/21.00",
	},
	{
		"name": "RUPTE",
		"latitude": "66-20-9.24 N",
		"longitude": "147-36-53.92 W",
		"state": "ALASKA",
		"artcc": "ZAN",
		"type": "RNAV",
		"updated": "12/28/2004",
	},
	{
		"name": "RUROC",
		"latitude": "59-36-7.98 N",
		"longitude": "146-5-59.58 W",
		"state": "ALASKA",
		"artcc": "ZAN",
		"type": "RNAV",
		"updated": "11/25/2005",
	},
	{
		"name": "RUSCI",
		"latitude": "56-30-30.88 N",
		"longitude": "132-27-4.14 W",
		"state": "ALASKA",
		"artcc": "ZAN",
		"type": "RNAV",
		"updated": "11/29/2012",
	},
	{
		"name": "RUSKE",
		"latitude": "67-5-44.96 N",
		"longitude": "145-56-20.92 W",
		"state": "ALASKA",
		"artcc": "ZAN",
		"type": "RNAV",
		"updated": "11/18/2008",
	},
	{
		"name": "RUSOR",
		"latitude": "61-13-59.3 N",
		"longitude": "177-55-51.2 W",
		"state": "",
		"artcc": "ZAN",
		"type": "RNAV",
		"updated": "05/20/2015",
	},
	{
		"name": "RUTDO",
		"latitude": "68-53-14.65 N",
		"longitude": "165-28-24.94 W",
		"state": "ALASKA",
		"artcc": "ZAN",
		"type": "MW",
		"updated": "02/24/2014",
	},
	{
		"name": "RUTOY",
		"latitude": "63-58-7.08 N",
		"longitude": "149-2-59.39 W",
		"state": "ALASKA",
		"artcc": "ZAN",
		"type": "RNAV",
		"updated": "04/13/2017",
	},
	{
		"name": "RUVHO",
		"latitude": "61-51-33.05 N",
		"longitude": "163-19-8.39 W",
		"state": "ALASKA",
		"artcc": "ZAN",
		"type": "RNAV",
		"updated": "01/17/2008",
	},
	{
		"name": "RUYOC",
		"latitude": "55-34-32.63 N",
		"longitude": "132-5-41.45 W",
		"state": "ALASKA",
		"artcc": "ZAN",
		"type": "RP",
		"updated": "ECH*LD*NW CRS/19.47",
	},
	{
		"name": "RUZOF",
		"latitude": "63-49-49.46 N",
		"longitude": "171-22-38.02 W",
		"state": "ALASKA",
		"artcc": "ZAN",
		"type": "RP",
		"updated": "GAM*NDB/DME*064.88/10.00",
	},
	{
		"name": "RYVER",
		"latitude": "56-59-40.66 N",
		"longitude": "135-19-49.97 W",
		"state": "ALASKA",
		"artcc": "ZAN",
		"type": "RNAV",
		"updated": "10/24/2014",
	},
