	{
		"name": "SABOC",
		"latitude": "62-52-11.97 N",
		"longitude": "157-3-28.89 W",
		"state": "ALASKA",
		"artcc": "ZAN",
		"type": "RP",
		"updated": "MCG*VORTAC*244.64/40.00",
	},
	{
		"name": "SACRY",
		"latitude": "52-39-54.97 N",
		"longitude": "174-26-7.76 E",
		"state": "ALASKA",
		"artcc": "ZAN",
		"type": "MR",
		"updated": "SYA*VORTAC*100.00/14.00",
	},
	{
		"name": "SAFKO",
		"latitude": "55-46-48.66 N",
		"longitude": "162-2-7.95 W",
		"state": "ALASKA",
		"artcc": "ZAN",
		"type": "RP",
		"updated": "ELF*NDB*027.12",
	},
	{
		"name": "SAGKO",
		"latitude": "66-11-38.16 N",
		"longitude": "163-11-7.5 W",
		"state": "ALASKA",
		"artcc": "ZAN",
		"type": "RNAV",
		"updated": "12/01/2016",
	},
	{
		"name": "SAGOC",
		"latitude": "61-29-25.03 N",
		"longitude": "160-12-16.31 W",
		"state": "ALASKA",
		"artcc": "ZAN",
		"type": "RNAV",
		"updated": "12/28/2004",
	},
	{
		"name": "SAHKU",
		"latitude": "60-30-55.29 N",
		"longitude": "161-35-11.15 W",
		"state": "ALASKA",
		"artcc": "ZAN",
		"type": "RP",
		"updated": "BET*VORTAC*142.46/17.67",
	},
	{
		"name": "SAHOK",
		"latitude": "59-34-38.92 N",
		"longitude": "156-35-1.99 W",
		"state": "ALASKA",
		"artcc": "ZAN",
		"type": "RP",
		"updated": "AKN*VORTAC*349.72/51.56",
	},
	{
		"name": "SAKHI",
		"latitude": "60-23-1.51 N",
		"longitude": "149-25-20.4 W",
		"state": "ALASKA",
		"artcc": "ZAN",
		"type": "RNAV",
		"updated": "05/16/2011",
	},
	{
		"name": "SAKIY",
		"latitude": "56-59-59.16 N",
		"longitude": "134-3-22.29 W",
		"state": "ALASKA",
		"artcc": "ZAN",
		"type": "RNAV",
		"updated": "08/01/2007",
	},
	{
		"name": "SALET",
		"latitude": "79-56-59.96 N",
		"longitude": "168-58-23.98 W",
		"state": "",
		"artcc": "ZAN",
		"type": "RNAV",
		"updated": "07/03/2017",
	},
	{
		"name": "SALIS",
		"latitude": "57-23-6.02 N",
		"longitude": "136-18-3.53 W",
		"state": "ALASKA",
		"artcc": "ZAN",
		"type": "RP",
		"updated": "BKA*VORTAC*302.51/40.00",
	},
	{
		"name": "SALMN",
		"latitude": "58-18-17.32 N",
		"longitude": "134-26-47.38 W",
		"state": "ALASKA",
		"artcc": "ZAN",
		"type": "RNAV",
		"updated": "10/24/2014",
	},
	{
		"name": "SALSE",
		"latitude": "51-58-43.61 N",
		"longitude": "176-15-8.08 W",
		"state": "ALASKA",
		"artcc": "ZAN",
		"type": "RP",
		"updated": "ADK*NDB/DME*060.64/16.96",
	},
	{
		"name": "SANDI",
		"latitude": "57-4-37.23 N",
		"longitude": "132-52-54.85 W",
		"state": "ALASKA",
		"artcc": "ZAN",
		"type": "RP",
		"updated": "PSG*DD*344.00/16.68",
	},
	{
		"name": "SANER",
		"latitude": "59-10-39.1 N",
		"longitude": "151-26-18.64 W",
		"state": "ALASKA",
		"artcc": "ZAN",
		"type": "RP",
		"updated": "HOM*VOR/DME*164.00/32.00",
	},
	{
		"name": "SANGL",
		"latitude": "65-7-11.7 N",
		"longitude": "164-14-32.6 W",
		"state": "ALASKA",
		"artcc": "ZAN",
		"type": "RNAV",
		"updated": "09/27/2010",
	},
	{
		"name": "SANKA",
		"latitude": "62-20-31.3 N",
		"longitude": "144-39-27.53 W",
		"state": "ALASKA",
		"artcc": "ZAN",
		"type": "RP",
		"updated": "GKN*VOR/DME*039.49/25.00",
	},
	{
		"name": "SARLE",
		"latitude": "64-56-0.53 N",
		"longitude": "147-20-32 W",
		"state": "ALASKA",
		"artcc": "ZAN",
		"type": "MR",
		"updated": "EIL*TACAN*/18.00",
	},
	{
		"name": "SAROC",
		"latitude": "57-9-1.95 N",
		"longitude": "133-56-11.3 W",
		"state": "ALASKA",
		"artcc": "ZAN",
		"type": "RNAV",
		"updated": "07/12/2004",
	},
	{
		"name": "SASOY",
		"latitude": "55-23-10.14 N",
		"longitude": "131-45-58.97 W",
		"state": "ALASKA",
		"artcc": "ZAN",
		"type": "RNAV",
		"updated": "07/21/2008",
	},
	{
		"name": "SATUE",
		"latitude": "65-8-28.29 N",
		"longitude": "151-42-41.09 W",
		"state": "ALASKA",
		"artcc": "ZAN",
		"type": "RP",
		"updated": "TAL*VOR/DME*081.18/12.00",
	},
	{
		"name": "SAVGY",
		"latitude": "64-30-57.87 N",
		"longitude": "165-12-13.07 W",
		"state": "ALASKA",
		"artcc": "ZAN",
		"type": "RNAV",
		"updated": "08/09/2017",
	},
	{
		"name": "SAWNY",
		"latitude": "62-9-26.92 N",
		"longitude": "163-17-31.21 W",
		"state": "ALASKA",
		"artcc": "ZAN",
		"type": "RP",
		"updated": "SMA*LE*N CRS/6.24",
	},
	{
		"name": "SAXRY",
		"latitude": "57-51-45 N",
		"longitude": "133-51-30 W",
		"state": "ALASKA",
		"artcc": "ZAN",
		"type": "RNAV",
		"updated": "07/12/2004",
	},
	{
		"name": "SAYNT",
		"latitude": "54-14-56.4 N",
		"longitude": "140-0-0 W",
		"state": "OFFSHORE PACIFIC",
		"artcc": "ZAN",
		"type": "RNAV",
		"updated": "11/04/2013",
	},
	{
		"name": "SAYOP",
		"latitude": "59-22-39.81 N",
		"longitude": "140-14-2.22 W",
		"state": "ALASKA",
		"artcc": "ZAN",
		"type": "RNAV",
		"updated": "06/24/2013",
	},
	{
		"name": "SAYOY",
		"latitude": "61-35-31.27 N",
		"longitude": "166-14-1.72 W",
		"state": "ALASKA",
		"artcc": "ZAN",
		"type": "RNAV",
		"updated": "07/08/2011",
	},
	{
		"name": "SAZYU",
		"latitude": "58-21-0.02 N",
		"longitude": "134-38-11.62 W",
		"state": "ALASKA",
		"artcc": "ZAN",
		"type": "RNAV",
		"updated": "10/24/2014",
	},
	{
		"name": "SCALP",
		"latitude": "60-59-6.74 N",
		"longitude": "158-41-51.06 W",
		"state": "ALASKA",
		"artcc": "ZAN",
		"type": "RP",
		"updated": "ANI*NDB*130.00",
	},
	{
		"name": "SEBAW",
		"latitude": "55-30-59.89 N",
		"longitude": "133-11-16.16 W",
		"state": "ALASKA",
		"artcc": "ZAN",
		"type": "RNAV",
		"updated": "07/12/2004",
	},
	{
		"name": "SEBEE",
		"latitude": "62-45-31.55 N",
		"longitude": "160-9-46.39 W",
		"state": "ALASKA",
		"artcc": "ZAN",
		"type": "RNAV",
		"updated": "08/01/2008",
	},
	{
		"name": "SEBKY",
		"latitude": "64-29-38.19 N",
		"longitude": "161-20-27.06 W",
		"state": "ALASKA",
		"artcc": "ZAN",
		"type": "RNAV",
		"updated": "09/21/2014",
	},
	{
		"name": "SEBNE",
		"latitude": "64-35-22.82 N",
		"longitude": "147-10-24.17 W",
		"state": "ALASKA",
		"artcc": "ZAN",
		"type": "MR",
		"updated": "EIL*TACAN*189.00/4.37",
	},
	{
		"name": "SECOB",
		"latitude": "65-43-49.72 N",
		"longitude": "156-15-10.33 W",
		"state": "ALASKA",
		"artcc": "ZAN",
		"type": "RNAV",
		"updated": "05/09/2006",
	},
	{
		"name": "SEJYY",
		"latitude": "71-11-34.84 N",
		"longitude": "156-0-6.76 W",
		"state": "ALASKA",
		"artcc": "ZAN",
		"type": "RP",
		"updated": "BRW*VOR/DME*088.25/16.00",
	},
	{
		"name": "SEKTY",
		"latitude": "71-17-5.25 N",
		"longitude": "156-33-56.78 W",
		"state": "ALASKA",
		"artcc": "ZAN",
		"type": "RP",
		"updated": "BRW*LD*071.00/3.30",
	},
	{
		"name": "SELBE",
		"latitude": "57-59-10.58 N",
		"longitude": "157-15-49.55 W",
		"state": "ALASKA",
		"artcc": "ZAN",
		"type": "RNAV",
		"updated": "08/15/2005",
	},
	{
		"name": "SELDM",
		"latitude": "58-53-46 N",
		"longitude": "165-57-11.9 W",
		"state": "ALASKA",
		"artcc": "ZAN",
		"type": "RP",
		"updated": "09/19/2000",
	},
	{
		"name": "SELEE",
		"latitude": "65-16-38.15 N",
		"longitude": "146-51-42.69 W",
		"state": "ALASKA",
		"artcc": "ZAN",
		"type": "MR",
		"updated": "FAI*VORTAC*024.00/41.00",
	},
	{
		"name": "SEMKE",
		"latitude": "62-38-1.09 N",
		"longitude": "160-11-36.21 W",
		"state": "ALASKA",
		"artcc": "ZAN",
		"type": "RNAV",
		"updated": "07/29/2008",
	},
	{
		"name": "SEOTT",
		"latitude": "56-28-8.11 N",
		"longitude": "132-17-6.18 W",
		"state": "ALASKA",
		"artcc": "ZAN",
		"type": "RNAV",
		"updated": "11/04/2014",
	},
	{
		"name": "SEPFY",
		"latitude": "57-41-0 N",
		"longitude": "134-47-30 W",
		"state": "ALASKA",
		"artcc": "ZAN",
		"type": "RNAV",
		"updated": "07/12/2004",
	},
	{
		"name": "SEPME",
		"latitude": "57-0-49.76 N",
		"longitude": "135-18-5.99 W",
		"state": "ALASKA",
		"artcc": "ZAN",
		"type": "WP",
		"updated": "02/27/1998",
	},
	{
		"name": "SEPNE",
		"latitude": "61-55-0.33 N",
		"longitude": "150-21-9.31 W",
		"state": "ALASKA",
		"artcc": "ZAN",
		"type": "RNAV",
		"updated": "01/19/2017",
	},
	{
		"name": "SETAE",
		"latitude": "58-26-19.43 N",
		"longitude": "134-58-10.35 W",
		"state": "ALASKA",
		"artcc": "ZAN",
		"type": "RNAV",
		"updated": "11/28/2006",
	},
	{
		"name": "SETUP",
		"latitude": "66-26-15.95 N",
		"longitude": "163-5-24.26 W",
		"state": "ALASKA",
		"artcc": "ZAN",
		"type": "RP",
		"updated": "OTZ*VOR/DME*191.22/30.00",
	},
	{
		"name": "SEVBE",
		"latitude": "62-51-7.23 N",
		"longitude": "154-40-38.87 W",
		"state": "ALASKA",
		"artcc": "ZAN",
		"type": "RNAV",
		"updated": "09/01/2005",
	},
	{
		"name": "SEWAR",
		"latitude": "60-16-0.49 N",
		"longitude": "149-40-3.78 W",
		"state": "ALASKA",
		"artcc": "ZAN",
		"type": "RP",
		"updated": "TED*VOR/DME*152.84/54.89",
	},
	{
		"name": "SEYMR",
		"latitude": "58-1-10.15 N",
		"longitude": "134-16-58.17 W",
		"state": "ALASKA",
		"artcc": "ZAN",
		"type": "WP",
		"updated": "02/27/1998",
	},
	{
		"name": "SHELO",
		"latitude": "69-57-1.83 N",
		"longitude": "148-41-22.73 W",
		"state": "ALASKA",
		"artcc": "ZAN",
		"type": "RP",
		"updated": "SCC*VOR/DME*183.69/16.00",
	},
	{
		"name": "SHIPI",
		"latitude": "56-28-46.12 N",
		"longitude": "132-21-19.71 W",
		"state": "ALASKA",
		"artcc": "ZAN",
		"type": "RNAV",
		"updated": "11/04/2014",
	},
	{
		"name": "SHMRK",
		"latitude": "56-49-21.42 N",
		"longitude": "135-5-21.35 W",
		"state": "ALASKA",
		"artcc": "ZAN",
		"type": "WP",
		"updated": "02/27/1998",
	},
	{
		"name": "SHMUK",
		"latitude": "63-37-34.62 N",
		"longitude": "160-40-3.96 W",
		"state": "ALASKA",
		"artcc": "ZAN",
		"type": "RP",
		"updated": "UNK*VOR/DME*163.41/16.00",
	},
	{
		"name": "SHNKN",
		"latitude": "61-8-48 N",
		"longitude": "150-43-18 W",
		"state": "ALASKA",
		"artcc": "ZAN",
		"type": "RNAV",
		"updated": "06/01/2010",
	},
	{
		"name": "SHOJI",
		"latitude": "66-49-19.83 N",
		"longitude": "162-47-53.19 W",
		"state": "ALASKA",
		"artcc": "ZAN",
		"type": "RNAV",
		"updated": "08/09/2017",
	},
	{
		"name": "SHOKK",
		"latitude": "67-30-11.52 N",
		"longitude": "161-54-32.71 W",
		"state": "ALASKA",
		"artcc": "ZAN",
		"type": "RP",
		"updated": "OTZ*VOR/DME*/40.00",
	},
	{
		"name": "SHOPE",
		"latitude": "60-43-29.42 N",
		"longitude": "146-26-6.86 W",
		"state": "ALASKA",
		"artcc": "ZAN",
		"type": "RP",
		"updated": "GCR*NDB*279.00",
	},
	{
		"name": "SHOUP",
		"latitude": "79-9-0 N",
		"longitude": "141-0-0 W",
		"state": "OFFSHORE PACIFIC",
		"artcc": "ZAN",
		"type": "RNAV",
		"updated": "06/02/2014",
	},
	{
		"name": "SHUYA",
		"latitude": "58-25-22.35 N",
		"longitude": "152-3-18.55 W",
		"state": "ALASKA",
		"artcc": "ZAN",
		"type": "RP",
		"updated": "ODK*VOR/DME*358.98/40.03",
	},
	{
		"name": "SHYEP",
		"latitude": "58-16-35.85 N",
		"longitude": "134-23-15.05 W",
		"state": "ALASKA",
		"artcc": "ZAN",
		"type": "RNAV",
		"updated": "08/23/2016",
	},
	{
		"name": "SICOV",
		"latitude": "67-20-44.42 N",
		"longitude": "162-49-58.62 W",
		"state": "ALASKA",
		"artcc": "ZAN",
		"type": "RNAV",
		"updated": "05/14/2007",
	},
	{
		"name": "SIDZU",
		"latitude": "60-27-17.061 N",
		"longitude": "145-18-19.184 W",
		"state": "ALASKA",
		"artcc": "ZAN",
		"type": "RNAV",
		"updated": "05/24/2002",
	},
	{
		"name": "SIKLV",
		"latitude": "69-35-6.98 N",
		"longitude": "148-21-35.9 W",
		"state": "ALASKA",
		"artcc": "ZAN",
		"type": "RNAV",
		"updated": "02/18/2010",
	},
	{
		"name": "SILTY",
		"latitude": "61-6-19.4 N",
		"longitude": "149-56-11.64 W",
		"state": "ALASKA",
		"artcc": "ZAN",
		"type": "RNAV",
		"updated": "07/18/2012",
	},
	{
		"name": "SIPOC",
		"latitude": "66-19-55.07 N",
		"longitude": "165-40-31.61 W",
		"state": "ALASKA",
		"artcc": "ZAN",
		"type": "RNAV",
		"updated": "06/27/2005",
	},
	{
		"name": "SIRKE",
		"latitude": "64-32-45.56 N",
		"longitude": "165-42-15.4 W",
		"state": "ALASKA",
		"artcc": "ZAN",
		"type": "RP",
		"updated": "OME*VOR/DME*276.60/12.26",
	},
	{
		"name": "SITGE",
		"latitude": "57-41-23.66 N",
		"longitude": "152-18-41.9 W",
		"state": "ALASKA",
		"artcc": "ZAN",
		"type": "RNAV",
		"updated": "07/21/2016",
	},
	{
		"name": "SITWE",
		"latitude": "62-15-0 N",
		"longitude": "153-0-0 W",
		"state": "ALASKA",
		"artcc": "ZAN",
		"type": "RNAV",
		"updated": "07/31/2007",
	},
	{
		"name": "SIVAE",
		"latitude": "62-47-21.61 N",
		"longitude": "142-40-15.39 W",
		"state": "ALASKA",
		"artcc": "ZAN",
		"type": "RNAV",
		"updated": "11/14/2006",
	},
	{
		"name": "SIXEE",
		"latitude": "71-22-0.62 N",
		"longitude": "157-21-53.85 W",
		"state": "ALASKA",
		"artcc": "ZAN",
		"type": "RNAV",
		"updated": "05/10/2010",
	},
	{
		"name": "SIYNY",
		"latitude": "52-12-3.53 N",
		"longitude": "175-20-39.95 W",
		"state": "ALASKA",
		"artcc": "ZAN",
		"type": "RP",
		"updated": "ADK*NDB/DME*060.64/53.10",
	},
	{
		"name": "SIYOD",
		"latitude": "66-53-32.31 N",
		"longitude": "151-33-12.87 W",
		"state": "ALASKA",
		"artcc": "ZAN",
		"type": "RNAV",
		"updated": "03/23/2018",
	},
	{
		"name": "SKENS",
		"latitude": "61-14-37.32 N",
		"longitude": "149-4-58.88 W",
		"state": "ALASKA",
		"artcc": "ZAN",
		"type": "RNAV",
		"updated": "07/18/2012",
	},
	{
		"name": "SKILA",
		"latitude": "60-29-50.06 N",
		"longitude": "150-40-1.65 W",
		"state": "ALASKA",
		"artcc": "ZAN",
		"type": "RP",
		"updated": "HOM*VOR/DME*011.24",
	},
	{
		"name": "SKIMO",
		"latitude": "64-41-18.15 N",
		"longitude": "147-35-36.08 W",
		"state": "ALASKA",
		"artcc": "ZAN",
		"type": "RNAV",
		"updated": "07/26/2012",
	},
	{
		"name": "SKINR",
		"latitude": "61-25-0 N",
		"longitude": "154-1-0 W",
		"state": "ALASKA",
		"artcc": "ZAN",
		"type": "MW",
		"updated": "12/10/2013",
	},
	{
		"name": "SKKOT",
		"latitude": "63-37-6 N",
		"longitude": "145-19-30 W",
		"state": "ALASKA",
		"artcc": "ZAN",
		"type": "MW",
		"updated": "12/10/2013",
	},
	{
		"name": "SKOKI",
		"latitude": "66-35-39.23 N",
		"longitude": "145-4-26.62 W",
		"state": "ALASKA",
		"artcc": "ZAN",
		"type": "RP",
		"updated": "FYU*VORTAC*055.99/5.00",
	},
	{
		"name": "SKWEN",
		"latitude": "62-3-5.87 N",
		"longitude": "151-6-15.63 W",
		"state": "ALASKA",
		"artcc": "ZAN",
		"type": "MW",
		"updated": "12/10/2013",
	},
	{
		"name": "SLAAP",
		"latitude": "59-53-0 N",
		"longitude": "149-30-0 W",
		"state": "ALASKA",
		"artcc": "ZAN",
		"type": "RNAV",
		"updated": "03/02/2015",
	},
	{
		"name": "SLEDD",
		"latitude": "64-6-4.4 N",
		"longitude": "166-6-36 W",
		"state": "ALASKA",
		"artcc": "ZAN",
		"type": "RNAV",
		"updated": "03/11/2009",
	},
	{
		"name": "SLETE",
		"latitude": "61-23-0.76 N",
		"longitude": "156-14-38.4 W",
		"state": "ALASKA",
		"artcc": "ZAN",
		"type": "MW",
		"updated": "12/10/2013",
	},
	{
		"name": "SLIIM",
		"latitude": "61-22-38.88 N",
		"longitude": "158-17-4.62 W",
		"state": "ALASKA",
		"artcc": "ZAN",
		"type": "RNAV",
		"updated": "02/17/2012",
	},
	{
		"name": "SLOOW",
		"latitude": "60-59-48.56 N",
		"longitude": "149-45-13.95 W",
		"state": "ALASKA",
		"artcc": "ZAN",
		"type": "RNAV",
		"updated": "07/18/2012",
	},
	{
		"name": "SMOKY",
		"latitude": "62-3-19.52 N",
		"longitude": "146-18-31.81 W",
		"state": "ALASKA",
		"artcc": "ZAN",
		"type": "RP",
		"updated": "GKN*VOR/DME*233.69/25.00",
	},
	{
		"name": "SNAAG",
		"latitude": "60-53-55.86 N",
		"longitude": "151-21-46 W",
		"state": "ALASKA",
		"artcc": "ZAN",
		"type": "RNAV",
		"updated": "12/13/2011",
	},
	{
		"name": "SNDER",
		"latitude": "64-32-9.48 N",
		"longitude": "165-20-32.94 W",
		"state": "ALASKA",
		"artcc": "ZAN",
		"type": "RNAV",
		"updated": "08/09/2017",
	},
	{
		"name": "SNETT",
		"latitude": "57-47-54.59 N",
		"longitude": "133-38-1.28 W",
		"state": "ALASKA",
		"artcc": "ZAN",
		"type": "RNAV",
		"updated": "10/24/2014",
	},
	{
		"name": "SNIPS",
		"latitude": "58-9-44.15 N",
		"longitude": "156-28-1.52 W",
		"state": "ALASKA",
		"artcc": "ZAN",
		"type": "MR",
		"updated": "AKN*VORTAC*144.00/35.00",
	},
	{
		"name": "SNOUT",
		"latitude": "57-53-26.38 N",
		"longitude": "141-45-19.03 W",
		"state": "ALASKA",
		"artcc": "ZAN",
		"type": "RP",
		"updated": "YAK*VOR/DME*195.00/117.66",
	},
	{
		"name": "SNRIS",
		"latitude": "60-57-54.92 N",
		"longitude": "149-22-31.6 W",
		"state": "ALASKA",
		"artcc": "ZAN",
		"type": "RP",
		"updated": "JOH*VOR/DME*272.81/86.84",
	},
	{
		"name": "SOAPY",
		"latitude": "64-4-44.49 N",
		"longitude": "145-15-39.7 W",
		"state": "ALASKA",
		"artcc": "ZAN",
		"type": "MR",
		"updated": "FAI*VORTAC*099.00/83.67",
	},
	{
		"name": "SOBCO",
		"latitude": "59-6-24 N",
		"longitude": "138-13-39 W",
		"state": "ALASKA",
		"artcc": "ZAN",
		"type": "RP",
		"updated": "YAK*VOR/DME*098.48/50.00",
	},
	{
		"name": "SOBGE",
		"latitude": "60-48-34.87 N",
		"longitude": "148-17-7.58 W",
		"state": "ALASKA",
		"artcc": "ZAN",
		"type": "RP",
		"updated": "JOH*VOR/DME*274.39/53.59",
	},
	{
		"name": "SOBUE",
		"latitude": "65-10-25.27 N",
		"longitude": "152-14-31.72 W",
		"state": "ALASKA",
		"artcc": "ZAN",
		"type": "RNAV",
		"updated": "01/17/2006",
	},
	{
		"name": "SOCBO",
		"latitude": "68-18-32.58 N",
		"longitude": "144-50-57.27 W",
		"state": "ALASKA",
		"artcc": "ZAN",
		"type": "RNAV",
		"updated": "12/01/2005",
	},
	{
		"name": "SOCGO",
		"latitude": "62-41-47.32 N",
		"longitude": "164-36-47.62 W",
		"state": "ALASKA",
		"artcc": "ZAN",
		"type": "RNAV",
		"updated": "05/04/2007",
	},
	{
		"name": "SOCOY",
		"latitude": "62-6-50.61 N",
		"longitude": "165-22-37.81 W",
		"state": "ALASKA",
		"artcc": "ZAN",
		"type": "RP",
		"updated": "HPB*VOR/DME*017.52/42.03",
	},
	{
		"name": "SOGYO",
		"latitude": "62-23-39.07 N",
		"longitude": "145-34-48.77 W",
		"state": "ALASKA",
		"artcc": "ZAN",
		"type": "RP",
		"updated": "GKN*VOR/DME*323.00/15.00",
	},
	{
		"name": "SOHOD",
		"latitude": "59-21-48.38 N",
		"longitude": "139-40-42.88 W",
		"state": "ALASKA",
		"artcc": "ZAN",
		"type": "RNAV",
		"updated": "03/14/2011",
	},
	{
		"name": "SOKIY",
		"latitude": "56-20-21.22 N",
		"longitude": "132-20-30.51 W",
		"state": "ALASKA",
		"artcc": "ZAN",
		"type": "RNAV",
		"updated": "10/24/2014",
	},
	{
		"name": "SOLCO",
		"latitude": "64-43-21.7 N",
		"longitude": "155-28-58.25 W",
		"state": "ALASKA",
		"artcc": "ZAN",
		"type": "RNAV",
		"updated": "04/12/2007",
	},
	{
		"name": "SOLEE",
		"latitude": "68-52-46.51 N",
		"longitude": "165-47-42.64 W",
		"state": "ALASKA",
		"artcc": "ZAN",
		"type": "MW",
		"updated": "02/24/2014",
	},
	{
		"name": "SOROC",
		"latitude": "64-19-43.61 N",
		"longitude": "163-12-24.44 W",
		"state": "ALASKA",
		"artcc": "ZAN",
		"type": "RNAV",
		"updated": "10/13/2005",
	},
	{
		"name": "SORPY",
		"latitude": "54-2-2.76 N",
		"longitude": "166-32-52.32 W",
		"state": "ALASKA",
		"artcc": "ZAN",
		"type": "RP",
		"updated": "DUT*NDB/DME*351.00/7.75",
	},
	{
		"name": "SOTGE",
		"latitude": "69-45-27.95 N",
		"longitude": "144-26-7.68 W",
		"state": "ALASKA",
		"artcc": "ZAN",
		"type": "RNAV",
		"updated": "11/15/2010",
	},
	{
		"name": "SOTOE",
		"latitude": "55-12-41.25 N",
		"longitude": "162-33-2.23 W",
		"state": "ALASKA",
		"artcc": "ZAN",
		"type": "RNAV",
		"updated": "10/31/2017",
	},
	{
		"name": "SOVCO",
		"latitude": "63-10-0 N",
		"longitude": "150-25-0 W",
		"state": "ALASKA",
		"artcc": "ZAN",
		"type": "RNAV",
		"updated": "08/01/2007",
	},
	{
		"name": "SOWAH",
		"latitude": "65-19-24.02 N",
		"longitude": "146-44-50.73 W",
		"state": "ALASKA",
		"artcc": "ZAN",
		"type": "RP",
		"updated": "FAI*VORTAC*024.00/45.00",
	},
	{
		"name": "SOYER",
		"latitude": "66-38-22.71 N",
		"longitude": "150-55-16.23 W",
		"state": "ALASKA",
		"artcc": "ZAN",
		"type": "RNAV",
		"updated": "07/21/2008",
	},
	{
		"name": "SOYOR",
		"latitude": "59-48-24.99 N",
		"longitude": "154-53-44.06 W",
		"state": "ALASKA",
		"artcc": "ZAN",
		"type": "RNAV",
		"updated": "01/12/2009",
	},
	{
		"name": "SPAIR",
		"latitude": "60-37-10.7 N",
		"longitude": "154-20-43.99 W",
		"state": "ALASKA",
		"artcc": "ZAN",
		"type": "RNAV",
		"updated": "12/17/2015",
	},
	{
		"name": "SPAKE",
		"latitude": "59-41-54.67 N",
		"longitude": "156-9-12.06 W",
		"state": "ALASKA",
		"artcc": "ZAN",
		"type": "RP",
		"updated": "DLG*VOR/DME*044.08/85.00",
	},
	{
		"name": "SPARL",
		"latitude": "58-13-16.24 N",
		"longitude": "137-33-33.95 W",
		"state": "ALASKA",
		"artcc": "ZAN",
		"type": "RP",
		"updated": "EEF*NDB*253.34",
	},
	{
		"name": "SPARV",
		"latitude": "61-6-40 N",
		"longitude": "155-11-20.01 W",
		"state": "ALASKA",
		"artcc": "ZAN",
		"type": "RP",
		"updated": "SQA*VOR/DME*068.48/13.00",
	},
	{
		"name": "SPARX",
		"latitude": "61-28-21.14 N",
		"longitude": "158-33-29.5 W",
		"state": "ALASKA",
		"artcc": "ZAN",
		"type": "MW",
		"updated": "12/09/2013",
	},
	{
		"name": "SPIRE",
		"latitude": "55-15-58.76 N",
		"longitude": "131-30-6.06 W",
		"state": "ALASKA",
		"artcc": "ZAN",
		"type": "WP",
		"updated": "02/27/1998",
	},
	{
		"name": "SPYVY",
		"latitude": "64-35-34.22 N",
		"longitude": "165-58-59.95 W",
		"state": "ALASKA",
		"artcc": "ZAN",
		"type": "RP",
		"updated": "OME*LD*W CRS/13.94",
	},
	{
		"name": "STALE",
		"latitude": "63-48-10.6 N",
		"longitude": "148-54-58.44 W",
		"state": "ALASKA",
		"artcc": "ZAN",
		"type": "RNAV",
		"updated": "04/13/2017",
	},
	{
		"name": "STEAK",
		"latitude": "63-43-30.53 N",
		"longitude": "145-18-31.88 W",
		"state": "ALASKA",
		"artcc": "ZAN",
		"type": "MR",
		"updated": "BIG*VORTAC*118.00/20.00",
	},
	{
		"name": "STFLR",
		"latitude": "59-32-0 N",
		"longitude": "147-50-0 W",
		"state": "ALASKA",
		"artcc": "ZAN",
		"type": "RNAV",
		"updated": "03/02/2015",
	},
	{
		"name": "STIKE",
		"latitude": "56-28-10.92 N",
		"longitude": "132-17-33.46 W",
		"state": "ALASKA",
		"artcc": "ZAN",
		"type": "RNAV",
		"updated": "07/07/2015",
	},
	{
		"name": "STOND",
		"latitude": "62-43-0 N",
		"longitude": "156-0-0 W",
		"state": "ALASKA",
		"artcc": "ZAN",
		"type": "RNAV",
		"updated": "07/31/2007",
	},
	{
		"name": "STONO",
		"latitude": "61-15-0 N",
		"longitude": "156-25-0 W",
		"state": "ALASKA",
		"artcc": "ZAN",
		"type": "RNAV",
		"updated": "07/31/2007",
	},
	{
		"name": "STONQ",
		"latitude": "61-15-0 N",
		"longitude": "152-45-0 W",
		"state": "ALASKA",
		"artcc": "ZAN",
		"type": "RNAV",
		"updated": "07/31/2007",
	},
	{
		"name": "STONX",
		"latitude": "61-28-0 N",
		"longitude": "158-18-0 W",
		"state": "ALASKA",
		"artcc": "ZAN",
		"type": "RNAV",
		"updated": "07/31/2007",
	},
	{
		"name": "STOON",
		"latitude": "61-35-26.45 N",
		"longitude": "152-38-1.12 W",
		"state": "ALASKA",
		"artcc": "ZAN",
		"type": "MR",
		"updated": "EDF*TACAN*267.00/85.00",
	},
	{
		"name": "STREW",
		"latitude": "58-52-18.28 N",
		"longitude": "156-21-51.15 W",
		"state": "ALASKA",
		"artcc": "ZAN",
		"type": "RP",
		"updated": "AKN*VORTAC*037.71/15.00",
	},
	{
		"name": "STRUS",
		"latitude": "58-21-35.69 N",
		"longitude": "134-47-40.8 W",
		"state": "ALASKA",
		"artcc": "ZAN",
		"type": "RNAV",
		"updated": "10/27/2014",
	},
	{
		"name": "STUMI",
		"latitude": "56-55-14.72 N",
		"longitude": "132-54-15.85 W",
		"state": "ALASKA",
		"artcc": "ZAN",
		"type": "RNAV",
		"updated": "03/26/2012",
	},
	{
		"name": "STVNS",
		"latitude": "57-56-0 N",
		"longitude": "133-55-0 W",
		"state": "ALASKA",
		"artcc": "ZAN",
		"type": "WP",
		"updated": "08/23/2016",
	},
	{
		"name": "SUANT",
		"latitude": "63-2-59.58 N",
		"longitude": "155-40-21.31 W",
		"state": "ALASKA",
		"artcc": "ZAN",
		"type": "MW",
		"updated": "11/26/2013",
	},
	{
		"name": "SUBWA",
		"latitude": "58-57-46.5 N",
		"longitude": "158-35-3.71 W",
		"state": "ALASKA",
		"artcc": "ZAN",
		"type": "RNAV",
		"updated": "07/08/2011",
	},
	{
		"name": "SUCNO",
		"latitude": "66-48-33.36 N",
		"longitude": "151-46-12 W",
		"state": "ALASKA",
		"artcc": "ZAN",
		"type": "RP",
		"updated": "BTT*VOR/DME*204.00/8.00",
	},
	{
		"name": "SUCOD",
		"latitude": "63-39-17.96 N",
		"longitude": "153-2-11.89 W",
		"state": "ALASKA",
		"artcc": "ZAN",
		"type": "RNAV",
		"updated": "12/27/2005",
	},
	{
		"name": "SUCON",
		"latitude": "71-17-40.13 N",
		"longitude": "156-39-32.69 W",
		"state": "ALASKA",
		"artcc": "ZAN",
		"type": "RP",
		"updated": "BRW*VOR/DME*044.00/2.80",
	},
	{
		"name": "SUDPE",
		"latitude": "51-23-45.42 N",
		"longitude": "179-23-54.27 E",
		"state": "ALASKA",
		"artcc": "ZAN",
		"type": "RNAV",
		"updated": "06/27/2001",
	},
	{
		"name": "SUDVE",
		"latitude": "57-6-28.16 N",
		"longitude": "135-28-34.37 W",
		"state": "ALASKA",
		"artcc": "ZAN",
		"type": "RP",
		"updated": "SIT*DD*W CRS/5.12",
	},
	{
		"name": "SUGRE",
		"latitude": "68-4-17.59 N",
		"longitude": "165-56-3.04 W",
		"state": "ALASKA",
		"artcc": "ZAN",
		"type": "RP",
		"updated": "OTZ*VOR/DME*298.90/106.00",
	},
	{
		"name": "SUKDE",
		"latitude": "56-36-1.26 N",
		"longitude": "132-54-54.37 W",
		"state": "ALASKA",
		"artcc": "ZAN",
		"type": "RNAV",
		"updated": "03/26/2012",
	},
	{
		"name": "SUKOI",
		"latitude": "57-12-26.71 N",
		"longitude": "135-39-7.89 W",
		"state": "ALASKA",
		"artcc": "ZAN",
		"type": "WP",
		"updated": "02/27/1998",
	},
	{
		"name": "SUKVY",
		"latitude": "56-21-25 N",
		"longitude": "133-8-50 W",
		"state": "ALASKA",
		"artcc": "ZAN",
		"type": "RNAV",
		"updated": "07/12/2004",
	},
	{
		"name": "SULNE",
		"latitude": "61-5-27.38 N",
		"longitude": "149-54-47.11 W",
		"state": "ALASKA",
		"artcc": "ZAN",
		"type": "RNAV",
		"updated": "11/18/2014",
	},
	{
		"name": "SUMJE",
		"latitude": "62-16-18.06 N",
		"longitude": "159-40-1.23 W",
		"state": "ALASKA",
		"artcc": "ZAN",
		"type": "RNAV",
		"updated": "09/24/2009",
	},
	{
		"name": "SURES",
		"latitude": "62-16-18.78 N",
		"longitude": "149-34-45.15 W",
		"state": "ALASKA",
		"artcc": "ZAN",
		"type": "RP",
		"updated": "TKA*VOR/DME*077.00",
	},
	{
		"name": "SURFU",
		"latitude": "61-57-32.23 N",
		"longitude": "159-51-45.09 W",
		"state": "ALASKA",
		"artcc": "ZAN",
		"type": "RNAV",
		"updated": "12/27/2005",
	},
	{
		"name": "SUSOC",
		"latitude": "59-27-46.53 N",
		"longitude": "157-23-4.73 W",
		"state": "ALASKA",
		"artcc": "ZAN",
		"type": "RNAV",
		"updated": "10/05/2007",
	},
	{
		"name": "SUVRE",
		"latitude": "59-0-3.15 N",
		"longitude": "135-18-0 W",
		"state": "ALASKA",
		"artcc": "ZAN",
		"type": "RNAV",
		"updated": "06/04/2003",
	},
	{
		"name": "SUWWO",
		"latitude": "61-33-26.74 N",
		"longitude": "160-0-1 W",
		"state": "ALASKA",
		"artcc": "ZAN",
		"type": "RNAV",
		"updated": "04/19/2016",
	},
	{
		"name": "SUYOC",
		"latitude": "60-58-5.66 N",
		"longitude": "161-39-49.31 W",
		"state": "ALASKA",
		"artcc": "ZAN",
		"type": "RNAV",
		"updated": "05/17/2017",
	},
	{
		"name": "SUZYY",
		"latitude": "64-26-11.94 N",
		"longitude": "165-37-16.55 W",
		"state": "ALASKA",
		"artcc": "ZAN",
		"type": "RP",
		"updated": "OME*VOR/DME*242.21/10.00",
	},
	{
		"name": "SWABI",
		"latitude": "64-26-40.48 N",
		"longitude": "147-19-47.96 W",
		"state": "ALASKA",
		"artcc": "ZAN",
		"type": "MR",
		"updated": "EIL*TACAN*187.00/14.00",
	},
	{
		"name": "SWANS",
		"latitude": "60-43-41.16 N",
		"longitude": "150-56-51.17 W",
		"state": "ALASKA",
		"artcc": "ZAN",
		"type": "RP",
		"updated": "ENA*VOR/DME*027.87/10.00",
	},
	{
		"name": "SWEPR",
		"latitude": "64-31-23.77 N",
		"longitude": "148-3-15.22 W",
		"state": "ALASKA",
		"artcc": "ZAN",
		"type": "RNAV",
		"updated": "11/05/2015",
	},
	{
		"name": "SYGGR",
		"latitude": "55-28-32.47 N",
		"longitude": "133-15-1.62 W",
		"state": "ALASKA",
		"artcc": "ZAN",
		"type": "RNAV",
		"updated": "04/30/2013",
	},
