[
	{
		"name": "TABEE",
		"latitude": "64-41-29.27 N",
		"longitude": "147-7-28.01 W",
		"state": "ALASKA",
		"artcc": "ZAN",
		"type": "MR",
		"updated": "EIL*TACAN*/2.40"
	},
	{
		"name": "TACKT",
		"latitude": "56-58-16.98 N",
		"longitude": "135-34-30.57 W",
		"state": "ALASKA",
		"artcc": "ZAN",
		"type": "WP",
		"updated": "06/13/2017"
	},
	{
		"name": "TADYU",
		"latitude": "61-32-17.96 N",
		"longitude": "150-1-18.6 W",
		"state": "ALASKA",
		"artcc": "ZAN",
		"type": "RNAV",
		"updated": "08/01/2006"
	},
	{
		"name": "TAGER",
		"latitude": "61-40-22.59 N",
		"longitude": "150-27-37.46 W",
		"state": "ALASKA",
		"artcc": "ZAN",
		"type": "RP",
		"updated": "TKA*VOR/DME*176.09/38.97"
	},
	{
		"name": "TAHHI",
		"latitude": "59-38-16.06 N",
		"longitude": "139-54-51.31 W",
		"state": "ALASKA",
		"artcc": "ZAN",
		"type": "RNAV",
		"updated": "03/14/2011"
	},
	{
		"name": "TAJAN",
		"latitude": "61-43-11.75 N",
		"longitude": "166-13-2.44 W",
		"state": "ALASKA",
		"artcc": "ZAN",
		"type": "MR",
		"updated": "CZF*DME*/6.00"
	},
	{
		"name": "TAKME",
		"latitude": "69-0-12.16 N",
		"longitude": "165-29-40.23 W",
		"state": "ALASKA",
		"artcc": "ZAN",
		"type": "MW",
		"updated": "09/24/2014"
	},
	{
		"name": "TAKOC",
		"latitude": "62-5-38.99 N",
		"longitude": "145-58-4.33 W",
		"state": "ALASKA",
		"artcc": "ZAN",
		"type": "RP",
		"updated": "GKN*VOR/DME*233.49/15.10"
	},
	{
		"name": "TAKUU",
		"latitude": "58-29-42 N",
		"longitude": "133-55-54 W",
		"state": "ALASKA",
		"artcc": "ZAN",
		"type": "WP",
		"updated": "02/27/1998"
	},
	{
		"name": "TALYN",
		"latitude": "64-48-42.93 N",
		"longitude": "165-23-32.74 W",
		"state": "ALASKA",
		"artcc": "ZAN",
		"type": "RP",
		"updated": "OME*VOR/DME*338.71/20.00"
	},
	{
		"name": "TAMMO",
		"latitude": "54-45-55 N",
		"longitude": "179-59-49.98 E",
		"state": "ALASKA",
		"artcc": "ZAN",
		"type": "RP",
		"updated": "02/24/1993"
	},
	{
		"name": "TANIE",
		"latitude": "57-58-11.05 N",
		"longitude": "158-12-46.1 W",
		"state": "ALASKA",
		"artcc": "ZAN",
		"type": "RP",
		"updated": "AKN*VORTAC*210.11/64.76"
	},
	{
		"name": "TANPE",
		"latitude": "67-0-16.54 N",
		"longitude": "146-23-10.12 W",
		"state": "ALASKA",
		"artcc": "ZAN",
		"type": "RNAV",
		"updated": "03/03/2008"
	},
	{
		"name": "TASAE",
		"latitude": "59-24-22.78 N",
		"longitude": "155-7-18.42 W",
		"state": "ALASKA",
		"artcc": "ZAN",
		"type": "RNAV",
		"updated": "05/26/2006"
	},
	{
		"name": "TATBE",
		"latitude": "59-18-23.19 N",
		"longitude": "139-15-54.92 W",
		"state": "ALASKA",
		"artcc": "ZAN",
		"type": "RP",
		"updated": "YAK*VOR/DME*/17.00"
	},
	{
		"name": "TATTA",
		"latitude": "65-27-47.06 N",
		"longitude": "148-6-55.39 W",
		"state": "ALASKA",
		"artcc": "ZAN",
		"type": "RP",
		"updated": "FAI*VORTAC*335.29/40.00"
	},
	{
		"name": "TAUTS",
		"latitude": "58-19-42.57 N",
		"longitude": "134-28-59.95 W",
		"state": "ALASKA",
		"artcc": "ZAN",
		"type": "RNAV",
		"updated": "10/27/2014"
	},
	{
		"name": "TAVPE",
		"latitude": "66-43-28.31 N",
		"longitude": "150-47-11.97 W",
		"state": "ALASKA",
		"artcc": "ZAN",
		"type": "RNAV",
		"updated": "07/21/2008"
	},
	{
		"name": "TAVUE",
		"latitude": "61-2-34.34 N",
		"longitude": "149-49-5.88 W",
		"state": "ALASKA",
		"artcc": "ZAN",
		"type": "RNAV",
		"updated": "11/18/2014"
	},
	{
		"name": "TAWMO",
		"latitude": "57-11-18.91 N",
		"longitude": "133-47-20.7 W",
		"state": "ALASKA",
		"artcc": "ZAN",
		"type": "RNAV",
		"updated": "07/12/2004"
	},
	{
		"name": "TAYKU",
		"latitude": "63-6-20.64 N",
		"longitude": "163-25-37.76 W",
		"state": "ALASKA",
		"artcc": "ZAN",
		"type": "RNAV",
		"updated": "12/01/2003"
	},
	{
		"name": "TAYTA",
		"latitude": "71-33-42 N",
		"longitude": "141-0-0 W",
		"state": "ALASKA",
		"artcc": "ZAN",
		"type": "WP",
		"updated": "06/19/1996"
	},
	{
		"name": "TAYUC",
		"latitude": "70-6-36.2 N",
		"longitude": "147-37-59.85 W",
		"state": "ALASKA",
		"artcc": "ZAN",
		"type": "RNAV",
		"updated": "08/06/2008"
	},
	{
		"name": "TAZLI",
		"latitude": "61-13-42.51 N",
		"longitude": "148-51-30.19 W",
		"state": "ALASKA",
		"artcc": "ZAN",
		"type": "RP",
		"updated": "BGQ*VORTAC*103.19/38.00"
	},
	{
		"name": "TBEAR",
		"latitude": "63-27-48.01 N",
		"longitude": "144-5-50.2 W",
		"state": "ALASKA",
		"artcc": "ZAN",
		"type": "RNAV",
		"updated": "02/13/2018"
	},
	{
		"name": "TBONE",
		"latitude": "60-43-42.31 N",
		"longitude": "151-3-18.21 W",
		"state": "ALASKA",
		"artcc": "ZAN",
		"type": "RP",
		"updated": "EDF*TACAN*212.43/49.15"
	},
	{
		"name": "TDGNY",
		"latitude": "54-36-46.65 N",
		"longitude": "131-8-32.76 W",
		"state": "ALASKA",
		"artcc": "ZAN",
		"type": "CN",
		"updated": "06/17/2002"
	},
	{
		"name": "TDNBG",
		"latitude": "54-38-37.17 N",
		"longitude": "130-58-19.96 W",
		"state": "ALASKA",
		"artcc": "ZAN",
		"type": "CN",
		"updated": "06/17/2002"
	},
	{
		"name": "TDNSS",
		"latitude": "54-31-5.93 N",
		"longitude": "131-39-27.01 W",
		"state": "ALASKA",
		"artcc": "ZAN",
		"type": "CN",
		"updated": "06/17/2002"
	},
	{
		"name": "TEBCY",
		"latitude": "62-36-7.12 N",
		"longitude": "164-17-14.44 W",
		"state": "ALASKA",
		"artcc": "ZAN",
		"type": "RNAV",
		"updated": "05/03/2007"
	},
	{
		"name": "TECLY",
		"latitude": "56-8-45 N",
		"longitude": "132-55-30 W",
		"state": "ALASKA",
		"artcc": "ZAN",
		"type": "RNAV",
		"updated": "07/12/2004"
	},
	{
		"name": "TECOD",
		"latitude": "59-39-30.95 N",
		"longitude": "146-15-44.45 W",
		"state": "ALASKA",
		"artcc": "ZAN",
		"type": "RNAV",
		"updated": "12/13/2011"
	},
	{
		"name": "TECON",
		"latitude": "55-0-35.96 N",
		"longitude": "162-12-14.27 W",
		"state": "ALASKA",
		"artcc": "ZAN",
		"type": "RP",
		"updated": "CDB*VORTAC*114.00/24.99"
	},
	{
		"name": "TECWA",
		"latitude": "70-36-13.13 N",
		"longitude": "160-14-34.03 W",
		"state": "ALASKA",
		"artcc": "ZAN",
		"type": "RNAV",
		"updated": "09/25/2009"
	},
	{
		"name": "TEGDE",
		"latitude": "67-22-45.18 N",
		"longitude": "151-8-35.3 W",
		"state": "ALASKA",
		"artcc": "ZAN",
		"type": "RP",
		"updated": "EAV*NDB*357.62"
	},
	{
		"name": "TEGNE",
		"latitude": "63-37-0.11 N",
		"longitude": "144-24-17.01 W",
		"state": "ALASKA",
		"artcc": "ZAN",
		"type": "MW",
		"updated": "12/09/2013"
	},
	{
		"name": "TEKME",
		"latitude": "71-17-5.56 N",
		"longitude": "156-43-4.94 W",
		"state": "ALASKA",
		"artcc": "ZAN",
		"type": "RP",
		"updated": "BRW*VOR/DME*044.00/1.52"
	},
	{
		"name": "TEKOC",
		"latitude": "60-24-12.83 N",
		"longitude": "162-9-11.47 W",
		"state": "ALASKA",
		"artcc": "ZAN",
		"type": "RNAV",
		"updated": "04/02/2008"
	},
	{
		"name": "TEKUC",
		"latitude": "66-53-49.45 N",
		"longitude": "156-9-43.56 W",
		"state": "ALASKA",
		"artcc": "ZAN",
		"type": "RNAV",
		"updated": "09/21/2007"
	},
	{
		"name": "TEMPS",
		"latitude": "61-9-12 N",
		"longitude": "150-18-30 W",
		"state": "ALASKA",
		"artcc": "ZAN",
		"type": "WP",
		"updated": "10/02/1995"
	},
	{
		"name": "TERNN",
		"latitude": "58-20-53.31 N",
		"longitude": "134-31-38.7 W",
		"state": "ALASKA",
		"artcc": "ZAN",
		"type": "RNAV",
		"updated": "05/18/2016"
	},
	{
		"name": "TESMA",
		"latitude": "68-26-42 N",
		"longitude": "168-58-24 W",
		"state": "",
		"artcc": "ZAN",
		"type": "RNAV",
		"updated": "12/05/2016"
	},
	{
		"name": "TESPE",
		"latitude": "54-55-58.89 N",
		"longitude": "164-46-55.85 W",
		"state": "ALASKA",
		"artcc": "ZAN",
		"type": "RP",
		"updated": "CDB*VORTAC*/72.07"
	},
	{
		"name": "TESUE",
		"latitude": "57-45-29.56 N",
		"longitude": "152-25-51.49 W",
		"state": "ALASKA",
		"artcc": "ZAN",
		"type": "RP",
		"updated": "ODK*VOR/DME*236.98/3.07"
	},
	{
		"name": "TEYUT",
		"latitude": "62-8-3.03 N",
		"longitude": "163-37-44.98 W",
		"state": "ALASKA",
		"artcc": "ZAN",
		"type": "RNAV",
		"updated": "03/19/2012"
	},
	{
		"name": "THEPS",
		"latitude": "64-7-22.34 N",
		"longitude": "160-59-3.74 W",
		"state": "ALASKA",
		"artcc": "ZAN",
		"type": "RP",
		"updated": "UNK*VOR/DME*315.45/16.00"
	},
	{
		"name": "TIBOY",
		"latitude": "63-0-59.18 N",
		"longitude": "141-0-0 W",
		"state": "ALASKA",
		"artcc": "ZAN",
		"type": "RP",
		"updated": "ORT*VORTAC*056.12/25.33"
	},
	{
		"name": "TICCU",
		"latitude": "52-0-58.12 N",
		"longitude": "176-6-7.94 W",
		"state": "ALASKA",
		"artcc": "ZAN",
		"type": "RP",
		"updated": "ADK*NDB/DME*060.44/22.96"
	},
	{
		"name": "TICUR",
		"latitude": "62-52-1.29 N",
		"longitude": "160-19-9.55 W",
		"state": "ALASKA",
		"artcc": "ZAN",
		"type": "RNAV",
		"updated": "07/29/2008"
	},
	{
		"name": "TIEKL",
		"latitude": "61-23-37.55 N",
		"longitude": "145-3-30.59 W",
		"state": "ALASKA",
		"artcc": "ZAN",
		"type": "RNAV",
		"updated": "11/01/2012"
	},
	{
		"name": "TIGUE",
		"latitude": "63-12-23.02 N",
		"longitude": "155-36-56.54 W",
		"state": "ALASKA",
		"artcc": "ZAN",
		"type": "RNAV",
		"updated": "10/26/2011"
	},
	{
		"name": "TIKGU",
		"latitude": "58-46-46.63 N",
		"longitude": "157-28-31.11 W",
		"state": "ALASKA",
		"artcc": "ZAN",
		"type": "RNAV",
		"updated": "03/14/2016"
	},
	{
		"name": "TIKOW",
		"latitude": "55-43-30 N",
		"longitude": "132-42-30 W",
		"state": "ALASKA",
		"artcc": "ZAN",
		"type": "RNAV",
		"updated": "07/12/2004"
	},
	{
		"name": "TILOY",
		"latitude": "62-2-36.26 N",
		"longitude": "161-14-41 W",
		"state": "ALASKA",
		"artcc": "ZAN",
		"type": "RNAV",
		"updated": "04/06/2004"
	},
	{
		"name": "TINOC",
		"latitude": "64-28-7.61 N",
		"longitude": "163-5-0.01 W",
		"state": "ALASKA",
		"artcc": "ZAN",
		"type": "RNAV",
		"updated": "10/13/2005"
	},
	{
		"name": "TINUC",
		"latitude": "64-39-30.44 N",
		"longitude": "155-39-58.69 W",
		"state": "ALASKA",
		"artcc": "ZAN",
		"type": "RNAV",
		"updated": "04/12/2007"
	},
	{
		"name": "TIPEH",
		"latitude": "57-8-31.35 N",
		"longitude": "135-31-59.52 W",
		"state": "ALASKA",
		"artcc": "ZAN",
		"type": "RNAV",
		"updated": "02/17/2006"
	},
	{
		"name": "TIQUL",
		"latitude": "70-13-55.98 N",
		"longitude": "146-33-39.87 W",
		"state": "ALASKA",
		"artcc": "ZAN",
		"type": "RNAV",
		"updated": "10/23/2008"
	},
	{
		"name": "TIRNE",
		"latitude": "65-17-29.4 N",
		"longitude": "146-25-36.6 W",
		"state": "ALASKA",
		"artcc": "ZAN",
		"type": "RP",
		"updated": "FAI*VORTAC*032.01/50.00"
	},
	{
		"name": "TITOC",
		"latitude": "66-9-57.57 N",
		"longitude": "166-30-3.22 W",
		"state": "ALASKA",
		"artcc": "ZAN",
		"type": "RNAV",
		"updated": "06/27/2005"
	},
	{
		"name": "TITUY",
		"latitude": "59-32-0.14 N",
		"longitude": "157-27-21.14 W",
		"state": "ALASKA",
		"artcc": "ZAN",
		"type": "RNAV",
		"updated": "10/05/2007"
	},
	{
		"name": "TIVSE",
		"latitude": "64-22-1.17 N",
		"longitude": "165-25-44.71 W",
		"state": "ALASKA",
		"artcc": "ZAN",
		"type": "RNAV",
		"updated": "08/09/2017"
	},
	{
		"name": "TMSON",
		"latitude": "61-2-36.58 N",
		"longitude": "145-7-50.63 W",
		"state": "ALASKA",
		"artcc": "ZAN",
		"type": "RNAV",
		"updated": "11/01/2012"
	},
	{
		"name": "TNAKY",
		"latitude": "58-3-26.03 N",
		"longitude": "135-3-30.36 W",
		"state": "ALASKA",
		"artcc": "ZAN",
		"type": "RNAV",
		"updated": "08/23/2016"
	},
	{
		"name": "TOBOY",
		"latitude": "59-5-23.04 N",
		"longitude": "135-21-25.35 W",
		"state": "ALASKA",
		"artcc": "ZAN",
		"type": "RNAV",
		"updated": "07/03/2013"
	},
	{
		"name": "TOCOT",
		"latitude": "64-17-56.88 N",
		"longitude": "163-1-40.8 W",
		"state": "ALASKA",
		"artcc": "ZAN",
		"type": "RNAV",
		"updated": "10/13/2005"
	},
	{
		"name": "TODCO",
		"latitude": "67-0-45.9 N",
		"longitude": "146-20-47.63 W",
		"state": "ALASKA",
		"artcc": "ZAN",
		"type": "RNAV",
		"updated": "03/03/2008"
	},
	{
		"name": "TODME",
		"latitude": "61-53-35.4 N",
		"longitude": "150-7-54.6 W",
		"state": "ALASKA",
		"artcc": "ZAN",
		"type": "CN",
		"updated": "06/25/2003"
	},
	{
		"name": "TOFYE",
		"latitude": "61-38-5.4 N",
		"longitude": "150-55-26.4 W",
		"state": "ALASKA",
		"artcc": "ZAN",
		"type": "CN",
		"updated": "06/25/2003"
	},
	{
		"name": "TOGGU",
		"latitude": "64-31-16.81 N",
		"longitude": "165-30-48.87 W",
		"state": "ALASKA",
		"artcc": "ZAN",
		"type": "RP",
		"updated": "OME*LD*278.74/1.04"
	},
	{
		"name": "TOKEE",
		"latitude": "55-54-45 N",
		"longitude": "133-22-43.71 W",
		"state": "ALASKA",
		"artcc": "ZAN",
		"type": "RP",
		"updated": "ANN*VOR/DME*289.55/80.00"
	},
	{
		"name": "TOLCI",
		"latitude": "60-52-16.25 N",
		"longitude": "155-50-50.82 W",
		"state": "ALASKA",
		"artcc": "ZAN",
		"type": "MW",
		"updated": "11/23/2015"
	},
	{
		"name": "TOLLO",
		"latitude": "65-6-11.66 N",
		"longitude": "148-58-34.3 W",
		"state": "ALASKA",
		"artcc": "ZAN",
		"type": "RP",
		"updated": "ENN*VORTAC*343.54/31.00"
	},
	{
		"name": "TOMMM",
		"latitude": "61-29-45 N",
		"longitude": "150-11-1 W",
		"state": "ALASKA",
		"artcc": "ZAN",
		"type": "RNAV",
		"updated": "12/13/2011"
	},
	{
		"name": "TOMMY",
		"latitude": "59-15-9.53 N",
		"longitude": "155-49-6.07 W",
		"state": "ALASKA",
		"artcc": "ZAN",
		"type": "RP",
		"updated": "AKN*VORTAC*026.00/43.00"
	},
	{
		"name": "TONGS",
		"latitude": "55-28-41.25 N",
		"longitude": "131-55-31.56 W",
		"state": "ALASKA",
		"artcc": "ZAN",
		"type": "RNAV",
		"updated": "03/14/2011"
	},
	{
		"name": "TOORR",
		"latitude": "61-2-4.02 N",
		"longitude": "161-58-39.73 W",
		"state": "ALASKA",
		"artcc": "ZAN",
		"type": "RNAV",
		"updated": "02/29/2012"
	},
	{
		"name": "TOPQI",
		"latitude": "70-40-19.37 N",
		"longitude": "159-44-44.4 W",
		"state": "ALASKA",
		"artcc": "ZAN",
		"type": "RNAV",
		"updated": "09/24/2009"
	},
	{
		"name": "TORSK",
		"latitude": "58-20-27.06 N",
		"longitude": "134-30-11.27 W",
		"state": "ALASKA",
		"artcc": "ZAN",
		"type": "RNAV",
		"updated": "10/27/2014"
	},
	{
		"name": "TORTE",
		"latitude": "61-10-14.97 N",
		"longitude": "151-55-35.83 W",
		"state": "ALASKA",
		"artcc": "ZAN",
		"type": "RP",
		"updated": "TED*VOR/DME*253.04/57.14"
	},
	{
		"name": "TOSIN",
		"latitude": "61-44-21.62 N",
		"longitude": "145-30-34.92 W",
		"state": "ALASKA",
		"artcc": "ZAN",
		"type": "RP",
		"updated": "GKN*VOR/DME*161.08/25.00"
	},
	{
		"name": "TOSPY",
		"latitude": "61-28-7.2 N",
		"longitude": "149-37-26.4 W",
		"state": "ALASKA",
		"artcc": "ZAN",
		"type": "CN",
		"updated": "06/25/2003"
	},
	{
		"name": "TOSUE",
		"latitude": "51-51-34.15 N",
		"longitude": "176-43-7.47 W",
		"state": "ALASKA",
		"artcc": "ZAN",
		"type": "RNAV",
		"updated": "12/16/2009"
	},
	{
		"name": "TOTLE",
		"latitude": "64-3-42.33 N",
		"longitude": "149-11-32.29 W",
		"state": "ALASKA",
		"artcc": "ZAN",
		"type": "RNAV",
		"updated": "04/13/2017"
	},
	{
		"name": "TOTSE",
		"latitude": "66-46-39.45 N",
		"longitude": "162-6-25.04 W",
		"state": "ALASKA",
		"artcc": "ZAN",
		"type": "RNAV",
		"updated": "08/09/2017"
	},
	{
		"name": "TOYKU",
		"latitude": "65-39-19.59 N",
		"longitude": "155-53-48 W",
		"state": "ALASKA",
		"artcc": "ZAN",
		"type": "RP",
		"updated": "HSL*VOR/DME*086.04/12.00"
	},
	{
		"name": "TOYNO",
		"latitude": "62-30-5.47 N",
		"longitude": "160-13-31.18 W",
		"state": "ALASKA",
		"artcc": "ZAN",
		"type": "RNAV",
		"updated": "07/29/2008"
	},
	{
		"name": "TOYUP",
		"latitude": "64-49-28.69 N",
		"longitude": "157-40-37.2 W",
		"state": "ALASKA",
		"artcc": "ZAN",
		"type": "RNAV",
		"updated": "12/01/2016"
	},
	{
		"name": "TRAID",
		"latitude": "56-30-14.79 N",
		"longitude": "132-25-42.68 W",
		"state": "ALASKA",
		"artcc": "ZAN",
		"type": "RNAV",
		"updated": "11/29/2012"
	},
	{
		"name": "TRDWL",
		"latitude": "58-14-53.62 N",
		"longitude": "134-19-41.66 W",
		"state": "ALASKA",
		"artcc": "ZAN",
		"type": "RNAV",
		"updated": "04/19/2018"
	},
	{
		"name": "TROLS",
		"latitude": "61-14-34.31 N",
		"longitude": "149-54-42.67 W",
		"state": "ALASKA",
		"artcc": "ZAN",
		"type": "MR",
		"updated": "EDF*TACAN*242.05/4.20"
	},
	{
		"name": "TRONN",
		"latitude": "56-37-11.69 N",
		"longitude": "169-48-27.88 W",
		"state": "ALASKA",
		"artcc": "ZAN",
		"type": "RP",
		"updated": "SRI*NDB/DME*286.61/5.98"
	},
	{
		"name": "TRPLN",
		"latitude": "65-5-1.32 N",
		"longitude": "147-31-20.12 W",
		"state": "ALASKA",
		"artcc": "ZAN",
		"type": "RNAV",
		"updated": "10/21/2015"
	},
	{
		"name": "TRUDI",
		"latitude": "64-4-4.66 N",
		"longitude": "145-35-42.81 W",
		"state": "ALASKA",
		"artcc": "ZAN",
		"type": "RP",
		"updated": "BIG*VORTAC*017.00/5.00"
	},
	{
		"name": "TRUKE",
		"latitude": "58-45-8.74 N",
		"longitude": "162-1-42.05 W",
		"state": "ALASKA",
		"artcc": "ZAN",
		"type": "MR",
		"updated": "EHM*NDB/DME*001.75/5.97"
	},
	{
		"name": "TRUMN",
		"latitude": "62-0-6.01 N",
		"longitude": "160-0-50.44 W",
		"state": "ALASKA",
		"artcc": "ZAN",
		"type": "RNAV",
		"updated": "09/25/2009"
	},
	{
		"name": "TTAUN",
		"latitude": "51-52-12.56 N",
		"longitude": "176-40-51.28 W",
		"state": "ALASKA",
		"artcc": "ZAN",
		"type": "RNAV",
		"updated": "05/08/2008"
	},
	{
		"name": "TUBDE",
		"latitude": "66-55-6.42 N",
		"longitude": "163-2-26.25 W",
		"state": "ALASKA",
		"artcc": "ZAN",
		"type": "RP",
		"updated": "OTZ*LD*W CRS/11.31"
	},
	{
		"name": "TUBNE",
		"latitude": "64-10-39.97 N",
		"longitude": "145-37-5.64 W",
		"state": "ALASKA",
		"artcc": "ZAN",
		"type": "MR",
		"updated": "FAI*VORTAC*099.00/72.55"
	},
	{
		"name": "TUBRE",
		"latitude": "56-51-18.95 N",
		"longitude": "132-49-42.28 W",
		"state": "ALASKA",
		"artcc": "ZAN",
		"type": "RNAV",
		"updated": "08/08/2016"
	},
	{
		"name": "TUCCI",
		"latitude": "61-33-15.53 N",
		"longitude": "159-2-25.77 W",
		"state": "ALASKA",
		"artcc": "ZAN",
		"type": "RNAV",
		"updated": "09/09/2009"
	},
	{
		"name": "TUCDU",
		"latitude": "61-51-6.89 N",
		"longitude": "165-30-19.5 W",
		"state": "ALASKA",
		"artcc": "ZAN",
		"type": "RNAV",
		"updated": "06/16/2009"
	},
	{
		"name": "TUCKS",
		"latitude": "60-13-22.83 N",
		"longitude": "152-27-39.48 W",
		"state": "ALASKA",
		"artcc": "ZAN",
		"type": "RP",
		"updated": "HOM*VOR/DME*301.00"
	},
	{
		"name": "TUCOD",
		"latitude": "56-58-9.57 N",
		"longitude": "132-53-57.4 W",
		"state": "ALASKA",
		"artcc": "ZAN",
		"type": "RP",
		"updated": "PSG*DD*344.00/10.18"
	},
	{
		"name": "TUCUL",
		"latitude": "61-42-30.58 N",
		"longitude": "165-12-12.55 W",
		"state": "ALASKA",
		"artcc": "ZAN",
		"type": "RNAV",
		"updated": "08/01/2007"
	},
	{
		"name": "TUDUE",
		"latitude": "62-27-39.73 N",
		"longitude": "160-24-56.08 W",
		"state": "ALASKA",
		"artcc": "ZAN",
		"type": "RNAV",
		"updated": "07/29/2008"
	},
	{
		"name": "TUJVE",
		"latitude": "59-54-53.4 N",
		"longitude": "149-20-22.22 W",
		"state": "ALASKA",
		"artcc": "ZAN",
		"type": "RNAV",
		"updated": "05/20/2011"
	},
	{
		"name": "TULLI",
		"latitude": "61-10-3.11 N",
		"longitude": "150-11-44.06 W",
		"state": "ALASKA",
		"artcc": "ZAN",
		"type": "RP",
		"updated": "ANC*LD*W CRS/6.67"
	},
	{
		"name": "TULOC",
		"latitude": "56-24-15.06 N",
		"longitude": "157-57-41.29 W",
		"state": "ALASKA",
		"artcc": "ZAN",
		"type": "RNAV",
		"updated": "10/23/2008"
	},
	{
		"name": "TUNDA",
		"latitude": "70-53-10.21 N",
		"longitude": "153-18-11 W",
		"state": "ALASKA",
		"artcc": "ZAN",
		"type": "RP",
		"updated": "BRW*VOR/DME*088.25/72.00"
	},
	{
		"name": "TUNLL",
		"latitude": "62-53-23.82 N",
		"longitude": "148-58-17.47 W",
		"state": "ALASKA",
		"artcc": "ZAN",
		"type": "RNAV",
		"updated": "12/21/2015"
	},
	{
		"name": "TUNND",
		"latitude": "68-55-4.28 N",
		"longitude": "165-49-53.98 W",
		"state": "ALASKA",
		"artcc": "ZAN",
		"type": "MR",
		"updated": "LUR*NDB/DME*050.00/6.00"
	},
	{
		"name": "TURKS",
		"latitude": "56-42-59.81 N",
		"longitude": "133-23-4.62 W",
		"state": "ALASKA",
		"artcc": "ZAN",
		"type": "RP",
		"updated": "SQM*NDB*307.96"
	},
	{
		"name": "TURTY",
		"latitude": "55-48-26.84 N",
		"longitude": "133-8-58.14 W",
		"state": "ALASKA",
		"artcc": "ZAN",
		"type": "RNAV",
		"updated": "05/12/2016"
	},
	{
		"name": "TUVVO",
		"latitude": "67-37-20.07 N",
		"longitude": "146-4-48.62 W",
		"state": "ALASKA",
		"artcc": "ZAN",
		"type": "RP",
		"updated": "FYU*VORTAC*318.74/65.86"
	},
	{
		"name": "TUXTY",
		"latitude": "64-46-45.5 N",
		"longitude": "147-54-50.47 W",
		"state": "ALASKA",
		"artcc": "ZAN",
		"type": "RNAV",
		"updated": "03/11/2009"
	},
	{
		"name": "TUYOC",
		"latitude": "58-20-3.01 N",
		"longitude": "155-55-35.77 W",
		"state": "ALASKA",
		"artcc": "ZAN",
		"type": "RNAV",
		"updated": "AKN*VORTAC*115.77/35.00"
	},
	{
		"name": "TUYOY",
		"latitude": "64-59-29.39 N",
		"longitude": "157-21-7.46 W",
		"state": "ALASKA",
		"artcc": "ZAN",
		"type": "RNAV",
		"updated": "09/09/2009"
	},
	{
		"name": "TWIGI",
		"latitude": "60-38-52.1 N",
		"longitude": "151-27-26.68 W",
		"state": "ALASKA",
		"artcc": "ZAN",
		"type": "RP",
		"updated": "ENA*VOR/DME*265.53/8.00"
	}
]
