	{
		"name": "UBARE",
		"latitude": "65-27-51.41 N",
		"longitude": "167-52-50.16 W",
		"state": "ALASKA",
		"artcc": "ZAN",
		"type": "MR",
		"updated": "TNC*NDB/DME*159.32/5.97",
	},
	{
		"name": "UBBOQ",
		"latitude": "59-0-44.25 N",
		"longitude": "158-46-12.94 W",
		"state": "ALASKA",
		"artcc": "ZAN",
		"type": "RNAV",
		"updated": "07/08/2009",
	},
	{
		"name": "UBEGE",
		"latitude": "62-39-24.82 N",
		"longitude": "159-15-34.36 W",
		"state": "ALASKA",
		"artcc": "ZAN",
		"type": "RNAV",
		"updated": "08/26/2008",
	},
	{
		"name": "UBGEW",
		"latitude": "65-3-0.19 N",
		"longitude": "147-25-2.22 W",
		"state": "ALASKA",
		"artcc": "ZAN",
		"type": "RP",
		"updated": "03/19/2012",
	},
	{
		"name": "UBICE",
		"latitude": "59-28-17.7 N",
		"longitude": "155-20-32.05 W",
		"state": "ALASKA",
		"artcc": "ZAN",
		"type": "RNAV",
		"updated": "05/26/2006",
	},
	{
		"name": "UBYEF",
		"latitude": "70-7-3.25 N",
		"longitude": "147-47-22.17 W",
		"state": "ALASKA",
		"artcc": "ZAN",
		"type": "RNAV",
		"updated": "08/25/2017",
	},
	{
		"name": "UCABU",
		"latitude": "61-39-8 N",
		"longitude": "149-18-52 W",
		"state": "ALASKA",
		"artcc": "ZAN",
		"type": "RNAV",
		"updated": "05/19/2015",
	},
	{
		"name": "UCANE",
		"latitude": "66-59-44.69 N",
		"longitude": "160-4-18.17 W",
		"state": "ALASKA",
		"artcc": "ZAN",
		"type": "RNAV",
		"updated": "07/07/2005",
	},
	{
		"name": "UCARU",
		"latitude": "55-15-20.24 N",
		"longitude": "131-35-2.59 W",
		"state": "ALASKA",
		"artcc": "ZAN",
		"type": "RP",
		"updated": "CMJ*NDB*123.83",
	},
	{
		"name": "UCEGE",
		"latitude": "64-53-27.58 N",
		"longitude": "157-32-51.15 W",
		"state": "ALASKA",
		"artcc": "ZAN",
		"type": "RNAV",
		"updated": "09/09/2009",
	},
	{
		"name": "UCIRO",
		"latitude": "70-8-44.83 N",
		"longitude": "148-59-30.78 W",
		"state": "ALASKA",
		"artcc": "ZAN",
		"type": "RP",
		"updated": "SCC*VOR/DME*224.06/12.20",
	},
	{
		"name": "UCLON",
		"latitude": "55-18-25.55 N",
		"longitude": "162-2-56.29 W",
		"state": "ALASKA",
		"artcc": "ZAN",
		"type": "RP",
		"updated": "CDB*VORTAC*070.21/24.99",
	},
	{
		"name": "UCOSO",
		"latitude": "56-59-39.03 N",
		"longitude": "133-58-56.14 W",
		"state": "ALASKA",
		"artcc": "ZAN",
		"type": "RNAV",
		"updated": "08/31/2004",
	},
	{
		"name": "UCUXY",
		"latitude": "57-26-0 N",
		"longitude": "133-42-0 W",
		"state": "ALASKA",
		"artcc": "ZAN",
		"type": "RNAV",
		"updated": "07/12/2004",
	},
	{
		"name": "UDAYE",
		"latitude": "63-12-11.47 N",
		"longitude": "153-57-5.96 W",
		"state": "ALASKA",
		"artcc": "ZAN",
		"type": "RNAV",
		"updated": "09/01/2005",
	},
	{
		"name": "UDENE",
		"latitude": "55-41-30.61 N",
		"longitude": "132-53-58.42 W",
		"state": "ALASKA",
		"artcc": "ZAN",
		"type": "RP",
		"updated": "AKW*NDB/DME*019.47/9.60",
	},
	{
		"name": "UDOCO",
		"latitude": "58-57-49.48 N",
		"longitude": "155-55-48.79 W",
		"state": "ALASKA",
		"artcc": "ZAN",
		"type": "RNAV",
		"updated": "07/07/2014",
	},
	{
		"name": "UFMUP",
		"latitude": "55-54-45 N",
		"longitude": "132-32-0 W",
		"state": "ALASKA",
		"artcc": "ZAN",
		"type": "RNAV",
		"updated": "07/12/2004",
	},
	{
		"name": "UFTIV",
		"latitude": "58-56-59.43 N",
		"longitude": "158-14-31.06 W",
		"state": "ALASKA",
		"artcc": "ZAN",
		"type": "RP",
		"updated": "DLG*VOR/DME*090.35/10.00",
	},
	{
		"name": "UGAKY",
		"latitude": "67-2-54.9 N",
		"longitude": "150-49-57.24 W",
		"state": "ALASKA",
		"artcc": "ZAN",
		"type": "RNAV",
		"updated": "11/18/2014",
	},
	{
		"name": "UGEDY",
		"latitude": "70-18-13.2 N",
		"longitude": "146-41-9.89 W",
		"state": "ALASKA",
		"artcc": "ZAN",
		"type": "RNAV",
		"updated": "08/06/2008",
	},
	{
		"name": "UGIPE",
		"latitude": "66-5-30.82 N",
		"longitude": "166-24-30.07 W",
		"state": "ALASKA",
		"artcc": "ZAN",
		"type": "RNAV",
		"updated": "06/27/2005",
	},
	{
		"name": "UGWIX",
		"latitude": "54-8-48.43 N",
		"longitude": "165-37-41.93 W",
		"state": "ALASKA",
		"artcc": "ZAN",
		"type": "RNAV",
		"updated": "06/02/2014",
	},
	{
		"name": "UHEPU",
		"latitude": "61-7-22 N",
		"longitude": "149-51-24 W",
		"state": "ALASKA",
		"artcc": "ZAN",
		"type": "RNAV",
		"updated": "07/11/2005",
	},
	{
		"name": "UJPAY",
		"latitude": "62-59-46.49 N",
		"longitude": "159-37-44.6 W",
		"state": "ALASKA",
		"artcc": "ZAN",
		"type": "RNAV",
		"updated": "08/17/2017",
	},
	{
		"name": "UJXUW",
		"latitude": "59-2-32.27 N",
		"longitude": "160-24-58.75 W",
		"state": "ALASKA",
		"artcc": "ZAN",
		"type": "RNAV",
		"updated": "04/18/2018",
	},
	{
		"name": "UKCOR",
		"latitude": "64-49-18.85 N",
		"longitude": "148-7-13.72 W",
		"state": "ALASKA",
		"artcc": "ZAN",
		"type": "RNAV",
		"updated": "05/01/2017",
	},
	{
		"name": "UKEYU",
		"latitude": "55-31-7.39 N",
		"longitude": "160-34-12.39 W",
		"state": "ALASKA",
		"artcc": "ZAN",
		"type": "RNAV",
		"updated": "04/17/2006",
	},
	{
		"name": "UKICI",
		"latitude": "66-53-52.2 N",
		"longitude": "156-48-22 W",
		"state": "ALASKA",
		"artcc": "ZAN",
		"type": "RNAV",
		"updated": "09/21/2007",
	},
	{
		"name": "UKOBE",
		"latitude": "66-57-29.63 N",
		"longitude": "160-45-1.57 W",
		"state": "ALASKA",
		"artcc": "ZAN",
		"type": "RNAV",
		"updated": "07/07/2005",
	},
	{
		"name": "UKSEC",
		"latitude": "56-41-52.79 N",
		"longitude": "134-30-47.13 W",
		"state": "ALASKA",
		"artcc": "ZAN",
		"type": "RNAV",
		"updated": "07/12/2004",
	},
	{
		"name": "UKUYU",
		"latitude": "70-9-45.66 N",
		"longitude": "151-14-28.29 W",
		"state": "ALASKA",
		"artcc": "ZAN",
		"type": "RNAV",
		"updated": "12/03/2003",
	},
	{
		"name": "ULAST",
		"latitude": "66-43-53.75 N",
		"longitude": "144-25-17.97 W",
		"state": "ALASKA",
		"artcc": "ZAN",
		"type": "RNAV",
		"updated": "02/09/2018",
	},
	{
		"name": "ULAVY",
		"latitude": "68-11-3.85 N",
		"longitude": "166-30-15.27 W",
		"state": "ALASKA",
		"artcc": "ZAN",
		"type": "RNAV",
		"updated": "09/09/2013",
	},
	{
		"name": "ULETE",
		"latitude": "58-38-53.81 N",
		"longitude": "156-35-17.58 W",
		"state": "ALASKA",
		"artcc": "ZAN",
		"type": "RP",
		"updated": "AKN*VORTAC*/6.89",
	},
	{
		"name": "ULOVE",
		"latitude": "60-36-6.87 N",
		"longitude": "161-39-43.87 W",
		"state": "ALASKA",
		"artcc": "ZAN",
		"type": "RP",
		"updated": "BET*VORTAC*142.44/12.00",
	},
	{
		"name": "UMYAR",
		"latitude": "67-16-3.14 N",
		"longitude": "151-2-22.8 W",
		"state": "ALASKA",
		"artcc": "ZAN",
		"type": "RNAV",
		"updated": "03/16/2018",
	},
	{
		"name": "UNAWO",
		"latitude": "60-41-52 N",
		"longitude": "162-33-50.07 W",
		"state": "ALASKA",
		"artcc": "ZAN",
		"type": "RNAV",
		"updated": "07/03/2013",
	},
	{
		"name": "UNCUS",
		"latitude": "58-21-16.09 N",
		"longitude": "134-39-7.32 W",
		"state": "ALASKA",
		"artcc": "ZAN",
		"type": "RNAV",
		"updated": "04/20/2017",
	},
	{
		"name": "UNEKY",
		"latitude": "57-10-1.03 N",
		"longitude": "133-11-42.16 W",
		"state": "ALASKA",
		"artcc": "ZAN",
		"type": "RP",
		"updated": "LVD*VOR/DME*335.03/42.21",
	},
	{
		"name": "UNETE",
		"latitude": "55-14-54.15 N",
		"longitude": "163-3-49.15 W",
		"state": "ALASKA",
		"artcc": "ZAN",
		"type": "RP",
		"updated": "CDB*VORTAC*249.56/10.00",
	},
	{
		"name": "UPAKY",
		"latitude": "56-59-29.28 N",
		"longitude": "134-5-15.09 W",
		"state": "ALASKA",
		"artcc": "ZAN",
		"type": "RP",
		"updated": "AFE*NDB/DME*265.10/6.00",
	},
	{
		"name": "UPINE",
		"latitude": "68-7-10.88 N",
		"longitude": "151-47-16.09 W",
		"state": "ALASKA",
		"artcc": "ZAN",
		"type": "RNAV",
		"updated": "12/27/2012",
	},
	{
		"name": "UPPIV",
		"latitude": "57-7-1.21 N",
		"longitude": "158-49-56.86 W",
		"state": "ALASKA",
		"artcc": "ZAN",
		"type": "RNAV",
		"updated": "02/09/2018",
	},
	{
		"name": "URAKY",
		"latitude": "66-32-49.67 N",
		"longitude": "159-32-4.35 W",
		"state": "ALASKA",
		"artcc": "ZAN",
		"type": "RNAV",
		"updated": "05/10/2007",
	},
	{
		"name": "UREKA",
		"latitude": "61-58-21 N",
		"longitude": "146-59-50.22 W",
		"state": "ALASKA",
		"artcc": "ZAN",
		"type": "RP",
		"updated": "GKN*VOR/DME*233.69/45.10",
	},
	{
		"name": "URICA",
		"latitude": "60-31-26.39 N",
		"longitude": "161-47-52.99 W",
		"state": "ALASKA",
		"artcc": "ZAN",
		"type": "RNAV",
		"updated": "01/28/2004",
	},
	{
		"name": "URSAA",
		"latitude": "64-33-13.29 N",
		"longitude": "148-14-59.51 W",
		"state": "ALASKA",
		"artcc": "ZAN",
		"type": "RNAV",
		"updated": "08/08/2012",
	},
	{
		"name": "URTOW",
		"latitude": "62-4-1.03 N",
		"longitude": "150-3-39.26 W",
		"state": "ALASKA",
		"artcc": "ZAN",
		"type": "RP",
		"updated": "TKA*VOR/DME*155.84/13.98",
	},
	{
		"name": "URUPE",
		"latitude": "64-31-48.95 N",
		"longitude": "165-34-17.54 W",
		"state": "ALASKA",
		"artcc": "ZAN",
		"type": "RP",
		"updated": "OME*LD*W CRS/2.63",
	},
	{
		"name": "URUQU",
		"latitude": "71-22-1.18 N",
		"longitude": "156-10-5.78 W",
		"state": "ALASKA",
		"artcc": "ZAN",
		"type": "RNAV",
		"updated": "05/13/2010",
	},
	{
		"name": "USAZY",
		"latitude": "64-52-45.84 N",
		"longitude": "147-44-39.89 W",
		"state": "ALASKA",
		"artcc": "ZAN",
		"type": "RNAV",
		"updated": "05/01/2017",
	},
	{
		"name": "USOXY",
		"latitude": "62-29-21.58 N",
		"longitude": "145-10-48.72 W",
		"state": "ALASKA",
		"artcc": "ZAN",
		"type": "MW",
		"updated": "12/09/2013",
	},
	{
		"name": "USUHU",
		"latitude": "53-56-38.96 N",
		"longitude": "166-33-36.84 W",
		"state": "ALASKA",
		"artcc": "ZAN",
		"type": "RNAV",
		"updated": "06/08/2000",
	},
	{
		"name": "USUKY",
		"latitude": "61-53-53.4 N",
		"longitude": "150-29-24.6 W",
		"state": "ALASKA",
		"artcc": "ZAN",
		"type": "RNAV",
		"updated": "01/19/2017",
	},
	{
		"name": "UTANY",
		"latitude": "60-16-53.18 N",
		"longitude": "149-23-3.04 W",
		"state": "ALASKA",
		"artcc": "ZAN",
		"type": "RNAV",
		"updated": "05/16/2011",
	},
	{
		"name": "UTICE",
		"latitude": "62-18-35.36 N",
		"longitude": "157-37-56.78 W",
		"state": "ALASKA",
		"artcc": "ZAN",
		"type": "RNAV",
		"updated": "03/14/2014",
	},
	{
		"name": "UTIGE",
		"latitude": "61-52-40.03 N",
		"longitude": "165-19-50.98 W",
		"state": "ALASKA",
		"artcc": "ZAN",
		"type": "RNAV",
		"updated": "06/16/2009",
	},
	{
		"name": "UTKOW",
		"latitude": "59-15-46.5 N",
		"longitude": "158-43-22.06 W",
		"state": "ALASKA",
		"artcc": "ZAN",
		"type": "RP",
		"updated": "DLG*VOR/DME*327.00/17.00",
	},
	{
		"name": "UVALL",
		"latitude": "69-56-53.33 N",
		"longitude": "148-9-42.88 W",
		"state": "ALASKA",
		"artcc": "ZAN",
		"type": "RP",
		"updated": "SCC*VOR/DME*143.82/16.00",
	},
	{
		"name": "UVARE",
		"latitude": "70-24-47.97 N",
		"longitude": "156-50-51.6 W",
		"state": "ALASKA",
		"artcc": "ZAN",
		"type": "RNAV",
		"updated": "12/27/2005",
	},
	{
		"name": "UVDAH",
		"latitude": "54-7-24.48 N",
		"longitude": "165-22-18.03 W",
		"state": "ALASKA",
		"artcc": "ZAN",
		"type": "RNAV",
		"updated": "06/02/2014",
	},
	{
		"name": "UVEPE",
		"latitude": "59-13-28.55 N",
		"longitude": "159-59-51.13 W",
		"state": "ALASKA",
		"artcc": "ZAN",
		"type": "RNAV",
		"updated": "04/18/2018",
	},
	{
		"name": "UVHAL",
		"latitude": "59-8-18.98 N",
		"longitude": "158-4-49.38 W",
		"state": "ALASKA",
		"artcc": "ZAN",
		"type": "RP",
		"updated": "DLG*VOR/DME*044.08/17.00",
	},
	{
		"name": "UVUTE",
		"latitude": "62-56-39.78 N",
		"longitude": "141-18-41.56 W",
		"state": "ALASKA",
		"artcc": "ZAN",
		"type": "RNAV",
		"updated": "11/14/2006",
	},
	{
		"name": "UWUJO",
		"latitude": "67-32-35.09 N",
		"longitude": "150-1-37.53 W",
		"state": "ALASKA",
		"artcc": "ZAN",
		"type": "RNAV",
		"updated": "08/17/2017",
	},
	{
		"name": "UXSOJ",
		"latitude": "62-54-20.68 N",
		"longitude": "160-3-54.21 W",
		"state": "ALASKA",
		"artcc": "ZAN",
		"type": "RNAV",
		"updated": "08/17/2017",
	},
	{
		"name": "UYABI",
		"latitude": "60-29-59.48 N",
		"longitude": "145-38-1.69 W",
		"state": "ALASKA",
		"artcc": "ZAN",
		"type": "RNAV",
		"updated": "09/12/2016",
	},
	{
		"name": "UYADA",
		"latitude": "62-26-33.67 N",
		"longitude": "160-3-32.4 W",
		"state": "ALASKA",
		"artcc": "ZAN",
		"type": "RNAV",
		"updated": "07/29/2008",
	},
	{
		"name": "UYIJI",
		"latitude": "62-53-52.96 N",
		"longitude": "159-35-28.73 W",
		"state": "ALASKA",
		"artcc": "ZAN",
		"type": "RNAV",
		"updated": "08/17/2017",
	},
	{
		"name": "UYOVA",
		"latitude": "64-52-17.29 N",
		"longitude": "147-17-9.68 W",
		"state": "ALASKA",
		"artcc": "ZAN",
		"type": "MR",
		"updated": "EIL*TACAN*/14.00",
	},
	{
		"name": "UYUCE",
		"latitude": "62-41-10.46 N",
		"longitude": "160-22-33.53 W",
		"state": "ALASKA",
		"artcc": "ZAN",
		"type": "RNAV",
		"updated": "08/17/2017",
	},
