[
	{
		"name": "VADUZ",
		"latitude": "63-51-25.59 N",
		"longitude": "171-45-40.99 W",
		"state": "ALASKA",
		"artcc": "ZAN",
		"type": "RNAV",
		"updated": "11/24/2014"
	},
	{
		"name": "VAGUY",
		"latitude": "66-54-54.49 N",
		"longitude": "163-2-30.42 W",
		"state": "ALASKA",
		"artcc": "ZAN",
		"type": "RP",
		"updated": "OTZ*VOR/DME*263.73/12.00"
	},
	{
		"name": "VALDA",
		"latitude": "64-23-35.96 N",
		"longitude": "171-5-17.99 W",
		"state": "OFFSHORE PACIFIC",
		"artcc": "ZAN",
		"type": "RNAV",
		"updated": "07/03/2017"
	},
	{
		"name": "VALNR",
		"latitude": "55-27-2.96 N",
		"longitude": "131-54-5.61 W",
		"state": "ALASKA",
		"artcc": "ZAN",
		"type": "RNAV",
		"updated": "07/29/2008"
	},
	{
		"name": "VALSY",
		"latitude": "71-17-5.53 N",
		"longitude": "156-41-4.57 W",
		"state": "ALASKA",
		"artcc": "ZAN",
		"type": "RP",
		"updated": "BRW*LD*071.00/1.00"
	},
	{
		"name": "VALUC",
		"latitude": "60-54-13.86 N",
		"longitude": "146-53-4.79 W",
		"state": "ALASKA",
		"artcc": "ZAN",
		"type": "RNAV",
		"updated": "11/09/2011"
	},
	{
		"name": "VATIC",
		"latitude": "64-57-24.42 N",
		"longitude": "157-50-29.59 W",
		"state": "ALASKA",
		"artcc": "ZAN",
		"type": "RNAV",
		"updated": "11/23/2016"
	},
	{
		"name": "VAVVU",
		"latitude": "61-31-58.78 N",
		"longitude": "165-36-41.69 W",
		"state": "ALASKA",
		"artcc": "ZAN",
		"type": "RNAV",
		"updated": "08/01/2007"
	},
	{
		"name": "VAYUT",
		"latitude": "59-43-6.46 N",
		"longitude": "154-55-24.83 W",
		"state": "ALASKA",
		"artcc": "ZAN",
		"type": "RNAV",
		"updated": "07/18/2012"
	},
	{
		"name": "VAZPU",
		"latitude": "56-27-24 N",
		"longitude": "132-25-56 W",
		"state": "ALASKA",
		"artcc": "ZAN",
		"type": "RNAV",
		"updated": "04/30/2013"
	},
	{
		"name": "VECUK",
		"latitude": "62-29-36.3 N",
		"longitude": "159-23-14.11 W",
		"state": "ALASKA",
		"artcc": "ZAN",
		"type": "RNAV",
		"updated": "08/26/2008"
	},
	{
		"name": "VEDDA",
		"latitude": "63-4-10.22 N",
		"longitude": "154-26-0 W",
		"state": "ALASKA",
		"artcc": "ZAN",
		"type": "MW",
		"updated": "12/09/2013"
	},
	{
		"name": "VEGHR",
		"latitude": "56-38-33 N",
		"longitude": "132-48-28.6 W",
		"state": "ALASKA",
		"artcc": "ZAN",
		"type": "RNAV",
		"updated": "03/26/2012"
	},
	{
		"name": "VEILL",
		"latitude": "61-8-13.91 N",
		"longitude": "154-15-45.68 W",
		"state": "ALASKA",
		"artcc": "ZAN",
		"type": "RP",
		"updated": "SQA*VOR/DME*068.07/40.00"
	},
	{
		"name": "VENCE",
		"latitude": "64-29-22.65 N",
		"longitude": "158-0-6.11 W",
		"state": "ALASKA",
		"artcc": "ZAN",
		"type": "RP",
		"updated": "GAL*VOR/DME*228.25/35.00"
	},
	{
		"name": "VEYBU",
		"latitude": "62-33-4.62 N",
		"longitude": "160-12-48 W",
		"state": "ALASKA",
		"artcc": "ZAN",
		"type": "RNAV",
		"updated": "07/29/2008"
	},
	{
		"name": "VEYYU",
		"latitude": "60-13-15.87 N",
		"longitude": "166-37-16.48 W",
		"state": "ALASKA",
		"artcc": "ZAN",
		"type": "RNAV",
		"updated": "09/19/2006"
	},
	{
		"name": "VEZHU",
		"latitude": "56-33-58.78 N",
		"longitude": "132-36-50.28 W",
		"state": "ALASKA",
		"artcc": "ZAN",
		"type": "RNAV",
		"updated": "04/30/2013"
	},
	{
		"name": "VIAGE",
		"latitude": "70-20-20.83 N",
		"longitude": "149-28-31.62 W",
		"state": "ALASKA",
		"artcc": "ZAN",
		"type": "RP",
		"updated": "RGN*LD*056.42/3.26"
	},
	{
		"name": "VIBBU",
		"latitude": "59-26-14.43 N",
		"longitude": "146-19-19.38 W",
		"state": "ALASKA",
		"artcc": "ZAN",
		"type": "RNAV",
		"updated": "11/25/2005"
	},
	{
		"name": "VICLU",
		"latitude": "61-32-55.3 N",
		"longitude": "165-35-24.72 W",
		"state": "ALASKA",
		"artcc": "ZAN",
		"type": "RNAV",
		"updated": "09/11/2007"
	},
	{
		"name": "VICSU",
		"latitude": "62-11-45.33 N",
		"longitude": "145-28-24.63 W",
		"state": "ALASKA",
		"artcc": "ZAN",
		"type": "RP",
		"updated": "GKN*VOR/DME*323.00/2.70"
	},
	{
		"name": "VICUB",
		"latitude": "60-18-24.87 N",
		"longitude": "162-0-50.88 W",
		"state": "ALASKA",
		"artcc": "ZAN",
		"type": "RNAV",
		"updated": "04/02/2008"
	},
	{
		"name": "VICUK",
		"latitude": "60-2-58.3 N",
		"longitude": "162-15-50.54 W",
		"state": "ALASKA",
		"artcc": "ZAN",
		"type": "RNAV",
		"updated": "04/02/2008"
	},
	{
		"name": "VIDDA",
		"latitude": "60-52-41.05 N",
		"longitude": "160-28-33.09 W",
		"state": "ALASKA",
		"artcc": "ZAN",
		"type": "RP",
		"updated": "BET*VORTAC*067.35/40.00"
	},
	{
		"name": "VIGGU",
		"latitude": "66-14-24.12 N",
		"longitude": "166-35-38.32 W",
		"state": "ALASKA",
		"artcc": "ZAN",
		"type": "RNAV",
		"updated": "06/27/2005"
	},
	{
		"name": "VIGUC",
		"latitude": "66-48-20.81 N",
		"longitude": "156-15-48.88 W",
		"state": "ALASKA",
		"artcc": "ZAN",
		"type": "RNAV",
		"updated": "09/21/2007"
	},
	{
		"name": "VIRUC",
		"latitude": "60-45-39.15 N",
		"longitude": "161-51-11.41 W",
		"state": "ALASKA",
		"artcc": "ZAN",
		"type": "RP",
		"updated": "BET*VORTAC*191.49/1.67"
	},
	{
		"name": "VISVY",
		"latitude": "52-41-17.27 N",
		"longitude": "174-16-32.03 E",
		"state": "ALASKA",
		"artcc": "ZAN",
		"type": "MR",
		"updated": "SYA*VORTAC*100.00/8.00"
	},
	{
		"name": "VIVUC",
		"latitude": "59-38-16.17 N",
		"longitude": "161-36-23.7 W",
		"state": "ALASKA",
		"artcc": "ZAN",
		"type": "RNAV",
		"updated": "01/29/2016"
	},
	{
		"name": "VIXEN",
		"latitude": "55-49-58.73 N",
		"longitude": "132-6-36.07 W",
		"state": "ALASKA",
		"artcc": "ZAN",
		"type": "WP",
		"updated": "02/27/1998"
	},
	{
		"name": "VIYUB",
		"latitude": "59-40-10.62 N",
		"longitude": "151-23-20.27 W",
		"state": "ALASKA",
		"artcc": "ZAN",
		"type": "RNAV",
		"updated": "05/17/2013"
	},
	{
		"name": "VOCUR",
		"latitude": "64-17-35.28 N",
		"longitude": "165-9-43.34 W",
		"state": "ALASKA",
		"artcc": "ZAN",
		"type": "RP",
		"updated": "OME*VOR/DME*157.35/11.80"
	},
	{
		"name": "VODUY",
		"latitude": "64-50-14.4 N",
		"longitude": "158-10-54.51 W",
		"state": "ALASKA",
		"artcc": "ZAN",
		"type": "RNAV",
		"updated": "09/09/2009"
	},
	{
		"name": "VOLOB",
		"latitude": "70-30-0 N",
		"longitude": "141-0-0 W",
		"state": "ALASKA",
		"artcc": "ZAN",
		"type": "RNAV",
		"updated": "06/27/2014"
	},
	{
		"name": "VONGE",
		"latitude": "56-31-44.33 N",
		"longitude": "132-43-5.66 W",
		"state": "ALASKA",
		"artcc": "ZAN",
		"type": "RNAV",
		"updated": "10/26/2015"
	},
	{
		"name": "VONNY",
		"latitude": "62-45-0 N",
		"longitude": "151-51-45 W",
		"state": "ALASKA",
		"artcc": "ZAN",
		"type": "RNAV",
		"updated": "04/04/2014"
	},
	{
		"name": "VOPCU",
		"latitude": "64-2-56.47 N",
		"longitude": "145-22-41.48 W",
		"state": "ALASKA",
		"artcc": "ZAN",
		"type": "MW",
		"updated": "11/28/2006"
	},
	{
		"name": "VORCU",
		"latitude": "60-42-1.12 N",
		"longitude": "161-29-45.54 W",
		"state": "ALASKA",
		"artcc": "ZAN",
		"type": "RNAV",
		"updated": "12/03/2008"
	},
	{
		"name": "VORUC",
		"latitude": "66-45-40.56 N",
		"longitude": "151-53-10.95 W",
		"state": "ALASKA",
		"artcc": "ZAN",
		"type": "RP",
		"updated": "BTT*VOR/DME*204.00/12.00"
	},
	{
		"name": "VOTOC",
		"latitude": "64-31-42.35 N",
		"longitude": "165-24-28.65 W",
		"state": "ALASKA",
		"artcc": "ZAN",
		"type": "RNAV",
		"updated": "08/09/2017"
	},
	{
		"name": "VOVUC",
		"latitude": "54-7-53.75 N",
		"longitude": "166-19-47.62 W",
		"state": "ALASKA",
		"artcc": "ZAN",
		"type": "RNAV",
		"updated": "06/16/2016"
	},
	{
		"name": "VOVUY",
		"latitude": "67-48-59.86 N",
		"longitude": "154-36-37.47 W",
		"state": "ALASKA",
		"artcc": "ZAN",
		"type": "RNAV",
		"updated": "11/15/2010"
	},
	{
		"name": "VOYUY",
		"latitude": "62-22-26.94 N",
		"longitude": "150-4-7.19 W",
		"state": "ALASKA",
		"artcc": "ZAN",
		"type": "RNAV",
		"updated": "07/13/2017"
	},
	{
		"name": "VSCOY",
		"latitude": "58-20-26.06 N",
		"longitude": "134-30-46.63 W",
		"state": "ALASKA",
		"artcc": "ZAN",
		"type": "RNAV",
		"updated": "05/18/2016"
	},
	{
		"name": "VULHO",
		"latitude": "56-49-5 N",
		"longitude": "132-49-30 W",
		"state": "ALASKA",
		"artcc": "ZAN",
		"type": "RNAV",
		"updated": "04/30/2013"
	},
	{
		"name": "VUPUY",
		"latitude": "62-48-29.93 N",
		"longitude": "160-9-2.65 W",
		"state": "ALASKA",
		"artcc": "ZAN",
		"type": "RNAV",
		"updated": "07/29/2008"
	},
	{
		"name": "VUSUY",
		"latitude": "63-26-2.3 N",
		"longitude": "160-52-5.19 W",
		"state": "ALASKA",
		"artcc": "ZAN",
		"type": "RP",
		"updated": "UNK*VOR/DME*175.19/28.00"
	},
	{
		"name": "VUWCU",
		"latitude": "66-54-23.21 N",
		"longitude": "150-29-40.74 W",
		"state": "ALASKA",
		"artcc": "ZAN",
		"type": "RNAV",
		"updated": "11/18/2014"
	},
	{
		"name": "VUWIB",
		"latitude": "70-0-49.01 N",
		"longitude": "148-56-6.86 W",
		"state": "ALASKA",
		"artcc": "ZAN",
		"type": "RNAV",
		"updated": "08/25/2017"
	},
	{
		"name": "VUYDU",
		"latitude": "65-20-19.2 N",
		"longitude": "156-42-16.77 W",
		"state": "ALASKA",
		"artcc": "ZAN",
		"type": "CN",
		"updated": "05/09/2006"
	},
	{
		"name": "VUYUV",
		"latitude": "63-34-18.24 N",
		"longitude": "161-59-30.34 W",
		"state": "ALASKA",
		"artcc": "ZAN",
		"type": "RNAV",
		"updated": "05/24/2007"
	},
	{
		"name": "VUYWO",
		"latitude": "61-9-57.41 N",
		"longitude": "150-28-16.54 W",
		"state": "ALASKA",
		"artcc": "ZAN",
		"type": "RNAV",
		"updated": "12/13/2011"
	},
	{
		"name": "VVALY",
		"latitude": "58-20-31.7 N",
		"longitude": "134-31-1.12 W",
		"state": "ALASKA",
		"artcc": "ZAN",
		"type": "RNAV",
		"updated": "04/20/2017"
	},
	{
		"name": "VVILT",
		"latitude": "58-55-0 N",
		"longitude": "142-0-0 W",
		"state": "OFFSHORE PACIFIC",
		"artcc": "ZAN",
		"type": "RNAV",
		"updated": "11/06/2015"
	}
]
