[
	{
		"name": "WABAK",
		"latitude": "57-54-51.58 N",
		"longitude": "152-10-11.01 W",
		"state": "ALASKA",
		"artcc": "ZAN",
		"type": "RP",
		"updated": "ODK*VOR/DME*019.00/10.02"
	},
	{
		"name": "WABIP",
		"latitude": "59-44-14.44 N",
		"longitude": "154-18-9.55 W",
		"state": "ALASKA",
		"artcc": "ZAN",
		"type": "RNAV",
		"updated": "03/30/2009"
	},
	{
		"name": "WABIR",
		"latitude": "64-45-53.81 N",
		"longitude": "147-11-24.47 W",
		"state": "ALASKA",
		"artcc": "ZAN",
		"type": "MR",
		"updated": "EIL*TACAN*/7.13"
	},
	{
		"name": "WADIN",
		"latitude": "64-52-13.62 N",
		"longitude": "155-3-18.01 W",
		"state": "ALASKA",
		"artcc": "ZAN",
		"type": "RNAV",
		"updated": "09/09/2008"
	},
	{
		"name": "WADTO",
		"latitude": "62-23-45 N",
		"longitude": "146-38-6.4 W",
		"state": "ALASKA",
		"artcc": "ZAN",
		"type": "MW",
		"updated": "12/09/2013"
	},
	{
		"name": "WADUB",
		"latitude": "66-20-16.96 N",
		"longitude": "146-53-59.18 W",
		"state": "ALASKA",
		"artcc": "ZAN",
		"type": "RNAV",
		"updated": "12/28/2004"
	},
	{
		"name": "WAGEN",
		"latitude": "58-53-21.74 N",
		"longitude": "162-18-0.27 W",
		"state": "ALASKA",
		"artcc": "ZAN",
		"type": "MW",
		"updated": "10/31/2017"
	},
	{
		"name": "WAGOL",
		"latitude": "61-8-34.77 N",
		"longitude": "149-51-12.8 W",
		"state": "ALASKA",
		"artcc": "ZAN",
		"type": "RNAV",
		"updated": "04/07/2017"
	},
	{
		"name": "WAGOV",
		"latitude": "55-15-26.95 N",
		"longitude": "131-32-44.86 W",
		"state": "ALASKA",
		"artcc": "ZAN",
		"type": "RNAV",
		"updated": "07/07/2008"
	},
	{
		"name": "WAGVI",
		"latitude": "64-25-22.62 N",
		"longitude": "165-11-41.22 W",
		"state": "ALASKA",
		"artcc": "ZAN",
		"type": "RNAV",
		"updated": "08/09/2017"
	},
	{
		"name": "WAHTO",
		"latitude": "58-2-31.13 N",
		"longitude": "134-6-0.35 W",
		"state": "ALASKA",
		"artcc": "ZAN",
		"type": "RNAV",
		"updated": "07/07/2016"
	},
	{
		"name": "WAKAS",
		"latitude": "61-52-48.28 N",
		"longitude": "150-36-56.68 W",
		"state": "ALASKA",
		"artcc": "ZAN",
		"type": "RNAV",
		"updated": "01/19/2017"
	},
	{
		"name": "WAKEV",
		"latitude": "56-47-16.98 N",
		"longitude": "132-56-4.94 W",
		"state": "ALASKA",
		"artcc": "ZAN",
		"type": "RNAV",
		"updated": "12/13/2011"
	},
	{
		"name": "WAKIN",
		"latitude": "51-52-37.35 N",
		"longitude": "176-39-56.21 W",
		"state": "ALASKA",
		"artcc": "ZAN",
		"type": "RNAV",
		"updated": "12/16/2009"
	},
	{
		"name": "WAKIP",
		"latitude": "70-22-28.43 N",
		"longitude": "150-49-35.39 W",
		"state": "ALASKA",
		"artcc": "ZAN",
		"type": "RNAV",
		"updated": "12/13/2011"
	},
	{
		"name": "WAKNU",
		"latitude": "59-44-10.6 N",
		"longitude": "154-15-41.56 W",
		"state": "ALASKA",
		"artcc": "ZAN",
		"type": "RNAV",
		"updated": "03/30/2009"
	},
	{
		"name": "WAKOV",
		"latitude": "64-38-40.87 N",
		"longitude": "147-38-9.73 W",
		"state": "ALASKA",
		"artcc": "ZAN",
		"type": "MR",
		"updated": "EIL*TACAN*249.00/14.00"
	},
	{
		"name": "WAKRA",
		"latitude": "54-8-17.13 N",
		"longitude": "166-32-52.32 W",
		"state": "ALASKA",
		"artcc": "ZAN",
		"type": "RP",
		"updated": "DUT*NDB/DME*351.00/14.00"
	},
	{
		"name": "WAKSA",
		"latitude": "58-29-27.37 N",
		"longitude": "156-15-16.24 W",
		"state": "ALASKA",
		"artcc": "ZAN",
		"type": "MR",
		"updated": "AKN*VORTAC*115.77/21.00"
	},
	{
		"name": "WAKTO",
		"latitude": "59-24-3.83 N",
		"longitude": "155-10-58.69 W",
		"state": "ALASKA",
		"artcc": "ZAN",
		"type": "RNAV",
		"updated": "05/26/2006"
	},
	{
		"name": "WAKUK",
		"latitude": "64-49-43.96 N",
		"longitude": "147-32-55.34 W",
		"state": "ALASKA",
		"artcc": "ZAN",
		"type": "RNAV",
		"updated": "05/01/2017"
	},
	{
		"name": "WALDN",
		"latitude": "55-17-24.25 N",
		"longitude": "131-36-2.06 W",
		"state": "ALASKA",
		"artcc": "ZAN",
		"type": "WP",
		"updated": "02/23/1998"
	},
	{
		"name": "WALER",
		"latitude": "56-16-26.54 N",
		"longitude": "132-22-39.69 W",
		"state": "ALASKA",
		"artcc": "ZAN",
		"type": "RNAV",
		"updated": "10/27/2014"
	},
	{
		"name": "WALLT",
		"latitude": "51-46-52.7 N",
		"longitude": "174-52-57 E",
		"state": "ALASKA",
		"artcc": "ZAN",
		"type": "RP",
		"updated": "06/13/2017"
	},
	{
		"name": "WALUS",
		"latitude": "59-37-22.5 N",
		"longitude": "152-40-14.49 W",
		"state": "ALASKA",
		"artcc": "ZAN",
		"type": "RP",
		"updated": "ACE*NDB*251.73"
	},
	{
		"name": "WAMUP",
		"latitude": "58-59-20.56 N",
		"longitude": "155-19-55.77 W",
		"state": "ALASKA",
		"artcc": "ZAN",
		"type": "RNAV",
		"updated": "07/07/2014"
	},
	{
		"name": "WANIB",
		"latitude": "56-59-33.8 N",
		"longitude": "170-28-3.91 W",
		"state": "ALASKA",
		"artcc": "ZAN",
		"type": "RNAV",
		"updated": "10/12/2010"
	},
	{
		"name": "WANIX",
		"latitude": "60-23-31.98 N",
		"longitude": "160-47-29.54 W",
		"state": "ALASKA",
		"artcc": "ZAN",
		"type": "RP",
		"updated": "BET*VORTAC*113.25/38.63"
	},
	{
		"name": "WANJO",
		"latitude": "71-17-4.65 N",
		"longitude": "157-2-54.75 W",
		"state": "ALASKA",
		"artcc": "ZAN",
		"type": "RP",
		"updated": "BRW*LD*W CRS/6.04"
	},
	{
		"name": "WANOR",
		"latitude": "58-8-20.16 N",
		"longitude": "134-25-10.6 W",
		"state": "ALASKA",
		"artcc": "ZAN",
		"type": "RNAV",
		"updated": "04/20/2017"
	},
	{
		"name": "WANUR",
		"latitude": "64-41-29.35 N",
		"longitude": "147-7-27.48 W",
		"state": "ALASKA",
		"artcc": "ZAN",
		"type": "MR",
		"updated": "EIL*TACAN*322.00/2.40"
	},
	{
		"name": "WAPAX",
		"latitude": "64-56-34.55 N",
		"longitude": "147-7-4.11 W",
		"state": "ALASKA",
		"artcc": "ZAN",
		"type": "MR",
		"updated": "EIL*TACAN*339.00/17.42"
	},
	{
		"name": "WAPHI",
		"latitude": "57-44-59.22 N",
		"longitude": "152-23-36.16 W",
		"state": "ALASKA",
		"artcc": "ZAN",
		"type": "RP",
		"updated": "12/14/2011"
	},
	{
		"name": "WAPRA",
		"latitude": "62-14-27.83 N",
		"longitude": "145-29-51.63 W",
		"state": "ALASKA",
		"artcc": "ZAN",
		"type": "RP",
		"updated": "GKN*VOR/DME*323.00/5.50"
	},
	{
		"name": "WAPRO",
		"latitude": "62-34-18.09 N",
		"longitude": "161-11-52.94 W",
		"state": "ALASKA",
		"artcc": "ZAN",
		"type": "RP",
		"updated": "BET*VORTAC*355.18/109.00"
	},
	{
		"name": "WAREX",
		"latitude": "55-45-2.55 N",
		"longitude": "159-23-37.02 W",
		"state": "ALASKA",
		"artcc": "ZAN",
		"type": "RNAV",
		"updated": "01/10/2005"
	},
	{
		"name": "WARRT",
		"latitude": "69-21-9.51 N",
		"longitude": "153-0-0.04 W",
		"state": "ALASKA",
		"artcc": "ZAN",
		"type": "RNAV",
		"updated": "06/09/2005"
	},
	{
		"name": "WARSH",
		"latitude": "63-2-33.25 N",
		"longitude": "155-36-31.6 W",
		"state": "ALASKA",
		"artcc": "ZAN",
		"type": "RNAV",
		"updated": "10/26/2011"
	},
	{
		"name": "WARVI",
		"latitude": "63-12-17.64 N",
		"longitude": "163-6-58.9 W",
		"state": "ALASKA",
		"artcc": "ZAN",
		"type": "RP",
		"updated": "ENM*VOR/DME*041.35/45.30"
	},
	{
		"name": "WASUT",
		"latitude": "56-57-24.98 N",
		"longitude": "132-53-41.83 W",
		"state": "ALASKA",
		"artcc": "ZAN",
		"type": "RNAV",
		"updated": "08/31/2004"
	},
	{
		"name": "WASVO",
		"latitude": "62-54-18.56 N",
		"longitude": "159-23-22.52 W",
		"state": "ALASKA",
		"artcc": "ZAN",
		"type": "RNAV",
		"updated": "08/26/2008"
	},
	{
		"name": "WATAS",
		"latitude": "62-38-22.11 N",
		"longitude": "159-34-6.94 W",
		"state": "ALASKA",
		"artcc": "ZAN",
		"type": "RNAV",
		"updated": "08/26/2008"
	},
	{
		"name": "WATMO",
		"latitude": "64-43-8.95 N",
		"longitude": "158-5-44.27 W",
		"state": "ALASKA",
		"artcc": "ZAN",
		"type": "RNAV",
		"updated": "12/01/2016"
	},
	{
		"name": "WATNU",
		"latitude": "60-46-28.33 N",
		"longitude": "161-30-42.03 W",
		"state": "ALASKA",
		"artcc": "ZAN",
		"type": "RNAV",
		"updated": "03/22/2004"
	},
	{
		"name": "WATOP",
		"latitude": "63-51-49.04 N",
		"longitude": "148-58-3.3 W",
		"state": "ALASKA",
		"artcc": "ZAN",
		"type": "RNAV",
		"updated": "04/13/2017"
	},
	{
		"name": "WATUB",
		"latitude": "61-37-35.03 N",
		"longitude": "149-28-16.75 W",
		"state": "ALASKA",
		"artcc": "ZAN",
		"type": "CN",
		"updated": "02/17/2015"
	},
	{
		"name": "WAURI",
		"latitude": "51-54-36.31 N",
		"longitude": "176-33-59.51 W",
		"state": "ALASKA",
		"artcc": "ZAN",
		"type": "RNAV",
		"updated": "09/19/2000"
	},
	{
		"name": "WAVNU",
		"latitude": "61-22-8.31 N",
		"longitude": "165-40-6.41 W",
		"state": "ALASKA",
		"artcc": "ZAN",
		"type": "RNAV",
		"updated": "08/01/2007"
	},
	{
		"name": "WAVTO",
		"latitude": "58-17-14.07 N",
		"longitude": "134-47-44.2 W",
		"state": "ALASKA",
		"artcc": "ZAN",
		"type": "RNAV",
		"updated": "07/12/2004"
	},
	{
		"name": "WAXIM",
		"latitude": "61-32-3.9 N",
		"longitude": "161-34-14.11 W",
		"state": "ALASKA",
		"artcc": "ZAN",
		"type": "RP",
		"updated": "BET*VORTAC*355.18/45.70"
	},
	{
		"name": "WAXOV",
		"latitude": "62-6-58.15 N",
		"longitude": "158-28-3.9 W",
		"state": "ALASKA",
		"artcc": "ZAN",
		"type": "RNAV",
		"updated": "02/27/2014"
	},
	{
		"name": "WAYVO",
		"latitude": "66-58-1.18 N",
		"longitude": "160-24-31.53 W",
		"state": "ALASKA",
		"artcc": "ZAN",
		"type": "RNAV",
		"updated": "11/24/2009"
	},
	{
		"name": "WAYVZ",
		"latitude": "56-51-50.58 N",
		"longitude": "135-24-40.32 W",
		"state": "ALASKA",
		"artcc": "ZAN",
		"type": "RNAV",
		"updated": "10/28/2014"
	},
	{
		"name": "WAZZU",
		"latitude": "58-14-4.81 N",
		"longitude": "135-8-39.2 W",
		"state": "ALASKA",
		"artcc": "ZAN",
		"type": "RP",
		"updated": "SSR*VORTAC*026.66/5.00"
	},
	{
		"name": "WEBBI",
		"latitude": "61-10-10.28 N",
		"longitude": "150-9-41.97 W",
		"state": "ALASKA",
		"artcc": "ZAN",
		"type": "RP",
		"updated": "TGN*LD*W CRS/6.37"
	},
	{
		"name": "WEBOD",
		"latitude": "56-47-30 N",
		"longitude": "132-45-18 W",
		"state": "ALASKA",
		"artcc": "ZAN",
		"type": "RNAV",
		"updated": "12/14/2011"
	},
	{
		"name": "WEBUP",
		"latitude": "56-52-0.93 N",
		"longitude": "132-54-56.55 W",
		"state": "ALASKA",
		"artcc": "ZAN",
		"type": "RP",
		"updated": "PSG*DD*344.00/4.00"
	},
	{
		"name": "WEDAD",
		"latitude": "70-15-1.67 N",
		"longitude": "149-11-20.62 W",
		"state": "ALASKA",
		"artcc": "ZAN",
		"type": "RNAV",
		"updated": "10/26/2015"
	},
	{
		"name": "WEDGY",
		"latitude": "68-34-30.05 N",
		"longitude": "149-37-36.65 W",
		"state": "ALASKA",
		"artcc": "ZAN",
		"type": "RP",
		"updated": "GBH*NDB*304.96"
	},
	{
		"name": "WEEKE",
		"latitude": "60-48-51.21 N",
		"longitude": "161-25-14.26 W",
		"state": "ALASKA",
		"artcc": "ZAN",
		"type": "RP",
		"updated": "BET*VORTAC*067.35/12.00"
	},
	{
		"name": "WEGOL",
		"latitude": "62-56-11.59 N",
		"longitude": "142-8-40.94 W",
		"state": "ALASKA",
		"artcc": "ZAN",
		"type": "RNAV",
		"updated": "11/14/2006"
	},
	{
		"name": "WEGWI",
		"latitude": "57-3-33.87 N",
		"longitude": "135-23-1.41 W",
		"state": "ALASKA",
		"artcc": "ZAN",
		"type": "RNAV",
		"updated": "02/17/2006"
	},
	{
		"name": "WEJYY",
		"latitude": "62-18-49.39 N",
		"longitude": "159-24-11.9 W",
		"state": "ALASKA",
		"artcc": "ZAN",
		"type": "RNAV",
		"updated": "12/27/2005"
	},
	{
		"name": "WEKAK",
		"latitude": "64-40-33.66 N",
		"longitude": "155-36-58.71 W",
		"state": "ALASKA",
		"artcc": "ZAN",
		"type": "RNAV",
		"updated": "06/11/2008"
	},
	{
		"name": "WEKDO",
		"latitude": "66-40-26.15 N",
		"longitude": "156-24-31.04 W",
		"state": "ALASKA",
		"artcc": "ZAN",
		"type": "RNAV",
		"updated": "09/21/2007"
	},
	{
		"name": "WEKEX",
		"latitude": "57-52-57.85 N",
		"longitude": "152-33-50.52 W",
		"state": "ALASKA",
		"artcc": "ZAN",
		"type": "RNAV",
		"updated": "10/26/2015"
	},
	{
		"name": "WEKOL",
		"latitude": "55-7-53.13 N",
		"longitude": "131-48-22.27 W",
		"state": "ALASKA",
		"artcc": "ZAN",
		"type": "RNAV",
		"updated": "09/12/2016"
	},
	{
		"name": "WELES",
		"latitude": "70-9-15.22 N",
		"longitude": "146-37-41.03 W",
		"state": "ALASKA",
		"artcc": "ZAN",
		"type": "RNAV",
		"updated": "04/06/2009"
	},
	{
		"name": "WELLE",
		"latitude": "63-33-31.14 N",
		"longitude": "148-15-19.4 W",
		"state": "ALASKA",
		"artcc": "ZAN",
		"type": "MW",
		"updated": "12/09/2013"
	},
	{
		"name": "WEMOG",
		"latitude": "60-37-29.21 N",
		"longitude": "161-42-55.24 W",
		"state": "ALASKA",
		"artcc": "ZAN",
		"type": "RNAV",
		"updated": "12/03/2008"
	},
	{
		"name": "WEMSY",
		"latitude": "52-44-1.86 N",
		"longitude": "173-45-41.88 E",
		"state": "ALASKA",
		"artcc": "ZAN",
		"type": "MR",
		"updated": "SYA*VORTAC*272.00/11.00"
	},
	{
		"name": "WEMUB",
		"latitude": "62-47-48.61 N",
		"longitude": "160-4-32.54 W",
		"state": "ALASKA",
		"artcc": "ZAN",
		"type": "RNAV",
		"updated": "08/17/2017"
	},
	{
		"name": "WENGI",
		"latitude": "70-2-48.82 N",
		"longitude": "147-59-49.97 W",
		"state": "ALASKA",
		"artcc": "ZAN",
		"type": "RNAV",
		"updated": "10/26/2015"
	},
	{
		"name": "WEPEN",
		"latitude": "61-0-4.05 N",
		"longitude": "161-29-52.81 W",
		"state": "ALASKA",
		"artcc": "ZAN",
		"type": "RNAV",
		"updated": "12/03/2008"
	},
	{
		"name": "WEPIT",
		"latitude": "61-46-53.14 N",
		"longitude": "165-26-16.59 W",
		"state": "ALASKA",
		"artcc": "ZAN",
		"type": "RNAV",
		"updated": "08/01/2007"
	},
	{
		"name": "WERDU",
		"latitude": "64-39-54.33 N",
		"longitude": "147-57-7.12 W",
		"state": "ALASKA",
		"artcc": "ZAN",
		"type": "RNAV",
		"updated": "05/22/2017"
	},
	{
		"name": "WERMA",
		"latitude": "62-21-0.56 N",
		"longitude": "163-39-32.89 W",
		"state": "ALASKA",
		"artcc": "ZAN",
		"type": "RNAV",
		"updated": "03/19/2012"
	},
	{
		"name": "WEROT",
		"latitude": "60-58-42 N",
		"longitude": "161-20-0.52 W",
		"state": "ALASKA",
		"artcc": "ZAN",
		"type": "RNAV",
		"updated": "12/03/2008"
	},
	{
		"name": "WERVU",
		"latitude": "64-49-58.14 N",
		"longitude": "141-30-41.89 W",
		"state": "ALASKA",
		"artcc": "ZAN",
		"type": "RNAV",
		"updated": "03/12/2014"
	},
	{
		"name": "WESED",
		"latitude": "64-15-50.03 N",
		"longitude": "145-56-4.32 W",
		"state": "ALASKA",
		"artcc": "ZAN",
		"type": "MR",
		"updated": "FAI*VORTAC*099.00/62.77"
	},
	{
		"name": "WESKA",
		"latitude": "67-21-5.77 N",
		"longitude": "150-8-38.27 W",
		"state": "ALASKA",
		"artcc": "ZAN",
		"type": "RNAV",
		"updated": "09/06/2017"
	},
	{
		"name": "WESOL",
		"latitude": "61-2-47.17 N",
		"longitude": "150-1-4.27 W",
		"state": "ALASKA",
		"artcc": "ZAN",
		"type": "RNAV",
		"updated": "11/18/2014"
	},
	{
		"name": "WETOL",
		"latitude": "55-26-39.66 N",
		"longitude": "131-52-0.85 W",
		"state": "ALASKA",
		"artcc": "ZAN",
		"type": "RP",
		"updated": "ECH*LD*NW CRS/8.39"
	},
	{
		"name": "WETSI",
		"latitude": "55-23-33.65 N",
		"longitude": "162-34-56.3 W",
		"state": "ALASKA",
		"artcc": "ZAN",
		"type": "RP",
		"updated": "CDB*VORTAC*027.05/10.00"
	},
	{
		"name": "WEVIN",
		"latitude": "60-8-30.08 N",
		"longitude": "145-6-7.1 W",
		"state": "ALASKA",
		"artcc": "ZAN",
		"type": "RP",
		"updated": "GCR*NDB*135.48"
	},
	{
		"name": "WEWWO",
		"latitude": "61-10-0.93 N",
		"longitude": "150-23-30.68 W",
		"state": "ALASKA",
		"artcc": "ZAN",
		"type": "RNAV",
		"updated": "08/24/2004"
	},
	{
		"name": "WIBAV",
		"latitude": "51-54-44.14 N",
		"longitude": "176-33-36.41 W",
		"state": "ALASKA",
		"artcc": "ZAN",
		"type": "RP",
		"updated": "ADK*NDB/DME*/4.91"
	},
	{
		"name": "WIBLO",
		"latitude": "66-0-11.14 N",
		"longitude": "161-14-4.35 W",
		"state": "ALASKA",
		"artcc": "ZAN",
		"type": "RNAV",
		"updated": "05/03/2007"
	},
	{
		"name": "WIBTA",
		"latitude": "56-9-8.8 N",
		"longitude": "133-54-39.85 W",
		"state": "ALASKA",
		"artcc": "ZAN",
		"type": "RP",
		"updated": "BKA*VORTAC*107.25"
	},
	{
		"name": "WICOL",
		"latitude": "60-14-0.03 N",
		"longitude": "147-24-41.39 W",
		"state": "ALASKA",
		"artcc": "ZAN",
		"type": "RNAV",
		"updated": "02/13/2012"
	},
	{
		"name": "WIDEB",
		"latitude": "56-34-29.78 N",
		"longitude": "132-38-23.08 W",
		"state": "ALASKA",
		"artcc": "ZAN",
		"type": "RNAV",
		"updated": "05/02/2013"
	},
	{
		"name": "WIDTH",
		"latitude": "57-20-32.42 N",
		"longitude": "155-59-23.48 W",
		"state": "ALASKA",
		"artcc": "ZAN",
		"type": "RP",
		"updated": "AUB*NDB*146.98"
	},
	{
		"name": "WIDVA",
		"latitude": "59-56-9.79 N",
		"longitude": "153-54-18.01 W",
		"state": "ALASKA",
		"artcc": "ZAN",
		"type": "RNAV",
		"updated": "11/15/2010"
	},
	{
		"name": "WIGUL",
		"latitude": "55-29-10 N",
		"longitude": "132-2-0 W",
		"state": "ALASKA",
		"artcc": "ZAN",
		"type": "RNAV",
		"updated": "08/31/2004"
	},
	{
		"name": "WIGVA",
		"latitude": "59-41-3.12 N",
		"longitude": "151-22-2.02 W",
		"state": "ALASKA",
		"artcc": "ZAN",
		"type": "RP",
		"updated": "HOM*LE*038.03/3.38"
	},
	{
		"name": "WIKIP",
		"latitude": "63-45-29.37 N",
		"longitude": "160-49-48.64 W",
		"state": "ALASKA",
		"artcc": "ZAN",
		"type": "RNAV",
		"updated": "04/21/2009"
	},
	{
		"name": "WIKSU",
		"latitude": "55-16-25.46 N",
		"longitude": "131-36-25.48 W",
		"state": "ALASKA",
		"artcc": "ZAN",
		"type": "RNAV",
		"updated": "09/12/2016"
	},
	{
		"name": "WILAD",
		"latitude": "66-35-46.27 N",
		"longitude": "144-32-59.25 W",
		"state": "ALASKA",
		"artcc": "ZAN",
		"type": "RNAV",
		"updated": "10/29/2013"
	},
	{
		"name": "WILGA",
		"latitude": "60-20-28.05 N",
		"longitude": "166-23-44.43 W",
		"state": "ALASKA",
		"artcc": "ZAN",
		"type": "RP",
		"updated": "AIX*NDB/DME*230.88/6.00"
	},
	{
		"name": "WILIG",
		"latitude": "70-12-29.35 N",
		"longitude": "148-19-0.56 W",
		"state": "ALASKA",
		"artcc": "ZAN",
		"type": "RP",
		"updated": "SCC*VOR/DME*058.06/2.10"
	},
	{
		"name": "WILOW",
		"latitude": "61-11-12 N",
		"longitude": "150-16-36 W",
		"state": "ALASKA",
		"artcc": "ZAN",
		"type": "WP",
		"updated": "10/02/1995"
	},
	{
		"name": "WILTS",
		"latitude": "64-58-50.41 N",
		"longitude": "148-34-52.76 W",
		"state": "ALASKA",
		"artcc": "ZAN",
		"type": "RP",
		"updated": "ENN*VORTAC*007.00"
	},
	{
		"name": "WIMAN",
		"latitude": "69-29-31.92 N",
		"longitude": "147-42-58.72 W",
		"state": "ALASKA",
		"artcc": "ZAN",
		"type": "RP",
		"updated": "SCC*VOR/DME*143.82/45.00"
	},
	{
		"name": "WIMAV",
		"latitude": "66-53-29.8 N",
		"longitude": "162-38-9.34 W",
		"state": "ALASKA",
		"artcc": "ZAN",
		"type": "RNAV",
		"updated": "08/09/2017"
	},
	{
		"name": "WINKA",
		"latitude": "56-57-30.94 N",
		"longitude": "135-27-0.84 W",
		"state": "ALASKA",
		"artcc": "ZAN",
		"type": "RP",
		"updated": "BKA*VORTAC*009.10/6.83"
	},
	{
		"name": "WINOR",
		"latitude": "62-29-30.27 N",
		"longitude": "154-1-0.06 W",
		"state": "ALASKA",
		"artcc": "ZAN",
		"type": "RP",
		"updated": "MCG*VORTAC*102.40/52.00"
	},
	{
		"name": "WINUR",
		"latitude": "64-35-33.59 N",
		"longitude": "155-51-9.46 W",
		"state": "ALASKA",
		"artcc": "ZAN",
		"type": "RNAV",
		"updated": "04/12/2007"
	},
	{
		"name": "WIPIP",
		"latitude": "60-1-17.52 N",
		"longitude": "164-1-7.2 W",
		"state": "ALASKA",
		"artcc": "ZAN",
		"type": "RNAV",
		"updated": "12/26/2017"
	},
	{
		"name": "WIPVO",
		"latitude": "61-8-41.61 N",
		"longitude": "149-51-31.74 W",
		"state": "ALASKA",
		"artcc": "ZAN",
		"type": "RNAV",
		"updated": "04/07/2017"
	},
	{
		"name": "WIRAD",
		"latitude": "59-25-59.74 N",
		"longitude": "154-44-42.18 W",
		"state": "ALASKA",
		"artcc": "ZAN",
		"type": "RNAV",
		"updated": "07/18/2012"
	},
	{
		"name": "WIRIS",
		"latitude": "62-55-11.94 N",
		"longitude": "141-16-57.55 W",
		"state": "ALASKA",
		"artcc": "ZAN",
		"type": "RNAV",
		"updated": "07/08/2011"
	},
	{
		"name": "WIRPU",
		"latitude": "59-17-41.61 N",
		"longitude": "160-18-26.54 W",
		"state": "ALASKA",
		"artcc": "ZAN",
		"type": "RNAV",
		"updated": "04/18/2018"
	},
	{
		"name": "WIRTU",
		"latitude": "54-8-55.35 N",
		"longitude": "165-38-59.15 W",
		"state": "ALASKA",
		"artcc": "ZAN",
		"type": "RNAV",
		"updated": "06/02/2014"
	},
	{
		"name": "WISUM",
		"latitude": "60-57-19.23 N",
		"longitude": "161-10-9.08 W",
		"state": "ALASKA",
		"artcc": "ZAN",
		"type": "RNAV",
		"updated": "12/03/2008"
	},
	{
		"name": "WITLI",
		"latitude": "60-28-27.14 N",
		"longitude": "151-24-32.51 W",
		"state": "ALASKA",
		"artcc": "ZAN",
		"type": "RP",
		"updated": "ENA*VOR/DME*197.94"
	},
	{
		"name": "WITMI",
		"latitude": "57-55-57.18 N",
		"longitude": "152-14-23.92 W",
		"state": "ALASKA",
		"artcc": "ZAN",
		"type": "RP",
		"updated": "ODK*VOR/DME*004.63/10.02"
	},
	{
		"name": "WITTI",
		"latitude": "60-44-28.26 N",
		"longitude": "148-14-5.82 W",
		"state": "ALASKA",
		"artcc": "ZAN",
		"type": "RNAV",
		"updated": "04/13/2017"
	},
	{
		"name": "WIVAB",
		"latitude": "59-50-49.84 N",
		"longitude": "155-34-38.49 W",
		"state": "ALASKA",
		"artcc": "ZAN",
		"type": "RNAV",
		"updated": "01/12/2009"
	},
	{
		"name": "WIVDA",
		"latitude": "61-10-3.61 N",
		"longitude": "150-7-56.41 W",
		"state": "ALASKA",
		"artcc": "ZAN",
		"type": "RP",
		"updated": "ANC*LD*253.85/4.83"
	},
	{
		"name": "WIVEK",
		"latitude": "58-2-31.54 N",
		"longitude": "135-4-37.04 W",
		"state": "ALASKA",
		"artcc": "ZAN",
		"type": "RP",
		"updated": "SSR*VORTAC*124.54/10.00"
	},
	{
		"name": "WIWQO",
		"latitude": "62-57-6.45 N",
		"longitude": "160-1-23.4 W",
		"state": "ALASKA",
		"artcc": "ZAN",
		"type": "RNAV",
		"updated": "08/17/2017"
	},
	{
		"name": "WIXIR",
		"latitude": "60-8-12.76 N",
		"longitude": "149-47-10.14 W",
		"state": "ALASKA",
		"artcc": "ZAN",
		"type": "RNAV",
		"updated": "05/20/2011"
	},
	{
		"name": "WIXIT",
		"latitude": "66-31-19.4 N",
		"longitude": "152-52-35.72 W",
		"state": "ALASKA",
		"artcc": "ZAN",
		"type": "RNAV",
		"updated": "07/08/2011"
	},
	{
		"name": "WIYQY",
		"latitude": "39-57-37.82 N",
		"longitude": "74-14-29.4 W",
		"state": "NEW JERSEY",
		"artcc": "ZAN",
		"type": "RNAV",
		"updated": "02/28/2018"
	},
	{
		"name": "WJSDT",
		"latitude": "57-43-2.87 N",
		"longitude": "152-27-34.87 W",
		"state": "ALASKA",
		"artcc": "ZAN",
		"type": "RNAV",
		"updated": "04/30/2013"
	},
	{
		"name": "WLRUS",
		"latitude": "60-46-1.64 N",
		"longitude": "149-58-51.93 W",
		"state": "ALASKA",
		"artcc": "ZAN",
		"type": "RP",
		"updated": "EDF*TACAN*174.00/30.00"
	},
	{
		"name": "WNGCO",
		"latitude": "65-21-57.02 N",
		"longitude": "167-50-10.63 W",
		"state": "ALASKA",
		"artcc": "ZAN",
		"type": "MR",
		"updated": "TNC*NDB/DME*159.32/12.00"
	},
	{
		"name": "WNMAG",
		"latitude": "64-59-42.95 N",
		"longitude": "147-8-12.16 W",
		"state": "ALASKA",
		"artcc": "ZAN",
		"type": "RNAV",
		"updated": "10/21/2015"
	},
	{
		"name": "WOBEM",
		"latitude": "64-47-13.97 N",
		"longitude": "147-54-50.59 W",
		"state": "ALASKA",
		"artcc": "ZAN",
		"type": "RP",
		"updated": "FAI*VORTAC*086.05"
	},
	{
		"name": "WOBES",
		"latitude": "57-34-48.98 N",
		"longitude": "157-24-31.72 W",
		"state": "ALASKA",
		"artcc": "ZAN",
		"type": "RNAV",
		"updated": "10/07/2003"
	},
	{
		"name": "WODAP",
		"latitude": "61-35-57.57 N",
		"longitude": "161-32-36.25 W",
		"state": "ALASKA",
		"artcc": "ZAN",
		"type": "RNAV",
		"updated": "04/06/2004"
	},
	{
		"name": "WODIL",
		"latitude": "60-34-46.28 N",
		"longitude": "161-23-24.2 W",
		"state": "ALASKA",
		"artcc": "ZAN",
		"type": "RNAV",
		"updated": "12/03/2008"
	},
	{
		"name": "WODPU",
		"latitude": "54-11-3.38 N",
		"longitude": "165-44-42.97 W",
		"state": "ALASKA",
		"artcc": "ZAN",
		"type": "RNAV",
		"updated": "06/02/2014"
	},
	{
		"name": "WODSI",
		"latitude": "64-29-55.1 N",
		"longitude": "165-28-10.42 W",
		"state": "ALASKA",
		"artcc": "ZAN",
		"type": "RNAV",
		"updated": "08/09/2017"
	},
	{
		"name": "WODUX",
		"latitude": "58-8-24.79 N",
		"longitude": "134-22-55.74 W",
		"state": "ALASKA",
		"artcc": "ZAN",
		"type": "RNAV",
		"updated": "10/28/2014"
	},
	{
		"name": "WOGAP",
		"latitude": "60-56-51.53 N",
		"longitude": "154-14-28.39 W",
		"state": "ALASKA",
		"artcc": "ZAN",
		"type": "RNAV",
		"updated": "03/29/2018"
	},
	{
		"name": "WOGIM",
		"latitude": "66-51-2.07 N",
		"longitude": "150-59-5.08 W",
		"state": "ALASKA",
		"artcc": "ZAN",
		"type": "RNAV",
		"updated": "11/18/2014"
	},
	{
		"name": "WOGRA",
		"latitude": "62-54-17.36 N",
		"longitude": "159-34-18.25 W",
		"state": "ALASKA",
		"artcc": "ZAN",
		"type": "RNAV",
		"updated": "08/26/2008"
	},
	{
		"name": "WOKAT",
		"latitude": "52-14-40.16 N",
		"longitude": "174-18-58.33 W",
		"state": "ALASKA",
		"artcc": "ZAN",
		"type": "RNAV",
		"updated": "02/12/2010"
	},
	{
		"name": "WOKEL",
		"latitude": "59-12-58.94 N",
		"longitude": "139-54-33.7 W",
		"state": "ALASKA",
		"artcc": "ZAN",
		"type": "RNAV",
		"updated": "06/24/2013"
	},
	{
		"name": "WOKET",
		"latitude": "70-2-39.11 N",
		"longitude": "148-25-10.52 W",
		"state": "ALASKA",
		"artcc": "ZAN",
		"type": "RNAV",
		"updated": "10/26/2015"
	},
	{
		"name": "WOKNA",
		"latitude": "61-37-46.99 N",
		"longitude": "149-21-26.84 W",
		"state": "ALASKA",
		"artcc": "ZAN",
		"type": "RNAV",
		"updated": "06/12/2014"
	},
	{
		"name": "WOLAK",
		"latitude": "61-1-3.08 N",
		"longitude": "150-12-34.57 W",
		"state": "ALASKA",
		"artcc": "ZAN",
		"type": "RNAV",
		"updated": "11/18/2014"
	},
	{
		"name": "WOLCI",
		"latitude": "59-38-36.38 N",
		"longitude": "154-37-31.77 W",
		"state": "ALASKA",
		"artcc": "ZAN",
		"type": "RNAV",
		"updated": "11/15/2010"
	},
	{
		"name": "WOLMA",
		"latitude": "58-20-53.39 N",
		"longitude": "134-40-5.63 W",
		"state": "ALASKA",
		"artcc": "ZAN",
		"type": "RNAV",
		"updated": "10/27/2014"
	},
	{
		"name": "WOLPI",
		"latitude": "66-55-43.55 N",
		"longitude": "150-27-30.51 W",
		"state": "ALASKA",
		"artcc": "ZAN",
		"type": "RNAV",
		"updated": "11/18/2014"
	},
	{
		"name": "WOLPU",
		"latitude": "69-56-32.63 N",
		"longitude": "146-44-5.04 W",
		"state": "ALASKA",
		"artcc": "ZAN",
		"type": "RNAV",
		"updated": "06/26/2013"
	},
	{
		"name": "WOMEV",
		"latitude": "62-18-43.29 N",
		"longitude": "162-57-55.67 W",
		"state": "ALASKA",
		"artcc": "ZAN",
		"type": "RNAV",
		"updated": "04/05/2012"
	},
	{
		"name": "WOMLI",
		"latitude": "58-37-16.71 N",
		"longitude": "156-31-58.89 W",
		"state": "ALASKA",
		"artcc": "ZAN",
		"type": "RNAV",
		"updated": "03/14/2016"
	},
	{
		"name": "WOMSA",
		"latitude": "59-42-32 N",
		"longitude": "164-3-4.63 W",
		"state": "ALASKA",
		"artcc": "ZAN",
		"type": "RNAV",
		"updated": "12/26/2017"
	},
	{
		"name": "WONAB",
		"latitude": "64-20-47.73 N",
		"longitude": "164-3-43.87 W",
		"state": "ALASKA",
		"artcc": "ZAN",
		"type": "RP",
		"updated": "OME*VOR/DME*093.52/32.10"
	},
	{
		"name": "WONBA",
		"latitude": "55-10-23.59 N",
		"longitude": "160-29-0.43 W",
		"state": "ALASKA",
		"artcc": "ZAN",
		"type": "RP",
		"updated": "HBT*NDB/DME*157.00/8.64"
	},
	{
		"name": "WOPIG",
		"latitude": "66-17-16.48 N",
		"longitude": "165-53-51.93 W",
		"state": "ALASKA",
		"artcc": "ZAN",
		"type": "RNAV",
		"updated": "06/27/2005"
	},
	{
		"name": "WORED",
		"latitude": "61-29-55.42 N",
		"longitude": "166-6-52.45 W",
		"state": "ALASKA",
		"artcc": "ZAN",
		"type": "RNAV",
		"updated": "07/08/2011"
	},
	{
		"name": "WORKN",
		"latitude": "55-29-19.8 N",
		"longitude": "145-0-0 W",
		"state": "OFFSHORE PACIFIC",
		"artcc": "ZAN",
		"type": "RNAV",
		"updated": "11/04/2013"
	},
	{
		"name": "WORON",
		"latitude": "61-13-30.55 N",
		"longitude": "150-1-43.65 W",
		"state": "ALASKA",
		"artcc": "ZAN",
		"type": "WP",
		"updated": "10/02/1995"
	},
	{
		"name": "WORRI",
		"latitude": "58-45-58.43 N",
		"longitude": "154-10-5.9 W",
		"state": "ALASKA",
		"artcc": "ZAN",
		"type": "RP",
		"updated": "ILI*NDB/DME*141.54"
	},
	{
		"name": "WORTT",
		"latitude": "59-35-58.98 N",
		"longitude": "140-10-35.94 W",
		"state": "ALASKA",
		"artcc": "ZAN",
		"type": "RP",
		"updated": "YAK*VOR/DME*268.56/17.00"
	},
	{
		"name": "WORUT",
		"latitude": "71-17-5.16 N",
		"longitude": "156-56-33.33 W",
		"state": "ALASKA",
		"artcc": "ZAN",
		"type": "RNAV",
		"updated": "01/25/2017"
	},
	{
		"name": "WOSMI",
		"latitude": "58-22-42.59 N",
		"longitude": "134-50-51.62 W",
		"state": "ALASKA",
		"artcc": "ZAN",
		"type": "RNAV",
		"updated": "11/28/2006"
	},
	{
		"name": "WOSOM",
		"latitude": "64-3-58.01 N",
		"longitude": "145-57-21.81 W",
		"state": "ALASKA",
		"artcc": "ZAN",
		"type": "RP",
		"updated": "BIG*LD*W CRS/8.17"
	},
	{
		"name": "WOSTO",
		"latitude": "59-22-37.66 N",
		"longitude": "146-24-9.07 W",
		"state": "ALASKA",
		"artcc": "ZAN",
		"type": "RNAV",
		"updated": "12/14/2011"
	},
	{
		"name": "WOTEM",
		"latitude": "70-6-9.22 N",
		"longitude": "146-39-33.14 W",
		"state": "ALASKA",
		"artcc": "ZAN",
		"type": "RNAV",
		"updated": "10/11/2012"
	},
	{
		"name": "WOTKO",
		"latitude": "67-43-41.82 N",
		"longitude": "164-32-39.19 W",
		"state": "ALASKA",
		"artcc": "ZAN",
		"type": "RNAV",
		"updated": "05/30/2008"
	},
	{
		"name": "WOVIB",
		"latitude": "64-30-15.2 N",
		"longitude": "163-17-29.64 W",
		"state": "ALASKA",
		"artcc": "ZAN",
		"type": "RNAV",
		"updated": "11/05/2013"
	},
	{
		"name": "WOXOK",
		"latitude": "61-49-32.11 N",
		"longitude": "164-33-29 W",
		"state": "ALASKA",
		"artcc": "ZAN",
		"type": "RNAV",
		"updated": "06/16/2009"
	},
	{
		"name": "WOXOX",
		"latitude": "59-35-47.34 N",
		"longitude": "142-54-10.65 W",
		"state": "ALASKA",
		"artcc": "ZAN",
		"type": "CN",
		"updated": "05/11/2005"
	},
	{
		"name": "WUBDO",
		"latitude": "57-6-18.8 N",
		"longitude": "133-37-8.15 W",
		"state": "ALASKA",
		"artcc": "ZAN",
		"type": "RP",
		"updated": "SQM*NDB*316.14"
	},
	{
		"name": "WUBUG",
		"latitude": "60-1-25.31 N",
		"longitude": "161-56-8.91 W",
		"state": "ALASKA",
		"artcc": "ZAN",
		"type": "RNAV",
		"updated": "04/02/2008"
	},
	{
		"name": "WUDEK",
		"latitude": "64-27-47.45 N",
		"longitude": "165-41-2.82 W",
		"state": "ALASKA",
		"artcc": "ZAN",
		"type": "RNAV",
		"updated": "09/26/2017"
	},
	{
		"name": "WUGAT",
		"latitude": "64-21-46.24 N",
		"longitude": "162-35-42.05 W",
		"state": "ALASKA",
		"artcc": "ZAN",
		"type": "RNAV",
		"updated": "12/21/2009"
	},
	{
		"name": "WUGDO",
		"latitude": "62-56-48.09 N",
		"longitude": "155-35-44.92 W",
		"state": "ALASKA",
		"artcc": "ZAN",
		"type": "RP",
		"updated": "MCG*VORTAC*102.40/0.50"
	},
	{
		"name": "WUKSI",
		"latitude": "55-33-34.7 N",
		"longitude": "133-6-38.78 W",
		"state": "ALASKA",
		"artcc": "ZAN",
		"type": "RP",
		"updated": "AKW*NDB/DME*223.21/1.20"
	},
	{
		"name": "WUKTI",
		"latitude": "70-10-50.9 N",
		"longitude": "148-37-4.96 W",
		"state": "ALASKA",
		"artcc": "ZAN",
		"type": "RP",
		"updated": "SCC*VOR/DME*238.06/4.27"
	},
	{
		"name": "WULAK",
		"latitude": "58-39-36.56 N",
		"longitude": "156-36-49.57 W",
		"state": "ALASKA",
		"artcc": "ZAN",
		"type": "RP",
		"updated": "AKN*LD*SE CRS/0.53"
	},
	{
		"name": "WULPI",
		"latitude": "66-54-3.93 N",
		"longitude": "151-32-58.93 W",
		"state": "ALASKA",
		"artcc": "ZAN",
		"type": "RNAV",
		"updated": "03/16/2018"
	},
	{
		"name": "WULSE",
		"latitude": "64-46-33.91 N",
		"longitude": "148-10-46.14 W",
		"state": "ALASKA",
		"artcc": "ZAN",
		"type": "RNAV",
		"updated": "05/17/2017"
	},
	{
		"name": "WULSI",
		"latitude": "67-31-45.4 N",
		"longitude": "164-24-59.77 W",
		"state": "ALASKA",
		"artcc": "ZAN",
		"type": "RNAV",
		"updated": "05/30/2008"
	},
	{
		"name": "WUMBU",
		"latitude": "66-9-23.09 N",
		"longitude": "161-27-28.67 W",
		"state": "ALASKA",
		"artcc": "ZAN",
		"type": "RNAV",
		"updated": "05/04/2010"
	},
	{
		"name": "WUMEV",
		"latitude": "55-13-34 N",
		"longitude": "131-45-47.54 W",
		"state": "ALASKA",
		"artcc": "ZAN",
		"type": "RNAV",
		"updated": "05/01/2014"
	},
	{
		"name": "WUMOR",
		"latitude": "60-20-54.21 N",
		"longitude": "166-28-21.51 W",
		"state": "ALASKA",
		"artcc": "ZAN",
		"type": "RNAV",
		"updated": "09/18/2006"
	},
	{
		"name": "WUNDU",
		"latitude": "64-53-53.12 N",
		"longitude": "147-42-35.47 W",
		"state": "ALASKA",
		"artcc": "ZAN",
		"type": "RNAV",
		"updated": "08/10/2012"
	},
	{
		"name": "WUNUX",
		"latitude": "51-51-39.72 N",
		"longitude": "176-43-56.28 W",
		"state": "ALASKA",
		"artcc": "ZAN",
		"type": "RNAV",
		"updated": "12/16/2009"
	},
	{
		"name": "WUPDO",
		"latitude": "62-40-50.29 N",
		"longitude": "160-5-13.12 W",
		"state": "ALASKA",
		"artcc": "ZAN",
		"type": "RNAV",
		"updated": "08/17/2017"
	},
	{
		"name": "WUPET",
		"latitude": "66-13-35.7 N",
		"longitude": "147-47-18.06 W",
		"state": "ALASKA",
		"artcc": "ZAN",
		"type": "RNAV",
		"updated": "12/28/2004"
	},
	{
		"name": "WUPUG",
		"latitude": "59-39-19.83 N",
		"longitude": "151-26-54.47 W",
		"state": "ALASKA",
		"artcc": "ZAN",
		"type": "RNAV",
		"updated": "05/17/2013"
	},
	{
		"name": "WURED",
		"latitude": "61-41-15.41 N",
		"longitude": "161-20-36.23 W",
		"state": "ALASKA",
		"artcc": "ZAN",
		"type": "RNAV",
		"updated": "04/06/2004"
	},
	{
		"name": "WURMA",
		"latitude": "64-30-51.51 N",
		"longitude": "165-28-4.96 W",
		"state": "ALASKA",
		"artcc": "ZAN",
		"type": "RNAV",
		"updated": "08/09/2017"
	},
	{
		"name": "WUSID",
		"latitude": "57-4-27.26 N",
		"longitude": "134-13-45.28 W",
		"state": "ALASKA",
		"artcc": "ZAN",
		"type": "RNAV",
		"updated": "07/12/2004"
	},
	{
		"name": "WUSMA",
		"latitude": "66-53-2.23 N",
		"longitude": "162-32-33.4 W",
		"state": "ALASKA",
		"artcc": "ZAN",
		"type": "RNAV",
		"updated": "08/09/2017"
	},
	{
		"name": "WUTEL",
		"latitude": "61-32-56.43 N",
		"longitude": "166-10-43.43 W",
		"state": "ALASKA",
		"artcc": "ZAN",
		"type": "RNAV",
		"updated": "07/08/2011"
	},
	{
		"name": "WUTIX",
		"latitude": "59-40-51.69 N",
		"longitude": "155-35-16.17 W",
		"state": "ALASKA",
		"artcc": "ZAN",
		"type": "RNAV",
		"updated": "01/12/2009"
	},
	{
		"name": "WUTOM",
		"latitude": "67-1-35.77 N",
		"longitude": "151-19-37.69 W",
		"state": "ALASKA",
		"artcc": "ZAN",
		"type": "RNAV",
		"updated": "03/16/2018"
	},
	{
		"name": "WUVBA",
		"latitude": "62-19-58.59 N",
		"longitude": "150-4-48 W",
		"state": "ALASKA",
		"artcc": "ZAN",
		"type": "RNAV",
		"updated": "07/13/2017"
	},
	{
		"name": "WUXAN",
		"latitude": "59-53-0 N",
		"longitude": "149-0-0 W",
		"state": "ALASKA",
		"artcc": "ZAN",
		"type": "RNAV",
		"updated": "06/09/2005"
	},
	{
		"name": "WUXIP",
		"latitude": "66-53-23.15 N",
		"longitude": "162-36-28.12 W",
		"state": "ALASKA",
		"artcc": "ZAN",
		"type": "RP",
		"updated": "OTZ*VOR/DME*263.73/1.62"
	},
	{
		"name": "WUXUK",
		"latitude": "65-58-39.77 N",
		"longitude": "161-8-16.86 W",
		"state": "ALASKA",
		"artcc": "ZAN",
		"type": "RP",
		"updated": "BVK*NDB/DME*099.24/0.30"
	}
]
