	{
		"name": "YACDU",
		"latitude": "62-1-56.82 N",
		"longitude": "161-4-9.57 W",
		"state": "ALASKA",
		"artcc": "ZAN",
		"type": "RNAV",
		"updated": "04/06/2004",
	},
	{
		"name": "YADME",
		"latitude": "70-13-43 N",
		"longitude": "151-23-25.38 W",
		"state": "ALASKA",
		"artcc": "ZAN",
		"type": "RNAV",
		"updated": "09/09/2015",
	},
	{
		"name": "YAGUL",
		"latitude": "64-44-10.87 N",
		"longitude": "156-49-43.38 W",
		"state": "ALASKA",
		"artcc": "ZAN",
		"type": "RNAV",
		"updated": "07/26/2012",
	},
	{
		"name": "YAGUN",
		"latitude": "63-48-17.58 N",
		"longitude": "160-9-18.86 W",
		"state": "ALASKA",
		"artcc": "ZAN",
		"type": "RP",
		"updated": "UNK*VOR/DME*095.21/15.00",
	},
	{
		"name": "YAKBU",
		"latitude": "59-16-14.97 N",
		"longitude": "139-21-19.98 W",
		"state": "ALASKA",
		"artcc": "ZAN",
		"type": "RP",
		"updated": "YAK*VOR/DME*128.00/17.00",
	},
	{
		"name": "YAKUL",
		"latitude": "51-50-4.8 N",
		"longitude": "176-54-7.46 W",
		"state": "ALASKA",
		"artcc": "ZAN",
		"type": "RNAV",
		"updated": "05/08/2008",
	},
	{
		"name": "YARUK",
		"latitude": "56-31-46.01 N",
		"longitude": "132-33-23.25 W",
		"state": "ALASKA",
		"artcc": "ZAN",
		"type": "RP",
		"updated": "RGL*DD*273.00/7.00",
	},
	{
		"name": "YARUN",
		"latitude": "64-41-31.99 N",
		"longitude": "155-34-12.24 W",
		"state": "ALASKA",
		"artcc": "ZAN",
		"type": "RNAV",
		"updated": "04/12/2007",
	},
	{
		"name": "YARUV",
		"latitude": "59-13-41.94 N",
		"longitude": "159-45-45.07 W",
		"state": "ALASKA",
		"artcc": "ZAN",
		"type": "RNAV",
		"updated": "04/18/2018",
	},
	{
		"name": "YASCY",
		"latitude": "55-41-20 N",
		"longitude": "132-21-10 W",
		"state": "ALASKA",
		"artcc": "ZAN",
		"type": "RNAV",
		"updated": "12/18/2009",
	},
	{
		"name": "YAXBY",
		"latitude": "62-5-14.94 N",
		"longitude": "159-54-16.27 W",
		"state": "ALASKA",
		"artcc": "ZAN",
		"type": "RNAV",
		"updated": "12/27/2005",
	},
	{
		"name": "YAZVU",
		"latitude": "61-36-29.23 N",
		"longitude": "149-9-53.08 W",
		"state": "ALASKA",
		"artcc": "ZAN",
		"type": "RNAV",
		"updated": "02/09/2018",
	},
	{
		"name": "YEBUR",
		"latitude": "58-22-51.09 N",
		"longitude": "135-37-7.26 W",
		"state": "ALASKA",
		"artcc": "ZAN",
		"type": "RNAV",
		"updated": "04/03/2015",
	},
	{
		"name": "YECUP",
		"latitude": "64-46-6.18 N",
		"longitude": "161-19-56.56 W",
		"state": "ALASKA",
		"artcc": "ZAN",
		"type": "RNAV",
		"updated": "09/01/2005",
	},
	{
		"name": "YECUR",
		"latitude": "59-24-1.06 N",
		"longitude": "154-10-8.82 W",
		"state": "ALASKA",
		"artcc": "ZAN",
		"type": "RNAV",
		"updated": "05/26/2006",
	},
	{
		"name": "YEDNU",
		"latitude": "62-39-27.03 N",
		"longitude": "141-20-26.23 W",
		"state": "ALASKA",
		"artcc": "ZAN",
		"type": "RP",
		"updated": "ORT*VORTAC*113.63/23.50",
	},
	{
		"name": "YEDUD",
		"latitude": "62-35-45.9 N",
		"longitude": "159-34-5.11 W",
		"state": "ALASKA",
		"artcc": "ZAN",
		"type": "RNAV",
		"updated": "08/26/2008",
	},
	{
		"name": "YEDUP",
		"latitude": "63-0-32.89 N",
		"longitude": "155-36-11.68 W",
		"state": "ALASKA",
		"artcc": "ZAN",
		"type": "RP",
		"updated": "MCG*LE*N CRS/3.78",
	},
	{
		"name": "YEKUN",
		"latitude": "59-28-37.15 N",
		"longitude": "139-36-23.66 W",
		"state": "ALASKA",
		"artcc": "ZAN",
		"type": "RP",
		"updated": "YAK*VOR/DME*128.00/2.40",
	},
	{
		"name": "YENSI",
		"latitude": "57-1-57.38 N",
		"longitude": "132-53-20.3 W",
		"state": "ALASKA",
		"artcc": "ZAN",
		"type": "RP",
		"updated": "PSG*DD*N CRS/14.00",
	},
	{
		"name": "YENUK",
		"latitude": "66-55-39.69 N",
		"longitude": "157-21-53.88 W",
		"state": "ALASKA",
		"artcc": "ZAN",
		"type": "RNAV",
		"updated": "10/05/2011",
	},
	{
		"name": "YENUL",
		"latitude": "61-54-26.5 N",
		"longitude": "165-7-44.43 W",
		"state": "ALASKA",
		"artcc": "ZAN",
		"type": "RNAV",
		"updated": "06/16/2009",
	},
	{
		"name": "YENUY",
		"latitude": "66-32-4.65 N",
		"longitude": "145-59-17.55 W",
		"state": "ALASKA",
		"artcc": "ZAN",
		"type": "RNAV",
		"updated": "10/29/2013",
	},
	{
		"name": "YESKA",
		"latitude": "61-0-0.78 N",
		"longitude": "149-20-1.84 W",
		"state": "ALASKA",
		"artcc": "ZAN",
		"type": "RP",
		"updated": "JOH*VOR/DME*274.39/86.38",
	},
	{
		"name": "YESUP",
		"latitude": "63-55-57.61 N",
		"longitude": "152-11-44.69 W",
		"state": "ALASKA",
		"artcc": "ZAN",
		"type": "RNAV",
		"updated": "04/20/2006",
	},
	{
		"name": "YEYGI",
		"latitude": "62-3-4.86 N",
		"longitude": "145-25-10.28 W",
		"state": "ALASKA",
		"artcc": "ZAN",
		"type": "RNAV",
		"updated": "11/01/2006",
	},
	{
		"name": "YEYYU",
		"latitude": "58-46-21.43 N",
		"longitude": "157-3-30.33 W",
		"state": "ALASKA",
		"artcc": "ZAN",
		"type": "RP",
		"updated": "AKN*VORTAC*270.89/10.00",
	},
	{
		"name": "YICAX",
		"latitude": "56-39-45 N",
		"longitude": "132-37-0 W",
		"state": "ALASKA",
		"artcc": "ZAN",
		"type": "RNAV",
		"updated": "05/06/2013",
	},
	{
		"name": "YIGUF",
		"latitude": "70-18-38.5 N",
		"longitude": "149-7-45.06 W",
		"state": "ALASKA",
		"artcc": "ZAN",
		"type": "RP",
		"updated": "SCC*VOR/DME*278.16/16.00",
	},
	{
		"name": "YILUS",
		"latitude": "60-50-50.93 N",
		"longitude": "151-15-4.86 W",
		"state": "ALASKA",
		"artcc": "ZAN",
		"type": "RNAV",
		"updated": "12/11/2011",
	},
	{
		"name": "YIPUT",
		"latitude": "64-47-55.43 N",
		"longitude": "147-37-2.15 W",
		"state": "ALASKA",
		"artcc": "ZAN",
		"type": "RNAV",
		"updated": "08/10/2012",
	},
	{
		"name": "YIPVU",
		"latitude": "59-5-10.94 N",
		"longitude": "160-21-10.4 W",
		"state": "ALASKA",
		"artcc": "ZAN",
		"type": "RNAV",
		"updated": "04/18/2018",
	},
	{
		"name": "YIQTO",
		"latitude": "52-1-1.42 N",
		"longitude": "176-22-2.84 W",
		"state": "ALASKA",
		"artcc": "ZAN",
		"type": "RNAV",
		"updated": "07/20/2000",
	},
	{
		"name": "YISPO",
		"latitude": "59-22-30.55 N",
		"longitude": "139-9-40.78 W",
		"state": "ALASKA",
		"artcc": "ZAN",
		"type": "RP",
		"updated": "YAK*VOR/DME*098.48/17.00",
	},
	{
		"name": "YOCUT",
		"latitude": "61-32-5.35 N",
		"longitude": "166-9-38.16 W",
		"state": "ALASKA",
		"artcc": "ZAN",
		"type": "RNAV",
		"updated": "07/08/2011",
	},
	{
		"name": "YOFIN",
		"latitude": "64-54-11.84 N",
		"longitude": "164-46-42.77 W",
		"state": "ALASKA",
		"artcc": "ZAN",
		"type": "RNAV",
		"updated": "08/09/2017",
	},
	{
		"name": "YOHNN",
		"latitude": "61-30-57.17 N",
		"longitude": "150-11-36.82 W",
		"state": "ALASKA",
		"artcc": "ZAN",
		"type": "RP",
		"updated": "BSC*LD*328.88/21.79",
	},
	{
		"name": "YOHOE",
		"latitude": "61-12-58.86 N",
		"longitude": "150-13-3.24 W",
		"state": "ALASKA",
		"artcc": "ZAN",
		"type": "RNAV",
		"updated": "11/19/2007",
	},
	{
		"name": "YONEK",
		"latitude": "61-10-22.97 N",
		"longitude": "151-14-8.3 W",
		"state": "ALASKA",
		"artcc": "ZAN",
		"type": "RP",
		"updated": "TED*VOR/DME*253.04/37.07",
	},
	{
		"name": "YONXU",
		"latitude": "58-55-6.03 N",
		"longitude": "158-1-30.79 W",
		"state": "ALASKA",
		"artcc": "ZAN",
		"type": "RP",
		"updated": "DLG*VOR/DME*090.35/17.00",
	},
	{
		"name": "YORVU",
		"latitude": "58-25-7.86 N",
		"longitude": "156-6-6.66 W",
		"state": "ALASKA",
		"artcc": "ZAN",
		"type": "CN",
		"updated": "06/21/2004",
	},
	{
		"name": "YOSCI",
		"latitude": "70-2-55.55 N",
		"longitude": "146-31-33.34 W",
		"state": "ALASKA",
		"artcc": "ZAN",
		"type": "RNAV",
		"updated": "10/11/2012",
	},
	{
		"name": "YOSCU",
		"latitude": "61-35-19.44 N",
		"longitude": "161-22-13.51 W",
		"state": "ALASKA",
		"artcc": "ZAN",
		"type": "RNAV",
		"updated": "04/06/2004",
	},
	{
		"name": "YOTUK",
		"latitude": "66-15-26.58 N",
		"longitude": "165-35-4.97 W",
		"state": "ALASKA",
		"artcc": "ZAN",
		"type": "RNAV",
		"updated": "06/27/2005",
	},
	{
		"name": "YOVLU",
		"latitude": "63-6-20.97 N",
		"longitude": "141-23-53 W",
		"state": "ALASKA",
		"artcc": "ZAN",
		"type": "RNAV",
		"updated": "11/14/2006",
	},
	{
		"name": "YOVUV",
		"latitude": "69-21-51.32 N",
		"longitude": "152-17-13.86 W",
		"state": "ALASKA",
		"artcc": "ZAN",
		"type": "RNAV",
		"updated": "10/28/2008",
	},
	{
		"name": "YOYUB",
		"latitude": "62-3-46.83 N",
		"longitude": "158-19-13.97 W",
		"state": "ALASKA",
		"artcc": "ZAN",
		"type": "RNAV",
		"updated": "02/27/2014",
	},
	{
		"name": "YOZMO",
		"latitude": "62-15-31.64 N",
		"longitude": "163-16-57.77 W",
		"state": "ALASKA",
		"artcc": "ZAN",
		"type": "RP",
		"updated": "ENM*VOR/DME*118.83",
	},
	{
		"name": "YUCON",
		"latitude": "63-37-27.21 N",
		"longitude": "159-6-8.06 W",
		"state": "ALASKA",
		"artcc": "ZAN",
		"type": "RP",
		"updated": "UNK*VOR/DME*095.21/45.13",
	},
	{
		"name": "YUGUK",
		"latitude": "63-3-14.92 N",
		"longitude": "153-47-21.86 W",
		"state": "ALASKA",
		"artcc": "ZAN",
		"type": "RNAV",
		"updated": "09/01/2005",
	},
	{
		"name": "YUKLA",
		"latitude": "60-57-21.25 N",
		"longitude": "150-4-7.84 W",
		"state": "ALASKA",
		"artcc": "ZAN",
		"type": "MR",
		"updated": "EDF*TACAN*188.00/20.00",
	},
	{
		"name": "YUKUN",
		"latitude": "64-45-5.93 N",
		"longitude": "155-23-58.75 W",
		"state": "ALASKA",
		"artcc": "ZAN",
		"type": "RNAV",
		"updated": "05/21/2004",
	},
	{
		"name": "YULUP",
		"latitude": "59-17-34.81 N",
		"longitude": "146-30-51.69 W",
		"state": "ALASKA",
		"artcc": "ZAN",
		"type": "RNAV",
		"updated": "11/25/2005",
	},
	{
		"name": "YUREE",
		"latitude": "64-27-18.1 N",
		"longitude": "168-52-43.2 W",
		"state": "OFFSHORE PACIFIC",
		"artcc": "ZAN",
		"type": "RNAV",
		"updated": "03/02/2016",
	},
	{
		"name": "YURUG",
		"latitude": "66-50-0.71 N",
		"longitude": "150-36-44.3 W",
		"state": "ALASKA",
		"artcc": "ZAN",
		"type": "RNAV",
		"updated": "11/18/2014",
	},
	{
		"name": "YURUL",
		"latitude": "64-7-26.26 N",
		"longitude": "148-55-25.8 W",
		"state": "ALASKA",
		"artcc": "ZAN",
		"type": "RNAV",
		"updated": "04/13/2017",
	},
	{
		"name": "YURUP",
		"latitude": "56-29-3.91 N",
		"longitude": "158-0-3.43 W",
		"state": "ALASKA",
		"artcc": "ZAN",
		"type": "RNAV",
		"updated": "02/13/2004",
	},
	{
		"name": "YURUS",
		"latitude": "64-2-10.26 N",
		"longitude": "145-39-22.52 W",
		"state": "ALASKA",
		"artcc": "ZAN",
		"type": "MR",
		"updated": "BIG*VORTAC*017.00/2.50",
	},
	{
		"name": "YUSNU",
		"latitude": "66-51-25.85 N",
		"longitude": "151-39-11.41 W",
		"state": "ALASKA",
		"artcc": "ZAN",
		"type": "RP",
		"updated": "BTT*VOR/DME*204.00/4.00",
	},
	{
		"name": "YUSUR",
		"latitude": "70-5-0.5 N",
		"longitude": "146-43-34.56 W",
		"state": "ALASKA",
		"artcc": "ZAN",
		"type": "RNAV",
		"updated": "06/26/2013",
	},
	{
		"name": "YUWAR",
		"latitude": "64-36-0.35 N",
		"longitude": "157-29-14.34 W",
		"state": "ALASKA",
		"artcc": "ZAN",
		"type": "RNAV",
		"updated": "07/29/2008",
	},
	{
		"name": "YUWGE",
		"latitude": "67-30-37.26 N",
		"longitude": "149-40-5.74 W",
		"state": "ALASKA",
		"artcc": "ZAN",
		"type": "RNAV",
		"updated": "08/17/2017",
	},
	{
		"name": "YUZTY",
		"latitude": "64-0-0 N",
		"longitude": "142-48-35.5 W",
		"state": "ALASKA",
		"artcc": "ZAN",
		"type": "MW",
		"updated": "12/09/2013",
	},
