	{
		"name": "ZABLO",
		"latitude": "57-1-57.43 N",
		"longitude": "132-53-20.67 W",
		"state": "ALASKA",
		"artcc": "ZAN",
		"type": "RP",
		"updated": "PSG*DD*344.00/14.00",
	},
	{
		"name": "ZABOB",
		"latitude": "59-2-55.59 N",
		"longitude": "155-24-9.68 W",
		"state": "ALASKA",
		"artcc": "ZAN",
		"type": "RNAV",
		"updated": "07/07/2014",
	},
	{
		"name": "ZADIG",
		"latitude": "60-43-9.07 N",
		"longitude": "161-10-58.42 W",
		"state": "ALASKA",
		"artcc": "ZAN",
		"type": "RNAV",
		"updated": "12/03/2008",
	},
	{
		"name": "ZADIR",
		"latitude": "63-53-31.53 N",
		"longitude": "148-58-35.35 W",
		"state": "ALASKA",
		"artcc": "ZAN",
		"type": "RNAV",
		"updated": "05/18/2017",
	},
	{
		"name": "ZADRO",
		"latitude": "70-13-9.77 N",
		"longitude": "150-12-3.78 W",
		"state": "ALASKA",
		"artcc": "ZAN",
		"type": "RNAV",
		"updated": "07/08/2011",
	},
	{
		"name": "ZADUB",
		"latitude": "59-20-38.11 N",
		"longitude": "160-23-21.53 W",
		"state": "ALASKA",
		"artcc": "ZAN",
		"type": "RNAV",
		"updated": "04/18/2018",
	},
	{
		"name": "ZADUS",
		"latitude": "67-39-50.86 N",
		"longitude": "164-1-55.4 W",
		"state": "ALASKA",
		"artcc": "ZAN",
		"type": "RNAV",
		"updated": "05/30/2008",
	},
	{
		"name": "ZAKEK",
		"latitude": "62-40-25.49 N",
		"longitude": "159-47-52.16 W",
		"state": "ALASKA",
		"artcc": "ZAN",
		"type": "RNAV",
		"updated": "12/08/2017",
	},
	{
		"name": "ZAKEV",
		"latitude": "61-34-26.34 N",
		"longitude": "159-30-44.35 W",
		"state": "ALASKA",
		"artcc": "ZAN",
		"type": "RP",
		"updated": "ANI*NDB*097.59",
	},
	{
		"name": "ZALEG",
		"latitude": "61-41-57.89 N",
		"longitude": "149-0-12.93 W",
		"state": "ALASKA",
		"artcc": "ZAN",
		"type": "RNAV",
		"updated": "06/12/2014",
	},
	{
		"name": "ZALIB",
		"latitude": "59-35-41.13 N",
		"longitude": "161-14-1.196 W",
		"state": "ALASKA",
		"artcc": "ZAN",
		"type": "RNAV",
		"updated": "01/25/2016",
	},
	{
		"name": "ZALOR",
		"latitude": "64-33-4.58 N",
		"longitude": "147-0-2.06 W",
		"state": "ALASKA",
		"artcc": "ZAN",
		"type": "MR",
		"updated": "EIL*TACAN*/6.63",
	},
	{
		"name": "ZALOS",
		"latitude": "60-46-58.62 N",
		"longitude": "161-8-42.41 W",
		"state": "ALASKA",
		"artcc": "ZAN",
		"type": "RNAV",
		"updated": "12/03/2008",
	},
	{
		"name": "ZALSI",
		"latitude": "71-10-23.65 N",
		"longitude": "156-58-32.2 W",
		"state": "ALASKA",
		"artcc": "ZAN",
		"type": "RNAV",
		"updated": "01/25/2017",
	},
	{
		"name": "ZAMED",
		"latitude": "55-15-54.95 N",
		"longitude": "131-36-30.55 W",
		"state": "ALASKA",
		"artcc": "ZAN",
		"type": "RNAV",
		"updated": "05/01/2014",
	},
	{
		"name": "ZAMOM",
		"latitude": "58-50-52.44 N",
		"longitude": "156-32-17.93 W",
		"state": "ALASKA",
		"artcc": "ZAN",
		"type": "RP",
		"updated": "AKN*VORTAC*025.96/10.00",
	},
	{
		"name": "ZAMTO",
		"latitude": "60-21-44.7 N",
		"longitude": "166-18-30.63 W",
		"state": "ALASKA",
		"artcc": "ZAN",
		"type": "RP",
		"updated": "AIX*NDB/DME*230.88/3.10",
	},
	{
		"name": "ZANEB",
		"latitude": "66-51-51.81 N",
		"longitude": "150-33-45.41 W",
		"state": "ALASKA",
		"artcc": "ZAN",
		"type": "RNAV",
		"updated": "11/18/2014",
	},
	{
		"name": "ZANEM",
		"latitude": "66-55-28.72 N",
		"longitude": "156-58-1.09 W",
		"state": "ALASKA",
		"artcc": "ZAN",
		"type": "RNAV",
		"updated": "09/21/2007",
	},
	{
		"name": "ZANEP",
		"latitude": "64-38-2.63 N",
		"longitude": "165-28-32.26 W",
		"state": "ALASKA",
		"artcc": "ZAN",
		"type": "RNAV",
		"updated": "08/09/2017",
	},
	{
		"name": "ZANLO",
		"latitude": "64-21-53.95 N",
		"longitude": "147-19-47.79 W",
		"state": "ALASKA",
		"artcc": "ZAN",
		"type": "MW",
		"updated": "10/31/2017",
	},
	{
		"name": "ZANOV",
		"latitude": "59-29-11.86 N",
		"longitude": "151-55-15.92 W",
		"state": "ALASKA",
		"artcc": "ZAN",
		"type": "RP",
		"updated": "HOM*LE*218.01/17.28",
	},
	{
		"name": "ZAPOT",
		"latitude": "59-27-12.22 N",
		"longitude": "151-50-55 W",
		"state": "ALASKA",
		"artcc": "ZAN",
		"type": "RP",
		"updated": "HOM*VOR/DME*203.00/19.50",
	},
	{
		"name": "ZAPOX",
		"latitude": "59-39-11.77 N",
		"longitude": "154-16-12.09 W",
		"state": "ALASKA",
		"artcc": "ZAN",
		"type": "RNAV",
		"updated": "03/30/2009",
	},
	{
		"name": "ZARFS",
		"latitude": "71-10-6.92 N",
		"longitude": "157-1-58.42 W",
		"state": "ALASKA",
		"artcc": "ZAN",
		"type": "RNAV",
		"updated": "01/25/2017",
	},
	{
		"name": "ZARLU",
		"latitude": "58-38-16.61 N",
		"longitude": "156-33-58.63 W",
		"state": "ALASKA",
		"artcc": "ZAN",
		"type": "RP",
		"updated": "AKN*LD*115.87/2.53",
	},
	{
		"name": "ZARUT",
		"latitude": "57-3-0.95 N",
		"longitude": "133-47-47.51 W",
		"state": "ALASKA",
		"artcc": "ZAN",
		"type": "RP",
		"updated": "LVD*VOR/DME*306.37/42.21",
	},
	{
		"name": "ZATAD",
		"latitude": "57-44-37.82 N",
		"longitude": "152-6-25.78 W",
		"state": "ALASKA",
		"artcc": "ZAN",
		"type": "RNAV",
		"updated": "01/11/2007",
	},
	{
		"name": "ZATOS",
		"latitude": "59-32-5.84 N",
		"longitude": "139-42-39.52 W",
		"state": "ALASKA",
		"artcc": "ZAN",
		"type": "RNAV",
		"updated": "05/05/2005",
	},
	{
		"name": "ZATSU",
		"latitude": "56-35-21.74 N",
		"longitude": "132-40-58.88 W",
		"state": "ALASKA",
		"artcc": "ZAN",
		"type": "RNAV",
		"updated": "04/30/2013",
	},
	{
		"name": "ZAVES",
		"latitude": "70-12-27.52 N",
		"longitude": "146-4-18.14 W",
		"state": "ALASKA",
		"artcc": "ZAN",
		"type": "RNAV",
		"updated": "04/06/2009",
	},
	{
		"name": "ZAVIP",
		"latitude": "62-12-41.72 N",
		"longitude": "163-11-48.48 W",
		"state": "ALASKA",
		"artcc": "ZAN",
		"type": "RNAV",
		"updated": "03/26/2012",
	},
	{
		"name": "ZAVLO",
		"latitude": "57-4-17.03 N",
		"longitude": "135-24-31.69 W",
		"state": "ALASKA",
		"artcc": "ZAN",
		"type": "RP",
		"updated": "SIT*DD*294.85/2.01",
	},
	{
		"name": "ZAVOB",
		"latitude": "59-28-31.08 N",
		"longitude": "155-16-3.2 W",
		"state": "ALASKA",
		"artcc": "ZAN",
		"type": "RNAV",
		"updated": "07/18/2012",
	},
	{
		"name": "ZAXIM",
		"latitude": "67-34-30.06 N",
		"longitude": "150-23-12.86 W",
		"state": "ALASKA",
		"artcc": "ZAN",
		"type": "RNAV",
		"updated": "08/17/2017",
	},
	{
		"name": "ZAXUM",
		"latitude": "58-41-15.4 N",
		"longitude": "147-53-26.18 W",
		"state": "ALASKA",
		"artcc": "ZAN",
		"type": "RNAV",
		"updated": "07/08/2009",
	},
	{
		"name": "ZEBAD",
		"latitude": "59-20-55.98 N",
		"longitude": "146-40-33.65 W",
		"state": "ALASKA",
		"artcc": "ZAN",
		"type": "RNAV",
		"updated": "12/11/2011",
	},
	{
		"name": "ZEBUV",
		"latitude": "54-18-15.84 N",
		"longitude": "165-56-54.35 W",
		"state": "ALASKA",
		"artcc": "ZAN",
		"type": "RP",
		"updated": "DUT*NDB/DME*032.18/32.03",
	},
	{
		"name": "ZEDAG",
		"latitude": "59-14-56.15 N",
		"longitude": "158-18-24.08 W",
		"state": "ALASKA",
		"artcc": "ZAN",
		"type": "RNAV",
		"updated": "07/08/2011",
	},
	{
		"name": "ZEDET",
		"latitude": "62-51-48.84 N",
		"longitude": "164-38-33.29 W",
		"state": "ALASKA",
		"artcc": "ZAN",
		"type": "RNAV",
		"updated": "05/03/2007",
	},
	{
		"name": "ZEKAN",
		"latitude": "62-43-24.76 N",
		"longitude": "159-34-10.5 W",
		"state": "ALASKA",
		"artcc": "ZAN",
		"type": "RNAV",
		"updated": "08/26/2008",
	},
	{
		"name": "ZEKEG",
		"latitude": "60-52-59.43 N",
		"longitude": "160-31-25.1 W",
		"state": "ALASKA",
		"artcc": "ZAN",
		"type": "RP",
		"updated": "BET*VORTAC*066.63/38.65",
	},
	{
		"name": "ZEKIM",
		"latitude": "58-27-6.16 N",
		"longitude": "134-57-11.35 W",
		"state": "ALASKA",
		"artcc": "ZAN",
		"type": "RNAV",
		"updated": "06/04/2003",
	},
	{
		"name": "ZEMDO",
		"latitude": "64-44-8.12 N",
		"longitude": "157-2-33.15 W",
		"state": "ALASKA",
		"artcc": "ZAN",
		"type": "RNAV",
		"updated": "07/26/2012",
	},
	{
		"name": "ZEMEM",
		"latitude": "60-28-29.69 N",
		"longitude": "150-57-21.8 W",
		"state": "ALASKA",
		"artcc": "ZAN",
		"type": "RNAV",
		"updated": "07/10/2013",
	},
	{
		"name": "ZEMUP",
		"latitude": "61-10-4.49 N",
		"longitude": "149-54-18.56 W",
		"state": "ALASKA",
		"artcc": "ZAN",
		"type": "RNAV",
		"updated": "04/07/2017",
	},
	{
		"name": "ZENAN",
		"latitude": "60-21-59.58 N",
		"longitude": "165-46-56.74 W",
		"state": "ALASKA",
		"artcc": "ZAN",
		"type": "RNAV",
		"updated": "09/18/2006",
	},
	{
		"name": "ZENGO",
		"latitude": "64-0-3.19 N",
		"longitude": "165-25-49.98 W",
		"state": "ALASKA",
		"artcc": "ZAN",
		"type": "RNAV",
		"updated": "08/09/2017",
	},
	{
		"name": "ZENIB",
		"latitude": "62-25-6.21 N",
		"longitude": "150-3-23.25 W",
		"state": "ALASKA",
		"artcc": "ZAN",
		"type": "RNAV",
		"updated": "07/13/2017",
	},
	{
		"name": "ZENLA",
		"latitude": "67-7-56.86 N",
		"longitude": "151-47-44.69 W",
		"state": "ALASKA",
		"artcc": "ZAN",
		"type": "RP",
		"updated": "EAV*NDB*319.34",
	},
	{
		"name": "ZENNA",
		"latitude": "56-28-21 N",
		"longitude": "150-0-0 W",
		"state": "OFFSHORE PACIFIC",
		"artcc": "ZAN",
		"type": "RNAV",
		"updated": "11/04/2013",
	},
	{
		"name": "ZEPNA",
		"latitude": "60-7-55.92 N",
		"longitude": "147-34-48.99 W",
		"state": "ALASKA",
		"artcc": "ZAN",
		"type": "RNAV",
		"updated": "12/11/2011",
	},
	{
		"name": "ZEPOK",
		"latitude": "63-55-14.69 N",
		"longitude": "161-17-3.63 W",
		"state": "ALASKA",
		"artcc": "ZAN",
		"type": "RP",
		"updated": "UNK*VOR/DME*261.49/16.00",
	},
	{
		"name": "ZEREL",
		"latitude": "61-2-40.55 N",
		"longitude": "162-29-6.9 W",
		"state": "ALASKA",
		"artcc": "ZAN",
		"type": "RNAV",
		"updated": "07/03/2013",
	},
	{
		"name": "ZEROM",
		"latitude": "58-26-50.97 N",
		"longitude": "156-55-5.28 W",
		"state": "ALASKA",
		"artcc": "ZAN",
		"type": "RNAV",
		"updated": "03/14/2016",
	},
	{
		"name": "ZERPU",
		"latitude": "60-8-49.32 N",
		"longitude": "163-44-17.85 W",
		"state": "ALASKA",
		"artcc": "ZAN",
		"type": "RNAV",
		"updated": "12/26/2017",
	},
	{
		"name": "ZERUM",
		"latitude": "56-21-53.92 N",
		"longitude": "132-17-48.18 W",
		"state": "ALASKA",
		"artcc": "ZAN",
		"type": "RNAV",
		"updated": "11/29/2012",
	},
	{
		"name": "ZESET",
		"latitude": "70-7-35.14 N",
		"longitude": "146-54-34.68 W",
		"state": "ALASKA",
		"artcc": "ZAN",
		"type": "RNAV",
		"updated": "04/06/2009",
	},
	{
		"name": "ZESIK",
		"latitude": "65-8-53.43 N",
		"longitude": "142-29-32.06 W",
		"state": "ALASKA",
		"artcc": "ZAN",
		"type": "RNAV",
		"updated": "03/12/2014",
	},
	{
		"name": "ZESIL",
		"latitude": "58-46-2.64 N",
		"longitude": "157-6-50.01 W",
		"state": "ALASKA",
		"artcc": "ZAN",
		"type": "RNAV",
		"updated": "03/14/2016",
	},
	{
		"name": "ZESKA",
		"latitude": "60-23-15.25 N",
		"longitude": "162-54-29.34 W",
		"state": "ALASKA",
		"artcc": "ZAN",
		"type": "RP",
		"updated": "BET*VORTAC*219.78/40.00",
	},
	{
		"name": "ZETAM",
		"latitude": "64-52-25.02 N",
		"longitude": "147-16-19.54 W",
		"state": "ALASKA",
		"artcc": "ZAN",
		"type": "MR",
		"updated": "EIL*TACAN*322.00/14.00",
	},
	{
		"name": "ZETMO",
		"latitude": "66-28-7.04 N",
		"longitude": "145-41-57.58 W",
		"state": "ALASKA",
		"artcc": "ZAN",
		"type": "RNAV",
		"updated": "09/23/2013",
	},
	{
		"name": "ZEVIX",
		"latitude": "64-36-0.93 N",
		"longitude": "163-21-15.39 W",
		"state": "ALASKA",
		"artcc": "ZAN",
		"type": "RNAV",
		"updated": "11/06/2013",
	},
	{
		"name": "ZEVLI",
		"latitude": "55-31-3.09 N",
		"longitude": "133-15-26.29 W",
		"state": "ALASKA",
		"artcc": "ZAN",
		"type": "RP",
		"updated": "AKW*NDB/DME*223.21/6.80",
	},
	{
		"name": "ZEVMO",
		"latitude": "57-19-44.46 N",
		"longitude": "134-43-47.91 W",
		"state": "ALASKA",
		"artcc": "ZAN",
		"type": "RNAV",
		"updated": "06/21/2005",
	},
	{
		"name": "ZEVON",
		"latitude": "57-6-42.22 N",
		"longitude": "157-37-16.39 W",
		"state": "ALASKA",
		"artcc": "ZAN",
		"type": "RP",
		"updated": "PDN*NDB/DME*057.85/34.96",
	},
	{
		"name": "ZEXTU",
		"latitude": "61-45-37.79 N",
		"longitude": "148-37-39.55 W",
		"state": "ALASKA",
		"artcc": "ZAN",
		"type": "RP",
		"updated": "BGQ*VORTAC*053.71/40.00",
	},
	{
		"name": "ZIBAL",
		"latitude": "62-41-47.82 N",
		"longitude": "159-30-52.9 W",
		"state": "ALASKA",
		"artcc": "ZAN",
		"type": "RNAV",
		"updated": "12/08/2017",
	},
	{
		"name": "ZIBVI",
		"latitude": "59-58-12.42 N",
		"longitude": "151-12-0.17 W",
		"state": "ALASKA",
		"artcc": "ZAN",
		"type": "RP",
		"updated": "HOM*VOR/DME*011.24/17.50",
	},
	{
		"name": "ZIDAB",
		"latitude": "65-35-37.49 N",
		"longitude": "144-58-56.48 W",
		"state": "ALASKA",
		"artcc": "ZAN",
		"type": "RNAV",
		"updated": "03/13/2014",
	},
	{
		"name": "ZIDHI",
		"latitude": "55-30-54.89 N",
		"longitude": "133-11-0.28 W",
		"state": "ALASKA",
		"artcc": "ZAN",
		"type": "RNAV",
		"updated": "01/06/2014",
	},
	{
		"name": "ZIDMU",
		"latitude": "61-48-26.42 N",
		"longitude": "159-6-0.02 W",
		"state": "ALASKA",
		"artcc": "ZAN",
		"type": "RNAV",
		"updated": "03/14/2014",
	},
	{
		"name": "ZIDOR",
		"latitude": "62-48-30.56 N",
		"longitude": "142-34-27.35 W",
		"state": "ALASKA",
		"artcc": "ZAN",
		"type": "RP",
		"updated": "ORT*VORTAC*221.63/20.00",
	},
	{
		"name": "ZIDOV",
		"latitude": "67-2-28.11 N",
		"longitude": "150-26-45.45 W",
		"state": "ALASKA",
		"artcc": "ZAN",
		"type": "RNAV",
		"updated": "11/18/2014",
	},
	{
		"name": "ZIDVA",
		"latitude": "60-28-40.8 N",
		"longitude": "151-2-29.85 W",
		"state": "ALASKA",
		"artcc": "ZAN",
		"type": "RP",
		"updated": "ENA*VOR/DME*131.97/9.40",
	},
	{
		"name": "ZIGIR",
		"latitude": "61-55-36.94 N",
		"longitude": "158-27-8.75 W",
		"state": "ALASKA",
		"artcc": "ZAN",
		"type": "RNAV",
		"updated": "02/27/2014",
	},
	{
		"name": "ZIHCE",
		"latitude": "68-0-54.23 N",
		"longitude": "162-56-14.77 W",
		"state": "ALASKA",
		"artcc": "ZAN",
		"type": "RNAV",
		"updated": "07/28/2008",
	},
	{
		"name": "ZIKBO",
		"latitude": "66-54-16.53 N",
		"longitude": "162-47-44.83 W",
		"state": "ALASKA",
		"artcc": "ZAN",
		"type": "RNAV",
		"updated": "12/05/2014",
	},
	{
		"name": "ZIKEF",
		"latitude": "52-14-17.98 N",
		"longitude": "174-12-49.81 W",
		"state": "ALASKA",
		"artcc": "ZAN",
		"type": "RNAV",
		"updated": "06/03/2010",
	},
	{
		"name": "ZIKLA",
		"latitude": "61-10-11.38 N",
		"longitude": "149-54-37.52 W",
		"state": "ALASKA",
		"artcc": "ZAN",
		"type": "RNAV",
		"updated": "04/07/2017",
	},
	{
		"name": "ZILAR",
		"latitude": "62-29-35.1 N",
		"longitude": "159-34-0.79 W",
		"state": "ALASKA",
		"artcc": "ZAN",
		"type": "RNAV",
		"updated": "08/26/2008",
	},
	{
		"name": "ZILIP",
		"latitude": "64-31-56.52 N",
		"longitude": "165-35-6.87 W",
		"state": "ALASKA",
		"artcc": "ZAN",
		"type": "RNAV",
		"updated": "08/09/2017",
	},
	{
		"name": "ZILKO",
		"latitude": "57-40-59.11 N",
		"longitude": "157-54-35.27 W",
		"state": "ALASKA",
		"artcc": "ZAN",
		"type": "RP",
		"updated": "PDN*NDB/DME*012.43/49.97",
	},
	{
		"name": "ZIMEB",
		"latitude": "66-52-12.76 N",
		"longitude": "162-43-29.12 W",
		"state": "ALASKA",
		"artcc": "ZAN",
		"type": "RNAV",
		"updated": "08/09/2017",
	},
	{
		"name": "ZIMIV",
		"latitude": "65-10-25.41 N",
		"longitude": "147-3-52.2 W",
		"state": "ALASKA",
		"artcc": "ZAN",
		"type": "MR",
		"updated": "FAI*VORTAC*025.60/33.00",
	},
	{
		"name": "ZIMUR",
		"latitude": "60-33-46.44 N",
		"longitude": "147-2-28.36 W",
		"state": "ALASKA",
		"artcc": "ZAN",
		"type": "RP",
		"updated": "JOH*VOR/DME*272.81/14.00",
	},
	{
		"name": "ZINAM",
		"latitude": "60-37-7.2 N",
		"longitude": "152-7-54.44 W",
		"state": "ALASKA",
		"artcc": "ZAN",
		"type": "RNAV",
		"updated": "11/15/2010",
	},
	{
		"name": "ZINDO",
		"latitude": "66-50-13.93 N",
		"longitude": "157-51-16.73 W",
		"state": "ALASKA",
		"artcc": "ZAN",
		"type": "RNAV",
		"updated": "10/05/2011",
	},
	{
		"name": "ZINEV",
		"latitude": "61-33-7.27 N",
		"longitude": "149-36-6.55 W",
		"state": "ALASKA",
		"artcc": "ZAN",
		"type": "RNAV",
		"updated": "06/13/2014",
	},
	{
		"name": "ZINIV",
		"latitude": "64-51-34.9 N",
		"longitude": "161-14-15.55 W",
		"state": "ALASKA",
		"artcc": "ZAN",
		"type": "RNAV",
		"updated": "09/01/2005",
	},
	{
		"name": "ZIPIB",
		"latitude": "66-49-44.62 N",
		"longitude": "162-29-22.48 W",
		"state": "ALASKA",
		"artcc": "ZAN",
		"type": "RNAV",
		"updated": "08/09/2017",
	},
	{
		"name": "ZIPIE",
		"latitude": "56-59-40.45 N",
		"longitude": "135-20-39.55 W",
		"state": "ALASKA",
		"artcc": "ZAN",
		"type": "RNAV",
		"updated": "10/27/2014",
	},
	{
		"name": "ZIPPS",
		"latitude": "60-25-44.82 N",
		"longitude": "151-28-48.23 W",
		"state": "ALASKA",
		"artcc": "ZAN",
		"type": "RP",
		"updated": "ENA*VOR/DME*198.23/14.00",
	},
	{
		"name": "ZIPYU",
		"latitude": "66-58-30.93 N",
		"longitude": "162-0-43.76 W",
		"state": "ALASKA",
		"artcc": "ZAN",
		"type": "RNAV",
		"updated": "12/05/2014",
	},
	{
		"name": "ZIRBI",
		"latitude": "66-36-31.53 N",
		"longitude": "156-29-33.82 W",
		"state": "ALASKA",
		"artcc": "ZAN",
		"type": "RNAV",
		"updated": "10/05/2011",
	},
	{
		"name": "ZIREK",
		"latitude": "64-31-49.41 N",
		"longitude": "146-56-33.92 W",
		"state": "ALASKA",
		"artcc": "ZAN",
		"type": "MR",
		"updated": "EIL*TACAN*133.17/8.39",
	},
	{
		"name": "ZIREN",
		"latitude": "61-8-57.96 N",
		"longitude": "150-8-58.87 W",
		"state": "ALASKA",
		"artcc": "ZAN",
		"type": "RNAV",
		"updated": "11/18/2014",
	},
	{
		"name": "ZIROD",
		"latitude": "66-24-23.36 N",
		"longitude": "165-46-0.2 W",
		"state": "ALASKA",
		"artcc": "ZAN",
		"type": "RNAV",
		"updated": "06/27/2005",
	},
	{
		"name": "ZISLA",
		"latitude": "71-10-37.65 N",
		"longitude": "157-8-33.53 W",
		"state": "ALASKA",
		"artcc": "ZAN",
		"type": "RNAV",
		"updated": "01/25/2017",
	},
	{
		"name": "ZIVGO",
		"latitude": "54-8-8.94 N",
		"longitude": "165-10-7.62 W",
		"state": "ALASKA",
		"artcc": "ZAN",
		"type": "RNAV",
		"updated": "06/02/2014",
	},
	{
		"name": "ZIVTO",
		"latitude": "59-50-30.11 N",
		"longitude": "164-2-15.02 W",
		"state": "ALASKA",
		"artcc": "ZAN",
		"type": "RNAV",
		"updated": "12/26/2017",
	},
	{
		"name": "ZIXUM",
		"latitude": "58-21-5.25 N",
		"longitude": "134-33-4.1 W",
		"state": "ALASKA",
		"artcc": "ZAN",
		"type": "RNAV",
		"updated": "10/27/2014",
	},
	{
		"name": "ZOBVA",
		"latitude": "71-10-23.93 N",
		"longitude": "156-33-31.7 W",
		"state": "ALASKA",
		"artcc": "ZAN",
		"type": "RNAV",
		"updated": "01/25/2017",
	},
	{
		"name": "ZODEL",
		"latitude": "62-58-27.8 N",
		"longitude": "141-48-37.49 W",
		"state": "ALASKA",
		"artcc": "ZAN",
		"type": "RNAV",
		"updated": "07/08/2011",
	},
	{
		"name": "ZOGBI",
		"latitude": "55-18-29.93 N",
		"longitude": "131-37-55.31 W",
		"state": "ALASKA",
		"artcc": "ZAN",
		"type": "RNAV",
		"updated": "05/01/2014",
	},
	{
		"name": "ZOGMA",
		"latitude": "51-51-19.4 N",
		"longitude": "176-46-14.08 W",
		"state": "ALASKA",
		"artcc": "ZAN",
		"type": "RNAV",
		"updated": "12/16/2009",
	},
	{
		"name": "ZOGTA",
		"latitude": "63-42-10.72 N",
		"longitude": "160-53-57.82 W",
		"state": "ALASKA",
		"artcc": "ZAN",
		"type": "RNAV",
		"updated": "04/27/2009",
	},
	{
		"name": "ZOKIX",
		"latitude": "61-56-17.66 N",
		"longitude": "145-33-37.26 W",
		"state": "ALASKA",
		"artcc": "ZAN",
		"type": "RNAV",
		"updated": "11/01/2006",
	},
	{
		"name": "ZOLKO",
		"latitude": "56-59-41.38 N",
		"longitude": "134-31-47.42 W",
		"state": "ALASKA",
		"artcc": "ZAN",
		"type": "RNAV",
		"updated": "06/11/2008",
	},
	{
		"name": "ZOLOR",
		"latitude": "66-48-52.14 N",
		"longitude": "162-42-28.31 W",
		"state": "ALASKA",
		"artcc": "ZAN",
		"type": "RNAV",
		"updated": "08/09/2017",
	},
	{
		"name": "ZOMBY",
		"latitude": "64-44-29.22 N",
		"longitude": "155-59-58.5 W",
		"state": "ALASKA",
		"artcc": "ZAN",
		"type": "RP",
		"updated": "HSL*VOR/DME*151.87/58.90",
	},
	{
		"name": "ZOMIL",
		"latitude": "66-52-35.73 N",
		"longitude": "162-30-14.3 W",
		"state": "ALASKA",
		"artcc": "ZAN",
		"type": "RNAV",
		"updated": "08/09/2017",
	},
	{
		"name": "ZOMOK",
		"latitude": "61-56-40.38 N",
		"longitude": "161-16-20.53 W",
		"state": "ALASKA",
		"artcc": "ZAN",
		"type": "RNAV",
		"updated": "04/06/2004",
	},
	{
		"name": "ZOMOM",
		"latitude": "56-36-46.24 N",
		"longitude": "132-55-4.17 W",
		"state": "ALASKA",
		"artcc": "ZAN",
		"type": "RP",
		"updated": "RGL*DD*273.00/20.00",
	},
	{
		"name": "ZONBA",
		"latitude": "64-0-28 N",
		"longitude": "167-45-45 W",
		"state": "ALASKA",
		"artcc": "ZAN",
		"type": "RNAV",
		"updated": "06/30/2015",
	},
	{
		"name": "ZONEX",
		"latitude": "58-24-41.29 N",
		"longitude": "135-40-36.58 W",
		"state": "ALASKA",
		"artcc": "ZAN",
		"type": "RNAV",
		"updated": "04/03/2015",
	},
	{
		"name": "ZONSI",
		"latitude": "60-25-48.71 N",
		"longitude": "145-11-56.15 W",
		"state": "ALASKA",
		"artcc": "ZAN",
		"type": "RP",
		"updated": "CDV*LD*095.24/9.82",
	},
	{
		"name": "ZOPRY",
		"latitude": "59-26-27.4 N",
		"longitude": "139-31-35.06 W",
		"state": "ALASKA",
		"artcc": "ZAN",
		"type": "RNAV",
		"updated": "12/22/2016",
	},
	{
		"name": "ZOPUB",
		"latitude": "58-41-57.93 N",
		"longitude": "156-41-52.68 W",
		"state": "ALASKA",
		"artcc": "ZAN",
		"type": "RP",
		"updated": "AKN*LD*295.84/3.01",
	},
	{
		"name": "ZORNA",
		"latitude": "68-10-37.35 N",
		"longitude": "166-59-17.85 W",
		"state": "ALASKA",
		"artcc": "ZAN",
		"type": "RNAV",
		"updated": "09/09/2013",
	},
	{
		"name": "ZORNI",
		"latitude": "53-56-18.33 N",
		"longitude": "166-32-52.32 W",
		"state": "ALASKA",
		"artcc": "ZAN",
		"type": "RP",
		"updated": "DUT*NDB/DME*351.00/2.00",
	},
	{
		"name": "ZOSIV",
		"latitude": "64-47-0.18 N",
		"longitude": "165-19-13.08 W",
		"state": "ALASKA",
		"artcc": "ZAN",
		"type": "RNAV",
		"updated": "08/09/2017",
	},
	{
		"name": "ZOSUM",
		"latitude": "65-5-32.25 N",
		"longitude": "152-36-21.57 W",
		"state": "ALASKA",
		"artcc": "ZAN",
		"type": "RP",
		"updated": "TAL*VOR/DME*226.00/12.00",
	},
	{
		"name": "ZOTOR",
		"latitude": "66-52-42.88 N",
		"longitude": "162-1-59.59 W",
		"state": "ALASKA",
		"artcc": "ZAN",
		"type": "RP",
		"updated": "OTZ*VOR/DME*076.81/12.00",
	},
	{
		"name": "ZOXIL",
		"latitude": "59-42-55.34 N",
		"longitude": "151-16-43.16 W",
		"state": "ALASKA",
		"artcc": "ZAN",
		"type": "RP",
		"updated": "HOM*LE*038.03/6.66",
	},
	{
		"name": "ZOXIM",
		"latitude": "61-51-57.12 N",
		"longitude": "162-1-4.97 W",
		"state": "ALASKA",
		"artcc": "ZAN",
		"type": "RNAV",
		"updated": "03/26/2012",
	},
	{
		"name": "ZOXIS",
		"latitude": "64-43-22.8 N",
		"longitude": "147-9-9.21 W",
		"state": "ALASKA",
		"artcc": "ZAN",
		"type": "MW",
		"updated": "03/09/2016",
	},
	{
		"name": "ZOXIV",
		"latitude": "54-12-49.97 N",
		"longitude": "165-44-23.14 W",
		"state": "ALASKA",
		"artcc": "ZAN",
		"type": "RNAV",
		"updated": "11/06/2013",
	},
	{
		"name": "ZOXNE",
		"latitude": "59-1-51.66 N",
		"longitude": "155-43-36.32 W",
		"state": "ALASKA",
		"artcc": "ZAN",
		"type": "RNAV",
		"updated": "07/07/2014",
	},
	{
		"name": "ZOXOP",
		"latitude": "64-31-59.94 N",
		"longitude": "158-18-57.83 W",
		"state": "ALASKA",
		"artcc": "ZAN",
		"type": "RNAV",
		"updated": "11/23/2016",
	},
	{
		"name": "ZOXOR",
		"latitude": "62-52-23.23 N",
		"longitude": "155-58-47.69 W",
		"state": "ALASKA",
		"artcc": "ZAN",
		"type": "MW",
		"updated": "06/03/2011",
	},
	{
		"name": "ZUBMA",
		"latitude": "56-57-14.71 N",
		"longitude": "158-38-54.85 W",
		"state": "ALASKA",
		"artcc": "ZAN",
		"type": "RNAV",
		"updated": "01/23/2007",
	},
	{
		"name": "ZUBUR",
		"latitude": "56-51-46.89 N",
		"longitude": "159-3-25.42 W",
		"state": "ALASKA",
		"artcc": "ZAN",
		"type": "RNAV",
		"updated": "01/23/2007",
	},
	{
		"name": "ZUDAL",
		"latitude": "56-58-14.25 N",
		"longitude": "158-39-38.14 W",
		"state": "ALASKA",
		"artcc": "ZAN",
		"type": "RNAV",
		"updated": "01/23/2007",
	},
	{
		"name": "ZUDBO",
		"latitude": "60-42-44.03 N",
		"longitude": "146-29-40.84 W",
		"state": "ALASKA",
		"artcc": "ZAN",
		"type": "RNAV",
		"updated": "11/09/2011",
	},
	{
		"name": "ZUDNO",
		"latitude": "66-40-0 N",
		"longitude": "143-47-30 W",
		"state": "ALASKA",
		"artcc": "ZAN",
		"type": "MW",
		"updated": "12/09/2013",
	},
	{
		"name": "ZUDRO",
		"latitude": "64-46-31.2 N",
		"longitude": "163-28-11.3 W",
		"state": "ALASKA",
		"artcc": "ZAN",
		"type": "RNAV",
		"updated": "11/06/2013",
	},
	{
		"name": "ZUDUM",
		"latitude": "59-35-27.25 N",
		"longitude": "140-16-31.34 W",
		"state": "ALASKA",
		"artcc": "ZAN",
		"type": "RNAV",
		"updated": "06/25/2013",
	},
	{
		"name": "ZUGRU",
		"latitude": "58-14-20.38 N",
		"longitude": "135-4-17.21 W",
		"state": "ALASKA",
		"artcc": "ZAN",
		"type": "RP",
		"updated": "SSR*VORTAC*038.12/7.00",
	},
	{
		"name": "ZUHXY",
		"latitude": "58-11-0 N",
		"longitude": "134-23-45 W",
		"state": "ALASKA",
		"artcc": "ZAN",
		"type": "RNAV",
		"updated": "07/12/2004",
	},
	{
		"name": "ZUKES",
		"latitude": "65-36-32.64 N",
		"longitude": "168-5-59.37 W",
		"state": "ALASKA",
		"artcc": "ZAN",
		"type": "RNAV",
		"updated": "05/06/2004",
	},
	{
		"name": "ZUKNU",
		"latitude": "71-12-49.93 N",
		"longitude": "156-18-38.88 W",
		"state": "ALASKA",
		"artcc": "ZAN",
		"type": "RNAV",
		"updated": "01/25/2017",
	},
	{
		"name": "ZULIL",
		"latitude": "58-21-32 N",
		"longitude": "134-41-58.54 W",
		"state": "ALASKA",
		"artcc": "ZAN",
		"type": "RNAV",
		"updated": "01/03/2013",
	},
	{
		"name": "ZUMAR",
		"latitude": "55-41-26.24 N",
		"longitude": "159-12-52.83 W",
		"state": "ALASKA",
		"artcc": "ZAN",
		"type": "RNAV",
		"updated": "12/04/2006",
	},
	{
		"name": "ZUMEL",
		"latitude": "65-33-10.44 N",
		"longitude": "156-30-27.81 W",
		"state": "ALASKA",
		"artcc": "ZAN",
		"type": "RP",
		"updated": "HSL*VOR/DME*182.15/10.00",
	},
	{
		"name": "ZUMUN",
		"latitude": "64-40-10.03 N",
		"longitude": "156-0-2.71 W",
		"state": "ALASKA",
		"artcc": "ZAN",
		"type": "RNAV",
		"updated": "04/12/2007",
	},
	{
		"name": "ZUNOS",
		"latitude": "59-26-41.72 N",
		"longitude": "157-2-46.44 W",
		"state": "ALASKA",
		"artcc": "ZAN",
		"type": "RP",
		"updated": "AKN*VORTAC*332.27",
	},
	{
		"name": "ZUPAK",
		"latitude": "55-40-6.72 N",
		"longitude": "132-51-5.07 W",
		"state": "ALASKA",
		"artcc": "ZAN",
		"type": "RNAV",
		"updated": "07/12/2004",
	},
	{
		"name": "ZUPAL",
		"latitude": "62-57-26.99 N",
		"longitude": "141-57-38.36 W",
		"state": "ALASKA",
		"artcc": "ZAN",
		"type": "RNAV",
		"updated": "11/14/2006",
	},
	{
		"name": "ZUPAR",
		"latitude": "61-30-46.52 N",
		"longitude": "166-7-57.57 W",
		"state": "ALASKA",
		"artcc": "ZAN",
		"type": "RNAV",
		"updated": "07/08/2011",
	},
	{
		"name": "ZUPVO",
		"latitude": "66-34-42.84 N",
		"longitude": "145-13-59.34 W",
		"state": "ALASKA",
		"artcc": "ZAN",
		"type": "RP",
		"updated": "FYU*VORTAC*055.99/1.07",
	},
	{
		"name": "ZUREP",
		"latitude": "65-1-19.59 N",
		"longitude": "147-28-43.25 W",
		"state": "ALASKA",
		"artcc": "ZAN",
		"type": "RP",
		"updated": "FAI*LD*020.08/17.01",
	},
	{
		"name": "ZUSEK",
		"latitude": "61-35-28.36 N",
		"longitude": "159-34-35.09 W",
		"state": "ALASKA",
		"artcc": "ZAN",
		"type": "RP",
		"updated": "ANI*LD*109.18/1.71",
	},
	{
		"name": "ZUSID",
		"latitude": "64-25-33.76 N",
		"longitude": "165-24-23.7 W",
		"state": "ALASKA",
		"artcc": "ZAN",
		"type": "RNAV",
		"updated": "08/09/2017",
	},
	{
		"name": "ZUSIT",
		"latitude": "58-21-42.88 N",
		"longitude": "135-17-26.26 W",
		"state": "ALASKA",
		"artcc": "ZAN",
		"type": "CN",
		"updated": "11/28/2006",
	},
	{
		"name": "ZUSPA",
		"latitude": "66-18-20.43 N",
		"longitude": "147-51-4.14 W",
		"state": "ALASKA",
		"artcc": "ZAN",
		"type": "RNAV",
		"updated": "12/28/2004",
	},
	{
		"name": "ZUSRA",
		"latitude": "61-56-31.64 N",
		"longitude": "150-26-46.78 W",
		"state": "ALASKA",
		"artcc": "ZAN",
		"type": "RNAV",
		"updated": "08/01/2006",
	},
	{
		"name": "ZUSTU",
		"latitude": "65-35-50 N",
		"longitude": "156-39-9.2 W",
		"state": "ALASKA",
		"artcc": "ZAN",
		"type": "RNAV",
		"updated": "08/06/2008",
	},
	{
		"name": "ZUTAB",
		"latitude": "66-59-28.4 N",
		"longitude": "150-45-32.25 W",
		"state": "ALASKA",
		"artcc": "ZAN",
		"type": "RNAV",
		"updated": "11/18/2014",
	},
	{
		"name": "ZUTEB",
		"latitude": "59-23-22.63 N",
		"longitude": "155-18-52.62 W",
		"state": "ALASKA",
		"artcc": "ZAN",
		"type": "RNAV",
		"updated": "05/26/2006",
	},
	{
		"name": "ZUTKU",
		"latitude": "57-2-4.54 N",
		"longitude": "135-23-18.32 W",
		"state": "ALASKA",
		"artcc": "ZAN",
		"type": "RNAV",
		"updated": "06/27/2013",
	},
	{
		"name": "ZUTLI",
		"latitude": "55-33-18.59 N",
		"longitude": "133-7-27.91 W",
		"state": "ALASKA",
		"artcc": "ZAN",
		"type": "RNAV",
		"updated": "06/10/2013",
	},
	{
		"name": "ZUTMU",
		"latitude": "64-55-22.31 N",
		"longitude": "161-10-18.15 W",
		"state": "ALASKA",
		"artcc": "ZAN",
		"type": "RNAV",
		"updated": "09/01/2005",
	},
	{
		"name": "ZUTOR",
		"latitude": "60-42-25.96 N",
		"longitude": "150-45-23.33 W",
		"state": "ALASKA",
		"artcc": "ZAN",
		"type": "RNAV",
		"updated": "10/28/2015",
	},
	{
		"name": "ZUTSU",
		"latitude": "64-26-33.95 N",
		"longitude": "164-52-44.37 W",
		"state": "ALASKA",
		"artcc": "ZAN",
		"type": "RP",
		"updated": "OME*VOR/DME*093.52/10.05",
	},
	{
		"name": "ZUVHO",
		"latitude": "70-6-47.09 N",
		"longitude": "143-30-43.42 W",
		"state": "ALASKA",
		"artcc": "ZAN",
		"type": "RNAV",
		"updated": "09/29/2016",
	},
	{
		"name": "ZUVOD",
		"latitude": "63-59-59.68 N",
		"longitude": "152-2-30.77 W",
		"state": "ALASKA",
		"artcc": "ZAN",
		"type": "RNAV",
		"updated": "12/22/2005",
	},
	{
		"name": "ZUVOV",
		"latitude": "63-4-58.53 N",
		"longitude": "154-4-28.24 W",
		"state": "ALASKA",
		"artcc": "ZAN",
		"type": "RNAV",
		"updated": "09/01/2005",
	},
	{
		"name": "ZUVUB",
		"latitude": "67-7-14.18 N",
		"longitude": "150-30-5.82 W",
		"state": "ALASKA",
		"artcc": "ZAN",
		"type": "RNAV",
		"updated": "07/05/2005",
	},
	{
		"name": "ZUVUT",
		"latitude": "61-34-40.52 N",
		"longitude": "161-11-51.2 W",
		"state": "ALASKA",
		"artcc": "ZAN",
		"type": "RNAV",
		"updated": "04/06/2004",
	},
	{
		"name": "ZUXAN",
		"latitude": "61-5-15.61 N",
		"longitude": "149-57-7.08 W",
		"state": "ALASKA",
		"artcc": "ZAN",
		"type": "RNAV",
		"updated": "12/11/2011",
	},
	{
		"name": "ZUXOK",
		"latitude": "66-50-17.69 N",
		"longitude": "160-49-32.02 W",
		"state": "ALASKA",
		"artcc": "ZAN",
		"type": "RNAV",
		"updated": "11/24/2009",
	},
	{
		"name": "ZUXUN",
		"latitude": "51-53-42.42 N",
		"longitude": "176-36-33.73 W",
		"state": "ALASKA",
		"artcc": "ZAN",
		"type": "RP",
		"updated": "ADK*NDB/DME*/2.81",
	},
	{
		"name": "ZUYEB",
		"latitude": "61-32-2.02 N",
		"longitude": "149-11-29.58 W",
		"state": "ALASKA",
		"artcc": "ZAN",
		"type": "RNAV",
		"updated": "03/03/2008",
	},
