[
	{
		"name": "AAARN",
		"latitude": "34-16-53.39 N",
		"longitude": "85-16-5.42 W",
		"state": "GEORGIA",
		"artcc": "ZTL",
		"type": "RNAV",
		"updated": "08/17/2017"
	},
	{
		"name": "AABEE",
		"latitude": "34-4-5 N",
		"longitude": "84-12-51.71 W",
		"state": "GEORGIA",
		"artcc": "ZTL",
		"type": "RP",
		"updated": "PDK*VOR/DME*025.06/12.27"
	},
	{
		"name": "AAIRE",
		"latitude": "35-8-46.57 N",
		"longitude": "81-3-44.33 W",
		"state": "SOUTH CAROLINA",
		"artcc": "ZTL",
		"type": "RNAV",
		"updated": "05/12/2016"
	},
	{
		"name": "AAKAY",
		"latitude": "33-38-3.02 N",
		"longitude": "84-47-35.88 W",
		"state": "GEORGIA",
		"artcc": "ZTL",
		"type": "RP",
		"updated": "FT*NDB*230.23"
	},
	{
		"name": "AATAT",
		"latitude": "33-10-1.95 N",
		"longitude": "83-26-13.93 W",
		"state": "GEORGIA",
		"artcc": "ZTL",
		"type": "RNAV",
		"updated": "08/17/2017"
	},
	{
		"name": "ACABE",
		"latitude": "36-17-37.42 N",
		"longitude": "82-19-26.83 W",
		"state": "TENNESSEE",
		"artcc": "ZTL",
		"type": "RNAV",
		"updated": "03/28/2007"
	},
	{
		"name": "ACERA",
		"latitude": "33-51-59.79 N",
		"longitude": "84-11-35.66 W",
		"state": "GEORGIA",
		"artcc": "ZTL",
		"type": "RNAV",
		"updated": "05/20/2011"
	},
	{
		"name": "ACERB",
		"latitude": "35-5-56.24 N",
		"longitude": "81-7-42.98 W",
		"state": "SOUTH CAROLINA",
		"artcc": "ZTL",
		"type": "RNAV",
		"updated": "08/05/2015"
	},
	{
		"name": "ACLAC",
		"latitude": "35-7-36.79 N",
		"longitude": "81-11-58.54 W",
		"state": "SOUTH CAROLINA",
		"artcc": "ZTL",
		"type": "RNAV",
		"updated": "11/03/2006"
	},
	{
		"name": "ACUVI",
		"latitude": "33-54-36.03 N",
		"longitude": "84-29-24.61 W",
		"state": "GEORGIA",
		"artcc": "ZTL",
		"type": "MR",
		"updated": "DOB*TACAN*111.00/0.90"
	},
	{
		"name": "ADEEN",
		"latitude": "32-43-31.41 N",
		"longitude": "86-19-48.43 W",
		"state": "ALABAMA",
		"artcc": "ZTL",
		"type": "RP",
		"updated": "MGM*VORTAC*356.00/30.13"
	},
	{
		"name": "ADEIN",
		"latitude": "36-14-59.09 N",
		"longitude": "82-46-58.91 W",
		"state": "TENNESSEE",
		"artcc": "ZTL",
		"type": "RNAV",
		"updated": "07/26/2016"
	},
	{
		"name": "ADENA",
		"latitude": "34-43-58.77 N",
		"longitude": "81-32-34.15 W",
		"state": "SOUTH CAROLINA",
		"artcc": "ZTL",
		"type": "RP",
		"updated": "SPA*VORTAC*135.41"
	},
	{
		"name": "ADETE",
		"latitude": "34-54-6.73 N",
		"longitude": "85-19-31.71 W",
		"state": "GEORGIA",
		"artcc": "ZTL",
		"type": "RNAV",
		"updated": "11/07/2016"
	},
	{
		"name": "ADKAW",
		"latitude": "36-17-29.58 N",
		"longitude": "80-21-37.24 W",
		"state": "NORTH CAROLINA",
		"artcc": "ZTL",
		"type": "RNAV",
		"updated": "04/06/2009"
	},
	{
		"name": "ADKEW",
		"latitude": "34-41-41.52 N",
		"longitude": "84-29-19.84 W",
		"state": "GEORGIA",
		"artcc": "ZTL",
		"type": "RNAV",
		"updated": "02/28/2018"
	},
	{
		"name": "ADMIT",
		"latitude": "34-41-12.34 N",
		"longitude": "85-31-55.82 W",
		"state": "GEORGIA",
		"artcc": "ZTL",
		"type": "RP",
		"updated": "RMG*VORTAC*325.99"
	},
	{
		"name": "ADNOY",
		"latitude": "35-55-29.43 N",
		"longitude": "85-11-39.25 W",
		"state": "TENNESSEE",
		"artcc": "ZTL",
		"type": "RNAV",
		"updated": "02/04/2009"
	},
	{
		"name": "ADOKY",
		"latitude": "32-9-39.89 N",
		"longitude": "88-13-47.14 W",
		"state": "ALABAMA",
		"artcc": "ZTL",
		"type": "RNAV",
		"updated": "03/16/2016"
	},
	{
		"name": "ADONY",
		"latitude": "32-31-28.4 N",
		"longitude": "85-26-10 W",
		"state": "ALABAMA",
		"artcc": "ZTL",
		"type": "CN",
		"updated": "01/30/2001"
	},
	{
		"name": "ADOWN",
		"latitude": "35-26-17.14 N",
		"longitude": "81-40-55.87 W",
		"state": "NORTH CAROLINA",
		"artcc": "ZTL",
		"type": "RNAV",
		"updated": "05/12/2016"
	},
	{
		"name": "ADTOP",
		"latitude": "32-23-15.91 N",
		"longitude": "88-2-13.08 W",
		"state": "ALABAMA",
		"artcc": "ZTL",
		"type": "RNAV",
		"updated": "09/03/2015"
	},
	{
		"name": "ADZIN",
		"latitude": "33-10-36.99 N",
		"longitude": "86-22-56.2 W",
		"state": "ALABAMA",
		"artcc": "ZTL",
		"type": "RP",
		"updated": "VUZ*VORTAC*136.51/39.34"
	},
	{
		"name": "ADZUY",
		"latitude": "31-53-0.51 N",
		"longitude": "85-7-40.11 W",
		"state": "ALABAMA",
		"artcc": "ZTL",
		"type": "RP",
		"updated": "EUF*VORTAC*176.00/4.00"
	},
	{
		"name": "AFENY",
		"latitude": "32-0-58.41 N",
		"longitude": "85-7-5.79 W",
		"state": "ALABAMA",
		"artcc": "ZTL",
		"type": "RP",
		"updated": "EUF*VORTAC*007.00/4.00"
	},
	{
		"name": "AFPAD",
		"latitude": "32-32-24.85 N",
		"longitude": "87-52-14.01 W",
		"state": "ALABAMA",
		"artcc": "ZTL",
		"type": "RNAV",
		"updated": "09/03/2015"
	},
	{
		"name": "AFPEP",
		"latitude": "33-9-45.38 N",
		"longitude": "86-23-47.07 W",
		"state": "ALABAMA",
		"artcc": "ZTL",
		"type": "CN",
		"updated": "01/30/2001"
	},
	{
		"name": "AFTEN",
		"latitude": "36-9-21.28 N",
		"longitude": "82-32-1.31 W",
		"state": "TENNESSEE",
		"artcc": "ZTL",
		"type": "RP",
		"updated": "HMV*VORTAC*233.00/25.80"
	},
	{
		"name": "AFUFI",
		"latitude": "31-46-18.07 N",
		"longitude": "83-15-4.24 W",
		"state": "GEORGIA",
		"artcc": "ZJX",
		"type": "RNAV",
		"updated": "07/19/2011"
	},
	{
		"name": "AGEHO",
		"latitude": "33-20-4.52 N",
		"longitude": "84-32-14.85 W",
		"state": "GEORGIA",
		"artcc": "ZTL",
		"type": "RP",
		"updated": "FFC*LD*133.15/2.80"
	},
	{
		"name": "AGUME",
		"latitude": "31-59-57.7 N",
		"longitude": "83-52-54.3 W",
		"state": "GEORGIA",
		"artcc": "ZJX",
		"type": "RNAV",
		"updated": "03/23/2017"
	},
	{
		"name": "AHOEY",
		"latitude": "35-0-36.28 N",
		"longitude": "80-5-55.93 W",
		"state": "NORTH CAROLINA",
		"artcc": "ZTL",
		"type": "RNAV",
		"updated": "01/16/2014"
	},
	{
		"name": "AILEY",
		"latitude": "32-17-49.85 N",
		"longitude": "82-40-5.53 W",
		"state": "GEORGIA",
		"artcc": "ZJX",
		"type": "RP",
		"updated": "DBN*VORTAC*157.69/17.94"
	},
	{
		"name": "AIRMN",
		"latitude": "32-31-25.72 N",
		"longitude": "85-46-22.67 W",
		"state": "ALABAMA",
		"artcc": "ZTL",
		"type": "RNAV",
		"updated": "08/08/2013"
	},
	{
		"name": "AJAAY",
		"latitude": "33-38-58.25 N",
		"longitude": "84-18-20.43 W",
		"state": "GEORGIA",
		"artcc": "ZTL",
		"type": "RP",
		"updated": "PDK*VOR/DME*186.45"
	},
	{
		"name": "AJFEB",
		"latitude": "33-38-25.26 N",
		"longitude": "84-10-13.72 W",
		"state": "GEORGIA",
		"artcc": "ZTL",
		"type": "CN",
		"updated": "12/04/2014"
	},
	{
		"name": "AJOXO",
		"latitude": "31-45-10.41 N",
		"longitude": "86-23-26.19 W",
		"state": "ALABAMA",
		"artcc": "ZTL",
		"type": "RNAV",
		"updated": "08/24/2004"
	},
	{
		"name": "AKALE",
		"latitude": "35-12-52.58 N",
		"longitude": "83-47-12.65 W",
		"state": "NORTH CAROLINA",
		"artcc": "ZTL",
		"type": "RNAV",
		"updated": "01/10/2001"
	},
	{
		"name": "AKBEH",
		"latitude": "35-21-40.21 N",
		"longitude": "84-41-50.69 W",
		"state": "TENNESSEE",
		"artcc": "ZTL",
		"type": "RNAV",
		"updated": "01/16/2001"
	},
	{
		"name": "AKGOS",
		"latitude": "33-6-26.01 N",
		"longitude": "87-1-50.44 W",
		"state": "ALABAMA",
		"artcc": "ZTL",
		"type": "RNAV",
		"updated": "03/22/2007"
	},
	{
		"name": "AKOVE",
		"latitude": "33-54-45.11 N",
		"longitude": "84-45-49.51 W",
		"state": "GEORGIA",
		"artcc": "ZTL",
		"type": "RNAV",
		"updated": "04/25/2007"
	},
	{
		"name": "AKOYU",
		"latitude": "35-33-22.4 N",
		"longitude": "85-13-58.07 W",
		"state": "TENNESSEE",
		"artcc": "ZTL",
		"type": "RNAV",
		"updated": "01/09/2001"
	},
	{
		"name": "AKQON",
		"latitude": "36-44-41.26 N",
		"longitude": "81-55-36.68 W",
		"state": "VIRGINIA",
		"artcc": "ZTL",
		"type": "RP",
		"updated": "GZG*VOR/DME*125.23/8.77"
	},
	{
		"name": "ALADY",
		"latitude": "35-26-12.17 N",
		"longitude": "83-15-26.38 W",
		"state": "NORTH CAROLINA",
		"artcc": "ZTL",
		"type": "RNAV",
		"updated": "08/22/2017"
	},
	{
		"name": "ALBER",
		"latitude": "34-22-21.9 N",
		"longitude": "86-19-38.07 W",
		"state": "ALABAMA",
		"artcc": "ZME",
		"type": "RP",
		"updated": "RQZ*VORTAC*147.06/29.62"
	},
	{
		"name": "ALBRS",
		"latitude": "34-0-55.74 N",
		"longitude": "84-27-48.67 W",
		"state": "GEORGIA",
		"artcc": "ZTL",
		"type": "RP",
		"updated": "PDK*VOR/DME*320.58"
	},
	{
		"name": "ALDOH",
		"latitude": "35-42-33.18 N",
		"longitude": "81-18-1.31 W",
		"state": "NORTH CAROLINA",
		"artcc": "ZTL",
		"type": "RP",
		"updated": "BZM*VOR/DME*203.00/10.00"
	},
	{
		"name": "ALEAN",
		"latitude": "36-43-54.67 N",
		"longitude": "81-37-26.18 W",
		"state": "VIRGINIA",
		"artcc": "ZTL",
		"type": "RNAV",
		"updated": "01/16/2014"
	},
	{
		"name": "ALEPE",
		"latitude": "33-47-8.09 N",
		"longitude": "86-37-37.52 W",
		"state": "ALABAMA",
		"artcc": "ZTL",
		"type": "RNAV",
		"updated": "09/04/2009"
	},
	{
		"name": "ALICE",
		"latitude": "32-59-3.95 N",
		"longitude": "87-56-12.06 W",
		"state": "ALABAMA",
		"artcc": "ZTL",
		"type": "RP",
		"updated": "LDK*VORTAC*227.90/25.99"
	},
	{
		"name": "ALKOA",
		"latitude": "35-44-25.24 N",
		"longitude": "84-5-0.24 W",
		"state": "TENNESSEE",
		"artcc": "ZTL",
		"type": "RNAV",
		"updated": "05/15/2015"
	},
	{
		"name": "ALLER",
		"latitude": "35-29-19.56 N",
		"longitude": "80-4-57.98 W",
		"state": "NORTH CAROLINA",
		"artcc": "ZTL",
		"type": "RP",
		"updated": "VU*NDB*000.00"
	},
	{
		"name": "ALLIY",
		"latitude": "33-41-24.12 N",
		"longitude": "84-44-36.55 W",
		"state": "GEORGIA",
		"artcc": "ZTL",
		"type": "RNAV",
		"updated": "08/09/2011"
	},
	{
		"name": "ALOON",
		"latitude": "32-4-11.83 N",
		"longitude": "86-31-41.63 W",
		"state": "ALABAMA",
		"artcc": "ZTL",
		"type": "RP",
		"updated": "MGM*VORTAC*226.40/14.00"
	},
	{
		"name": "ALORE",
		"latitude": "35-25-23.31 N",
		"longitude": "86-14-37.27 W",
		"state": "TENNESSEE",
		"artcc": "ZME",
		"type": "RNAV",
		"updated": "06/29/2011"
	},
	{
		"name": "ALRIC",
		"latitude": "33-11-21.72 N",
		"longitude": "86-52-38.26 W",
		"state": "ALABAMA",
		"artcc": "ZTL",
		"type": "RP",
		"updated": "OKW*VORTAC*099.00/19.00"
	},
	{
		"name": "ALYSA",
		"latitude": "35-5-39.69 N",
		"longitude": "81-56-29.53 W",
		"state": "SOUTH CAROLINA",
		"artcc": "ZTL",
		"type": "RNAV",
		"updated": "11/10/2016"
	},
	{
		"name": "AMAKY",
		"latitude": "36-28-24.67 N",
		"longitude": "81-40-40.61 W",
		"state": "NORTH CAROLINA",
		"artcc": "ZTL",
		"type": "RNAV",
		"updated": "05/26/2009"
	},
	{
		"name": "AMAPO",
		"latitude": "32-4-59.51 N",
		"longitude": "84-19-23.89 W",
		"state": "GEORGIA",
		"artcc": "ZTL",
		"type": "RP",
		"updated": "PZD*VOR/DME*358.56/25.67"
	},
	{
		"name": "AMENN",
		"latitude": "33-59-2.42 N",
		"longitude": "82-13-31.98 W",
		"state": "SOUTH CAROLINA",
		"artcc": "ZTL",
		"type": "RNAV",
		"updated": "07/16/2014"
	},
	{
		"name": "AMEPE",
		"latitude": "36-27-34.66 N",
		"longitude": "83-26-2.04 W",
		"state": "TENNESSEE",
		"artcc": "ZTL",
		"type": "RNAV",
		"updated": "04/27/2010"
	},
	{
		"name": "AMFAB",
		"latitude": "34-28-56.68 N",
		"longitude": "82-2-26.91 W",
		"state": "SOUTH CAROLINA",
		"artcc": "ZTL",
		"type": "RNAV",
		"updated": "12/24/2013"
	},
	{
		"name": "AMIPY",
		"latitude": "34-38-12.08 N",
		"longitude": "82-59-27.56 W",
		"state": "SOUTH CAROLINA",
		"artcc": "ZTL",
		"type": "RNAV",
		"updated": "11/06/2014"
	},
	{
		"name": "AMIVE",
		"latitude": "35-11-0.54 N",
		"longitude": "86-4-58.49 W",
		"state": "TENNESSEE",
		"artcc": "ZME",
		"type": "RNAV",
		"updated": "04/27/2018"
	},
	{
		"name": "AMOJO",
		"latitude": "35-23-49.86 N",
		"longitude": "85-22-0.58 W",
		"state": "TENNESSEE",
		"artcc": "ZME",
		"type": "RNAV",
		"updated": "01/16/2001"
	},
	{
		"name": "AMOLE",
		"latitude": "35-25-21.56 N",
		"longitude": "81-14-28.11 W",
		"state": "NORTH CAROLINA",
		"artcc": "ZTL",
		"type": "RNAV",
		"updated": "02/14/2011"
	},
	{
		"name": "AMUJE",
		"latitude": "34-58-4.58 N",
		"longitude": "85-39-9.42 W",
		"state": "ALABAMA",
		"artcc": "ZME",
		"type": "RNAV",
		"updated": "08/18/2017"
	},
	{
		"name": "AMUXY",
		"latitude": "34-27-27.35 N",
		"longitude": "86-47-25.44 W",
		"state": "ALABAMA",
		"artcc": "ZME",
		"type": "RNAV",
		"updated": "08/21/2009"
	},
	{
		"name": "AMUZE",
		"latitude": "34-33-50.01 N",
		"longitude": "85-39-15.5 W",
		"state": "ALABAMA",
		"artcc": "ZTL",
		"type": "RNAV",
		"updated": "08/17/2010"
	},
	{
		"name": "AMZON",
		"latitude": "35-7-15.38 N",
		"longitude": "84-51-41.01 W",
		"state": "TENNESSEE",
		"artcc": "ZTL",
		"type": "RNAV",
		"updated": "05/12/2014"
	},
	{
		"name": "ANACU",
		"latitude": "33-41-32.39 N",
		"longitude": "83-40-5.52 W",
		"state": "GEORGIA",
		"artcc": "ZTL",
		"type": "RNAV",
		"updated": "02/09/2018"
	},
	{
		"name": "ANASY",
		"latitude": "35-2-37 N",
		"longitude": "84-38-13.99 W",
		"state": "TENNESSEE",
		"artcc": "ZTL",
		"type": "RNAV",
		"updated": "01/09/2001"
	},
	{
		"name": "ANDEI",
		"latitude": "36-15-14.89 N",
		"longitude": "80-31-22.7 W",
		"state": "NORTH CAROLINA",
		"artcc": "ZTL",
		"type": "RNAV",
		"updated": "04/15/2010"
	},
	{
		"name": "ANDER",
		"latitude": "32-38-33.9 N",
		"longitude": "85-36-4.55 W",
		"state": "ALABAMA",
		"artcc": "ZTL",
		"type": "RP",
		"updated": "TGE*VOR/DME*018.00/10.08"
	},
	{
		"name": "ANDIY",
		"latitude": "33-37-51.37 N",
		"longitude": "84-51-46.62 W",
		"state": "GEORGIA",
		"artcc": "ZTL",
		"type": "RP",
		"updated": "FUN*LD*274.97/22.44"
	},
	{
		"name": "ANGLS",
		"latitude": "32-19-45.53 N",
		"longitude": "85-29-17.91 W",
		"state": "ALABAMA",
		"artcc": "ZTL",
		"type": "RNAV",
		"updated": "07/11/2011"
	},
	{
		"name": "ANGRI",
		"latitude": "34-20-59.73 N",
		"longitude": "82-38-39.83 W",
		"state": "SOUTH CAROLINA",
		"artcc": "ZTL",
		"type": "RNAV",
		"updated": "11/10/2016"
	},
	{
		"name": "ANICU",
		"latitude": "32-40-42.94 N",
		"longitude": "83-46-8.94 W",
		"state": "GEORGIA",
		"artcc": "ZTL",
		"type": "RNAV",
		"updated": "07/20/2007"
	},
	{
		"name": "ANKUW",
		"latitude": "35-0-47.63 N",
		"longitude": "84-22-25.25 W",
		"state": "TENNESSEE",
		"artcc": "ZTL",
		"type": "RNAV",
		"updated": "04/27/2018"
	},
	{
		"name": "ANNAN",
		"latitude": "33-27-30.26 N",
		"longitude": "82-44-33.99 W",
		"state": "GEORGIA",
		"artcc": "ZTL",
		"type": "RP",
		"updated": "AHN*VOR/DME*135.00/41.32"
	},
	{
		"name": "ANNYE",
		"latitude": "34-35-22.41 N",
		"longitude": "83-54-40.81 W",
		"state": "GEORGIA",
		"artcc": "ZTL",
		"type": "RP",
		"updated": "ODF*VORTAC*258.34/31.04"
	},
	{
		"name": "ANTBE",
		"latitude": "36-33-42.46 N",
		"longitude": "80-34-4.44 W",
		"state": "VIRGINIA",
		"artcc": "ZTL",
		"type": "RNAV",
		"updated": "04/28/2010"
	},
	{
		"name": "ANTIY",
		"latitude": "34-1-45.87 N",
		"longitude": "85-15-5.06 W",
		"state": "GEORGIA",
		"artcc": "ZTL",
		"type": "RNAV",
		"updated": "06/10/2011"
	},
	{
		"name": "ANTOW",
		"latitude": "34-0-30.06 N",
		"longitude": "85-2-45.09 W",
		"state": "GEORGIA",
		"artcc": "ZTL",
		"type": "RNAV",
		"updated": "06/10/2011"
	},
	{
		"name": "ANUME",
		"latitude": "32-20-14.69 N",
		"longitude": "83-40-1.67 W",
		"state": "GEORGIA",
		"artcc": "ZTL",
		"type": "RNAV",
		"updated": "07/20/2007"
	},
	{
		"name": "ANVAL",
		"latitude": "33-54-54.71 N",
		"longitude": "84-2-55.17 W",
		"state": "GEORGIA",
		"artcc": "ZTL",
		"type": "RNAV",
		"updated": "08/18/2017"
	},
	{
		"name": "ANWAF",
		"latitude": "32-26-8.37 N",
		"longitude": "86-45-18.01 W",
		"state": "ALABAMA",
		"artcc": "ZTL",
		"type": "RNAV",
		"updated": "04/26/2012"
	},
	{
		"name": "ANXUG",
		"latitude": "34-31-47.82 N",
		"longitude": "85-42-30.24 W",
		"state": "ALABAMA",
		"artcc": "ZTL",
		"type": "RNAV",
		"updated": "01/09/2001"
	},
	{
		"name": "APDAW",
		"latitude": "33-56-46.99 N",
		"longitude": "83-26-21.04 W",
		"state": "GEORGIA",
		"artcc": "ZTL",
		"type": "RNAV",
		"updated": "09/09/2015"
	},
	{
		"name": "APEKE",
		"latitude": "34-23-22.94 N",
		"longitude": "85-48-18.49 W",
		"state": "ALABAMA",
		"artcc": "ZTL",
		"type": "RNAV",
		"updated": "08/17/2010"
	},
	{
		"name": "APELE",
		"latitude": "32-37-19.5 N",
		"longitude": "83-12-1.97 W",
		"state": "GEORGIA",
		"artcc": "ZTL",
		"type": "RP",
		"updated": "VNA*VORTAC*030.55"
	},
	{
		"name": "APEPE",
		"latitude": "34-44-23.48 N",
		"longitude": "85-57-39.89 W",
		"state": "ALABAMA",
		"artcc": "ZTL",
		"type": "RNAV",
		"updated": "01/09/2001"
	},
	{
		"name": "APEZA",
		"latitude": "34-2-0.37 N",
		"longitude": "83-17-0.6 W",
		"state": "GEORGIA",
		"artcc": "ZTL",
		"type": "RNAV",
		"updated": "09/09/2015"
	},
	{
		"name": "APIAN",
		"latitude": "33-41-54.24 N",
		"longitude": "82-29-54.68 W",
		"state": "GEORGIA",
		"artcc": "ZTL",
		"type": "RP",
		"updated": "GRD*VORTAC*208.51"
	},
	{
		"name": "APOWE",
		"latitude": "33-40-22.95 N",
		"longitude": "83-10-41.72 W",
		"state": "GEORGIA",
		"artcc": "ZTL",
		"type": "RP",
		"updated": "AHN*VOR/DME*155.95/18.00"
	},
	{
		"name": "APPLS",
		"latitude": "35-54-31.07 N",
		"longitude": "83-40-21.17 W",
		"state": "TENNESSEE",
		"artcc": "ZTL",
		"type": "RNAV",
		"updated": "07/26/2016"
	},
	{
		"name": "APSUW",
		"latitude": "35-27-33.86 N",
		"longitude": "86-12-8.84 W",
		"state": "TENNESSEE",
		"artcc": "ZME",
		"type": "RNAV",
		"updated": "01/16/2001"
	},
	{
		"name": "APTUW",
		"latitude": "32-7-26.61 N",
		"longitude": "83-9-30.73 W",
		"state": "GEORGIA",
		"artcc": "ZJX",
		"type": "RP",
		"updated": "VNA*VORTAC*106.15"
	},
	{
		"name": "APULE",
		"latitude": "32-12-57.23 N",
		"longitude": "83-12-9.33 W",
		"state": "GEORGIA",
		"artcc": "ZJX",
		"type": "RP",
		"updated": "VNA*VORTAC*088.36/15.00"
	},
	{
		"name": "ARAZU",
		"latitude": "33-34-41.12 N",
		"longitude": "82-25-6.8 W",
		"state": "GEORGIA",
		"artcc": "ZTL",
		"type": "RP",
		"updated": "IRQ*VORTAC*243.00/15.00"
	},
	{
		"name": "ARBEE",
		"latitude": "34-8-44.04 N",
		"longitude": "86-16-0.82 W",
		"state": "ALABAMA",
		"artcc": "ZTL",
		"type": "RP",
		"updated": "GAD*VOR/DME*316.00"
	},
	{
		"name": "ARDER",
		"latitude": "35-0-5.49 N",
		"longitude": "86-52-47.68 W",
		"state": "TENNESSEE",
		"artcc": "ZME",
		"type": "RP",
		"updated": "RQZ*VORTAC*313.29/17.24"
	},
	{
		"name": "ARDIN",
		"latitude": "33-9-45.46 N",
		"longitude": "87-41-57.16 W",
		"state": "ALABAMA",
		"artcc": "ZTL",
		"type": "RP",
		"updated": "LDK*VORTAC*231.84/10.00"
	},
	{
		"name": "ARGEE",
		"latitude": "34-31-0.72 N",
		"longitude": "81-54-35.2 W",
		"state": "SOUTH CAROLINA",
		"artcc": "ZTL",
		"type": "RNAV",
		"updated": "12/18/2013"
	},
	{
		"name": "ARHAT",
		"latitude": "35-8-54.6 N",
		"longitude": "85-14-30.63 W",
		"state": "TENNESSEE",
		"artcc": "ZTL",
		"type": "RNAV",
		"updated": "04/13/2017"
	},
	{
		"name": "ARIVE",
		"latitude": "32-57-2.4 N",
		"longitude": "84-58-54.28 W",
		"state": "GEORGIA",
		"artcc": "ZTL",
		"type": "RP",
		"updated": "CSG*VORTAC*004.15"
	},
	{
		"name": "ARNCO",
		"latitude": "33-15-36.62 N",
		"longitude": "85-7-28.37 W",
		"state": "GEORGIA",
		"artcc": "ZTL",
		"type": "RP",
		"updated": "TDG*VOR/DME*110.00"
	},
	{
		"name": "ARNNY",
		"latitude": "32-20-40.6 N",
		"longitude": "86-59-28.57 W",
		"state": "ALABAMA",
		"artcc": "ZTL",
		"type": "RNAV",
		"updated": "03/02/2011"
	},
	{
		"name": "ARPPE",
		"latitude": "33-36-17.39 N",
		"longitude": "85-14-13.02 W",
		"state": "GEORGIA",
		"artcc": "ZTL",
		"type": "RP",
		"updated": "RMG*VORTAC*189.00"
	},
	{
		"name": "ARRBE",
		"latitude": "33-38-3.72 N",
		"longitude": "84-43-9.99 W",
		"state": "GEORGIA",
		"artcc": "ZTL",
		"type": "RP",
		"updated": "HZK*LD*274.99/15.39"
	},
	{
		"name": "ARTIJ",
		"latitude": "37-7-23.15 N",
		"longitude": "85-10-13.24 W",
		"state": "KENTUCKY",
		"artcc": "ZTL",
		"type": "RNAV",
		"updated": "01/10/2001"
	},
	{
		"name": "ARTUR",
		"latitude": "36-31-58.34 N",
		"longitude": "83-47-7.31 W",
		"state": "TENNESSEE",
		"artcc": "ZTL",
		"type": "RP",
		"updated": "HMV*VORTAC*278.59"
	},
	{
		"name": "ARVES",
		"latitude": "34-45-35.74 N",
		"longitude": "86-41-2.82 W",
		"state": "ALABAMA",
		"artcc": "ZME",
		"type": "MR",
		"updated": "RQZ*VORTAC*226.04"
	},
	{
		"name": "ARWIJ",
		"latitude": "33-32-28.84 N",
		"longitude": "86-53-1.5 W",
		"state": "ALABAMA",
		"artcc": "ZTL",
		"type": "CN",
		"updated": "08/17/2010"
	},
	{
		"name": "ASBAW",
		"latitude": "33-0-23.84 N",
		"longitude": "82-53-59.29 W",
		"state": "GEORGIA",
		"artcc": "ZTL",
		"type": "CN",
		"updated": "04/13/2001"
	},
	{
		"name": "ASESE",
		"latitude": "33-2-14.86 N",
		"longitude": "87-19-13.57 W",
		"state": "ALABAMA",
		"artcc": "ZTL",
		"type": "RNAV",
		"updated": "10/11/2007"
	},
	{
		"name": "ASHEE",
		"latitude": "36-26-2.24 N",
		"longitude": "81-19-18.53 W",
		"state": "NORTH CAROLINA",
		"artcc": "ZTL",
		"type": "RP",
		"updated": "JUH*LE*095.90/5.11"
	},
	{
		"name": "ASHER",
		"latitude": "36-25-58.59 N",
		"longitude": "81-23-16.46 W",
		"state": "NORTH CAROLINA",
		"artcc": "ZTL",
		"type": "RNAV",
		"updated": "02/10/2017"
	},
	{
		"name": "ASOQO",
		"latitude": "34-42-28.2 N",
		"longitude": "82-46-49.02 W",
		"state": "SOUTH CAROLINA",
		"artcc": "ZTL",
		"type": "RNAV",
		"updated": "07/11/2012"
	},
	{
		"name": "ASUWI",
		"latitude": "32-55-32.01 N",
		"longitude": "84-11-52 W",
		"state": "GEORGIA",
		"artcc": "ZTL",
		"type": "RNAV",
		"updated": "09/14/2009"
	},
	{
		"name": "ATELL",
		"latitude": "35-19-59.43 N",
		"longitude": "80-46-43.06 W",
		"state": "NORTH CAROLINA",
		"artcc": "ZTL",
		"type": "RP",
		"updated": "BZM*VOR/DME*150.71/39.25"
	},
	{
		"name": "ATHEN",
		"latitude": "34-27-46.4 N",
		"longitude": "86-56-59.55 W",
		"state": "ALABAMA",
		"artcc": "ZME",
		"type": "RNAV",
		"updated": "05/22/2007"
	},
	{
		"name": "ATITE",
		"latitude": "35-57-0.28 N",
		"longitude": "85-5-3.28 W",
		"state": "TENNESSEE",
		"artcc": "ZTL",
		"type": "RP",
		"updated": "HCH*VOR/DME*335.04/11.37"
	},
	{
		"name": "ATOMC",
		"latitude": "35-40-4.93 N",
		"longitude": "84-10-16.5 W",
		"state": "TENNESSEE",
		"artcc": "ZTL",
		"type": "RNAV",
		"updated": "05/15/2015"
	},
	{
		"name": "ATTIV",
		"latitude": "33-37-25.83 N",
		"longitude": "83-44-32.46 W",
		"state": "GEORGIA",
		"artcc": "ZTL",
		"type": "RNAV",
		"updated": "09/24/2012"
	},
	{
		"name": "ATUDE",
		"latitude": "34-1-18.06 N",
		"longitude": "83-51-22.92 W",
		"state": "GEORGIA",
		"artcc": "ZTL",
		"type": "RNAV",
		"updated": "04/08/2011"
	},
	{
		"name": "ATUNE",
		"latitude": "34-32-48.89 N",
		"longitude": "85-29-26.96 W",
		"state": "GEORGIA",
		"artcc": "ZTL",
		"type": "RP",
		"updated": "GQO*VORTAC*213.00/29.91"
	},
	{
		"name": "ATUYO",
		"latitude": "34-44-40.15 N",
		"longitude": "86-56-35.6 W",
		"state": "ALABAMA",
		"artcc": "ZME",
		"type": "RP",
		"updated": "RQZ*VORTAC*256.41"
	},
	{
		"name": "ATWUS",
		"latitude": "35-14-6.86 N",
		"longitude": "86-31-22.1 W",
		"state": "TENNESSEE",
		"artcc": "ZME",
		"type": "RP",
		"updated": "SYI*VOR/DME*192.86/20.00"
	},
	{
		"name": "AUBIE",
		"latitude": "32-30-36.21 N",
		"longitude": "85-26-18.15 W",
		"state": "ALABAMA",
		"artcc": "ZTL",
		"type": "RP",
		"updated": "CSG*VORTAC*252.66/22.25"
	},
	{
		"name": "AUBRY",
		"latitude": "35-51-51.12 N",
		"longitude": "83-35-27.81 W",
		"state": "TENNESSEE",
		"artcc": "ZTL",
		"type": "RP",
		"updated": "VXV*VORTAC*102.25/15.00"
	},
	{
		"name": "AVEBE",
		"latitude": "35-13-8.56 N",
		"longitude": "82-26-46.73 W",
		"state": "NORTH CAROLINA",
		"artcc": "ZTL",
		"type": "RNAV",
		"updated": "09/27/2017"
	},
	{
		"name": "AVERY",
		"latitude": "35-49-3.34 N",
		"longitude": "81-53-27.77 W",
		"state": "NORTH CAROLINA",
		"artcc": "ZTL",
		"type": "RP",
		"updated": "ODF*VORTAC*045.40/96.40"
	},
	{
		"name": "AVSEW",
		"latitude": "33-33-31.95 N",
		"longitude": "83-14-3.69 W",
		"state": "GEORGIA",
		"artcc": "ZTL",
		"type": "RNAV",
		"updated": "12/24/2009"
	},
	{
		"name": "AWELU",
		"latitude": "33-53-52.94 N",
		"longitude": "86-14-45.87 W",
		"state": "ALABAMA",
		"artcc": "ZTL",
		"type": "RNAV",
		"updated": "07/15/2011"
	},
	{
		"name": "AWIMY",
		"latitude": "33-0-58.79 N",
		"longitude": "87-41-16.41 W",
		"state": "ALABAMA",
		"artcc": "ZTL",
		"type": "RNAV",
		"updated": "02/12/2008"
	},
	{
		"name": "AWOKI",
		"latitude": "35-53-15.24 N",
		"longitude": "83-54-13.71 W",
		"state": "TENNESSEE",
		"artcc": "ZTL",
		"type": "RNAV",
		"updated": "05/15/2015"
	},
	{
		"name": "AWPOJ",
		"latitude": "34-16-58.88 N",
		"longitude": "86-24-59.84 W",
		"state": "ALABAMA",
		"artcc": "ZME",
		"type": "CN",
		"updated": "12/04/2014"
	},
	{
		"name": "AWRYT",
		"latitude": "34-42-0.31 N",
		"longitude": "81-14-52 W",
		"state": "SOUTH CAROLINA",
		"artcc": "ZTL",
		"type": "RNAV",
		"updated": "04/09/2014"
	},
	{
		"name": "AWSON",
		"latitude": "34-28-49.16 N",
		"longitude": "83-59-3.45 W",
		"state": "GEORGIA",
		"artcc": "ZTL",
		"type": "RP",
		"updated": "ELW*VORTAC*273.86/59.64"
	},
	{
		"name": "AWYAT",
		"latitude": "35-2-21.13 N",
		"longitude": "81-36-45.23 W",
		"state": "SOUTH CAROLINA",
		"artcc": "ZTL",
		"type": "RNAV",
		"updated": "01/10/2014"
	},
	{
		"name": "AXADE",
		"latitude": "34-2-25.65 N",
		"longitude": "83-45-5.1 W",
		"state": "GEORGIA",
		"artcc": "ZTL",
		"type": "RNAV",
		"updated": "02/27/2010"
	},
	{
		"name": "AXAHY",
		"latitude": "33-36-17.7 N",
		"longitude": "83-7-16.19 W",
		"state": "GEORGIA",
		"artcc": "ZTL",
		"type": "RP",
		"updated": "VVM*LE*069.10/1.47"
	},
	{
		"name": "AXEDE",
		"latitude": "34-39-18.33 N",
		"longitude": "82-56-11.78 W",
		"state": "SOUTH CAROLINA",
		"artcc": "ZTL",
		"type": "RNAV",
		"updated": "11/06/2014"
	},
	{
		"name": "AXOSE",
		"latitude": "31-53-13.32 N",
		"longitude": "84-56-57.43 W",
		"state": "GEORGIA",
		"artcc": "ZTL",
		"type": "RP",
		"updated": "EUF*VORTAC*110.19/10.00"
	},
	{
		"name": "AXOTY",
		"latitude": "33-48-14 N",
		"longitude": "84-21-49.5 W",
		"state": "GEORGIA",
		"artcc": "ZTL",
		"type": "CN",
		"updated": "06/10/2002"
	},
	{
		"name": "AYABU",
		"latitude": "36-23-37.54 N",
		"longitude": "82-30-1.39 W",
		"state": "TENNESSEE",
		"artcc": "ZTL",
		"type": "RNAV",
		"updated": "12/14/2011"
	},
	{
		"name": "AYEPI",
		"latitude": "33-38-12.83 N",
		"longitude": "83-2-32.61 W",
		"state": "GEORGIA",
		"artcc": "ZTL",
		"type": "RNAV",
		"updated": "08/18/2016"
	},
	{
		"name": "AYGOR",
		"latitude": "35-3-27.82 N",
		"longitude": "86-42-23.41 W",
		"state": "TENNESSEE",
		"artcc": "ZME",
		"type": "RNAV",
		"updated": "05/06/2016"
	},
	{
		"name": "AYORU",
		"latitude": "33-0-51.25 N",
		"longitude": "82-56-3.07 W",
		"state": "GEORGIA",
		"artcc": "ZTL",
		"type": "RNAV",
		"updated": "03/10/2011"
	},
	{
		"name": "AYOSI",
		"latitude": "31-55-37.05 N",
		"longitude": "83-51-43.62 W",
		"state": "GEORGIA",
		"artcc": "ZJX",
		"type": "RNAV",
		"updated": "03/23/2017"
	},
	{
		"name": "AYUCE",
		"latitude": "33-35-29.62 N",
		"longitude": "86-55-17.75 W",
		"state": "ALABAMA",
		"artcc": "ZTL",
		"type": "RNAV",
		"updated": "08/17/2010"
	},
	{
		"name": "AYUCI",
		"latitude": "33-10-20.24 N",
		"longitude": "86-21-50.32 W",
		"state": "ALABAMA",
		"artcc": "ZTL",
		"type": "RNAV",
		"updated": "07/26/2016"
	},
	{
		"name": "AYUSO",
		"latitude": "31-51-23 N",
		"longitude": "85-8-9.47 W",
		"state": "GEORGIA",
		"artcc": "ZTL",
		"type": "RNAV",
		"updated": "07/14/2011"
	},
	{
		"name": "AYUVO",
		"latitude": "31-45-50.73 N",
		"longitude": "84-35-58.47 W",
		"state": "GEORGIA",
		"artcc": "ZJX",
		"type": "RP",
		"updated": "PZD*VOR/DME*294.65/17.01"
	},
	{
		"name": "AZAKA",
		"latitude": "34-53-17.62 N",
		"longitude": "81-4-52.24 W",
		"state": "SOUTH CAROLINA",
		"artcc": "ZTL",
		"type": "RNAV",
		"updated": "07/12/2011"
	},
	{
		"name": "AZALA",
		"latitude": "34-15-14.21 N",
		"longitude": "82-17-44.05 W",
		"state": "SOUTH CAROLINA",
		"artcc": "ZTL",
		"type": "RNAV",
		"updated": "12/20/2007"
	},
	{
		"name": "AZELL",
		"latitude": "35-51-23.75 N",
		"longitude": "80-14-12.12 W",
		"state": "NORTH CAROLINA",
		"artcc": "ZTL",
		"type": "RP",
		"updated": "LIB*VORTAC*278.24"
	},
	{
		"name": "AZFOZ",
		"latitude": "33-39-38.43 N",
		"longitude": "86-44-33.29 W",
		"state": "ALABAMA",
		"artcc": "ZTL",
		"type": "CN",
		"updated": "08/17/2010"
	},
	{
		"name": "AZZOG",
		"latitude": "32-47-9.04 N",
		"longitude": "85-15-0.71 W",
		"state": "ALABAMA",
		"artcc": "ZTL",
		"type": "RNAV",
		"updated": "08/17/2017"
	}
]
