[
	{
		"name": "BACAG",
		"latitude": "33-47-30.03 N",
		"longitude": "84-26-39.95 W",
		"state": "GEORGIA",
		"artcc": "ZTL",
		"type": "RNAV",
		"updated": "05/23/2007"
	},
	{
		"name": "BACHE",
		"latitude": "35-58-26.82 N",
		"longitude": "80-4-57 W",
		"state": "NORTH CAROLINA",
		"artcc": "ZTL",
		"type": "RNAV",
		"updated": "03/30/2009"
	},
	{
		"name": "BADSE",
		"latitude": "33-38-58.12 N",
		"longitude": "84-31-2.15 W",
		"state": "GEORGIA",
		"artcc": "ZTL",
		"type": "RNAV",
		"updated": "04/12/2006"
	},
	{
		"name": "BAGAY",
		"latitude": "33-17-58.24 N",
		"longitude": "84-29-3.58 W",
		"state": "GEORGIA",
		"artcc": "ZTL",
		"type": "RNAV",
		"updated": "09/05/2012"
	},
	{
		"name": "BAHRR",
		"latitude": "33-28-16.9 N",
		"longitude": "85-14-44.48 W",
		"state": "GEORGIA",
		"artcc": "ZTL",
		"type": "RNAV",
		"updated": "05/30/2014"
	},
	{
		"name": "BAIZE",
		"latitude": "31-46-33.42 N",
		"longitude": "85-12-34.96 W",
		"state": "ALABAMA",
		"artcc": "ZJX",
		"type": "RP",
		"updated": "EUF*VORTAC*199.21/11.19"
	},
	{
		"name": "BAKRD",
		"latitude": "34-16-13.49 N",
		"longitude": "85-38-46.66 W",
		"state": "ALABAMA",
		"artcc": "ZTL",
		"type": "RNAV",
		"updated": "07/07/2011"
	},
	{
		"name": "BAKVE",
		"latitude": "35-13-0 N",
		"longitude": "83-40-0 W",
		"state": "NORTH CAROLINA",
		"artcc": "ZTL",
		"type": "RNAV",
		"updated": "02/06/2003"
	},
	{
		"name": "BALDO",
		"latitude": "32-30-7.88 N",
		"longitude": "86-34-7.62 W",
		"state": "ALABAMA",
		"artcc": "ZTL",
		"type": "RP",
		"updated": "MGM*VORTAC*320.01/21.00"
	},
	{
		"name": "BAMBU",
		"latitude": "33-38-57.85 N",
		"longitude": "84-12-20.12 W",
		"state": "GEORGIA",
		"artcc": "ZTL",
		"type": "RP",
		"updated": "PDK*VOR/DME*165.98/14.33"
	},
	{
		"name": "BAMMA",
		"latitude": "35-41-5.22 N",
		"longitude": "85-11-55.47 W",
		"state": "TENNESSEE",
		"artcc": "ZTL",
		"type": "RP",
		"updated": "GQO*VORTAC*356.07"
	},
	{
		"name": "BAMSE",
		"latitude": "33-38-48.46 N",
		"longitude": "84-21-14.81 W",
		"state": "GEORGIA",
		"artcc": "ZTL",
		"type": "RNAV",
		"updated": "09/21/2012"
	},
	{
		"name": "BAMTE",
		"latitude": "33-24-1.23 N",
		"longitude": "86-46-30.45 W",
		"state": "ALABAMA",
		"artcc": "ZTL",
		"type": "RNAV",
		"updated": "08/17/2010"
	},
	{
		"name": "BANBI",
		"latitude": "31-50-4.3 N",
		"longitude": "85-45-35.3 W",
		"state": "ALABAMA",
		"artcc": "ZTL",
		"type": "RP",
		"updated": "MGM*VORTAC*126.96/36.81"
	},
	{
		"name": "BANKR",
		"latitude": "34-29-14.56 N",
		"longitude": "81-31-10.42 W",
		"state": "SOUTH CAROLINA",
		"artcc": "ZTL",
		"type": "RNAV",
		"updated": "05/12/2016"
	},
	{
		"name": "BANNG",
		"latitude": "32-57-40.49 N",
		"longitude": "84-25-16.98 W",
		"state": "GEORGIA",
		"artcc": "ZTL",
		"type": "RNAV",
		"updated": "05/17/2016"
	},
	{
		"name": "BAPPY",
		"latitude": "34-7-49.17 N",
		"longitude": "84-25-28.39 W",
		"state": "GEORGIA",
		"artcc": "ZTL",
		"type": "RP",
		"updated": "PDK*VOR/DME*342.68/16.49"
	},
	{
		"name": "BARDE",
		"latitude": "33-11-10.39 N",
		"longitude": "81-55-19.82 W",
		"state": "GEORGIA",
		"artcc": "ZTL",
		"type": "RNAV",
		"updated": "03/24/2004"
	},
	{
		"name": "BARMY",
		"latitude": "35-22-29.38 N",
		"longitude": "79-50-33.89 W",
		"state": "NORTH CAROLINA",
		"artcc": "ZTL",
		"type": "RNAV",
		"updated": "03/31/2016"
	},
	{
		"name": "BARON",
		"latitude": "34-31-53.44 N",
		"longitude": "83-46-15.38 W",
		"state": "GEORGIA",
		"artcc": "ZTL",
		"type": "RP",
		"updated": "ODF*VORTAC*247.35/25.42"
	},
	{
		"name": "BARRD",
		"latitude": "36-1-19.28 N",
		"longitude": "82-43-28.22 W",
		"state": "TENNESSEE",
		"artcc": "ZTL",
		"type": "RP",
		"updated": "SOT*VORTAC*052.90"
	},
	{
		"name": "BASKN",
		"latitude": "33-39-4.71 N",
		"longitude": "86-44-49.73 W",
		"state": "ALABAMA",
		"artcc": "ZTL",
		"type": "RP",
		"updated": "BXO*LE*003.03/6.02"
	},
	{
		"name": "BATGE",
		"latitude": "32-18-50.83 N",
		"longitude": "88-7-1.32 W",
		"state": "ALABAMA",
		"artcc": "ZTL",
		"type": "RNAV",
		"updated": "09/03/2015"
	},
	{
		"name": "BATLL",
		"latitude": "33-58-24.94 N",
		"longitude": "84-45-28.66 W",
		"state": "GEORGIA",
		"artcc": "ZTL",
		"type": "MR",
		"updated": "DOB*TACAN*289.00/13.00"
	},
	{
		"name": "BAVCA",
		"latitude": "32-1-11.74 N",
		"longitude": "84-4-3.56 W",
		"state": "GEORGIA",
		"artcc": "ZJX",
		"type": "RP",
		"updated": "PZD*VOR/DME*029.76/24.69"
	},
	{
		"name": "BAWDS",
		"latitude": "36-30-38.62 N",
		"longitude": "80-41-32.79 W",
		"state": "NORTH CAROLINA",
		"artcc": "ZTL",
		"type": "RNAV",
		"updated": "11/10/2016"
	},
	{
		"name": "BAYYA",
		"latitude": "36-55-34.72 N",
		"longitude": "81-13-11.04 W",
		"state": "VIRGINIA",
		"artcc": "ZTL",
		"type": "RP",
		"updated": "MKJ*LE*079.86/7.02"
	},
	{
		"name": "BAZAR",
		"latitude": "33-38-57.41 N",
		"longitude": "84-38-28.63 W",
		"state": "GEORGIA",
		"artcc": "ZTL",
		"type": "RP",
		"updated": "FT*NDB*185.96"
	},
	{
		"name": "BBABE",
		"latitude": "34-47-27.59 N",
		"longitude": "85-34-30.36 W",
		"state": "ALABAMA",
		"artcc": "ZTL",
		"type": "RNAV",
		"updated": "08/17/2017"
	},
	{
		"name": "BBAIT",
		"latitude": "33-7-14.23 N",
		"longitude": "84-46-13.19 W",
		"state": "GEORGIA",
		"artcc": "ZTL",
		"type": "RNAV",
		"updated": "01/27/2014"
	},
	{
		"name": "BBASS",
		"latitude": "33-11-32.7 N",
		"longitude": "83-59-21.1 W",
		"state": "GEORGIA",
		"artcc": "ZTL",
		"type": "RNAV",
		"updated": "01/29/2014"
	},
	{
		"name": "BBFET",
		"latitude": "33-11-7.85 N",
		"longitude": "83-44-36.6 W",
		"state": "GEORGIA",
		"artcc": "ZTL",
		"type": "RNAV",
		"updated": "08/18/2017"
	},
	{
		"name": "BBOAT",
		"latitude": "33-16-50.57 N",
		"longitude": "83-28-10 W",
		"state": "GEORGIA",
		"artcc": "ZTL",
		"type": "RNAV",
		"updated": "01/27/2014"
	},
	{
		"name": "BBQEE",
		"latitude": "35-24-6.18 N",
		"longitude": "81-5-6.12 W",
		"state": "NORTH CAROLINA",
		"artcc": "ZTL",
		"type": "RNAV",
		"updated": "06/24/2015"
	},
	{
		"name": "BDODD",
		"latitude": "33-41-59.57 N",
		"longitude": "84-45-33.72 W",
		"state": "GEORGIA",
		"artcc": "ZTL",
		"type": "RNAV",
		"updated": "08/25/2011"
	},
	{
		"name": "BEAVY",
		"latitude": "34-34-4.77 N",
		"longitude": "81-6-5.64 W",
		"state": "SOUTH CAROLINA",
		"artcc": "ZTL",
		"type": "RNAV",
		"updated": "01/18/2007"
	},
	{
		"name": "BEBAD",
		"latitude": "35-11-11.99 N",
		"longitude": "82-41-22.5 W",
		"state": "NORTH CAROLINA",
		"artcc": "ZTL",
		"type": "RP",
		"updated": "ODF*VORTAC*045.40/42.00"
	},
	{
		"name": "BEBZO",
		"latitude": "34-57-6.55 N",
		"longitude": "86-32-12.77 W",
		"state": "ALABAMA",
		"artcc": "ZME",
		"type": "WP",
		"updated": "11/02/1998"
	},
	{
		"name": "BECEE",
		"latitude": "32-27-8.77 N",
		"longitude": "83-25-53.23 W",
		"state": "GEORGIA",
		"artcc": "ZTL",
		"type": "MR",
		"updated": "MCN*VORTAC*141.00/18.00"
	},
	{
		"name": "BECKM",
		"latitude": "34-50-44.94 N",
		"longitude": "82-14-30.16 W",
		"state": "SOUTH CAROLINA",
		"artcc": "ZTL",
		"type": "RNAV",
		"updated": "04/17/2015"
	},
	{
		"name": "BEECE",
		"latitude": "33-37-58.2 N",
		"longitude": "84-10-46.93 W",
		"state": "GEORGIA",
		"artcc": "ZTL",
		"type": "RNAV",
		"updated": "12/09/2015"
	},
	{
		"name": "BEEVY",
		"latitude": "34-36-16.59 N",
		"longitude": "82-34-18.97 W",
		"state": "SOUTH CAROLINA",
		"artcc": "ZTL",
		"type": "WP",
		"updated": "ELW*VORTAC*043.50/15.30"
	},
	{
		"name": "BEEZE",
		"latitude": "32-34-1.98 N",
		"longitude": "85-31-15.22 W",
		"state": "ALABAMA",
		"artcc": "ZTL",
		"type": "RP",
		"updated": "TGE*VOR/DME*054.74/9.00"
	},
	{
		"name": "BEGAY",
		"latitude": "35-27-23.8 N",
		"longitude": "81-11-47.25 W",
		"state": "NORTH CAROLINA",
		"artcc": "ZTL",
		"type": "RNAV",
		"updated": "02/14/2011"
	},
	{
		"name": "BEGME",
		"latitude": "35-24-43.66 N",
		"longitude": "83-39-19.56 W",
		"state": "NORTH CAROLINA",
		"artcc": "ZTL",
		"type": "RNAV",
		"updated": "07/10/2017"
	},
	{
		"name": "BEING",
		"latitude": "32-31-43.68 N",
		"longitude": "86-35-33.32 W",
		"state": "ALABAMA",
		"artcc": "ZTL",
		"type": "RP",
		"updated": "MGM*VORTAC*320.00/23.00"
	},
	{
		"name": "BEKDE",
		"latitude": "32-57-15.36 N",
		"longitude": "87-19-43.8 W",
		"state": "ALABAMA",
		"artcc": "ZTL",
		"type": "RNAV",
		"updated": "10/11/2007"
	},
	{
		"name": "BEKPE",
		"latitude": "34-35-56.14 N",
		"longitude": "86-56-48 W",
		"state": "ALABAMA",
		"artcc": "ZME",
		"type": "RNAV",
		"updated": "12/17/2015"
	},
	{
		"name": "BEKTE",
		"latitude": "33-2-3.44 N",
		"longitude": "86-36-15.13 W",
		"state": "ALABAMA",
		"artcc": "ZTL",
		"type": "RNAV",
		"updated": "01/21/2009"
	},
	{
		"name": "BENBY",
		"latitude": "35-44-54.69 N",
		"longitude": "81-55-16.68 W",
		"state": "NORTH CAROLINA",
		"artcc": "ZTL",
		"type": "RNAV",
		"updated": "06/25/2015"
	},
	{
		"name": "BENDA",
		"latitude": "35-39-47.11 N",
		"longitude": "84-10-38.11 W",
		"state": "TENNESSEE",
		"artcc": "ZTL",
		"type": "RP",
		"updated": "HCH*VOR/DME*102.00/39.77"
	},
	{
		"name": "BENFI",
		"latitude": "35-44-31.86 N",
		"longitude": "84-4-52.19 W",
		"state": "TENNESSEE",
		"artcc": "ZTL",
		"type": "RP",
		"updated": "VXV*VORTAC*/13.33"
	},
	{
		"name": "BENTO",
		"latitude": "32-15-36.03 N",
		"longitude": "86-49-43.36 W",
		"state": "ALABAMA",
		"artcc": "ZTL",
		"type": "RP",
		"updated": "MGM*VORTAC*272.12/26.00"
	},
	{
		"name": "BEORN",
		"latitude": "31-55-6.08 N",
		"longitude": "84-49-55.06 W",
		"state": "GEORGIA",
		"artcc": "ZTL",
		"type": "RNAV",
		"updated": "08/18/2017"
	},
	{
		"name": "BERFY",
		"latitude": "33-28-13.29 N",
		"longitude": "86-44-50.15 W",
		"state": "ALABAMA",
		"artcc": "ZTL",
		"type": "RNAV",
		"updated": "09/04/2009"
	},
	{
		"name": "BESGE",
		"latitude": "35-28-18.15 N",
		"longitude": "82-31-1.2 W",
		"state": "NORTH CAROLINA",
		"artcc": "ZTL",
		"type": "RNAV",
		"updated": "02/06/2003"
	},
	{
		"name": "BESSR",
		"latitude": "33-15-43.09 N",
		"longitude": "87-8-45.02 W",
		"state": "ALABAMA",
		"artcc": "ZTL",
		"type": "RP",
		"updated": "OKW*VORTAC*075.61/5.41"
	},
	{
		"name": "BESTT",
		"latitude": "33-35-28.1 N",
		"longitude": "83-53-44.03 W",
		"state": "GEORGIA",
		"artcc": "ZTL",
		"type": "RNAV",
		"updated": "05/12/2016"
	},
	{
		"name": "BEVBE",
		"latitude": "33-51-41.8 N",
		"longitude": "84-17-47.29 W",
		"state": "GEORGIA",
		"artcc": "ZTL",
		"type": "MR",
		"updated": "DOB*TACAN*110.00/11.00"
	},
	{
		"name": "BEYAP",
		"latitude": "33-27-41.55 N",
		"longitude": "84-18-26.14 W",
		"state": "GEORGIA",
		"artcc": "ZTL",
		"type": "RNAV",
		"updated": "02/16/2006"
	},
	{
		"name": "BEYKA",
		"latitude": "33-55-48.59 N",
		"longitude": "83-35-9.05 W",
		"state": "GEORGIA",
		"artcc": "ZTL",
		"type": "RNAV",
		"updated": "02/27/2010"
	},
	{
		"name": "BEYLO",
		"latitude": "33-18-21.9 N",
		"longitude": "83-5-36.33 W",
		"state": "GEORGIA",
		"artcc": "ZTL",
		"type": "RP",
		"updated": "DBN*VORTAC*348.42/46.42"
	},
	{
		"name": "BEYVA",
		"latitude": "33-4-26.84 N",
		"longitude": "83-3-19.9 W",
		"state": "GEORGIA",
		"artcc": "ZTL",
		"type": "RNAV",
		"updated": "03/10/2011"
	},
	{
		"name": "BFOLO",
		"latitude": "34-3-33.98 N",
		"longitude": "86-31-30.49 W",
		"state": "ALABAMA",
		"artcc": "ZTL",
		"type": "RNAV",
		"updated": "01/16/2014"
	},
	{
		"name": "BFORE",
		"latitude": "36-7-10.06 N",
		"longitude": "83-41-54.49 W",
		"state": "TENNESSEE",
		"artcc": "ZTL",
		"type": "RNAV",
		"updated": "06/25/2015"
	},
	{
		"name": "BFOUT",
		"latitude": "34-26-42.33 N",
		"longitude": "82-20-54.82 W",
		"state": "SOUTH CAROLINA",
		"artcc": "ZTL",
		"type": "RNAV",
		"updated": "12/11/2015"
	},
	{
		"name": "BGGNS",
		"latitude": "32-34-31.79 N",
		"longitude": "86-0-31.5 W",
		"state": "ALABAMA",
		"artcc": "ZTL",
		"type": "RNAV",
		"updated": "08/17/2017"
	},
	{
		"name": "BGGOH",
		"latitude": "33-20-11.65 N",
		"longitude": "84-25-11.55 W",
		"state": "GEORGIA",
		"artcc": "ZTL",
		"type": "RNAV",
		"updated": "06/29/2016"
	},
	{
		"name": "BGRED",
		"latitude": "33-50-44.26 N",
		"longitude": "83-40-58.87 W",
		"state": "GEORGIA",
		"artcc": "ZTL",
		"type": "RNAV",
		"updated": "06/25/2015"
	},
	{
		"name": "BHEAD",
		"latitude": "33-32-19.25 N",
		"longitude": "82-45-11.75 W",
		"state": "GEORGIA",
		"artcc": "ZTL",
		"type": "RNAV",
		"updated": "05/20/2011"
	},
	{
		"name": "BIDPE",
		"latitude": "33-43-5.34 N",
		"longitude": "86-44-49.58 W",
		"state": "ALABAMA",
		"artcc": "ZTL",
		"type": "RNAV",
		"updated": "09/04/2009"
	},
	{
		"name": "BIFFL",
		"latitude": "35-3-7 N",
		"longitude": "80-25-7.03 W",
		"state": "NORTH CAROLINA",
		"artcc": "ZTL",
		"type": "RNAV",
		"updated": "05/23/2016"
	},
	{
		"name": "BIFFS",
		"latitude": "34-28-14.02 N",
		"longitude": "81-52-38.71 W",
		"state": "SOUTH CAROLINA",
		"artcc": "ZTL",
		"type": "RP",
		"updated": "SPA*VORTAC*177.83"
	},
	{
		"name": "BIGNN",
		"latitude": "34-20-34.38 N",
		"longitude": "83-33-6.8 W",
		"state": "GEORGIA",
		"artcc": "ZTL",
		"type": "RNAV",
		"updated": "01/31/2014"
	},
	{
		"name": "BILLP",
		"latitude": "32-48-38.59 N",
		"longitude": "85-57-27.47 W",
		"state": "ALABAMA",
		"artcc": "ZTL",
		"type": "RNAV",
		"updated": "07/25/2017"
	},
	{
		"name": "BIMMR",
		"latitude": "34-51-18.6 N",
		"longitude": "81-36-45.39 W",
		"state": "SOUTH CAROLINA",
		"artcc": "ZTL",
		"type": "RNAV",
		"updated": "08/05/2015"
	},
	{
		"name": "BIPDE",
		"latitude": "32-1-38.68 N",
		"longitude": "87-20-23.6 W",
		"state": "ALABAMA",
		"artcc": "ZTL",
		"type": "RNAV",
		"updated": "12/01/2016"
	},
	{
		"name": "BIPOL",
		"latitude": "32-37-23.17 N",
		"longitude": "86-19-40.8 W",
		"state": "ALABAMA",
		"artcc": "ZTL",
		"type": "RP",
		"updated": "MGM*VORTAC*356.00/24.00"
	},
	{
		"name": "BISDE",
		"latitude": "35-9-16.54 N",
		"longitude": "83-13-49.39 W",
		"state": "NORTH CAROLINA",
		"artcc": "ZTL",
		"type": "RNAV",
		"updated": "02/07/2003"
	},
	{
		"name": "BIZKT",
		"latitude": "34-5-16.07 N",
		"longitude": "85-38-16.45 W",
		"state": "ALABAMA",
		"artcc": "ZTL",
		"type": "RNAV",
		"updated": "07/26/2016"
	},
	{
		"name": "BLAIN",
		"latitude": "36-17-5.7 N",
		"longitude": "83-36-14.65 W",
		"state": "TENNESSEE",
		"artcc": "ZTL",
		"type": "RP",
		"updated": "SOT*VORTAC*322.00"
	},
	{
		"name": "BLANE",
		"latitude": "33-54-23.26 N",
		"longitude": "82-9-33.04 W",
		"state": "SOUTH CAROLINA",
		"artcc": "ZTL",
		"type": "RP",
		"updated": "GRD*VORTAC*181.70/20.67"
	},
	{
		"name": "BLAYQ",
		"latitude": "35-49-32.6 N",
		"longitude": "83-9-43.09 W",
		"state": "TENNESSEE",
		"artcc": "ZTL",
		"type": "RNAV",
		"updated": "05/12/2016"
	},
	{
		"name": "BLEWW",
		"latitude": "33-58-14.29 N",
		"longitude": "84-25-42.97 W",
		"state": "GEORGIA",
		"artcc": "ZTL",
		"type": "RNAV",
		"updated": "01/31/2014"
	},
	{
		"name": "BLKEY",
		"latitude": "34-1-25.61 N",
		"longitude": "85-58-36.09 W",
		"state": "ALABAMA",
		"artcc": "ZTL",
		"type": "RP",
		"updated": "GAD*LD*063.76/7.31"
	},
	{
		"name": "BLLBO",
		"latitude": "32-25-43.18 N",
		"longitude": "86-15-49.09 W",
		"state": "ALABAMA",
		"artcc": "ZTL",
		"type": "RNAV",
		"updated": "08/17/2017"
	},
	{
		"name": "BLLDG",
		"latitude": "33-57-6.82 N",
		"longitude": "83-12-51.92 W",
		"state": "GEORGIA",
		"artcc": "ZTL",
		"type": "RP",
		"updated": "AHN*VOR/DME*/5.51"
	},
	{
		"name": "BLNCE",
		"latitude": "34-43-9.5 N",
		"longitude": "81-8-17.57 W",
		"state": "SOUTH CAROLINA",
		"artcc": "ZTL",
		"type": "RNAV",
		"updated": "05/12/2016"
	},
	{
		"name": "BLNCO",
		"latitude": "35-27-34.01 N",
		"longitude": "80-36-12.93 W",
		"state": "NORTH CAROLINA",
		"artcc": "ZTL",
		"type": "RNAV",
		"updated": "11/15/2012"
	},
	{
		"name": "BLOOD",
		"latitude": "31-49-54.4 N",
		"longitude": "86-6-22.97 W",
		"state": "ALABAMA",
		"artcc": "ZTL",
		"type": "RP",
		"updated": "TOI*NDB*"
	},
	{
		"name": "BLUFF",
		"latitude": "33-43-14.79 N",
		"longitude": "83-57-20.26 W",
		"state": "GEORGIA",
		"artcc": "ZTL",
		"type": "RNAV",
		"updated": "08/18/2017"
	},
	{
		"name": "BLYTH",
		"latitude": "33-8-33.63 N",
		"longitude": "82-11-30.13 W",
		"state": "GEORGIA",
		"artcc": "ZTL",
		"type": "RP",
		"updated": "ALD*VOR*281.00"
	},
	{
		"name": "BNJMN",
		"latitude": "32-32-53.17 N",
		"longitude": "86-1-27.79 W",
		"state": "ALABAMA",
		"artcc": "ZTL",
		"type": "RNAV",
		"updated": "07/11/2011"
	},
	{
		"name": "BOATN",
		"latitude": "35-38-30.51 N",
		"longitude": "81-16-9.77 W",
		"state": "NORTH CAROLINA",
		"artcc": "ZTL",
		"type": "RNAV",
		"updated": "06/24/2015"
	},
	{
		"name": "BOAZE",
		"latitude": "34-11-10.34 N",
		"longitude": "86-12-44.01 W",
		"state": "ALABAMA",
		"artcc": "ZTL",
		"type": "RP",
		"updated": "GAD*VOR/DME*331.00"
	},
	{
		"name": "BOBBD",
		"latitude": "35-47-57.59 N",
		"longitude": "83-51-33.9 W",
		"state": "TENNESSEE",
		"artcc": "ZTL",
		"type": "RNAV",
		"updated": "12/29/2015"
	},
	{
		"name": "BOBBR",
		"latitude": "33-19-57.07 N",
		"longitude": "83-8-19.47 W",
		"state": "GEORGIA",
		"artcc": "ZTL",
		"type": "RNAV",
		"updated": "01/31/2014"
	},
	{
		"name": "BOBZY",
		"latitude": "35-11-8.04 N",
		"longitude": "81-38-2.89 W",
		"state": "NORTH CAROLINA",
		"artcc": "ZTL",
		"type": "RP",
		"updated": "ODF*VORTAC*069.85/87.14"
	},
	{
		"name": "BOCBA",
		"latitude": "33-53-26.18 N",
		"longitude": "84-10-26.47 W",
		"state": "GEORGIA",
		"artcc": "ZTL",
		"type": "RNAV",
		"updated": "04/08/2011"
	},
	{
		"name": "BOGGA",
		"latitude": "33-32-2.65 N",
		"longitude": "85-55-51.55 W",
		"state": "ALABAMA",
		"artcc": "ZTL",
		"type": "RP",
		"updated": "ANB*LS*232.45"
	},
	{
		"name": "BOGME",
		"latitude": "32-15-58.56 N",
		"longitude": "86-55-32.5 W",
		"state": "ALABAMA",
		"artcc": "ZTL",
		"type": "RNAV",
		"updated": "10/08/2014"
	},
	{
		"name": "BOKRT",
		"latitude": "33-15-33.44 N",
		"longitude": "85-8-34.81 W",
		"state": "GEORGIA",
		"artcc": "ZTL",
		"type": "RNAV",
		"updated": "07/26/2016"
	},
	{
		"name": "BOLAY",
		"latitude": "34-49-39.39 N",
		"longitude": "86-45-43.04 W",
		"state": "ALABAMA",
		"artcc": "ZME",
		"type": "RP",
		"updated": "DCU*VOR/DME*040.22/13.87"
	},
	{
		"name": "BOLGE",
		"latitude": "32-37-8.43 N",
		"longitude": "83-34-25.68 W",
		"state": "GEORGIA",
		"artcc": "ZTL",
		"type": "MR",
		"updated": "MCN*VORTAC*/5.70"
	},
	{
		"name": "BOLND",
		"latitude": "33-43-58.9 N",
		"longitude": "84-30-56.89 W",
		"state": "GEORGIA",
		"artcc": "ZTL",
		"type": "RNAV",
		"updated": "08/15/2017"
	},
	{
		"name": "BOLTT",
		"latitude": "35-37-29.01 N",
		"longitude": "80-11-4.22 W",
		"state": "NORTH CAROLINA",
		"artcc": "ZTL",
		"type": "RP",
		"updated": "LIB*VORTAC*251.33"
	},
	{
		"name": "BOOIE",
		"latitude": "36-23-53.07 N",
		"longitude": "82-29-43.78 W",
		"state": "TENNESSEE",
		"artcc": "ZTL",
		"type": "RP",
		"updated": "BON*LS*229.56"
	},
	{
		"name": "BOOPS",
		"latitude": "35-23-27.05 N",
		"longitude": "85-3-43.74 W",
		"state": "TENNESSEE",
		"artcc": "ZTL",
		"type": "RP",
		"updated": "GQO*VORTAC*008.86/26.12"
	},
	{
		"name": "BOOTS",
		"latitude": "35-52-26.5 N",
		"longitude": "80-23-7.22 W",
		"state": "NORTH CAROLINA",
		"artcc": "ZTL",
		"type": "RNAV",
		"updated": "04/28/2017"
	},
	{
		"name": "BORTZ",
		"latitude": "35-52-55.9 N",
		"longitude": "80-44-56.25 W",
		"state": "NORTH CAROLINA",
		"artcc": "ZTL",
		"type": "RNAV",
		"updated": "04/09/2014"
	},
	{
		"name": "BOSAC",
		"latitude": "34-24-29.17 N",
		"longitude": "86-47-13.19 W",
		"state": "ALABAMA",
		"artcc": "ZME",
		"type": "RP",
		"updated": "DCU*VOR/DME*153.23/16.25"
	},
	{
		"name": "BOSAY",
		"latitude": "32-20-9.02 N",
		"longitude": "83-52-14.38 W",
		"state": "GEORGIA",
		"artcc": "ZTL",
		"type": "RP",
		"updated": "MCN*VORTAC*207.11/24.11"
	},
	{
		"name": "BOSHR",
		"latitude": "33-33-13.82 N",
		"longitude": "81-53-32 W",
		"state": "SOUTH CAROLINA",
		"artcc": "ZTL",
		"type": "RNAV",
		"updated": "09/03/2010"
	},
	{
		"name": "BOTAY",
		"latitude": "32-30-37.6 N",
		"longitude": "87-7-16.96 W",
		"state": "ALABAMA",
		"artcc": "ZTL",
		"type": "RNAV",
		"updated": "08/13/2007"
	},
	{
		"name": "BOTRE",
		"latitude": "35-53-21.39 N",
		"longitude": "83-46-52.08 W",
		"state": "TENNESSEE",
		"artcc": "ZTL",
		"type": "RNAV",
		"updated": "10/09/2008"
	},
	{
		"name": "BOTTM",
		"latitude": "36-34-5.43 N",
		"longitude": "80-46-49.12 W",
		"state": "VIRGINIA",
		"artcc": "ZTL",
		"type": "RP",
		"updated": "GSO*VORTAC*312.00/50.00"
	},
	{
		"name": "BOUNT",
		"latitude": "34-3-43.77 N",
		"longitude": "86-54-56.18 W",
		"state": "ALABAMA",
		"artcc": "ZTL",
		"type": "RP",
		"updated": "VUZ*VORTAC*356.08/23.49"
	},
	{
		"name": "BOVRE",
		"latitude": "32-55-41.74 N",
		"longitude": "86-58-24.14 W",
		"state": "ALABAMA",
		"artcc": "ZTL",
		"type": "RNAV",
		"updated": "10/15/2007"
	},
	{
		"name": "BOWIN",
		"latitude": "32-35-15.73 N",
		"longitude": "86-27-51.2 W",
		"state": "ALABAMA",
		"artcc": "ZTL",
		"type": "RP",
		"updated": "MGM*VORTAC*338.49/23.08"
	},
	{
		"name": "BOWIT",
		"latitude": "33-58-31.28 N",
		"longitude": "83-39-12.81 W",
		"state": "GEORGIA",
		"artcc": "ZTL",
		"type": "RNAV",
		"updated": "02/27/2010"
	},
	{
		"name": "BOWLN",
		"latitude": "33-4-14.87 N",
		"longitude": "84-23-39.36 W",
		"state": "GEORGIA",
		"artcc": "ZTL",
		"type": "RP",
		"updated": "MCN*VORTAC*300.26/44.06"
	},
	{
		"name": "BOWMN",
		"latitude": "34-8-52.99 N",
		"longitude": "83-5-46.53 W",
		"state": "GEORGIA",
		"artcc": "ZTL",
		"type": "RP",
		"updated": "AHN*VOR/DME*043.43/16.55"
	},
	{
		"name": "BOYAD",
		"latitude": "33-13-3.19 N",
		"longitude": "82-6-9.72 W",
		"state": "GEORGIA",
		"artcc": "ZTL",
		"type": "RNAV",
		"updated": "06/21/2005"
	},
	{
		"name": "BOYKN",
		"latitude": "33-38-47.52 N",
		"longitude": "84-7-57.35 W",
		"state": "GEORGIA",
		"artcc": "ZTL",
		"type": "RP",
		"updated": "PDK*VOR/DME*153.74"
	},
	{
		"name": "BOYVA",
		"latitude": "36-28-25.52 N",
		"longitude": "82-43-13.4 W",
		"state": "TENNESSEE",
		"artcc": "ZTL",
		"type": "RNAV",
		"updated": "04/30/2004"
	},
	{
		"name": "BRAYN",
		"latitude": "35-10-22.45 N",
		"longitude": "82-12-42.73 W",
		"state": "SOUTH CAROLINA",
		"artcc": "ZTL",
		"type": "RNAV",
		"updated": "06/25/2015"
	},
	{
		"name": "BRDYE",
		"latitude": "33-51-16.08 N",
		"longitude": "82-4-2.98 W",
		"state": "SOUTH CAROLINA",
		"artcc": "ZTL",
		"type": "RNAV",
		"updated": "12/20/2007"
	},
	{
		"name": "BRINS",
		"latitude": "32-8-14.8 N",
		"longitude": "88-10-18.61 W",
		"state": "ALABAMA",
		"artcc": "ZTL",
		"type": "RNAV",
		"updated": "03/16/2016"
	},
	{
		"name": "BRITT",
		"latitude": "33-50-44.64 N",
		"longitude": "85-0-5.61 W",
		"state": "GEORGIA",
		"artcc": "ZTL",
		"type": "RNAV",
		"updated": "01/27/2009"
	},
	{
		"name": "BRNEE",
		"latitude": "36-21-14.29 N",
		"longitude": "80-32-15.07 W",
		"state": "NORTH CAROLINA",
		"artcc": "ZTL",
		"type": "RNAV",
		"updated": "04/28/2010"
	},
	{
		"name": "BRNII",
		"latitude": "33-41-25.03 N",
		"longitude": "84-6-11.16 W",
		"state": "GEORGIA",
		"artcc": "ZTL",
		"type": "RNAV",
		"updated": "08/09/2011"
	},
	{
		"name": "BRONN",
		"latitude": "31-48-46.91 N",
		"longitude": "84-18-15.18 W",
		"state": "GEORGIA",
		"artcc": "ZJX",
		"type": "RP",
		"updated": "PZD*VOR/DME*358.55/9.47"
	},
	{
		"name": "BROOK",
		"latitude": "36-10-27.74 N",
		"longitude": "81-0-47.99 W",
		"state": "NORTH CAROLINA",
		"artcc": "ZTL",
		"type": "RP",
		"updated": "GSO*VORTAC*282.00/51.00"
	},
	{
		"name": "BROOS",
		"latitude": "34-41-38.19 N",
		"longitude": "85-40-45.47 W",
		"state": "ALABAMA",
		"artcc": "ZTL",
		"type": "RNAV",
		"updated": "08/17/2010"
	},
	{
		"name": "BROOX",
		"latitude": "33-43-58.58 N",
		"longitude": "84-19-52.12 W",
		"state": "GEORGIA",
		"artcc": "ZTL",
		"type": "RNAV",
		"updated": "08/15/2017"
	},
	{
		"name": "BRTEN",
		"latitude": "34-0-30.23 N",
		"longitude": "84-50-8.16 W",
		"state": "GEORGIA",
		"artcc": "ZTL",
		"type": "RNAV",
		"updated": "07/26/2016"
	},
	{
		"name": "BRXTN",
		"latitude": "35-1-10.88 N",
		"longitude": "86-11-35.65 W",
		"state": "TENNESSEE",
		"artcc": "ZME",
		"type": "RNAV",
		"updated": "09/17/2012"
	},
	{
		"name": "BRYDE",
		"latitude": "35-8-46.55 N",
		"longitude": "81-13-52.54 W",
		"state": "NORTH CAROLINA",
		"artcc": "ZTL",
		"type": "RP",
		"updated": "BZM*VOR/DME*185.40"
	},
	{
		"name": "BSHOP",
		"latitude": "33-50-37.53 N",
		"longitude": "84-51-22.28 W",
		"state": "GEORGIA",
		"artcc": "ZTL",
		"type": "RNAV",
		"updated": "08/18/2017"
	},
	{
		"name": "BTSEY",
		"latitude": "35-42-22.96 N",
		"longitude": "81-18-6.5 W",
		"state": "NORTH CAROLINA",
		"artcc": "ZTL",
		"type": "RP",
		"updated": "GSO*VORTAC*255.93"
	},
	{
		"name": "BTTIS",
		"latitude": "34-38-16.1 N",
		"longitude": "83-1-29.87 W",
		"state": "SOUTH CAROLINA",
		"artcc": "ZTL",
		"type": "RNAV",
		"updated": "07/26/2016"
	},
	{
		"name": "BUCAB",
		"latitude": "33-46-23.41 N",
		"longitude": "84-33-59.07 W",
		"state": "GEORGIA",
		"artcc": "ZTL",
		"type": "RNAV",
		"updated": "09/24/2012"
	},
	{
		"name": "BUCKY",
		"latitude": "35-49-53.57 N",
		"longitude": "84-32-48.26 W",
		"state": "TENNESSEE",
		"artcc": "ZTL",
		"type": "RP",
		"updated": "HCH*VOR/DME*083.70/21.29"
	},
	{
		"name": "BUDKE",
		"latitude": "35-20-35.48 N",
		"longitude": "81-13-7.56 W",
		"state": "NORTH CAROLINA",
		"artcc": "ZTL",
		"type": "RP",
		"updated": "BZM*VOR/DME*184.06/31.51"
	},
	{
		"name": "BUFZI",
		"latitude": "34-33-44.51 N",
		"longitude": "82-37-26.06 W",
		"state": "SOUTH CAROLINA",
		"artcc": "ZTL",
		"type": "RNAV",
		"updated": "06/09/2017"
	},
	{
		"name": "BUGME",
		"latitude": "36-37-55.65 N",
		"longitude": "83-25-58.32 W",
		"state": "VIRGINIA",
		"artcc": "ZTL",
		"type": "RP",
		"updated": "VXV*VORTAC*030.08/49.00"
	},
	{
		"name": "BUILD",
		"latitude": "34-49-10.47 N",
		"longitude": "81-45-57.46 W",
		"state": "SOUTH CAROLINA",
		"artcc": "ZTL",
		"type": "RP",
		"updated": "SPA*VORTAC*150.17/15.09"
	},
	{
		"name": "BUKHD",
		"latitude": "34-12-35.5 N",
		"longitude": "84-51-9.8 W",
		"state": "GEORGIA",
		"artcc": "ZTL",
		"type": "RNAV",
		"updated": "07/26/2016"
	},
	{
		"name": "BULLA",
		"latitude": "32-57-0.55 N",
		"longitude": "82-26-59.46 W",
		"state": "GEORGIA",
		"artcc": "ZTL",
		"type": "MR",
		"updated": "DBN*VORTAC*040.61/30.10"
	},
	{
		"name": "BULLB",
		"latitude": "32-54-0.56 N",
		"longitude": "82-19-59.45 W",
		"state": "GEORGIA",
		"artcc": "ZTL",
		"type": "MR",
		"updated": "DBN*VORTAC*056.14/32.23"
	},
	{
		"name": "BULLD",
		"latitude": "33-14-30.51 N",
		"longitude": "82-17-59.44 W",
		"state": "GEORGIA",
		"artcc": "ZTL",
		"type": "MR",
		"updated": "IRQ*VORTAC*197.97/28.75"
	},
	{
		"name": "BUMSE",
		"latitude": "35-58-40.74 N",
		"longitude": "84-58-27.22 W",
		"state": "TENNESSEE",
		"artcc": "ZTL",
		"type": "RNAV",
		"updated": "02/04/2009"
	},
	{
		"name": "BUNNA",
		"latitude": "35-42-57.83 N",
		"longitude": "81-40-1.98 W",
		"state": "NORTH CAROLINA",
		"artcc": "ZTL",
		"type": "RNAV",
		"updated": "05/11/2011"
	},
	{
		"name": "BUNNI",
		"latitude": "34-11-41.05 N",
		"longitude": "84-51-39.49 W",
		"state": "GEORGIA",
		"artcc": "ZTL",
		"type": "RNAV",
		"updated": "12/08/2016"
	},
	{
		"name": "BUNTE",
		"latitude": "36-42-50.44 N",
		"longitude": "81-59-1.35 W",
		"state": "VIRGINIA",
		"artcc": "ZTL",
		"type": "RP",
		"updated": "GZG*VOR/DME*147.37"
	},
	{
		"name": "BUPGY",
		"latitude": "33-8-51.38 N",
		"longitude": "87-41-1.72 W",
		"state": "ALABAMA",
		"artcc": "ZTL",
		"type": "RNAV",
		"updated": "02/12/2008"
	},
	{
		"name": "BUPME",
		"latitude": "34-38-21.29 N",
		"longitude": "86-3-6.4 W",
		"state": "ALABAMA",
		"artcc": "ZTL",
		"type": "RNAV",
		"updated": "10/03/2007"
	},
	{
		"name": "BUPPY",
		"latitude": "34-33-11.07 N",
		"longitude": "84-58-15.88 W",
		"state": "GEORGIA",
		"artcc": "ZTL",
		"type": "RNAV",
		"updated": "04/17/2017"
	},
	{
		"name": "BURCH",
		"latitude": "36-9-57.88 N",
		"longitude": "80-49-14.65 W",
		"state": "NORTH CAROLINA",
		"artcc": "ZTL",
		"type": "RP",
		"updated": "GSO*VORTAC*283.21/41.68"
	},
	{
		"name": "BURME",
		"latitude": "35-59-51.59 N",
		"longitude": "85-2-56.73 W",
		"state": "TENNESSEE",
		"artcc": "ZTL",
		"type": "RNAV",
		"updated": "09/17/2012"
	},
	{
		"name": "BURNY",
		"latitude": "33-37-54.22 N",
		"longitude": "84-32-57.86 W",
		"state": "GEORGIA",
		"artcc": "ZTL",
		"type": "RP",
		"updated": "FT*NDB*155.13"
	},
	{
		"name": "BURSE",
		"latitude": "31-34-52.97 N",
		"longitude": "87-9-23.91 W",
		"state": "ALABAMA",
		"artcc": "ZTL",
		"type": "RNAV",
		"updated": "10/16/2007"
	},
	{
		"name": "BURWI",
		"latitude": "35-27-41.65 N",
		"longitude": "86-14-37.77 W",
		"state": "TENNESSEE",
		"artcc": "ZME",
		"type": "RP",
		"updated": "SYI*VOR/DME*123.10"
	},
	{
		"name": "BUSAY",
		"latitude": "32-52-15.85 N",
		"longitude": "87-20-13.98 W",
		"state": "ALABAMA",
		"artcc": "ZTL",
		"type": "RNAV",
		"updated": "10/15/2007"
	},
	{
		"name": "BUSEC",
		"latitude": "36-24-52.54 N",
		"longitude": "83-31-29.28 W",
		"state": "TENNESSEE",
		"artcc": "ZTL",
		"type": "RNAV",
		"updated": "04/27/2010"
	},
	{
		"name": "BUSHE",
		"latitude": "33-17-12.87 N",
		"longitude": "81-56-49.64 W",
		"state": "GEORGIA",
		"artcc": "ZTL",
		"type": "RNAV",
		"updated": "12/11/2015"
	},
	{
		"name": "BUSIC",
		"latitude": "35-41-35.33 N",
		"longitude": "82-13-49.13 W",
		"state": "NORTH CAROLINA",
		"artcc": "ZTL",
		"type": "RP",
		"updated": "BZM*VOR/DME*264.00"
	},
	{
		"name": "BUSSA",
		"latitude": "32-25-55.44 N",
		"longitude": "85-38-18.36 W",
		"state": "ALABAMA",
		"artcc": "ZTL",
		"type": "RNAV",
		"updated": "08/08/2013"
	},
	{
		"name": "BUTKE",
		"latitude": "34-57-11.89 N",
		"longitude": "80-56-34 W",
		"state": "SOUTH CAROLINA",
		"artcc": "ZTL",
		"type": "RNAV",
		"updated": "09/16/2016"
	},
	{
		"name": "BUUZZ",
		"latitude": "33-16-39.64 N",
		"longitude": "85-8-18.15 W",
		"state": "GEORGIA",
		"artcc": "ZTL",
		"type": "RP",
		"updated": "LGC*VORTAC*013.00/14.11"
	},
	{
		"name": "BUVYA",
		"latitude": "32-40-7.91 N",
		"longitude": "82-27-20.41 W",
		"state": "GEORGIA",
		"artcc": "ZTL",
		"type": "RP",
		"updated": "SBO*LD*313.49/6.29"
	},
	{
		"name": "BUYAB",
		"latitude": "32-46-43.99 N",
		"longitude": "83-35-23.17 W",
		"state": "GEORGIA",
		"artcc": "ZTL",
		"type": "RP",
		"updated": "MCN*VORTAC*027.95/6.00"
	},
	{
		"name": "BUYAC",
		"latitude": "34-20-40.79 N",
		"longitude": "83-45-23.54 W",
		"state": "GEORGIA",
		"artcc": "ZTL",
		"type": "RNAV",
		"updated": "08/06/2008"
	},
	{
		"name": "BUYAK",
		"latitude": "31-51-39.35 N",
		"longitude": "83-57-11.02 W",
		"state": "GEORGIA",
		"artcc": "ZJX",
		"type": "RNAV",
		"updated": "03/23/2017"
	},
	{
		"name": "BUYBA",
		"latitude": "36-40-39.36 N",
		"longitude": "82-10-36.74 W",
		"state": "VIRGINIA",
		"artcc": "ZTL",
		"type": "RNAV",
		"updated": "12/12/2011"
	},
	{
		"name": "BUZBY",
		"latitude": "35-52-16.23 N",
		"longitude": "83-55-25.86 W",
		"state": "TENNESSEE",
		"artcc": "ZTL",
		"type": "RP",
		"updated": "VXV*VORTAC*/2.46"
	},
	{
		"name": "BWALL",
		"latitude": "35-13-0.83 N",
		"longitude": "82-1-48.01 W",
		"state": "NORTH CAROLINA",
		"artcc": "ZTL",
		"type": "RNAV",
		"updated": "11/10/2016"
	},
	{
		"name": "BWANA",
		"latitude": "32-51-34.83 N",
		"longitude": "86-33-30.72 W",
		"state": "ALABAMA",
		"artcc": "ZTL",
		"type": "RNAV",
		"updated": "08/11/2016"
	},
	{
		"name": "BXCGB",
		"latitude": "34-47-30.38 N",
		"longitude": "81-6-15.68 W",
		"state": "SOUTH CAROLINA",
		"artcc": "ZTL",
		"type": "CN",
		"updated": "09/22/2010"
	},
	{
		"name": "BYJAC",
		"latitude": "35-57-27.08 N",
		"longitude": "80-9-2.83 W",
		"state": "NORTH CAROLINA",
		"artcc": "ZTL",
		"type": "RP",
		"updated": "GSO*VORTAC*241.16/10.00"
	},
	{
		"name": "BYROE",
		"latitude": "32-37-4.92 N",
		"longitude": "83-47-46.56 W",
		"state": "GEORGIA",
		"artcc": "ZTL",
		"type": "RP",
		"updated": "VNA*VORTAC*327.00"
	},
	{
		"name": "BYSCO",
		"latitude": "35-46-9.25 N",
		"longitude": "80-4-33.85 W",
		"state": "NORTH CAROLINA",
		"artcc": "ZTL",
		"type": "RNAV",
		"updated": "01/16/2014"
	}
]
