[
	{
		"name": "EAGYL",
		"latitude": "33-32-12.45 N",
		"longitude": "84-35-4.5 W",
		"state": "GEORGIA",
		"artcc": "ZTL",
		"type": "RNAV",
		"updated": "02/25/2013"
	},
	{
		"name": "EAONE",
		"latitude": "33-52-27.98 N",
		"longitude": "83-48-0.33 W",
		"state": "GEORGIA",
		"artcc": "ZTL",
		"type": "RP",
		"updated": "ATL*VORTAC*070.00/35.00"
	},
	{
		"name": "EARLL",
		"latitude": "36-5-57.84 N",
		"longitude": "80-11-30.55 W",
		"state": "NORTH CAROLINA",
		"artcc": "ZTL",
		"type": "RNAV",
		"updated": "06/13/2017"
	},
	{
		"name": "EARRL",
		"latitude": "33-45-36.14 N",
		"longitude": "85-0-34.22 W",
		"state": "GEORGIA",
		"artcc": "ZTL",
		"type": "RNAV",
		"updated": "08/25/2009"
	},
	{
		"name": "EATER",
		"latitude": "33-54-43.37 N",
		"longitude": "84-56-26.25 W",
		"state": "GEORGIA",
		"artcc": "ZTL",
		"type": "RNAV",
		"updated": "01/27/2009"
	},
	{
		"name": "EATWO",
		"latitude": "33-37-0.9 N",
		"longitude": "83-44-11.92 W",
		"state": "GEORGIA",
		"artcc": "ZTL",
		"type": "RP",
		"updated": "ATL*VORTAC*096.00/35.00"
	},
	{
		"name": "EAVER",
		"latitude": "36-30-44.4 N",
		"longitude": "82-21-56.21 W",
		"state": "TENNESSEE",
		"artcc": "ZTL",
		"type": "RP",
		"updated": "HMV*VORTAC*295.62"
	},
	{
		"name": "EBANE",
		"latitude": "34-55-57.3 N",
		"longitude": "83-8-24.58 W",
		"state": "GEORGIA",
		"artcc": "ZTL",
		"type": "RNAV",
		"updated": "07/20/2007"
	},
	{
		"name": "EBANS",
		"latitude": "33-33-12.69 N",
		"longitude": "82-5-3.94 W",
		"state": "GEORGIA",
		"artcc": "ZTL",
		"type": "RP",
		"updated": "IRQ*VORTAC*161.09/10.01"
	},
	{
		"name": "EBAZE",
		"latitude": "34-15-43.46 N",
		"longitude": "85-46-23.81 W",
		"state": "ALABAMA",
		"artcc": "ZTL",
		"type": "RP",
		"updated": "GAD*VOR/DME*040.01/23.06"
	},
	{
		"name": "EBEHU",
		"latitude": "33-49-29.88 N",
		"longitude": "84-15-26.35 W",
		"state": "GEORGIA",
		"artcc": "ZTL",
		"type": "RNAV",
		"updated": "06/15/2007"
	},
	{
		"name": "EBESE",
		"latitude": "32-3-15.19 N",
		"longitude": "83-41-10.41 W",
		"state": "GEORGIA",
		"artcc": "ZJX",
		"type": "RNAV",
		"updated": "03/22/2017"
	},
	{
		"name": "EBESY",
		"latitude": "34-34-15.15 N",
		"longitude": "85-28-16.65 W",
		"state": "GEORGIA",
		"artcc": "ZTL",
		"type": "RP",
		"updated": "GQO*VORTAC*212.99/28.17"
	},
	{
		"name": "EBEYA",
		"latitude": "32-55-58.59 N",
		"longitude": "87-2-10.95 W",
		"state": "ALABAMA",
		"artcc": "ZTL",
		"type": "RNAV",
		"updated": "10/15/2007"
	},
	{
		"name": "EBEYO",
		"latitude": "33-47-50.22 N",
		"longitude": "85-18-50.26 W",
		"state": "GEORGIA",
		"artcc": "ZTL",
		"type": "RNAV",
		"updated": "01/26/2005"
	},
	{
		"name": "ECEBE",
		"latitude": "35-3-11.49 N",
		"longitude": "83-19-17.92 W",
		"state": "NORTH CAROLINA",
		"artcc": "ZTL",
		"type": "RNAV",
		"updated": "02/03/2009"
	},
	{
		"name": "ECEGA",
		"latitude": "35-16-4.92 N",
		"longitude": "80-44-9.93 W",
		"state": "NORTH CAROLINA",
		"artcc": "ZTL",
		"type": "RNAV",
		"updated": "09/15/2015"
	},
	{
		"name": "ECIDA",
		"latitude": "36-33-34.51 N",
		"longitude": "82-18-42.45 W",
		"state": "TENNESSEE",
		"artcc": "ZTL",
		"type": "RNAV",
		"updated": "12/14/2011"
	},
	{
		"name": "ECIYU",
		"latitude": "34-55-17.84 N",
		"longitude": "84-8-54.39 W",
		"state": "GEORGIA",
		"artcc": "ZTL",
		"type": "RNAV",
		"updated": "06/11/2014"
	},
	{
		"name": "EDASE",
		"latitude": "34-34-23.51 N",
		"longitude": "86-14-23.54 W",
		"state": "ALABAMA",
		"artcc": "ZME",
		"type": "RNAV",
		"updated": "10/03/2007"
	},
	{
		"name": "EDDEL",
		"latitude": "35-22-44.14 N",
		"longitude": "80-43-16.17 W",
		"state": "NORTH CAROLINA",
		"artcc": "ZTL",
		"type": "RP",
		"updated": "GSO*VORTAC*225.55/54.04"
	},
	{
		"name": "EDDIE",
		"latitude": "34-19-5.08 N",
		"longitude": "86-27-59.33 W",
		"state": "ALABAMA",
		"artcc": "ZME",
		"type": "RP",
		"updated": "DCU*VOR/DME*131.00"
	},
	{
		"name": "EDOSY",
		"latitude": "34-17-29.88 N",
		"longitude": "84-22-50.21 W",
		"state": "GEORGIA",
		"artcc": "ZTL",
		"type": "RNAV",
		"updated": "05/21/2007"
	},
	{
		"name": "EEASY",
		"latitude": "33-37-53.62 N",
		"longitude": "84-38-59.17 W",
		"state": "GEORGIA",
		"artcc": "ZTL",
		"type": "RP",
		"updated": "FT*NDB*188.93"
	},
	{
		"name": "EECEE",
		"latitude": "34-26-46.25 N",
		"longitude": "81-42-41.17 W",
		"state": "SOUTH CAROLINA",
		"artcc": "ZTL",
		"type": "RNAV",
		"updated": "12/18/2013"
	},
	{
		"name": "EEERR",
		"latitude": "33-43-57.96 N",
		"longitude": "84-38-29.63 W",
		"state": "GEORGIA",
		"artcc": "ZTL",
		"type": "RNAV",
		"updated": "08/11/2014"
	},
	{
		"name": "EEWOK",
		"latitude": "33-15-54.27 N",
		"longitude": "81-51-53.35 W",
		"state": "GEORGIA",
		"artcc": "ZTL",
		"type": "RNAV",
		"updated": "08/21/2017"
	},
	{
		"name": "EFBUB",
		"latitude": "33-38-10.8 N",
		"longitude": "86-12-40.95 W",
		"state": "ALABAMA",
		"artcc": "ZTL",
		"type": "RNAV",
		"updated": "03/23/2017"
	},
	{
		"name": "EFECY",
		"latitude": "33-47-53.68 N",
		"longitude": "83-30-49.27 W",
		"state": "GEORGIA",
		"artcc": "ZTL",
		"type": "RNAV",
		"updated": "02/09/2018"
	},
	{
		"name": "EFORD",
		"latitude": "31-41-48.9 N",
		"longitude": "85-24-58.78 W",
		"state": "ALABAMA",
		"artcc": "ZJX",
		"type": "RP",
		"updated": "EUF*VORTAC*222.00"
	},
	{
		"name": "EGADE",
		"latitude": "34-31-55.26 N",
		"longitude": "81-51-7.05 W",
		"state": "SOUTH CAROLINA",
		"artcc": "ZTL",
		"type": "RNAV",
		"updated": "02/15/2018"
	},
	{
		"name": "EGECE",
		"latitude": "33-0-41.5 N",
		"longitude": "82-6-20.42 W",
		"state": "GEORGIA",
		"artcc": "ZTL",
		"type": "RNAV",
		"updated": "06/24/2004"
	},
	{
		"name": "EGIDE",
		"latitude": "35-42-44.9 N",
		"longitude": "82-10-18.53 W",
		"state": "NORTH CAROLINA",
		"artcc": "ZTL",
		"type": "RNAV",
		"updated": "07/17/2003"
	},
	{
		"name": "EGSOY",
		"latitude": "36-28-25.38 N",
		"longitude": "83-53-8.09 W",
		"state": "TENNESSEE",
		"artcc": "ZTL",
		"type": "RNAV",
		"updated": "09/03/2014"
	},
	{
		"name": "EHAXY",
		"latitude": "34-56-52 N",
		"longitude": "81-24-39.04 W",
		"state": "SOUTH CAROLINA",
		"artcc": "ZTL",
		"type": "RP",
		"updated": "SPA*VORTAC*103.28/25.96"
	},
	{
		"name": "EHVEZ",
		"latitude": "32-37-45.6 N",
		"longitude": "83-44-5.55 W",
		"state": "GEORGIA",
		"artcc": "ZTL",
		"type": "RP",
		"updated": "MCN*VORTAC*/5.78"
	},
	{
		"name": "EJIWY",
		"latitude": "35-7-54.03 N",
		"longitude": "81-5-8.33 W",
		"state": "NORTH CAROLINA",
		"artcc": "ZTL",
		"type": "CN",
		"updated": "11/28/2000"
	},
	{
		"name": "EJZEN",
		"latitude": "32-45-24.4 N",
		"longitude": "83-34-3.88 W",
		"state": "GEORGIA",
		"artcc": "ZTL",
		"type": "RNAV",
		"updated": "10/26/2005"
	},
	{
		"name": "EKACU",
		"latitude": "34-5-58.93 N",
		"longitude": "84-18-7.36 W",
		"state": "GEORGIA",
		"artcc": "ZTL",
		"type": "RNAV",
		"updated": "03/10/2011"
	},
	{
		"name": "EKEYU",
		"latitude": "34-4-56.73 N",
		"longitude": "83-48-52.59 W",
		"state": "GEORGIA",
		"artcc": "ZTL",
		"type": "RNAV",
		"updated": "07/16/2007"
	},
	{
		"name": "EKTEC",
		"latitude": "32-28-42.26 N",
		"longitude": "83-0-43.73 W",
		"state": "GEORGIA",
		"artcc": "ZTL",
		"type": "RNAV",
		"updated": "06/01/2016"
	},
	{
		"name": "EKUSY",
		"latitude": "32-26-14.62 N",
		"longitude": "86-37-21.13 W",
		"state": "ALABAMA",
		"artcc": "ZTL",
		"type": "RNAV",
		"updated": "05/01/2012"
	},
	{
		"name": "EKUTE",
		"latitude": "34-4-58.76 N",
		"longitude": "86-5-7.44 W",
		"state": "ALABAMA",
		"artcc": "ZTL",
		"type": "RNAV",
		"updated": "07/15/2011"
	},
	{
		"name": "ELAIN",
		"latitude": "34-43-26.62 N",
		"longitude": "86-45-59.59 W",
		"state": "ALABAMA",
		"artcc": "ZME",
		"type": "RP",
		"updated": "RQZ*VORTAC*234.32"
	},
	{
		"name": "ELKED",
		"latitude": "34-50-40.52 N",
		"longitude": "86-54-23.36 W",
		"state": "ALABAMA",
		"artcc": "ZME",
		"type": "RP",
		"updated": "DCU*VOR/DME*008.90/11.87"
	},
	{
		"name": "ELKON",
		"latitude": "32-23-55.06 N",
		"longitude": "83-39-55.16 W",
		"state": "GEORGIA",
		"artcc": "ZTL",
		"type": "RP",
		"updated": "VNA*VORTAC*321.42/14.00"
	},
	{
		"name": "ELLID",
		"latitude": "34-45-24.97 N",
		"longitude": "82-36-34.77 W",
		"state": "SOUTH CAROLINA",
		"artcc": "ZTL",
		"type": "RP",
		"updated": "GRD*VORTAC*324.40"
	},
	{
		"name": "ELLYE",
		"latitude": "35-4-51.92 N",
		"longitude": "80-32-20.35 W",
		"state": "NORTH CAROLINA",
		"artcc": "ZTL",
		"type": "RNAV",
		"updated": "09/08/2016"
	},
	{
		"name": "ELOVY",
		"latitude": "35-10-22.87 N",
		"longitude": "84-3-8.38 W",
		"state": "NORTH CAROLINA",
		"artcc": "ZTL",
		"type": "RNAV",
		"updated": "01/10/2001"
	},
	{
		"name": "ELRAY",
		"latitude": "33-32-11.51 N",
		"longitude": "84-39-2.69 W",
		"state": "GEORGIA",
		"artcc": "ZTL",
		"type": "RNAV",
		"updated": "08/21/2017"
	},
	{
		"name": "ELTEW",
		"latitude": "32-24-54.43 N",
		"longitude": "83-20-38.2 W",
		"state": "GEORGIA",
		"artcc": "ZTL",
		"type": "RNAV",
		"updated": "09/15/2009"
	},
	{
		"name": "EMAHH",
		"latitude": "35-35-51.81 N",
		"longitude": "85-28-20.12 W",
		"state": "TENNESSEE",
		"artcc": "ZME",
		"type": "RNAV",
		"updated": "12/09/2015"
	},
	{
		"name": "EMBIJ",
		"latitude": "32-38-8.21 N",
		"longitude": "83-33-45.49 W",
		"state": "GEORGIA",
		"artcc": "ZTL",
		"type": "RNAV",
		"updated": "06/28/2012"
	},
	{
		"name": "EMERS",
		"latitude": "35-23-34.41 N",
		"longitude": "80-58-54.75 W",
		"state": "NORTH CAROLINA",
		"artcc": "ZTL",
		"type": "RP",
		"updated": "RGS*LD*002.96/11.36"
	},
	{
		"name": "EMIYY",
		"latitude": "34-31-4.8 N",
		"longitude": "83-19-54.31 W",
		"state": "GEORGIA",
		"artcc": "ZTL",
		"type": "RNAV",
		"updated": "07/20/2007"
	},
	{
		"name": "EMIZI",
		"latitude": "33-38-18.96 N",
		"longitude": "86-48-23.28 W",
		"state": "ALABAMA",
		"artcc": "ZTL",
		"type": "RNAV",
		"updated": "08/17/2010"
	},
	{
		"name": "EMMEC",
		"latitude": "35-20-0.83 N",
		"longitude": "84-34-47.66 W",
		"state": "TENNESSEE",
		"artcc": "ZTL",
		"type": "RNAV",
		"updated": "01/16/2001"
	},
	{
		"name": "EMUFY",
		"latitude": "35-37-33.7 N",
		"longitude": "85-10-38.42 W",
		"state": "TENNESSEE",
		"artcc": "ZTL",
		"type": "RNAV",
		"updated": "01/09/2001"
	},
	{
		"name": "ENADE",
		"latitude": "35-12-7.91 N",
		"longitude": "81-44-40.85 W",
		"state": "NORTH CAROLINA",
		"artcc": "ZTL",
		"type": "RNAV",
		"updated": "04/09/2014"
	},
	{
		"name": "ENGNR",
		"latitude": "33-41-15.14 N",
		"longitude": "86-2-33.98 W",
		"state": "ALABAMA",
		"artcc": "ZTL",
		"type": "RNAV",
		"updated": "12/09/2015"
	},
	{
		"name": "ENIFA",
		"latitude": "35-15-15.31 N",
		"longitude": "86-1-44.38 W",
		"state": "TENNESSEE",
		"artcc": "ZME",
		"type": "RNAV",
		"updated": "04/27/2018"
	},
	{
		"name": "ENIKY",
		"latitude": "34-25-6.47 N",
		"longitude": "86-46-12.6 W",
		"state": "ALABAMA",
		"artcc": "ZME",
		"type": "RP",
		"updated": "DCU*VOR/DME*149.58/16.13"
	},
	{
		"name": "ENIME",
		"latitude": "35-20-29.36 N",
		"longitude": "86-14-36.27 W",
		"state": "TENNESSEE",
		"artcc": "ZME",
		"type": "RNAV",
		"updated": "06/29/2011"
	},
	{
		"name": "ENJOV",
		"latitude": "36-57-24.89 N",
		"longitude": "80-43-28.53 W",
		"state": "VIRGINIA",
		"artcc": "ZTL",
		"type": "WP",
		"updated": "11/02/1998"
	},
	{
		"name": "ENNKA",
		"latitude": "35-21-2.12 N",
		"longitude": "82-30-20.43 W",
		"state": "NORTH CAROLINA",
		"artcc": "ZTL",
		"type": "RP",
		"updated": "BRA*NDB*346.97"
	},
	{
		"name": "ENNTT",
		"latitude": "31-41-21.41 N",
		"longitude": "86-19-2.27 W",
		"state": "ALABAMA",
		"artcc": "ZTL",
		"type": "RNAV",
		"updated": "08/17/2017"
	},
	{
		"name": "ENOGY",
		"latitude": "35-18-53.97 N",
		"longitude": "85-22-57.83 W",
		"state": "TENNESSEE",
		"artcc": "ZME",
		"type": "RNAV",
		"updated": "01/16/2001"
	},
	{
		"name": "ENSLL",
		"latitude": "33-19-9.09 N",
		"longitude": "84-50-16.96 W",
		"state": "GEORGIA",
		"artcc": "ZTL",
		"type": "RNAV",
		"updated": "08/18/2017"
	},
	{
		"name": "ENSOR",
		"latitude": "34-19-36.74 N",
		"longitude": "84-25-13.33 W",
		"state": "GEORGIA",
		"artcc": "ZTL",
		"type": "RP",
		"updated": "RMG*VORTAC*073.00"
	},
	{
		"name": "EPAYE",
		"latitude": "35-4-56.54 N",
		"longitude": "80-49-14.43 W",
		"state": "NORTH CAROLINA",
		"artcc": "ZTL",
		"type": "RNAV",
		"updated": "05/01/2017"
	},
	{
		"name": "EPESE",
		"latitude": "35-10-41.72 N",
		"longitude": "83-51-16.28 W",
		"state": "NORTH CAROLINA",
		"artcc": "ZTL",
		"type": "RNAV",
		"updated": "02/06/2003"
	},
	{
		"name": "EPICU",
		"latitude": "32-9-42.71 N",
		"longitude": "85-6-47.77 W",
		"state": "ALABAMA",
		"artcc": "ZTL",
		"type": "RNAV",
		"updated": "07/14/2011"
	},
	{
		"name": "EPIJE",
		"latitude": "34-57-14.83 N",
		"longitude": "85-35-38.93 W",
		"state": "ALABAMA",
		"artcc": "ZME",
		"type": "RNAV",
		"updated": "01/11/2001"
	},
	{
		"name": "EPITE",
		"latitude": "35-54-30.37 N",
		"longitude": "84-23-35.13 W",
		"state": "TENNESSEE",
		"artcc": "ZTL",
		"type": "RNAV",
		"updated": "01/14/2003"
	},
	{
		"name": "EPJUF",
		"latitude": "35-4-8 N",
		"longitude": "84-9-43 W",
		"state": "NORTH CAROLINA",
		"artcc": "ZTL",
		"type": "RNAV",
		"updated": "01/10/2001"
	},
	{
		"name": "EPOZI",
		"latitude": "35-13-21.3 N",
		"longitude": "81-57-3.23 W",
		"state": "NORTH CAROLINA",
		"artcc": "ZTL",
		"type": "RP",
		"updated": "SUG*VORTAC*127.14"
	},
	{
		"name": "EPYAP",
		"latitude": "35-4-56.63 N",
		"longitude": "84-25-49.79 W",
		"state": "TENNESSEE",
		"artcc": "ZTL",
		"type": "RNAV",
		"updated": "01/09/2001"
	},
	{
		"name": "EQBEG",
		"latitude": "35-0-43.16 N",
		"longitude": "81-9-33.83 W",
		"state": "SOUTH CAROLINA",
		"artcc": "ZTL",
		"type": "RNAV",
		"updated": "02/29/2000"
	},
	{
		"name": "ERATH",
		"latitude": "37-10-13.26 N",
		"longitude": "80-53-38.27 W",
		"state": "VIRGINIA",
		"artcc": "ZTL",
		"type": "RP",
		"updated": "PSK*VORTAC*305.74/10.00"
	},
	{
		"name": "ERECU",
		"latitude": "32-43-49.24 N",
		"longitude": "82-42-48.36 W",
		"state": "GEORGIA",
		"artcc": "ZTL",
		"type": "RNAV",
		"updated": "03/10/2011"
	},
	{
		"name": "ERFOM",
		"latitude": "34-32-49.44 N",
		"longitude": "85-45-55.01 W",
		"state": "ALABAMA",
		"artcc": "ZTL",
		"type": "RNAV",
		"updated": "01/09/2001"
	},
	{
		"name": "ERHRT",
		"latitude": "35-30-8.91 N",
		"longitude": "81-28-8.86 W",
		"state": "NORTH CAROLINA",
		"artcc": "ZTL",
		"type": "RNAV",
		"updated": "06/24/2015"
	},
	{
		"name": "ERIES",
		"latitude": "35-50-26.36 N",
		"longitude": "81-9-58.28 W",
		"state": "NORTH CAROLINA",
		"artcc": "ZTL",
		"type": "RP",
		"updated": "BZM*VOR/DME*120.96/4.00"
	},
	{
		"name": "ERIGE",
		"latitude": "33-41-41 N",
		"longitude": "86-42-4.42 W",
		"state": "ALABAMA",
		"artcc": "ZTL",
		"type": "RNAV",
		"updated": "07/13/2017"
	},
	{
		"name": "ERIVE",
		"latitude": "34-34-33.15 N",
		"longitude": "83-18-4.53 W",
		"state": "GEORGIA",
		"artcc": "ZTL",
		"type": "RP",
		"updated": "ODF*VORTAC*181.42/7.19"
	},
	{
		"name": "ERKAW",
		"latitude": "35-8-57.28 N",
		"longitude": "81-1-55.16 W",
		"state": "NORTH CAROLINA",
		"artcc": "ZTL",
		"type": "RP",
		"updated": "CLT*LS*235.47"
	},
	{
		"name": "ERLIN",
		"latitude": "34-5-13.95 N",
		"longitude": "85-1-18.94 W",
		"state": "GEORGIA",
		"artcc": "ZTL",
		"type": "RP",
		"updated": "RMG*VORTAC*131.88/6.63"
	},
	{
		"name": "EROVE",
		"latitude": "35-4-49.55 N",
		"longitude": "86-33-11.35 W",
		"state": "TENNESSEE",
		"artcc": "ZME",
		"type": "RP",
		"updated": "RQZ*VORTAC*011.18/17.42"
	},
	{
		"name": "ERWIN",
		"latitude": "33-38-3 N",
		"longitude": "84-6-2 W",
		"state": "GEORGIA",
		"artcc": "ZTL",
		"type": "RNAV",
		"updated": "01/14/2005"
	},
	{
		"name": "ESBIY",
		"latitude": "34-38-51.55 N",
		"longitude": "85-54-49.31 W",
		"state": "ALABAMA",
		"artcc": "ZTL",
		"type": "RNAV",
		"updated": "01/09/2001"
	},
	{
		"name": "ESCOT",
		"latitude": "32-21-45.74 N",
		"longitude": "86-28-41.01 W",
		"state": "ALABAMA",
		"artcc": "ZTL",
		"type": "MR",
		"updated": "MGM*VORTAC*313.28/11.64"
	},
	{
		"name": "ESMUY",
		"latitude": "32-16-18.15 N",
		"longitude": "83-6-38.65 W",
		"state": "GEORGIA",
		"artcc": "ZJX",
		"type": "RNAV",
		"updated": "04/04/2014"
	},
	{
		"name": "ESSEX",
		"latitude": "33-37-57.43 N",
		"longitude": "83-57-21.72 W",
		"state": "GEORGIA",
		"artcc": "ZTL",
		"type": "RP",
		"updated": "ATL*VORTAC*094.36/24.00"
	},
	{
		"name": "ESTHR",
		"latitude": "33-52-48 N",
		"longitude": "84-10-16 W",
		"state": "GEORGIA",
		"artcc": "ZTL",
		"type": "RP",
		"updated": "ATL*VORTAC*041.23/20.01"
	},
	{
		"name": "ESTRR",
		"latitude": "35-0-3.71 N",
		"longitude": "81-35-34.71 W",
		"state": "SOUTH CAROLINA",
		"artcc": "ZTL",
		"type": "RNAV",
		"updated": "06/25/2015"
	},
	{
		"name": "ESUGY",
		"latitude": "36-25-58.83 N",
		"longitude": "81-22-59.35 W",
		"state": "NORTH CAROLINA",
		"artcc": "ZTL",
		"type": "RP",
		"updated": "JUH*LE*095.88/2.15"
	},
	{
		"name": "ETAKE",
		"latitude": "34-3-39.89 N",
		"longitude": "83-55-12.73 W",
		"state": "GEORGIA",
		"artcc": "ZTL",
		"type": "RNAV",
		"updated": "08/06/2008"
	},
	{
		"name": "ETEVY",
		"latitude": "34-51-40.76 N",
		"longitude": "86-56-25.61 W",
		"state": "ALABAMA",
		"artcc": "ZME",
		"type": "RP",
		"updated": "DCU*VOR/DME*000.69"
	},
	{
		"name": "ETIBY",
		"latitude": "31-41-1.26 N",
		"longitude": "87-51-26.51 W",
		"state": "ALABAMA",
		"artcc": "ZTL",
		"type": "RNAV",
		"updated": "04/17/2010"
	},
	{
		"name": "ETONE",
		"latitude": "34-44-14.9 N",
		"longitude": "84-47-40.02 W",
		"state": "GEORGIA",
		"artcc": "ZTL",
		"type": "RP",
		"updated": "RMG*VORTAC*024.00"
	},
	{
		"name": "ETOWA",
		"latitude": "35-25-54.77 N",
		"longitude": "84-31-53.57 W",
		"state": "TENNESSEE",
		"artcc": "ZTL",
		"type": "RP",
		"updated": "HCH*VOR/DME*135.60/30.26"
	},
	{
		"name": "ETZIM",
		"latitude": "33-2-40.73 N",
		"longitude": "84-12-29.85 W",
		"state": "GEORGIA",
		"artcc": "ZTL",
		"type": "RNAV",
		"updated": "06/11/2012"
	},
	{
		"name": "ETZOP",
		"latitude": "33-30-24.99 N",
		"longitude": "83-21-41.54 W",
		"state": "GEORGIA",
		"artcc": "ZTL",
		"type": "RNAV",
		"updated": "08/02/2004"
	},
	{
		"name": "EUGNE",
		"latitude": "34-23-8.7 N",
		"longitude": "84-8-45.13 W",
		"state": "GEORGIA",
		"artcc": "ZTL",
		"type": "RNAV",
		"updated": "09/15/2015"
	},
	{
		"name": "EUTAW",
		"latitude": "32-49-3.81 N",
		"longitude": "87-50-20.52 W",
		"state": "ALABAMA",
		"artcc": "ZTL",
		"type": "RP",
		"updated": "OKW*VORTAC*229.79/39.00"
	},
	{
		"name": "EVING",
		"latitude": "36-5-21.65 N",
		"longitude": "79-53-56.38 W",
		"state": "NORTH CAROLINA",
		"artcc": "ZTL",
		"type": "RNAV",
		"updated": "01/16/2014"
	},
	{
		"name": "EVMEH",
		"latitude": "36-58-45.17 N",
		"longitude": "80-40-15.95 W",
		"state": "VIRGINIA",
		"artcc": "ZTL",
		"type": "RNAV",
		"updated": "03/19/2012"
	},
	{
		"name": "EVOBE",
		"latitude": "36-5-3.38 N",
		"longitude": "83-6-51.92 W",
		"state": "TENNESSEE",
		"artcc": "ZTL",
		"type": "RNAV",
		"updated": "01/14/2003"
	},
	{
		"name": "EVRRR",
		"latitude": "33-50-2.23 N",
		"longitude": "83-14-25.67 W",
		"state": "GEORGIA",
		"artcc": "ZTL",
		"type": "RNAV",
		"updated": "06/15/2017"
	},
	{
		"name": "EWADA",
		"latitude": "34-47-58.63 N",
		"longitude": "84-57-20.03 W",
		"state": "GEORGIA",
		"artcc": "ZTL",
		"type": "RP",
		"updated": "GQO*VORTAC*/13.75"
	},
	{
		"name": "EWBOW",
		"latitude": "37-1-29.32 N",
		"longitude": "85-11-39.08 W",
		"state": "KENTUCKY",
		"artcc": "ZTL",
		"type": "RNAV",
		"updated": "01/10/2001"
	},
	{
		"name": "EWUKO",
		"latitude": "35-34-50.98 N",
		"longitude": "79-59-49.64 W",
		"state": "NORTH CAROLINA",
		"artcc": "ZTL",
		"type": "RNAV",
		"updated": "04/15/2010"
	},
	{
		"name": "EXEGE",
		"latitude": "35-16-47.36 N",
		"longitude": "86-26-41.96 W",
		"state": "TENNESSEE",
		"artcc": "ZME",
		"type": "RNAV",
		"updated": "06/29/2011"
	},
	{
		"name": "EXJAN",
		"latitude": "33-41-9.06 N",
		"longitude": "82-55-16.84 W",
		"state": "GEORGIA",
		"artcc": "ZTL",
		"type": "RP",
		"updated": "IRQ*VORTAC*272.27/38.03"
	},
	{
		"name": "EYICI",
		"latitude": "31-58-52.75 N",
		"longitude": "83-43-14.41 W",
		"state": "GEORGIA",
		"artcc": "ZJX",
		"type": "RNAV",
		"updated": "03/22/2017"
	},
	{
		"name": "EYLIM",
		"latitude": "33-47-51.96 N",
		"longitude": "84-24-14.68 W",
		"state": "GEORGIA",
		"artcc": "ZTL",
		"type": "RNAV",
		"updated": "09/26/2012"
	},
	{
		"name": "EYPAD",
		"latitude": "34-31-12.15 N",
		"longitude": "81-30-19.42 W",
		"state": "SOUTH CAROLINA",
		"artcc": "ZTL",
		"type": "RP",
		"updated": "SPA*VORTAC*147.77"
	},
	{
		"name": "EYUBU",
		"latitude": "34-23-31.48 N",
		"longitude": "83-45-22.64 W",
		"state": "GEORGIA",
		"artcc": "ZTL",
		"type": "RNAV",
		"updated": "05/19/2011"
	},
	{
		"name": "EYUDE",
		"latitude": "32-20-32.41 N",
		"longitude": "84-59-53.88 W",
		"state": "GEORGIA",
		"artcc": "ZTL",
		"type": "MR",
		"updated": "LSF*VOR/DME*338.34/0.66"
	},
	{
		"name": "EYUKU",
		"latitude": "33-35-56.48 N",
		"longitude": "82-41-19.02 W",
		"state": "GEORGIA",
		"artcc": "ZTL",
		"type": "RNAV",
		"updated": "08/04/2008"
	},
	{
		"name": "EYUTI",
		"latitude": "33-36-23.25 N",
		"longitude": "87-28-42.63 W",
		"state": "ALABAMA",
		"artcc": "ZTL",
		"type": "MR",
		"updated": "VUZ*VORTAC*260.66/29.24"
	},
	{
		"name": "EZBUV",
		"latitude": "34-52-37.29 N",
		"longitude": "86-37-7.19 W",
		"state": "ALABAMA",
		"artcc": "ZME",
		"type": "RNAV",
		"updated": "01/26/2010"
	},
	{
		"name": "EZLED",
		"latitude": "33-42-17.37 N",
		"longitude": "82-44-40.25 W",
		"state": "GEORGIA",
		"artcc": "ZTL",
		"type": "RNAV",
		"updated": "05/20/2011"
	},
	{
		"name": "EZRUB",
		"latitude": "33-39-38.3 N",
		"longitude": "86-25-37.61 W",
		"state": "ALABAMA",
		"artcc": "ZTL",
		"type": "RNAV",
		"updated": "09/04/2009"
	}
]
