[
	{
		"name": "FABMA",
		"latitude": "33-45-30.4 N",
		"longitude": "84-39-46.37 W",
		"state": "GEORGIA",
		"artcc": "ZTL",
		"type": "RNAV",
		"updated": "09/26/2012"
	},
	{
		"name": "FABOX",
		"latitude": "33-5-48.86 N",
		"longitude": "86-44-34.31 W",
		"state": "ALABAMA",
		"artcc": "ZTL",
		"type": "RNAV",
		"updated": "07/14/2010"
	},
	{
		"name": "FADOS",
		"latitude": "35-28-21.62 N",
		"longitude": "81-20-48.7 W",
		"state": "NORTH CAROLINA",
		"artcc": "ZTL",
		"type": "RNAV",
		"updated": "04/09/2014"
	},
	{
		"name": "FAGUN",
		"latitude": "32-19-30.35 N",
		"longitude": "83-16-22.68 W",
		"state": "GEORGIA",
		"artcc": "ZTL",
		"type": "MR",
		"updated": "MCN*VORTAC*138.00/29.00"
	},
	{
		"name": "FALOL",
		"latitude": "34-57-33.74 N",
		"longitude": "86-33-19.95 W",
		"state": "ALABAMA",
		"artcc": "ZME",
		"type": "RP",
		"updated": "MDQ*LD*004.93/6.68"
	},
	{
		"name": "FALVA",
		"latitude": "34-28-18.64 N",
		"longitude": "86-4-46.51 W",
		"state": "ALABAMA",
		"artcc": "ZTL",
		"type": "RNAV",
		"updated": "10/03/2007"
	},
	{
		"name": "FAMAM",
		"latitude": "33-0-8.67 N",
		"longitude": "86-50-39.54 W",
		"state": "ALABAMA",
		"artcc": "ZTL",
		"type": "RNAV",
		"updated": "10/15/2007"
	},
	{
		"name": "FAMOV",
		"latitude": "36-14-3.76 N",
		"longitude": "80-7-5.62 W",
		"state": "NORTH CAROLINA",
		"artcc": "ZTL",
		"type": "RP",
		"updated": "GSO*VORTAC*331.67/13.24"
	},
	{
		"name": "FAMSU",
		"latitude": "32-7-12.21 N",
		"longitude": "83-35-41.68 W",
		"state": "GEORGIA",
		"artcc": "ZTL",
		"type": "RNAV",
		"updated": "03/22/2017"
	},
	{
		"name": "FANBU",
		"latitude": "33-18-0.1 N",
		"longitude": "84-29-6.4 W",
		"state": "GEORGIA",
		"artcc": "ZTL",
		"type": "RNAV",
		"updated": "11/08/2007"
	},
	{
		"name": "FAPGU",
		"latitude": "35-56-7.88 N",
		"longitude": "81-21-26.39 W",
		"state": "NORTH CAROLINA",
		"artcc": "ZTL",
		"type": "RNAV",
		"updated": "07/15/2011"
	},
	{
		"name": "FAPOG",
		"latitude": "35-29-43.85 N",
		"longitude": "79-58-17.47 W",
		"state": "NORTH CAROLINA",
		"artcc": "ZTL",
		"type": "RNAV",
		"updated": "05/18/2017"
	},
	{
		"name": "FAPOM",
		"latitude": "37-6-13.47 N",
		"longitude": "80-32-27.25 W",
		"state": "VIRGINIA",
		"artcc": "ZTL",
		"type": "RNAV",
		"updated": "04/15/2011"
	},
	{
		"name": "FAPRO",
		"latitude": "33-38-26.95 N",
		"longitude": "83-57-14.82 W",
		"state": "GEORGIA",
		"artcc": "ZTL",
		"type": "RNAV",
		"updated": "09/26/2012"
	},
	{
		"name": "FAPUD",
		"latitude": "33-45-33.19 N",
		"longitude": "84-39-28.11 W",
		"state": "GEORGIA",
		"artcc": "ZTL",
		"type": "RNAV",
		"updated": "09/26/2012"
	},
	{
		"name": "FARAD",
		"latitude": "35-23-12.75 N",
		"longitude": "85-25-34.68 W",
		"state": "TENNESSEE",
		"artcc": "ZME",
		"type": "RP",
		"updated": "HCH*VOR/DME*225.00"
	},
	{
		"name": "FARLI",
		"latitude": "36-28-8.23 N",
		"longitude": "83-3-29.21 W",
		"state": "TENNESSEE",
		"artcc": "ZTL",
		"type": "RP",
		"updated": "SOT*VORTAC*003.61"
	},
	{
		"name": "FARUL",
		"latitude": "34-46-9.17 N",
		"longitude": "82-21-1.43 W",
		"state": "SOUTH CAROLINA",
		"artcc": "ZTL",
		"type": "RNAV",
		"updated": "05/27/2009"
	},
	{
		"name": "FARUP",
		"latitude": "34-18-48.79 N",
		"longitude": "83-31-59.08 W",
		"state": "GEORGIA",
		"artcc": "ZTL",
		"type": "RNAV",
		"updated": "07/20/2007"
	},
	{
		"name": "FASAM",
		"latitude": "32-28-36.31 N",
		"longitude": "86-26-5.73 W",
		"state": "ALABAMA",
		"artcc": "ZTL",
		"type": "MW",
		"updated": "09/18/2007"
	},
	{
		"name": "FASOV",
		"latitude": "34-28-18.54 N",
		"longitude": "86-38-18.24 W",
		"state": "ALABAMA",
		"artcc": "ZME",
		"type": "MW",
		"updated": "03/27/2008"
	},
	{
		"name": "FATBI",
		"latitude": "34-41-10.26 N",
		"longitude": "82-50-40.27 W",
		"state": "SOUTH CAROLINA",
		"artcc": "ZTL",
		"type": "RNAV",
		"updated": "09/22/2011"
	},
	{
		"name": "FATED",
		"latitude": "34-51-21.2 N",
		"longitude": "80-49-54.78 W",
		"state": "SOUTH CAROLINA",
		"artcc": "ZTL",
		"type": "RP",
		"updated": "CLT*VOR/DME*168.54"
	},
	{
		"name": "FATTS",
		"latitude": "35-52-25.21 N",
		"longitude": "83-39-5.62 W",
		"state": "TENNESSEE",
		"artcc": "ZTL",
		"type": "RP",
		"updated": "VXV*VORTAC*101.88/12.00"
	},
	{
		"name": "FATUN",
		"latitude": "31-29-53.74 N",
		"longitude": "87-18-56.65 W",
		"state": "ALABAMA",
		"artcc": "ZTL",
		"type": "RP",
		"updated": "MVC*VORTAC*035.00/3.00"
	},
	{
		"name": "FAVBA",
		"latitude": "33-31-25.78 N",
		"longitude": "84-51-19.28 W",
		"state": "GEORGIA",
		"artcc": "ZTL",
		"type": "RNAV",
		"updated": "09/15/2009"
	},
	{
		"name": "FAVKA",
		"latitude": "36-28-48.2 N",
		"longitude": "82-16-35.81 W",
		"state": "TENNESSEE",
		"artcc": "ZTL",
		"type": "RNAV",
		"updated": "07/17/2017"
	},
	{
		"name": "FAXIL",
		"latitude": "34-48-14.66 N",
		"longitude": "85-46-15.7 W",
		"state": "ALABAMA",
		"artcc": "ZTL",
		"type": "RNAV",
		"updated": "10/03/2007"
	},
	{
		"name": "FAXIV",
		"latitude": "35-4-52.53 N",
		"longitude": "83-17-26.12 W",
		"state": "NORTH CAROLINA",
		"artcc": "ZTL",
		"type": "RNAV",
		"updated": "12/01/2009"
	},
	{
		"name": "FAYEZ",
		"latitude": "33-0-38.93 N",
		"longitude": "86-12-34.8 W",
		"state": "ALABAMA",
		"artcc": "ZTL",
		"type": "RP",
		"updated": "TDG*VOR/DME*192.00"
	},
	{
		"name": "FAZEL",
		"latitude": "32-57-28.9 N",
		"longitude": "85-3-51.68 W",
		"state": "GEORGIA",
		"artcc": "ZTL",
		"type": "RP",
		"updated": "CSG*VORTAC*352.44"
	},
	{
		"name": "FDADY",
		"latitude": "33-43-50.7 N",
		"longitude": "84-41-0.06 W",
		"state": "GEORGIA",
		"artcc": "ZTL",
		"type": "RNAV",
		"updated": "08/09/2011"
	},
	{
		"name": "FEBDI",
		"latitude": "34-40-56.65 N",
		"longitude": "81-15-31.65 W",
		"state": "SOUTH CAROLINA",
		"artcc": "ZTL",
		"type": "RNAV",
		"updated": "02/29/2008"
	},
	{
		"name": "FEBOG",
		"latitude": "33-11-15.99 N",
		"longitude": "87-31-2.6 W",
		"state": "ALABAMA",
		"artcc": "ZTL",
		"type": "RNAV",
		"updated": "02/12/2008"
	},
	{
		"name": "FEBTO",
		"latitude": "31-58-30.35 N",
		"longitude": "83-39-55.84 W",
		"state": "GEORGIA",
		"artcc": "ZJX",
		"type": "RNAV",
		"updated": "03/22/2017"
	},
	{
		"name": "FEDLO",
		"latitude": "32-10-40.21 N",
		"longitude": "84-6-23.49 W",
		"state": "GEORGIA",
		"artcc": "ZTL",
		"type": "RNAV",
		"updated": "11/04/2011"
	},
	{
		"name": "FEDOD",
		"latitude": "35-56-44.72 N",
		"longitude": "84-39-58.58 W",
		"state": "TENNESSEE",
		"artcc": "ZTL",
		"type": "RNAV",
		"updated": "10/25/2011"
	},
	{
		"name": "FEFEE",
		"latitude": "34-15-39.9 N",
		"longitude": "85-8-28.62 W",
		"state": "GEORGIA",
		"artcc": "ZTL",
		"type": "RP",
		"updated": "RMG*VORTAC*348.56/6.00"
	},
	{
		"name": "FEGNO",
		"latitude": "35-14-48.92 N",
		"longitude": "80-16-38.53 W",
		"state": "NORTH CAROLINA",
		"artcc": "ZTL",
		"type": "RNAV",
		"updated": "04/09/2014"
	},
	{
		"name": "FEGTA",
		"latitude": "34-21-59.15 N",
		"longitude": "83-36-0.23 W",
		"state": "GEORGIA",
		"artcc": "ZTL",
		"type": "RNAV",
		"updated": "07/24/2007"
	},
	{
		"name": "FEGTO",
		"latitude": "36-26-20.95 N",
		"longitude": "83-57-22.62 W",
		"state": "TENNESSEE",
		"artcc": "ZTL",
		"type": "RNAV",
		"updated": "09/03/2014"
	},
	{
		"name": "FEHDY",
		"latitude": "34-5-4.03 N",
		"longitude": "82-43-55.38 W",
		"state": "GEORGIA",
		"artcc": "ZTL",
		"type": "RNAV",
		"updated": "10/31/2013"
	},
	{
		"name": "FEKER",
		"latitude": "34-43-35.04 N",
		"longitude": "86-46-50.24 W",
		"state": "ALABAMA",
		"artcc": "ZME",
		"type": "RP",
		"updated": "DCU*VOR/DME*060.21"
	},
	{
		"name": "FEKRU",
		"latitude": "34-18-39.9 N",
		"longitude": "84-56-8.46 W",
		"state": "GEORGIA",
		"artcc": "ZTL",
		"type": "RNAV",
		"updated": "11/09/2005"
	},
	{
		"name": "FEKSO",
		"latitude": "34-40-53.32 N",
		"longitude": "86-45-53.63 W",
		"state": "ALABAMA",
		"artcc": "ZME",
		"type": "RP",
		"updated": "DCU*VOR/DME*078.01"
	},
	{
		"name": "FELOR",
		"latitude": "34-5-57.28 N",
		"longitude": "84-3-36.44 W",
		"state": "GEORGIA",
		"artcc": "ZTL",
		"type": "RNAV",
		"updated": "01/03/2013"
	},
	{
		"name": "FELTO",
		"latitude": "33-57-48.76 N",
		"longitude": "85-20-56.93 W",
		"state": "GEORGIA",
		"artcc": "ZTL",
		"type": "RP",
		"updated": "GAD*VOR/DME*089.00/36.66"
	},
	{
		"name": "FEMEN",
		"latitude": "31-25-29.7 N",
		"longitude": "87-5-51.16 W",
		"state": "ALABAMA",
		"artcc": "ZTL",
		"type": "RNAV",
		"updated": "02/25/2013"
	},
	{
		"name": "FEMTE",
		"latitude": "34-22-15.78 N",
		"longitude": "81-35-4.8 W",
		"state": "SOUTH CAROLINA",
		"artcc": "ZTL",
		"type": "RNAV",
		"updated": "05/27/2009"
	},
	{
		"name": "FENIX",
		"latitude": "32-27-5.41 N",
		"longitude": "85-2-29.56 W",
		"state": "ALABAMA",
		"artcc": "ZTL",
		"type": "RNAV",
		"updated": "02/25/2013"
	},
	{
		"name": "FENJE",
		"latitude": "33-27-44.43 N",
		"longitude": "84-44-58.09 W",
		"state": "GEORGIA",
		"artcc": "ZTL",
		"type": "RNAV",
		"updated": "02/16/2006"
	},
	{
		"name": "FENTS",
		"latitude": "34-9-13.94 N",
		"longitude": "84-35-32.92 W",
		"state": "GEORGIA",
		"artcc": "ZTL",
		"type": "RP",
		"updated": "PDK*VOR/DME*323.77/22.19"
	},
	{
		"name": "FEPEN",
		"latitude": "31-55-50.94 N",
		"longitude": "85-47-42.38 W",
		"state": "ALABAMA",
		"artcc": "ZTL",
		"type": "RNAV",
		"updated": "07/29/2016"
	},
	{
		"name": "FEPSI",
		"latitude": "32-34-36.14 N",
		"longitude": "83-46-5 W",
		"state": "GEORGIA",
		"artcc": "ZTL",
		"type": "RNAV",
		"updated": "07/23/2007"
	},
	{
		"name": "FERGO",
		"latitude": "35-15-3.5 N",
		"longitude": "84-57-52.65 W",
		"state": "TENNESSEE",
		"artcc": "ZTL",
		"type": "RNAV",
		"updated": "02/04/2002"
	},
	{
		"name": "FERSA",
		"latitude": "35-29-52.11 N",
		"longitude": "80-58-35.48 W",
		"state": "NORTH CAROLINA",
		"artcc": "ZTL",
		"type": "RP",
		"updated": "CLT*VOR/DME*/18.05"
	},
	{
		"name": "FETBY",
		"latitude": "34-42-25.68 N",
		"longitude": "81-10-38.46 W",
		"state": "SOUTH CAROLINA",
		"artcc": "ZTL",
		"type": "RNAV",
		"updated": "08/20/2010"
	},
	{
		"name": "FETOP",
		"latitude": "33-8-44.58 N",
		"longitude": "82-57-42.38 W",
		"state": "GEORGIA",
		"artcc": "ZTL",
		"type": "RNAV",
		"updated": "12/26/2017"
	},
	{
		"name": "FEVKO",
		"latitude": "32-5-10.75 N",
		"longitude": "82-36-36.68 W",
		"state": "GEORGIA",
		"artcc": "ZJX",
		"type": "RNAV",
		"updated": "07/07/2015"
	},
	{
		"name": "FEWER",
		"latitude": "34-18-39.44 N",
		"longitude": "86-43-17.39 W",
		"state": "ALABAMA",
		"artcc": "ZME",
		"type": "RP",
		"updated": "GAD*VOR/DME*300.42"
	},
	{
		"name": "FEXUK",
		"latitude": "33-57-0.67 N",
		"longitude": "83-17-9.57 W",
		"state": "GEORGIA",
		"artcc": "ZTL",
		"type": "RP",
		"updated": "AHN*VOR/DME*/1.94"
	},
	{
		"name": "FIBAV",
		"latitude": "32-35-58.55 N",
		"longitude": "86-27-39.37 W",
		"state": "ALABAMA",
		"artcc": "ZTL",
		"type": "MR",
		"updated": "MXF*TACAN*342.41/14.00"
	},
	{
		"name": "FIBER",
		"latitude": "33-37-42.49 N",
		"longitude": "87-16-54 W",
		"state": "ALABAMA",
		"artcc": "ZTL",
		"type": "RP",
		"updated": "VUZ*VORTAC*260.66/19.29"
	},
	{
		"name": "FIDAV",
		"latitude": "33-47-35.42 N",
		"longitude": "85-43-54.15 W",
		"state": "ALABAMA",
		"artcc": "ZTL",
		"type": "RNAV",
		"updated": "04/22/2010"
	},
	{
		"name": "FIDGO",
		"latitude": "34-47-45.74 N",
		"longitude": "85-17-23.68 W",
		"state": "GEORGIA",
		"artcc": "ZTL",
		"type": "RP",
		"updated": "GQO*VORTAC*213.29/11.97"
	},
	{
		"name": "FIDLO",
		"latitude": "32-59-10.36 N",
		"longitude": "84-20-4.21 W",
		"state": "GEORGIA",
		"artcc": "ZTL",
		"type": "RNAV",
		"updated": "09/14/2009"
	},
	{
		"name": "FIDUK",
		"latitude": "32-9-49.34 N",
		"longitude": "84-50-50.61 W",
		"state": "GEORGIA",
		"artcc": "ZTL",
		"type": "RNAV",
		"updated": "06/27/2005"
	},
	{
		"name": "FIFEE",
		"latitude": "36-14-39.58 N",
		"longitude": "80-37-31.03 W",
		"state": "NORTH CAROLINA",
		"artcc": "ZTL",
		"type": "RNAV",
		"updated": "04/17/2010"
	},
	{
		"name": "FIGEY",
		"latitude": "33-52-26.94 N",
		"longitude": "82-52-22.76 W",
		"state": "GEORGIA",
		"artcc": "ZTL",
		"type": "RNAV",
		"updated": "01/16/2014"
	},
	{
		"name": "FIKBI",
		"latitude": "35-32-27.51 N",
		"longitude": "80-2-3.23 W",
		"state": "NORTH CAROLINA",
		"artcc": "ZTL",
		"type": "RNAV",
		"updated": "04/17/2010"
	},
	{
		"name": "FIKOX",
		"latitude": "34-2-50.27 N",
		"longitude": "85-55-33.9 W",
		"state": "ALABAMA",
		"artcc": "ZTL",
		"type": "RP",
		"updated": "GAD*LD*063.76/10.20"
	},
	{
		"name": "FILDS",
		"latitude": "36-35-11.96 N",
		"longitude": "80-44-41.06 W",
		"state": "VIRGINIA",
		"artcc": "ZTL",
		"type": "RNAV",
		"updated": "05/24/2016"
	},
	{
		"name": "FILPZ",
		"latitude": "35-34-31.56 N",
		"longitude": "82-3-40.14 W",
		"state": "NORTH CAROLINA",
		"artcc": "ZTL",
		"type": "RNAV",
		"updated": "06/24/2015"
	},
	{
		"name": "FIMOV",
		"latitude": "35-12-6.48 N",
		"longitude": "82-19-33.95 W",
		"state": "NORTH CAROLINA",
		"artcc": "ZTL",
		"type": "RNAV",
		"updated": "09/27/2017"
	},
	{
		"name": "FINAN",
		"latitude": "32-16-51.07 N",
		"longitude": "82-47-18.66 W",
		"state": "GEORGIA",
		"artcc": "ZJX",
		"type": "RNAV",
		"updated": "09/28/2007"
	},
	{
		"name": "FINEV",
		"latitude": "34-37-25.1 N",
		"longitude": "84-57-49.12 W",
		"state": "GEORGIA",
		"artcc": "ZTL",
		"type": "RNAV",
		"updated": "04/17/2017"
	},
	{
		"name": "FINGE",
		"latitude": "35-13-21.42 N",
		"longitude": "80-55-52.14 W",
		"state": "NORTH CAROLINA",
		"artcc": "ZTL",
		"type": "RNAV",
		"updated": "CLT*VOR/DME*032.59/2.19"
	},
	{
		"name": "FINIR",
		"latitude": "35-53-42.29 N",
		"longitude": "80-2-46.72 W",
		"state": "NORTH CAROLINA",
		"artcc": "ZTL",
		"type": "RNAV",
		"updated": "12/07/2008"
	},
	{
		"name": "FINOM",
		"latitude": "33-51-27.79 N",
		"longitude": "84-17-52.58 W",
		"state": "GEORGIA",
		"artcc": "ZTL",
		"type": "MR",
		"updated": "DOB*TACAN*111.00/11.00"
	},
	{
		"name": "FINOP",
		"latitude": "34-54-21.01 N",
		"longitude": "85-55-53.64 W",
		"state": "ALABAMA",
		"artcc": "ZME",
		"type": "RNAV",
		"updated": "10/10/2007"
	},
	{
		"name": "FIPAJ",
		"latitude": "34-39-48.07 N",
		"longitude": "82-48-25.25 W",
		"state": "SOUTH CAROLINA",
		"artcc": "ZTL",
		"type": "CN",
		"updated": "11/28/2000"
	},
	{
		"name": "FIPMI",
		"latitude": "33-18-11.07 N",
		"longitude": "87-27-9.25 W",
		"state": "ALABAMA",
		"artcc": "ZTL",
		"type": "MR",
		"updated": "LDK*VORTAC*055.00/5.00"
	},
	{
		"name": "FIRLO",
		"latitude": "34-25-44.41 N",
		"longitude": "86-11-44.4 W",
		"state": "ALABAMA",
		"artcc": "ZME",
		"type": "RNAV",
		"updated": "03/06/2017"
	},
	{
		"name": "FISHN",
		"latitude": "35-31-41.8 N",
		"longitude": "81-12-7.07 W",
		"state": "NORTH CAROLINA",
		"artcc": "ZTL",
		"type": "RNAV",
		"updated": "06/24/2015"
	},
	{
		"name": "FISIK",
		"latitude": "34-7-40.28 N",
		"longitude": "81-51-34.07 W",
		"state": "SOUTH CAROLINA",
		"artcc": "ZTL",
		"type": "RNAV",
		"updated": "01/07/2010"
	},
	{
		"name": "FISRO",
		"latitude": "34-21-39.32 N",
		"longitude": "86-49-30.2 W",
		"state": "ALABAMA",
		"artcc": "ZME",
		"type": "RNAV",
		"updated": "02/24/2014"
	},
	{
		"name": "FITTZ",
		"latitude": "32-9-5.13 N",
		"longitude": "86-0-15.54 W",
		"state": "ALABAMA",
		"artcc": "ZTL",
		"type": "RP",
		"updated": "MGM*VORTAC*101.73/16.61"
	},
	{
		"name": "FIVPI",
		"latitude": "34-44-5.43 N",
		"longitude": "81-34-43.02 W",
		"state": "SOUTH CAROLINA",
		"artcc": "ZTL",
		"type": "RNAV",
		"updated": "07/05/2013"
	},
	{
		"name": "FIVRO",
		"latitude": "36-45-14.38 N",
		"longitude": "80-22-41.52 W",
		"state": "VIRGINIA",
		"artcc": "ZTL",
		"type": "RNAV",
		"updated": "10/12/2011"
	},
	{
		"name": "FLAIR",
		"latitude": "35-16-27.21 N",
		"longitude": "81-0-3.34 W",
		"state": "NORTH CAROLINA",
		"artcc": "ZTL",
		"type": "RNAV",
		"updated": "05/12/2016"
	},
	{
		"name": "FLANC",
		"latitude": "33-45-43.57 N",
		"longitude": "84-38-20.26 W",
		"state": "GEORGIA",
		"artcc": "ZTL",
		"type": "RP",
		"updated": "ATL*VORTAC*313.03"
	},
	{
		"name": "FLAWR",
		"latitude": "34-11-51.3 N",
		"longitude": "83-54-38.26 W",
		"state": "GEORGIA",
		"artcc": "ZTL",
		"type": "RP",
		"updated": "GVL*LD*224.01/6.50"
	},
	{
		"name": "FLFFY",
		"latitude": "33-28-31.4 N",
		"longitude": "83-56-28.64 W",
		"state": "GEORGIA",
		"artcc": "ZTL",
		"type": "RNAV",
		"updated": "07/11/2013"
	},
	{
		"name": "FLKNN",
		"latitude": "33-14-17.68 N",
		"longitude": "83-26-25.72 W",
		"state": "GEORGIA",
		"artcc": "ZTL",
		"type": "RNAV",
		"updated": "08/21/2017"
	},
	{
		"name": "FLOSY",
		"latitude": "33-5-1.27 N",
		"longitude": "87-44-59.07 W",
		"state": "ALABAMA",
		"artcc": "ZTL",
		"type": "RP",
		"updated": "LDK*VORTAC*/15.00"
	},
	{
		"name": "FLYYN",
		"latitude": "36-6-17.3 N",
		"longitude": "81-3-1.23 W",
		"state": "NORTH CAROLINA",
		"artcc": "ZTL",
		"type": "RP",
		"updated": "CLT*VOR/DME*360.00/54.99"
	},
	{
		"name": "FNISH",
		"latitude": "33-27-4 N",
		"longitude": "85-33-52.41 W",
		"state": "ALABAMA",
		"artcc": "ZTL",
		"type": "RNAV",
		"updated": "01/26/2018"
	},
	{
		"name": "FNLEY",
		"latitude": "32-42-3.74 N",
		"longitude": "86-5-28.79 W",
		"state": "ALABAMA",
		"artcc": "ZTL",
		"type": "RNAV",
		"updated": "08/18/2017"
	},
	{
		"name": "FOBAR",
		"latitude": "34-52-45.93 N",
		"longitude": "81-10-50.64 W",
		"state": "SOUTH CAROLINA",
		"artcc": "ZTL",
		"type": "RNAV",
		"updated": "05/12/2016"
	},
	{
		"name": "FOBES",
		"latitude": "32-47-42.18 N",
		"longitude": "83-50-59.99 W",
		"state": "GEORGIA",
		"artcc": "ZTL",
		"type": "RP",
		"updated": "MCN*VORTAC*300.27/12.00"
	},
	{
		"name": "FOCEY",
		"latitude": "34-22-54.45 N",
		"longitude": "85-56-53.66 W",
		"state": "ALABAMA",
		"artcc": "ZTL",
		"type": "RP",
		"updated": "GQO*VORTAC*227.80/52.46"
	},
	{
		"name": "FODMO",
		"latitude": "32-59-21.05 N",
		"longitude": "82-31-56.47 W",
		"state": "GEORGIA",
		"artcc": "ZTL",
		"type": "RNAV",
		"updated": "03/10/2011"
	},
	{
		"name": "FODUN",
		"latitude": "32-27-32.78 N",
		"longitude": "85-11-45.1 W",
		"state": "ALABAMA",
		"artcc": "ZTL",
		"type": "RNAV",
		"updated": "10/27/2004"
	},
	{
		"name": "FOFXU",
		"latitude": "34-45-14.58 N",
		"longitude": "80-47-9.73 W",
		"state": "SOUTH CAROLINA",
		"artcc": "ZTL",
		"type": "CN",
		"updated": "11/28/2000"
	},
	{
		"name": "FOGER",
		"latitude": "33-32-12.81 N",
		"longitude": "84-18-26.38 W",
		"state": "GEORGIA",
		"artcc": "ZTL",
		"type": "RNAV",
		"updated": "08/21/2017"
	},
	{
		"name": "FOGES",
		"latitude": "33-0-19.24 N",
		"longitude": "84-22-39.86 W",
		"state": "GEORGIA",
		"artcc": "ZTL",
		"type": "RNAV",
		"updated": "09/14/2009"
	},
	{
		"name": "FOGMU",
		"latitude": "36-26-6 N",
		"longitude": "81-14-58.35 W",
		"state": "NORTH CAROLINA",
		"artcc": "ZTL",
		"type": "RP",
		"updated": "JUH*LE*095.88/8.62"
	},
	{
		"name": "FOGOB",
		"latitude": "33-24-29.53 N",
		"longitude": "82-17-2.14 W",
		"state": "GEORGIA",
		"artcc": "ZTL",
		"type": "RNAV",
		"updated": "01/06/2017"
	},
	{
		"name": "FOGVI",
		"latitude": "34-59-45.88 N",
		"longitude": "85-10-2.05 W",
		"state": "TENNESSEE",
		"artcc": "ZTL",
		"type": "RNAV",
		"updated": "08/11/2005"
	},
	{
		"name": "FOLSO",
		"latitude": "34-11-24.92 N",
		"longitude": "86-55-14.83 W",
		"state": "ALABAMA",
		"artcc": "ZME",
		"type": "RP",
		"updated": "VUZ*VORTAC*356.08/31.17"
	},
	{
		"name": "FOMAR",
		"latitude": "33-27-41.96 N",
		"longitude": "84-32-48.15 W",
		"state": "GEORGIA",
		"artcc": "ZTL",
		"type": "RNAV",
		"updated": "02/16/2006"
	},
	{
		"name": "FOMOS",
		"latitude": "35-37-26.64 N",
		"longitude": "84-45-52.93 W",
		"state": "TENNESSEE",
		"artcc": "ZTL",
		"type": "RNAV",
		"updated": "10/25/2011"
	},
	{
		"name": "FONAK",
		"latitude": "34-7-55.09 N",
		"longitude": "84-54-32.22 W",
		"state": "GEORGIA",
		"artcc": "ZTL",
		"type": "RP",
		"updated": "RMG*VORTAC*098.86/10.64"
	},
	{
		"name": "FONGU",
		"latitude": "31-25-40.51 N",
		"longitude": "87-22-5.11 W",
		"state": "ALABAMA",
		"artcc": "ZTL",
		"type": "RP",
		"updated": "MVC*VORTAC*199.00/2.04"
	},
	{
		"name": "FONIT",
		"latitude": "36-1-29.32 N",
		"longitude": "80-1-44.55 W",
		"state": "NORTH CAROLINA",
		"artcc": "ZTL",
		"type": "RNAV",
		"updated": "12/07/2008"
	},
	{
		"name": "FONKU",
		"latitude": "33-10-21.05 N",
		"longitude": "86-23-39.54 W",
		"state": "ALABAMA",
		"artcc": "ZTL",
		"type": "RNAV",
		"updated": "08/01/2016"
	},
	{
		"name": "FONOP",
		"latitude": "32-39-40.42 N",
		"longitude": "83-36-36.01 W",
		"state": "GEORGIA",
		"artcc": "ZTL",
		"type": "MR",
		"updated": "MCN*VORTAC*/2.60"
	},
	{
		"name": "FONUK",
		"latitude": "32-55-7.4 N",
		"longitude": "85-6-29.1 W",
		"state": "GEORGIA",
		"artcc": "ZTL",
		"type": "RNAV",
		"updated": "08/11/2010"
	},
	{
		"name": "FOORT",
		"latitude": "34-51-7.88 N",
		"longitude": "82-35-2.85 W",
		"state": "SOUTH CAROLINA",
		"artcc": "ZTL",
		"type": "RNAV",
		"updated": "04/17/2015"
	},
	{
		"name": "FORCC",
		"latitude": "32-56-49.34 N",
		"longitude": "83-34-1.09 W",
		"state": "GEORGIA",
		"artcc": "ZTL",
		"type": "RNAV",
		"updated": "08/21/2017"
	},
	{
		"name": "FORMS",
		"latitude": "35-26-20.34 N",
		"longitude": "83-54-17.83 W",
		"state": "NORTH CAROLINA",
		"artcc": "ZTL",
		"type": "RP",
		"updated": "HCH*VOR/DME*113.00"
	},
	{
		"name": "FOSEK",
		"latitude": "36-37-52.1 N",
		"longitude": "82-8-10.62 W",
		"state": "VIRGINIA",
		"artcc": "ZTL",
		"type": "RNAV",
		"updated": "06/19/2012"
	},
	{
		"name": "FOSNO",
		"latitude": "36-14-38.32 N",
		"longitude": "82-30-14.8 W",
		"state": "TENNESSEE",
		"artcc": "ZTL",
		"type": "RNAV",
		"updated": "10/31/2017"
	},
	{
		"name": "FOSSE",
		"latitude": "35-27-8.22 N",
		"longitude": "81-20-53.16 W",
		"state": "NORTH CAROLINA",
		"artcc": "ZTL",
		"type": "RP",
		"updated": "BZM*VOR/DME*197.93"
	},
	{
		"name": "FOSUV",
		"latitude": "35-19-36.79 N",
		"longitude": "85-13-33.55 W",
		"state": "TENNESSEE",
		"artcc": "ZTL",
		"type": "RNAV",
		"updated": "06/15/2011"
	},
	{
		"name": "FOTFE",
		"latitude": "34-18-20.92 N",
		"longitude": "84-16-47.04 W",
		"state": "GEORGIA",
		"artcc": "ZTL",
		"type": "RNAV",
		"updated": "08/20/2007"
	},
	{
		"name": "FOUND",
		"latitude": "34-48-37.54 N",
		"longitude": "82-4-10.97 W",
		"state": "SOUTH CAROLINA",
		"artcc": "ZTL",
		"type": "WP",
		"updated": "SPA*VORTAC*209.80/15.10"
	},
	{
		"name": "FOURR",
		"latitude": "33-15-31.95 N",
		"longitude": "82-34-18.58 W",
		"state": "GEORGIA",
		"artcc": "ZTL",
		"type": "RNAV",
		"updated": "12/20/2007"
	},
	{
		"name": "FOVEK",
		"latitude": "35-21-59.26 N",
		"longitude": "86-33-33.67 W",
		"state": "TENNESSEE",
		"artcc": "ZME",
		"type": "RNAV",
		"updated": "06/29/2011"
	},
	{
		"name": "FOYGU",
		"latitude": "34-10-9.43 N",
		"longitude": "86-20-11.65 W",
		"state": "ALABAMA",
		"artcc": "ZTL",
		"type": "RNAV",
		"updated": "02/27/2015"
	},
	{
		"name": "FRAUD",
		"latitude": "32-16-48.69 N",
		"longitude": "83-54-19.72 W",
		"state": "GEORGIA",
		"artcc": "ZTL",
		"type": "RP",
		"updated": "VNA*VORTAC*280.00"
	},
	{
		"name": "FRDDO",
		"latitude": "32-19-18.33 N",
		"longitude": "86-26-49.94 W",
		"state": "ALABAMA",
		"artcc": "ZTL",
		"type": "RNAV",
		"updated": "08/18/2017"
	},
	{
		"name": "FREEK",
		"latitude": "35-3-34.97 N",
		"longitude": "81-7-16.36 W",
		"state": "SOUTH CAROLINA",
		"artcc": "ZTL",
		"type": "RNAV",
		"updated": "05/12/2016"
	},
	{
		"name": "FREEZ",
		"latitude": "35-12-35.52 N",
		"longitude": "82-33-23.14 W",
		"state": "NORTH CAROLINA",
		"artcc": "ZTL",
		"type": "RP",
		"updated": "SPA*VORTAC*291.00"
	},
	{
		"name": "FREON",
		"latitude": "36-32-41.03 N",
		"longitude": "80-16-41.59 W",
		"state": "NORTH CAROLINA",
		"artcc": "ZTL",
		"type": "RP",
		"updated": "ZEF*NDB*064.92"
	},
	{
		"name": "FREST",
		"latitude": "34-46-33.78 N",
		"longitude": "82-6-23.99 W",
		"state": "SOUTH CAROLINA",
		"artcc": "ZTL",
		"type": "RP",
		"updated": "SPA*VORTAC*211.93/17.80"
	},
	{
		"name": "FRYES",
		"latitude": "33-32-12.96 N",
		"longitude": "84-16-34.9 W",
		"state": "GEORGIA",
		"artcc": "ZTL",
		"type": "RNAV",
		"updated": "02/25/2013"
	},
	{
		"name": "FUEEL",
		"latitude": "33-43-51.8 N",
		"longitude": "84-13-23.05 W",
		"state": "GEORGIA",
		"artcc": "ZTL",
		"type": "RNAV",
		"updated": "08/09/2011"
	},
	{
		"name": "FULTY",
		"latitude": "31-53-41.24 N",
		"longitude": "86-15-32.06 W",
		"state": "ALABAMA",
		"artcc": "ZTL",
		"type": "RP",
		"updated": "MGM*VORTAC*168.00/19.00"
	},
	{
		"name": "FUSTY",
		"latitude": "33-52-28.56 N",
		"longitude": "83-6-3.43 W",
		"state": "GEORGIA",
		"artcc": "ZTL",
		"type": "RP",
		"updated": "AHN*VOR/DME*111.30/12.00"
	},
	{
		"name": "FUTBL",
		"latitude": "33-35-17.36 N",
		"longitude": "84-35-4.7 W",
		"state": "GEORGIA",
		"artcc": "ZTL",
		"type": "RNAV",
		"updated": "10/31/2005"
	}
]
