	{
		"name": "GAAIN",
		"latitude": "33-37-11.6 N",
		"longitude": "84-42-29.75 W",
		"state": "GEORGIA",
		"artcc": "ZTL",
		"type": "RNAV",
		"updated": "08/21/2017",
	},
	{
		"name": "GAASS",
		"latitude": "33-43-58.72 N",
		"longitude": "84-16-47.05 W",
		"state": "GEORGIA",
		"artcc": "ZTL",
		"type": "RNAV",
		"updated": "02/25/2013",
	},
	{
		"name": "GABED",
		"latitude": "36-57-10.74 N",
		"longitude": "80-55-56.9 W",
		"state": "VIRGINIA",
		"artcc": "ZTL",
		"type": "RNAV",
		"updated": "12/18/2006",
	},
	{
		"name": "GABNE",
		"latitude": "35-34-23.35 N",
		"longitude": "79-56-2.59 W",
		"state": "NORTH CAROLINA",
		"artcc": "ZTL",
		"type": "RNAV",
		"updated": "05/18/2017",
	},
	{
		"name": "GACBU",
		"latitude": "33-26-55.53 N",
		"longitude": "86-9-12.47 W",
		"state": "ALABAMA",
		"artcc": "ZTL",
		"type": "RP",
		"updated": "ASN*LD*218.38/9.50",
	},
	{
		"name": "GAFFE",
		"latitude": "35-5-38.9 N",
		"longitude": "81-33-23.92 W",
		"state": "SOUTH CAROLINA",
		"artcc": "ZTL",
		"type": "RP",
		"updated": "CLT*VOR/DME*264.22/30.32",
	},
	{
		"name": "GAGEC",
		"latitude": "35-49-10.12 N",
		"longitude": "81-6-37.69 W",
		"state": "NORTH CAROLINA",
		"artcc": "ZTL",
		"type": "RP",
		"updated": "BZM*VOR/DME*120.96/7.00",
	},
	{
		"name": "GAGEY",
		"latitude": "34-42-1.96 N",
		"longitude": "83-14-51.52 W",
		"state": "SOUTH CAROLINA",
		"artcc": "ZTL",
		"type": "RNAV",
		"updated": "01/09/2013",
	},
	{
		"name": "GAHRU",
		"latitude": "33-53-31.87 N",
		"longitude": "83-54-33.17 W",
		"state": "GEORGIA",
		"artcc": "ZTL",
		"type": "RNAV",
		"updated": "04/30/2007",
	},
	{
		"name": "GAIRY",
		"latitude": "33-30-35.72 N",
		"longitude": "83-38-18.2 W",
		"state": "GEORGIA",
		"artcc": "ZTL",
		"type": "RNAV",
		"updated": "05/17/2016",
	},
	{
		"name": "GALLA",
		"latitude": "35-30-13.44 N",
		"longitude": "80-14-38.4 W",
		"state": "NORTH CAROLINA",
		"artcc": "ZTL",
		"type": "RP",
		"updated": "GSO*VORTAC*205.00/35.00",
	},
	{
		"name": "GAMSE",
		"latitude": "32-11-13.88 N",
		"longitude": "83-40-0.22 W",
		"state": "GEORGIA",
		"artcc": "ZTL",
		"type": "RP",
		"updated": "VNA*VORTAC*258.72/8.77",
	},
	{
		"name": "GANTS",
		"latitude": "35-27-11.44 N",
		"longitude": "80-6-16.04 W",
		"state": "NORTH CAROLINA",
		"artcc": "ZTL",
		"type": "RP",
		"updated": "LIB*VORTAC*231.39/32.25",
	},
	{
		"name": "GAPTE",
		"latitude": "33-22-41.77 N",
		"longitude": "81-53-57.62 W",
		"state": "SOUTH CAROLINA",
		"artcc": "ZTL",
		"type": "RNAV",
		"updated": "06/12/2012",
	},
	{
		"name": "GARDI",
		"latitude": "32-46-42.45 N",
		"longitude": "84-58-55.33 W",
		"state": "GEORGIA",
		"artcc": "ZTL",
		"type": "RP",
		"updated": "CSG*VORTAC*009.44/9.94",
	},
	{
		"name": "GARFI",
		"latitude": "33-29-0.75 N",
		"longitude": "82-8-34.89 W",
		"state": "GEORGIA",
		"artcc": "ZTL",
		"type": "RP",
		"updated": "EMR*NDB*283.64",
	},
	{
		"name": "GASTN",
		"latitude": "36-12-29.14 N",
		"longitude": "80-17-13.27 W",
		"state": "NORTH CAROLINA",
		"artcc": "ZTL",
		"type": "RNAV",
		"updated": "12/30/2010",
	},
	{
		"name": "GATEE",
		"latitude": "34-52-37.24 N",
		"longitude": "80-42-33.31 W",
		"state": "NORTH CAROLINA",
		"artcc": "ZTL",
		"type": "RNAV",
		"updated": "05/13/2016",
	},
	{
		"name": "GATEQ",
		"latitude": "35-30-38.85 N",
		"longitude": "81-7-30.13 W",
		"state": "NORTH CAROLINA",
		"artcc": "ZTL",
		"type": "RP",
		"updated": "IPJ*LD*053.16/3.00",
	},
	{
		"name": "GAUNT",
		"latitude": "35-53-30.87 N",
		"longitude": "83-47-36.15 W",
		"state": "TENNESSEE",
		"artcc": "ZTL",
		"type": "RP",
		"updated": "VXV*VORTAC*101.88/5.00",
	},
	{
		"name": "GAYEC",
		"latitude": "34-11-23.85 N",
		"longitude": "86-5-5.42 W",
		"state": "ALABAMA",
		"artcc": "ZTL",
		"type": "RNAV",
		"updated": "12/18/2007",
	},
	{
		"name": "GAYEP",
		"latitude": "32-22-58.77 N",
		"longitude": "82-19-4.02 W",
		"state": "GEORGIA",
		"artcc": "ZTL",
		"type": "RNAV",
		"updated": "04/21/2016",
	},
	{
		"name": "GBAKE",
		"latitude": "34-33-27.53 N",
		"longitude": "83-19-15.76 W",
		"state": "GEORGIA",
		"artcc": "ZTL",
		"type": "RNAV",
		"updated": "07/26/2016",
	},
	{
		"name": "GEBLL",
		"latitude": "34-53-26.07 N",
		"longitude": "82-20-50.34 W",
		"state": "SOUTH CAROLINA",
		"artcc": "ZTL",
		"type": "RNAV",
		"updated": "05/27/2009",
	},
	{
		"name": "GECYE",
		"latitude": "34-16-12.76 N",
		"longitude": "84-53-32.6 W",
		"state": "GEORGIA",
		"artcc": "ZTL",
		"type": "RNAV",
		"updated": "10/31/2013",
	},
	{
		"name": "GEDBE",
		"latitude": "33-22-45 N",
		"longitude": "84-50-19.26 W",
		"state": "GEORGIA",
		"artcc": "ZTL",
		"type": "RNAV",
		"updated": "09/15/2009",
	},
	{
		"name": "GEEPS",
		"latitude": "36-37-10.1 N",
		"longitude": "80-33-54.01 W",
		"state": "VIRGINIA",
		"artcc": "ZTL",
		"type": "RNAV",
		"updated": "11/10/2016",
	},
	{
		"name": "GEGEC",
		"latitude": "36-30-35.24 N",
		"longitude": "82-22-6.76 W",
		"state": "TENNESSEE",
		"artcc": "ZTL",
		"type": "RNAV",
		"updated": "12/14/2011",
	},
	{
		"name": "GEKCO",
		"latitude": "35-24-30.33 N",
		"longitude": "84-58-57.81 W",
		"state": "TENNESSEE",
		"artcc": "ZTL",
		"type": "RNAV",
		"updated": "06/15/2011",
	},
	{
		"name": "GEKEF",
		"latitude": "34-57-41.81 N",
		"longitude": "85-38-27.27 W",
		"state": "TENNESSEE",
		"artcc": "ZME",
		"type": "RNAV",
		"updated": "01/04/2007",
	},
	{
		"name": "GEMMY",
		"latitude": "32-37-25.03 N",
		"longitude": "84-49-13.95 W",
		"state": "GEORGIA",
		"artcc": "ZTL",
		"type": "RP",
		"updated": "CSG*VORTAC*086.08/10.00",
	},
	{
		"name": "GENDE",
		"latitude": "34-48-23.43 N",
		"longitude": "86-49-29.9 W",
		"state": "ALABAMA",
		"artcc": "ZME",
		"type": "RNAV",
		"updated": "09/22/2012",
	},
	{
		"name": "GENOD",
		"latitude": "35-33-6.04 N",
		"longitude": "81-56-57.05 W",
		"state": "NORTH CAROLINA",
		"artcc": "ZTL",
		"type": "RP",
		"updated": "SPA*VORTAC*360.00/31.05",
	},
	{
		"name": "GEPDE",
		"latitude": "34-35-52.07 N",
		"longitude": "86-45-59.67 W",
		"state": "ALABAMA",
		"artcc": "ZME",
		"type": "RP",
		"updated": "DCU*VOR/DME*110.41",
	},
	{
		"name": "GEPME",
		"latitude": "36-36-57.63 N",
		"longitude": "83-42-21.62 W",
		"state": "KENTUCKY",
		"artcc": "ZTL",
		"type": "RNAV",
		"updated": "10/24/2005",
	},
	{
		"name": "GESTS",
		"latitude": "34-17-33.78 N",
		"longitude": "86-4-6.97 W",
		"state": "ALABAMA",
		"artcc": "ZTL",
		"type": "RP",
		"updated": "RQZ*VORTAC*135.01",
	},
	{
		"name": "GETEC",
		"latitude": "34-46-5.27 N",
		"longitude": "86-46-47.22 W",
		"state": "ALABAMA",
		"artcc": "ZME",
		"type": "RP",
		"updated": "DCU*VOR/DME*048.71",
	},
	{
		"name": "GETME",
		"latitude": "34-1-8.4 N",
		"longitude": "87-10-28.47 W",
		"state": "ALABAMA",
		"artcc": "ZTL",
		"type": "RP",
		"updated": "VUZ*VORTAC*324.76/25.00",
	},
	{
		"name": "GETRR",
		"latitude": "32-10-58.26 N",
		"longitude": "84-51-47.95 W",
		"state": "GEORGIA",
		"artcc": "ZTL",
		"type": "RP",
		"updated": "EUF*VORTAC*042.30",
	},
	{
		"name": "GGOLF",
		"latitude": "33-27-20.98 N",
		"longitude": "84-20-10.08 W",
		"state": "GEORGIA",
		"artcc": "ZTL",
		"type": "RNAV",
		"updated": "12/09/2015",
	},
	{
		"name": "GGUYY",
		"latitude": "33-37-53.03 N",
		"longitude": "84-43-7.81 W",
		"state": "GEORGIA",
		"artcc": "ZTL",
		"type": "RP",
		"updated": "FT*NDB*212.03",
	},
	{
		"name": "GIBRE",
		"latitude": "33-50-38.11 N",
		"longitude": "85-7-18.76 W",
		"state": "GEORGIA",
		"artcc": "ZTL",
		"type": "RNAV",
		"updated": "01/26/2005",
	},
	{
		"name": "GIBSS",
		"latitude": "35-59-43.16 N",
		"longitude": "81-50-19.18 W",
		"state": "NORTH CAROLINA",
		"artcc": "ZTL",
		"type": "RP",
		"updated": "BZM*VOR/DME*290.75",
	},
	{
		"name": "GICEG",
		"latitude": "34-54-2.99 N",
		"longitude": "85-46-56.04 W",
		"state": "ALABAMA",
		"artcc": "ZME",
		"type": "RNAV",
		"updated": "01/04/2007",
	},
	{
		"name": "GIFFY",
		"latitude": "33-13-19.31 N",
		"longitude": "85-40-8.72 W",
		"state": "ALABAMA",
		"artcc": "ZTL",
		"type": "RP",
		"updated": "MGM*VORTAC*025.64/68.33",
	},
	{
		"name": "GIGEL",
		"latitude": "35-58-48.82 N",
		"longitude": "84-34-41.16 W",
		"state": "TENNESSEE",
		"artcc": "ZTL",
		"type": "RP",
		"updated": "HCH*VOR/DME*060.44/22.88",
	},
	{
		"name": "GILFN",
		"latitude": "34-47-44.2 N",
		"longitude": "80-58-1.44 W",
		"state": "SOUTH CAROLINA",
		"artcc": "ZTL",
		"type": "RNAV",
		"updated": "05/06/2016",
	},
	{
		"name": "GILGE",
		"latitude": "35-23-31.97 N",
		"longitude": "80-57-2.04 W",
		"state": "NORTH CAROLINA",
		"artcc": "ZTL",
		"type": "RP",
		"updated": "VKQ*LD*002.97/11.70",
	},
	{
		"name": "GILLY",
		"latitude": "32-3-58.21 N",
		"longitude": "83-42-31.81 W",
		"state": "GEORGIA",
		"artcc": "ZJX",
		"type": "RP",
		"updated": "VNA*VORTAC*229.77/13.93",
	},
	{
		"name": "GIMFY",
		"latitude": "35-29-58.93 N",
		"longitude": "84-31-12.58 W",
		"state": "TENNESSEE",
		"artcc": "ZTL",
		"type": "RNAV",
		"updated": "04/18/2010",
	},
	{
		"name": "GIMLY",
		"latitude": "32-30-13.52 N",
		"longitude": "85-6-47.65 W",
		"state": "ALABAMA",
		"artcc": "ZTL",
		"type": "RNAV",
		"updated": "08/18/2017",
	},
	{
		"name": "GIMXO",
		"latitude": "35-29-29.39 N",
		"longitude": "84-25-54.6 W",
		"state": "TENNESSEE",
		"artcc": "ZTL",
		"type": "CN",
		"updated": "10/06/2000",
	},
	{
		"name": "GIMYI",
		"latitude": "36-25-56.43 N",
		"longitude": "82-57-42.06 W",
		"state": "TENNESSEE",
		"artcc": "ZTL",
		"type": "CN",
		"updated": "10/06/2000",
	},
	{
		"name": "GINNN",
		"latitude": "35-2-33.33 N",
		"longitude": "81-28-7.08 W",
		"state": "SOUTH CAROLINA",
		"artcc": "ZTL",
		"type": "RNAV",
		"updated": "06/25/2015",
	},
	{
		"name": "GIPDY",
		"latitude": "37-2-34.39 N",
		"longitude": "80-49-47.4 W",
		"state": "VIRGINIA",
		"artcc": "ZTL",
		"type": "RP",
		"updated": "BLF*VOR/DME*135.00",
	},
	{
		"name": "GIPPR",
		"latitude": "35-12-34.9 N",
		"longitude": "79-59-7.9 W",
		"state": "NORTH CAROLINA",
		"artcc": "ZTL",
		"type": "RP",
		"updated": "CTF*VOR/DME*026.00",
	},
	{
		"name": "GITCE",
		"latitude": "35-17-25.81 N",
		"longitude": "86-14-38.02 W",
		"state": "TENNESSEE",
		"artcc": "ZME",
		"type": "CN",
		"updated": "10/10/2000",
	},
	{
		"name": "GITEC",
		"latitude": "32-18-42.69 N",
		"longitude": "86-30-58.66 W",
		"state": "ALABAMA",
		"artcc": "ZTL",
		"type": "RNAV",
		"updated": "08/13/2013",
	},
	{
		"name": "GIZMO",
		"latitude": "35-32-59.1 N",
		"longitude": "80-39-17.24 W",
		"state": "NORTH CAROLINA",
		"artcc": "ZTL",
		"type": "RP",
		"updated": "LIB*VORTAC*256.19",
	},
	{
		"name": "GLASI",
		"latitude": "35-6-35.3 N",
		"longitude": "80-56-35.02 W",
		"state": "NORTH CAROLINA",
		"artcc": "ZTL",
		"type": "RP",
		"updated": "CLT*VOR/DME*/4.84",
	},
	{
		"name": "GLAVN",
		"latitude": "34-2-59.7 N",
		"longitude": "85-3-4.62 W",
		"state": "GEORGIA",
		"artcc": "ZTL",
		"type": "RNAV",
		"updated": "08/21/2017",
	},
	{
		"name": "GLAXI",
		"latitude": "35-31-6.09 N",
		"longitude": "81-44-52.96 W",
		"state": "NORTH CAROLINA",
		"artcc": "ZTL",
		"type": "RNAV",
		"updated": "06/15/2017",
	},
	{
		"name": "GLFRD",
		"latitude": "36-11-50.35 N",
		"longitude": "80-3-20.01 W",
		"state": "NORTH CAROLINA",
		"artcc": "ZTL",
		"type": "RNAV",
		"updated": "11/10/2016",
	},
	{
		"name": "GLISS",
		"latitude": "35-28-48.4 N",
		"longitude": "80-41-17.86 W",
		"state": "NORTH CAROLINA",
		"artcc": "ZTL",
		"type": "RP",
		"updated": "JQF*LD*016.46/6.33",
	},
	{
		"name": "GLOSS",
		"latitude": "33-25-23.24 N",
		"longitude": "83-29-42.06 W",
		"state": "GEORGIA",
		"artcc": "ZTL",
		"type": "RP",
		"updated": "AHN*VOR/DME*195.23/32.55",
	},
	{
		"name": "GLOVR",
		"latitude": "35-30-24.4 N",
		"longitude": "80-14-51.23 W",
		"state": "NORTH CAROLINA",
		"artcc": "ZTL",
		"type": "RP",
		"updated": "LIB*VORTAC*242.72/36.02",
	},
	{
		"name": "GNDLF",
		"latitude": "33-7-3.18 N",
		"longitude": "85-4-15.35 W",
		"state": "GEORGIA",
		"artcc": "ZTL",
		"type": "RNAV",
		"updated": "08/21/2017",
	},
	{
		"name": "GOBYI",
		"latitude": "33-25-54.87 N",
		"longitude": "83-19-4.28 W",
		"state": "GEORGIA",
		"artcc": "ZTL",
		"type": "RNAV",
		"updated": "08/02/2004",
	},
	{
		"name": "GOGBE",
		"latitude": "34-7-8.56 N",
		"longitude": "83-52-11.42 W",
		"state": "GEORGIA",
		"artcc": "ZTL",
		"type": "RP",
		"updated": "AHN*VOR/DME*290.85/29.06",
	},
	{
		"name": "GOKYE",
		"latitude": "33-10-23.96 N",
		"longitude": "86-30-46.43 W",
		"state": "ALABAMA",
		"artcc": "ZTL",
		"type": "RNAV",
		"updated": "11/30/2009",
	},
	{
		"name": "GOLFR",
		"latitude": "33-55-10.55 N",
		"longitude": "82-29-59.19 W",
		"state": "GEORGIA",
		"artcc": "ZTL",
		"type": "RNAV",
		"updated": "01/22/2018",
	},
	{
		"name": "GOLGE",
		"latitude": "34-5-31.55 N",
		"longitude": "84-50-16.87 W",
		"state": "GEORGIA",
		"artcc": "ZTL",
		"type": "RNAV",
		"updated": "01/30/2009",
	},
	{
		"name": "GOLLM",
		"latitude": "31-51-12.12 N",
		"longitude": "85-22-22.76 W",
		"state": "ALABAMA",
		"artcc": "ZTL",
		"type": "RNAV",
		"updated": "08/18/2017",
	},
	{
		"name": "GOMRR",
		"latitude": "36-43-38.82 N",
		"longitude": "80-35-31.98 W",
		"state": "VIRGINIA",
		"artcc": "ZTL",
		"type": "RNAV",
		"updated": "04/28/2010",
	},
	{
		"name": "GONDR",
		"latitude": "32-22-1.98 N",
		"longitude": "85-45-57.08 W",
		"state": "ALABAMA",
		"artcc": "ZTL",
		"type": "RNAV",
		"updated": "08/18/2017",
	},
	{
		"name": "GONGE",
		"latitude": "35-38-13.65 N",
		"longitude": "81-42-33.67 W",
		"state": "NORTH CAROLINA",
		"artcc": "ZTL",
		"type": "RNAV",
		"updated": "05/11/2011",
	},
	{
		"name": "GONLE",
		"latitude": "35-50-11.12 N",
		"longitude": "81-22-29.13 W",
		"state": "NORTH CAROLINA",
		"artcc": "ZTL",
		"type": "RNAV",
		"updated": "07/15/2011",
	},
	{
		"name": "GONRE",
		"latitude": "33-20-47.63 N",
		"longitude": "82-4-48.03 W",
		"state": "GEORGIA",
		"artcc": "ZTL",
		"type": "RNAV",
		"updated": "06/12/2012",
	},
	{
		"name": "GOODL",
		"latitude": "35-58-55.54 N",
		"longitude": "83-46-52.95 W",
		"state": "TENNESSEE",
		"artcc": "ZTL",
		"type": "RP",
		"updated": "VXV*VORTAC*053.00/7.21",
	},
	{
		"name": "GOONS",
		"latitude": "31-52-1.47 N",
		"longitude": "84-48-21.14 W",
		"state": "GEORGIA",
		"artcc": "ZJX",
		"type": "RP",
		"updated": "PZD*VOR/DME*297.94",
	},
	{
		"name": "GOPDE",
		"latitude": "32-25-12.98 N",
		"longitude": "85-3-39.6 W",
		"state": "ALABAMA",
		"artcc": "ZTL",
		"type": "RNAV",
		"updated": "12/27/2005",
	},
	{
		"name": "GOPPO",
		"latitude": "34-14-4.91 N",
		"longitude": "86-14-53.53 W",
		"state": "ALABAMA",
		"artcc": "ZTL",
		"type": "WP",
		"updated": "11/02/1998",
	},
	{
		"name": "GORGO",
		"latitude": "34-6-30.22 N",
		"longitude": "85-19-15.63 W",
		"state": "GEORGIA",
		"artcc": "ZTL",
		"type": "RP",
		"updated": "RMG*VORTAC*251.15/10.55",
	},
	{
		"name": "GORST",
		"latitude": "34-3-38.91 N",
		"longitude": "84-22-49.92 W",
		"state": "GEORGIA",
		"artcc": "ZTL",
		"type": "RP",
		"updated": "PDK*VOR/DME*341.83/11.82",
	},
	{
		"name": "GOSSE",
		"latitude": "33-21-9.83 N",
		"longitude": "86-1-23.95 W",
		"state": "ALABAMA",
		"artcc": "ZTL",
		"type": "RP",
		"updated": "VUZ*VORTAC*111.14/47.91",
	},
	{
		"name": "GOTBY",
		"latitude": "33-17-25.94 N",
		"longitude": "86-44-44.54 W",
		"state": "ALABAMA",
		"artcc": "ZTL",
		"type": "RP",
		"updated": "OKW*VORTAC*083.00",
	},
	{
		"name": "GOTHS",
		"latitude": "35-35-17.41 N",
		"longitude": "80-58-25.43 W",
		"state": "NORTH CAROLINA",
		"artcc": "ZTL",
		"type": "RNAV",
		"updated": "04/09/2014",
	},
	{
		"name": "GOUBR",
		"latitude": "33-56-36.14 N",
		"longitude": "86-1-24.03 W",
		"state": "ALABAMA",
		"artcc": "ZTL",
		"type": "RNAV",
		"updated": "01/24/2018",
	},
	{
		"name": "GOWBE",
		"latitude": "35-58-21.55 N",
		"longitude": "81-24-4.39 W",
		"state": "NORTH CAROLINA",
		"artcc": "ZTL",
		"type": "RP",
		"updated": "BZM*VOR/DME*314.50/10.00",
	},
	{
		"name": "GPEAT",
		"latitude": "33-38-45.21 N",
		"longitude": "84-51-27.4 W",
		"state": "GEORGIA",
		"artcc": "ZTL",
		"type": "RP",
		"updated": "ATL*LD*274.97/22.82",
	},
	{
		"name": "GRABA",
		"latitude": "33-56-33.03 N",
		"longitude": "84-13-54.47 W",
		"state": "GEORGIA",
		"artcc": "ZTL",
		"type": "RNAV",
		"updated": "12/09/2015",
	},
	{
		"name": "GRADY",
		"latitude": "32-40-3.93 N",
		"longitude": "82-2-34.54 W",
		"state": "GEORGIA",
		"artcc": "ZTL",
		"type": "RP",
		"updated": "VQQ*VOR*360.00",
	},
	{
		"name": "GRANT",
		"latitude": "32-49-44.96 N",
		"longitude": "84-22-36.39 W",
		"state": "GEORGIA",
		"artcc": "ZTL",
		"type": "RP",
		"updated": "CSG*VORTAC*067.28/34.88",
	},
	{
		"name": "GRAZE",
		"latitude": "33-44-34.58 N",
		"longitude": "81-54-20.9 W",
		"state": "SOUTH CAROLINA",
		"artcc": "ZTL",
		"type": "RP",
		"updated": "GRD*VORTAC*158.80",
	},
	{
		"name": "GREDY",
		"latitude": "36-10-30.98 N",
		"longitude": "84-3-21.09 W",
		"state": "TENNESSEE",
		"artcc": "ZTL",
		"type": "RNAV",
		"updated": "05/09/2016",
	},
	{
		"name": "GRGIA",
		"latitude": "33-4-37.48 N",
		"longitude": "86-34-3.98 W",
		"state": "ALABAMA",
		"artcc": "ZTL",
		"type": "RNAV",
		"updated": "12/09/2015",
	},
	{
		"name": "GRHAM",
		"latitude": "33-21-46.88 N",
		"longitude": "84-1-43.47 W",
		"state": "GEORGIA",
		"artcc": "ZTL",
		"type": "RNAV",
		"updated": "08/21/2017",
	},
	{
		"name": "GRITZ",
		"latitude": "33-36-7.72 N",
		"longitude": "84-16-34.81 W",
		"state": "GEORGIA",
		"artcc": "ZTL",
		"type": "RNAV",
		"updated": "09/08/2006",
	},
	{
		"name": "GRMPI",
		"latitude": "33-37-54.06 N",
		"longitude": "84-12-51.12 W",
		"state": "GEORGIA",
		"artcc": "ZTL",
		"type": "RP",
		"updated": "PDK*VOR/DME*168.82",
	},
	{
		"name": "GRNWL",
		"latitude": "33-31-53.14 N",
		"longitude": "82-33-39.07 W",
		"state": "GEORGIA",
		"artcc": "ZTL",
		"type": "RNAV",
		"updated": "05/20/2011",
	},
	{
		"name": "GROSS",
		"latitude": "35-34-40.44 N",
		"longitude": "84-20-10.42 W",
		"state": "TENNESSEE",
		"artcc": "ZTL",
		"type": "RP",
		"updated": "HCH*VOR/DME*113.00",
	},
	{
		"name": "GRUBS",
		"latitude": "32-10-12.16 N",
		"longitude": "82-25-9.91 W",
		"state": "GEORGIA",
		"artcc": "ZJX",
		"type": "RNAV",
		"updated": "07/07/2015",
	},
	{
		"name": "GRWIG",
		"latitude": "34-49-40.71 N",
		"longitude": "82-16-0.34 W",
		"state": "SOUTH CAROLINA",
		"artcc": "ZTL",
		"type": "RNAV",
		"updated": "11/07/2011",
	},
	{
		"name": "GUCEK",
		"latitude": "34-8-43.29 N",
		"longitude": "85-0-2.58 W",
		"state": "GEORGIA",
		"artcc": "ZTL",
		"type": "RP",
		"updated": "RMG*VORTAC*098.86/6.00",
	},
	{
		"name": "GUCRE",
		"latitude": "34-48-56.94 N",
		"longitude": "81-15-49.13 W",
		"state": "SOUTH CAROLINA",
		"artcc": "ZTL",
		"type": "RNAV",
		"updated": "02/20/2014",
	},
	{
		"name": "GUFLO",
		"latitude": "33-25-7.1 N",
		"longitude": "87-0-25.29 W",
		"state": "ALABAMA",
		"artcc": "ZTL",
		"type": "RP",
		"updated": "OKW*VORTAC*048.65",
	},
	{
		"name": "GUKPE",
		"latitude": "36-9-44.18 N",
		"longitude": "80-1-46.23 W",
		"state": "NORTH CAROLINA",
		"artcc": "ZTL",
		"type": "RNAV",
		"updated": "08/11/2010",
	},
	{
		"name": "GUKVE",
		"latitude": "33-11-46.3 N",
		"longitude": "82-6-4.51 W",
		"state": "GEORGIA",
		"artcc": "ZTL",
		"type": "RNAV",
		"updated": "06/12/2012",
	},
	{
		"name": "GULCH",
		"latitude": "32-12-37.93 N",
		"longitude": "86-12-27.51 W",
		"state": "ALABAMA",
		"artcc": "ZTL",
		"type": "MR",
		"updated": "MXF*TACAN*143.00/13.00",
	},
	{
		"name": "GULFY",
		"latitude": "35-18-0.77 N",
		"longitude": "80-5-53.1 W",
		"state": "NORTH CAROLINA",
		"artcc": "ZTL",
		"type": "RNAV",
		"updated": "03/31/2016",
	},
	{
		"name": "GUMKE",
		"latitude": "32-2-33.83 N",
		"longitude": "84-16-12.07 W",
		"state": "GEORGIA",
		"artcc": "ZTL",
		"type": "RP",
		"updated": "11/04/2011",
	},
	{
		"name": "GUMMP",
		"latitude": "33-4-32.55 N",
		"longitude": "86-37-6.44 W",
		"state": "ALABAMA",
		"artcc": "ZTL",
		"type": "RNAV",
		"updated": "03/30/2018",
	},
	{
		"name": "GUNTO",
		"latitude": "37-0-12.78 N",
		"longitude": "80-53-33.57 W",
		"state": "VIRGINIA",
		"artcc": "ZTL",
		"type": "RP",
		"updated": "BLF*VOR/DME*144.36",
	},
	{
		"name": "GUPLE",
		"latitude": "35-35-24.73 N",
		"longitude": "84-27-29.64 W",
		"state": "TENNESSEE",
		"artcc": "ZTL",
		"type": "RNAV",
		"updated": "10/26/2005",
	},
	{
		"name": "GUPVE",
		"latitude": "33-16-34.73 N",
		"longitude": "84-19-47.51 W",
		"state": "GEORGIA",
		"artcc": "ZTL",
		"type": "RNAV",
		"updated": "06/11/2012",
	},
	{
		"name": "GURSH",
		"latitude": "34-42-4.54 N",
		"longitude": "81-30-31.83 W",
		"state": "SOUTH CAROLINA",
		"artcc": "ZTL",
		"type": "RNAV",
		"updated": "04/09/2014",
	},
	{
		"name": "GUSSY",
		"latitude": "33-59-45.43 N",
		"longitude": "84-55-35.21 W",
		"state": "GEORGIA",
		"artcc": "ZTL",
		"type": "RNAV",
		"updated": "06/10/2011",
	},
	{
		"name": "GUTQO",
		"latitude": "34-45-8.36 N",
		"longitude": "82-38-51.71 W",
		"state": "SOUTH CAROLINA",
		"artcc": "ZTL",
		"type": "RNAV",
		"updated": "09/22/2011",
	},
	{
		"name": "GUTSE",
		"latitude": "32-14-17.41 N",
		"longitude": "84-0-29.48 W",
		"state": "GEORGIA",
		"artcc": "ZTL",
		"type": "RNAV",
		"updated": "05/12/2003",
	},
	{
		"name": "GUVNR",
		"latitude": "32-10-19.34 N",
		"longitude": "83-45-49.44 W",
		"state": "GEORGIA",
		"artcc": "ZTL",
		"type": "RP",
		"updated": "VNA*VORTAC*258.72/13.79",
	},
	{
		"name": "GWNET",
		"latitude": "34-1-9.14 N",
		"longitude": "83-51-44.66 W",
		"state": "GEORGIA",
		"artcc": "ZTL",
		"type": "RP",
		"updated": "PDK*VOR/DME*073.34/23.42",
	},
