[
	{
		"name": "HAALO",
		"latitude": "32-59-11.81 N",
		"longitude": "84-35-15.95 W",
		"state": "GEORGIA",
		"artcc": "ZTL",
		"type": "RNAV",
		"updated": "05/17/2016"
	},
	{
		"name": "HAARY",
		"latitude": "33-58-15.46 N",
		"longitude": "83-58-5.48 W",
		"state": "GEORGIA",
		"artcc": "ZTL",
		"type": "RNAV",
		"updated": "02/25/2013"
	},
	{
		"name": "HABUG",
		"latitude": "35-49-10.12 N",
		"longitude": "79-47-12.45 W",
		"state": "NORTH CAROLINA",
		"artcc": "ZTL",
		"type": "RNAV",
		"updated": "05/18/2017"
	},
	{
		"name": "HACNI",
		"latitude": "35-54-44.04 N",
		"longitude": "80-6-24.28 W",
		"state": "NORTH CAROLINA",
		"artcc": "ZTL",
		"type": "RNAV",
		"updated": "06/06/2012"
	},
	{
		"name": "HADEL",
		"latitude": "33-42-4.59 N",
		"longitude": "83-45-7.92 W",
		"state": "GEORGIA",
		"artcc": "ZTL",
		"type": "RNAV",
		"updated": "06/07/2011"
	},
	{
		"name": "HADOC",
		"latitude": "33-7-13.8 N",
		"longitude": "83-1-37.72 W",
		"state": "GEORGIA",
		"artcc": "ZTL",
		"type": "RP",
		"updated": "DBN*VORTAC*348.42/34.81"
	},
	{
		"name": "HADUD",
		"latitude": "34-10-13.58 N",
		"longitude": "84-4-18.79 W",
		"state": "GEORGIA",
		"artcc": "ZTL",
		"type": "RNAV",
		"updated": "08/08/2008"
	},
	{
		"name": "HAGOP",
		"latitude": "36-24-34.78 N",
		"longitude": "83-26-17.85 W",
		"state": "TENNESSEE",
		"artcc": "ZTL",
		"type": "RNAV",
		"updated": "04/27/2010"
	},
	{
		"name": "HAGUL",
		"latitude": "35-23-34.48 N",
		"longitude": "80-58-2.8 W",
		"state": "NORTH CAROLINA",
		"artcc": "ZTL",
		"type": "RP",
		"updated": "CLT*VOR/DME*/11.75"
	},
	{
		"name": "HAINT",
		"latitude": "35-10-31.2 N",
		"longitude": "82-25-19.07 W",
		"state": "SOUTH CAROLINA",
		"artcc": "ZTL",
		"type": "RP",
		"updated": "CLT*VOR/DME*274.71"
	},
	{
		"name": "HAINZ",
		"latitude": "33-38-57.36 N",
		"longitude": "84-7-49.23 W",
		"state": "GEORGIA",
		"artcc": "ZTL",
		"type": "RP",
		"updated": "PDK*VOR/DME*153.09"
	},
	{
		"name": "HAKIV",
		"latitude": "35-0-6.15 N",
		"longitude": "83-22-15.94 W",
		"state": "NORTH CAROLINA",
		"artcc": "ZTL",
		"type": "RNAV",
		"updated": "12/01/2009"
	},
	{
		"name": "HALET",
		"latitude": "35-0-20.78 N",
		"longitude": "85-32-37.07 W",
		"state": "TENNESSEE",
		"artcc": "ZME",
		"type": "RP",
		"updated": "HCH*VOR/DME*213.00"
	},
	{
		"name": "HALJO",
		"latitude": "34-59-31.69 N",
		"longitude": "82-0-54.15 W",
		"state": "SOUTH CAROLINA",
		"artcc": "ZTL",
		"type": "RNAV",
		"updated": "11/10/2016"
	},
	{
		"name": "HALLS",
		"latitude": "35-51-7.63 N",
		"longitude": "85-15-55.97 W",
		"state": "TENNESSEE",
		"artcc": "ZTL",
		"type": "RNAV",
		"updated": "06/25/2015"
	},
	{
		"name": "HALLY",
		"latitude": "35-26-13.5 N",
		"longitude": "80-55-14.25 W",
		"state": "NORTH CAROLINA",
		"artcc": "ZTL",
		"type": "RNAV",
		"updated": "06/15/2000"
	},
	{
		"name": "HALRR",
		"latitude": "33-9-29.7 N",
		"longitude": "85-0-17.12 W",
		"state": "GEORGIA",
		"artcc": "ZTL",
		"type": "RNAV",
		"updated": "08/21/2017"
	},
	{
		"name": "HALUL",
		"latitude": "32-40-4.87 N",
		"longitude": "83-36-29.24 W",
		"state": "GEORGIA",
		"artcc": "ZTL",
		"type": "RNAV",
		"updated": "06/28/2012"
	},
	{
		"name": "HAMBG",
		"latitude": "33-27-37.18 N",
		"longitude": "81-56-6.51 W",
		"state": "GEORGIA",
		"artcc": "ZTL",
		"type": "RNAV",
		"updated": "09/03/2010"
	},
	{
		"name": "HAMGA",
		"latitude": "33-31-23.25 N",
		"longitude": "86-44-50.02 W",
		"state": "ALABAMA",
		"artcc": "ZTL",
		"type": "RNAV",
		"updated": "09/01/2009"
	},
	{
		"name": "HAMPP",
		"latitude": "33-26-51.71 N",
		"longitude": "84-14-4.37 W",
		"state": "GEORGIA",
		"artcc": "ZTL",
		"type": "RNAV",
		"updated": "06/29/2016"
	},
	{
		"name": "HANDE",
		"latitude": "33-18-44.4 N",
		"longitude": "86-31-24.44 W",
		"state": "ALABAMA",
		"artcc": "ZTL",
		"type": "RP",
		"updated": "OKW*VORTAC*083.00"
	},
	{
		"name": "HANDO",
		"latitude": "35-18-52.58 N",
		"longitude": "80-50-24.44 W",
		"state": "NORTH CAROLINA",
		"artcc": "ZTL",
		"type": "RNAV",
		"updated": "05/13/2016"
	},
	{
		"name": "HANES",
		"latitude": "34-17-2.35 N",
		"longitude": "83-26-20.44 W",
		"state": "GEORGIA",
		"artcc": "ZTL",
		"type": "RNAV",
		"updated": "07/20/2007"
	},
	{
		"name": "HANET",
		"latitude": "32-2-53.18 N",
		"longitude": "83-29-43.78 W",
		"state": "GEORGIA",
		"artcc": "ZJX",
		"type": "RP",
		"updated": "VNA*VORTAC*178.48/9.90"
	},
	{
		"name": "HANIP",
		"latitude": "33-20-29.1 N",
		"longitude": "84-48-0.63 W",
		"state": "GEORGIA",
		"artcc": "ZTL",
		"type": "RNAV",
		"updated": "09/15/2009"
	},
	{
		"name": "HANKO",
		"latitude": "33-50-18.08 N",
		"longitude": "85-38-54.71 W",
		"state": "ALABAMA",
		"artcc": "ZTL",
		"type": "RNAV",
		"updated": "12/09/2015"
	},
	{
		"name": "HANUR",
		"latitude": "33-22-7.54 N",
		"longitude": "86-20-27.97 W",
		"state": "ALABAMA",
		"artcc": "ZTL",
		"type": "RNAV",
		"updated": "07/16/2007"
	},
	{
		"name": "HANVI",
		"latitude": "34-30-17.39 N",
		"longitude": "85-59-46.57 W",
		"state": "ALABAMA",
		"artcc": "ZTL",
		"type": "RNAV",
		"updated": "03/06/2017"
	},
	{
		"name": "HAPRI",
		"latitude": "35-59-41.22 N",
		"longitude": "81-5-31.08 W",
		"state": "NORTH CAROLINA",
		"artcc": "ZTL",
		"type": "RP",
		"updated": "BZM*VOR/DME*049.77/10.46"
	},
	{
		"name": "HARAY",
		"latitude": "35-7-45.69 N",
		"longitude": "81-45-41.18 W",
		"state": "SOUTH CAROLINA",
		"artcc": "ZTL",
		"type": "RP",
		"updated": "CLT*VOR/DME*270.00/40.00"
	},
	{
		"name": "HARLE",
		"latitude": "33-22-43.55 N",
		"longitude": "82-38-56.25 W",
		"state": "GEORGIA",
		"artcc": "ZTL",
		"type": "RP",
		"updated": "AHN*VOR/DME*135.00"
	},
	{
		"name": "HARSN",
		"latitude": "33-38-48.09 N",
		"longitude": "84-32-47.02 W",
		"state": "GEORGIA",
		"artcc": "ZTL",
		"type": "RP",
		"updated": "FT*NDB*151.16"
	},
	{
		"name": "HARTI",
		"latitude": "34-20-11.03 N",
		"longitude": "82-52-48.43 W",
		"state": "GEORGIA",
		"artcc": "ZTL",
		"type": "RP",
		"updated": "ODF*VORTAC*136.01"
	},
	{
		"name": "HASEL",
		"latitude": "34-31-9.23 N",
		"longitude": "86-56-3.15 W",
		"state": "ALABAMA",
		"artcc": "ZME",
		"type": "RP",
		"updated": "DCU*VOR/DME*179.06/7.74"
	},
	{
		"name": "HASER",
		"latitude": "32-14-37.68 N",
		"longitude": "84-1-35.34 W",
		"state": "GEORGIA",
		"artcc": "ZTL",
		"type": "RNAV",
		"updated": "11/20/2002"
	},
	{
		"name": "HATAS",
		"latitude": "34-49-47.74 N",
		"longitude": "86-37-32.17 W",
		"state": "ALABAMA",
		"artcc": "ZME",
		"type": "RP",
		"updated": "RQZ*VORTAC*009.75/2.00"
	},
	{
		"name": "HATEM",
		"latitude": "35-50-50.64 N",
		"longitude": "83-26-48.16 W",
		"state": "TENNESSEE",
		"artcc": "ZTL",
		"type": "RNAV",
		"updated": "10/09/2008"
	},
	{
		"name": "HATIS",
		"latitude": "31-57-55.63 N",
		"longitude": "83-48-32.37 W",
		"state": "GEORGIA",
		"artcc": "ZJX",
		"type": "RNAV",
		"updated": "10/03/2007"
	},
	{
		"name": "HATIV",
		"latitude": "33-43-22.76 N",
		"longitude": "85-11-2.26 W",
		"state": "GEORGIA",
		"artcc": "ZTL",
		"type": "RNAV",
		"updated": "01/26/2005"
	},
	{
		"name": "HAVIM",
		"latitude": "32-50-34.21 N",
		"longitude": "83-47-46.95 W",
		"state": "GEORGIA",
		"artcc": "ZTL",
		"type": "RNAV",
		"updated": "05/25/2016"
	},
	{
		"name": "HAVUP",
		"latitude": "32-34-12.28 N",
		"longitude": "85-1-45.6 W",
		"state": "GEORGIA",
		"artcc": "ZTL",
		"type": "RNAV",
		"updated": "10/27/2004"
	},
	{
		"name": "HAVVE",
		"latitude": "34-59-57.31 N",
		"longitude": "85-10-55.8 W",
		"state": "TENNESSEE",
		"artcc": "ZTL",
		"type": "RNAV",
		"updated": "07/26/2016"
	},
	{
		"name": "HAWCU",
		"latitude": "33-56-54.89 N",
		"longitude": "83-42-32.55 W",
		"state": "GEORGIA",
		"artcc": "ZTL",
		"type": "RNAV",
		"updated": "02/27/2010"
	},
	{
		"name": "HAWTO",
		"latitude": "37-18-25.42 N",
		"longitude": "80-39-2.84 W",
		"state": "VIRGINIA",
		"artcc": "ZTL",
		"type": "RNAV",
		"updated": "03/30/2009"
	},
	{
		"name": "HAYOU",
		"latitude": "35-6-39.45 N",
		"longitude": "80-55-35.04 W",
		"state": "NORTH CAROLINA",
		"artcc": "ZTL",
		"type": "RP",
		"updated": "BQC*LD*182.97/6.90"
	},
	{
		"name": "HEBEX",
		"latitude": "35-25-48.32 N",
		"longitude": "83-35-53.97 W",
		"state": "NORTH CAROLINA",
		"artcc": "ZTL",
		"type": "RNAV",
		"updated": "07/10/2017"
	},
	{
		"name": "HECKE",
		"latitude": "37-12-57.68 N",
		"longitude": "80-59-39.87 W",
		"state": "VIRGINIA",
		"artcc": "ZTL",
		"type": "RP",
		"updated": "BLF*VOR/DME*122.45/11.00"
	},
	{
		"name": "HEDRO",
		"latitude": "34-3-49.39 N",
		"longitude": "85-40-18.41 W",
		"state": "ALABAMA",
		"artcc": "ZTL",
		"type": "RNAV",
		"updated": "01/30/2012"
	},
	{
		"name": "HEELZ",
		"latitude": "35-34-2.34 N",
		"longitude": "80-46-26 W",
		"state": "NORTH CAROLINA",
		"artcc": "ZTL",
		"type": "RNAV",
		"updated": "05/01/2017"
	},
	{
		"name": "HEENA",
		"latitude": "33-12-24.62 N",
		"longitude": "86-52-15.28 W",
		"state": "ALABAMA",
		"artcc": "ZTL",
		"type": "RP",
		"updated": "OKW*VORTAC*095.76"
	},
	{
		"name": "HEFIN",
		"latitude": "33-35-54.75 N",
		"longitude": "85-25-10.57 W",
		"state": "ALABAMA",
		"artcc": "ZTL",
		"type": "RP",
		"updated": "GAD*VOR/DME*122.09/40.18"
	},
	{
		"name": "HEGAP",
		"latitude": "32-19-25.44 N",
		"longitude": "86-39-4.6 W",
		"state": "ALABAMA",
		"artcc": "ZTL",
		"type": "RNAV",
		"updated": "03/16/2011"
	},
	{
		"name": "HEGSO",
		"latitude": "33-0-0.09 N",
		"longitude": "84-21-56.38 W",
		"state": "GEORGIA",
		"artcc": "ZTL",
		"type": "RNAV",
		"updated": "11/17/2009"
	},
	{
		"name": "HEITH",
		"latitude": "35-47-53.79 N",
		"longitude": "81-3-17.21 W",
		"state": "NORTH CAROLINA",
		"artcc": "ZTL",
		"type": "RP",
		"updated": "BZM*VOR/DME*120.96/10.00"
	},
	{
		"name": "HEKAM",
		"latitude": "34-55-37.55 N",
		"longitude": "80-54-38.49 W",
		"state": "SOUTH CAROLINA",
		"artcc": "ZTL",
		"type": "RP",
		"updated": "BQC*LD*182.97/17.94"
	},
	{
		"name": "HEKNI",
		"latitude": "32-39-20.65 N",
		"longitude": "83-36-19.1 W",
		"state": "GEORGIA",
		"artcc": "ZTL",
		"type": "MR",
		"updated": "MCN*VORTAC*134.00/3.00"
	},
	{
		"name": "HEKTO",
		"latitude": "32-12-17.98 N",
		"longitude": "82-40-56.44 W",
		"state": "GEORGIA",
		"artcc": "ZJX",
		"type": "RNAV",
		"updated": "07/07/2015"
	},
	{
		"name": "HEKVA",
		"latitude": "33-51-50.15 N",
		"longitude": "83-35-30.19 W",
		"state": "GEORGIA",
		"artcc": "ZTL",
		"type": "RNAV",
		"updated": "09/09/2015"
	},
	{
		"name": "HELEV",
		"latitude": "35-1-23.22 N",
		"longitude": "82-35-39.58 W",
		"state": "SOUTH CAROLINA",
		"artcc": "ZTL",
		"type": "RNAV",
		"updated": "04/15/2010"
	},
	{
		"name": "HELNN",
		"latitude": "35-0-55.11 N",
		"longitude": "83-52-9.85 W",
		"state": "NORTH CAROLINA",
		"artcc": "ZTL",
		"type": "RNAV",
		"updated": "07/26/2016"
	},
	{
		"name": "HELTU",
		"latitude": "32-19-20.48 N",
		"longitude": "86-38-7.73 W",
		"state": "ALABAMA",
		"artcc": "ZTL",
		"type": "MR",
		"updated": "MXF*TACAN*257.96/14.00"
	},
	{
		"name": "HEMMO",
		"latitude": "31-54-29.82 N",
		"longitude": "86-20-41.32 W",
		"state": "ALABAMA",
		"artcc": "ZTL",
		"type": "RP",
		"updated": "MGM*VORTAC*180.90/18.85"
	},
	{
		"name": "HEMOV",
		"latitude": "32-31-36.35 N",
		"longitude": "86-34-0.77 W",
		"state": "ALABAMA",
		"artcc": "ZTL",
		"type": "RNAV",
		"updated": "04/17/2010"
	},
	{
		"name": "HENED",
		"latitude": "32-27-54.99 N",
		"longitude": "83-54-25.79 W",
		"state": "GEORGIA",
		"artcc": "ZTL",
		"type": "RNAV",
		"updated": "05/12/2003"
	},
	{
		"name": "HENGU",
		"latitude": "35-21-55.57 N",
		"longitude": "84-26-49.87 W",
		"state": "TENNESSEE",
		"artcc": "ZTL",
		"type": "RP",
		"updated": "HCH*VOR/DME*135.60/36.00"
	},
	{
		"name": "HENKI",
		"latitude": "35-12-9.36 N",
		"longitude": "84-58-49.53 W",
		"state": "TENNESSEE",
		"artcc": "ZTL",
		"type": "RNAV",
		"updated": "04/27/2018"
	},
	{
		"name": "HEPAT",
		"latitude": "33-52-59.62 N",
		"longitude": "84-23-5.35 W",
		"state": "GEORGIA",
		"artcc": "ZTL",
		"type": "MR",
		"updated": "DOB*TACAN*110.00/6.40"
	},
	{
		"name": "HEPEP",
		"latitude": "35-32-55.9 N",
		"longitude": "80-17-30.77 W",
		"state": "NORTH CAROLINA",
		"artcc": "ZTL",
		"type": "RNAV",
		"updated": "04/17/2010"
	},
	{
		"name": "HEPIG",
		"latitude": "33-11-27.68 N",
		"longitude": "82-8-16.3 W",
		"state": "GEORGIA",
		"artcc": "ZTL",
		"type": "RNAV",
		"updated": "06/12/2012"
	},
	{
		"name": "HEPKI",
		"latitude": "35-29-1.81 N",
		"longitude": "82-34-35.03 W",
		"state": "NORTH CAROLINA",
		"artcc": "ZTL",
		"type": "RNAV",
		"updated": "11/07/2014"
	},
	{
		"name": "HEPUS",
		"latitude": "31-37-22.08 N",
		"longitude": "87-14-28.94 W",
		"state": "ALABAMA",
		"artcc": "ZTL",
		"type": "RNAV",
		"updated": "11/15/2007"
	},
	{
		"name": "HEPUT",
		"latitude": "33-2-9.01 N",
		"longitude": "82-59-49.28 W",
		"state": "GEORGIA",
		"artcc": "ZTL",
		"type": "RP",
		"updated": "DBN*VORTAC*348.42/29.52"
	},
	{
		"name": "HEREG",
		"latitude": "34-35-23.26 N",
		"longitude": "86-47-0.1 W",
		"state": "ALABAMA",
		"artcc": "ZME",
		"type": "RP",
		"updated": "DCU*VOR/DME*115.34"
	},
	{
		"name": "HERIP",
		"latitude": "36-10-31.43 N",
		"longitude": "80-11-27.87 W",
		"state": "NORTH CAROLINA",
		"artcc": "ZTL",
		"type": "RNAV",
		"updated": "08/15/2010"
	},
	{
		"name": "HERKO",
		"latitude": "33-4-8.67 N",
		"longitude": "86-50-43.37 W",
		"state": "ALABAMA",
		"artcc": "ZTL",
		"type": "RNAV",
		"updated": "04/18/2017"
	},
	{
		"name": "HERTO",
		"latitude": "36-32-25.94 N",
		"longitude": "82-40-23.64 W",
		"state": "TENNESSEE",
		"artcc": "ZTL",
		"type": "RNAV",
		"updated": "06/13/2017"
	},
	{
		"name": "HERUR",
		"latitude": "35-6-52.57 N",
		"longitude": "83-16-1.5 W",
		"state": "NORTH CAROLINA",
		"artcc": "ZTL",
		"type": "RNAV",
		"updated": "11/07/2014"
	},
	{
		"name": "HESAB",
		"latitude": "35-45-14.61 N",
		"longitude": "80-50-32.93 W",
		"state": "NORTH CAROLINA",
		"artcc": "ZTL",
		"type": "RP",
		"updated": "SVH*LD*104.84/6.20"
	},
	{
		"name": "HESAT",
		"latitude": "35-3-31.5 N",
		"longitude": "85-16-59.81 W",
		"state": "TENNESSEE",
		"artcc": "ZTL",
		"type": "RNAV",
		"updated": "04/13/2017"
	},
	{
		"name": "HESEL",
		"latitude": "32-23-35.43 N",
		"longitude": "85-26-27.06 W",
		"state": "ALABAMA",
		"artcc": "ZTL",
		"type": "RNAV",
		"updated": "06/19/2012"
	},
	{
		"name": "HESGA",
		"latitude": "33-35-52.59 N",
		"longitude": "86-53-20.99 W",
		"state": "ALABAMA",
		"artcc": "ZTL",
		"type": "RNAV",
		"updated": "08/17/2010"
	},
	{
		"name": "HESOM",
		"latitude": "32-56-58.7 N",
		"longitude": "84-48-53.24 W",
		"state": "GEORGIA",
		"artcc": "ZTL",
		"type": "RNAV",
		"updated": "02/22/2010"
	},
	{
		"name": "HETAK",
		"latitude": "35-15-52.81 N",
		"longitude": "84-37-2.41 W",
		"state": "TENNESSEE",
		"artcc": "ZTL",
		"type": "RNAV",
		"updated": "04/18/2010"
	},
	{
		"name": "HETEB",
		"latitude": "34-44-45.46 N",
		"longitude": "81-11-14.3 W",
		"state": "SOUTH CAROLINA",
		"artcc": "ZTL",
		"type": "RNAV",
		"updated": "08/20/2010"
	},
	{
		"name": "HETIP",
		"latitude": "35-15-0.38 N",
		"longitude": "85-7-27.58 W",
		"state": "TENNESSEE",
		"artcc": "ZTL",
		"type": "RNAV",
		"updated": "11/15/2010"
	},
	{
		"name": "HETOD",
		"latitude": "33-10-14.82 N",
		"longitude": "86-10-54.63 W",
		"state": "ALABAMA",
		"artcc": "ZTL",
		"type": "RNAV",
		"updated": "07/29/2016"
	},
	{
		"name": "HEVOG",
		"latitude": "33-50-33.09 N",
		"longitude": "86-35-54.63 W",
		"state": "ALABAMA",
		"artcc": "ZTL",
		"type": "RNAV",
		"updated": "04/03/2012"
	},
	{
		"name": "HEXEX",
		"latitude": "35-13-40.73 N",
		"longitude": "85-21-42.75 W",
		"state": "TENNESSEE",
		"artcc": "ZME",
		"type": "RNAV",
		"updated": "08/11/2005"
	},
	{
		"name": "HEXIM",
		"latitude": "35-52-27.1 N",
		"longitude": "82-5-13.12 W",
		"state": "NORTH CAROLINA",
		"artcc": "ZTL",
		"type": "RNAV",
		"updated": "03/30/2015"
	},
	{
		"name": "HIBID",
		"latitude": "33-38-30.37 N",
		"longitude": "82-1-32.41 W",
		"state": "SOUTH CAROLINA",
		"artcc": "ZTL",
		"type": "RNAV",
		"updated": "01/03/2012"
	},
	{
		"name": "HIBTO",
		"latitude": "35-42-28.8 N",
		"longitude": "81-45-59.76 W",
		"state": "NORTH CAROLINA",
		"artcc": "ZTL",
		"type": "RNAV",
		"updated": "11/07/2014"
	},
	{
		"name": "HIDBA",
		"latitude": "34-54-51.25 N",
		"longitude": "82-20-48.17 W",
		"state": "SOUTH CAROLINA",
		"artcc": "ZTL",
		"type": "RNAV",
		"updated": "04/17/2015"
	},
	{
		"name": "HIDBI",
		"latitude": "31-57-20.35 N",
		"longitude": "83-29-40.24 W",
		"state": "GEORGIA",
		"artcc": "ZJX",
		"type": "RP",
		"updated": "VNA*VORTAC*178.48/15.44"
	},
	{
		"name": "HIDIT",
		"latitude": "33-54-32.38 N",
		"longitude": "84-29-25.86 W",
		"state": "GEORGIA",
		"artcc": "ZTL",
		"type": "MR",
		"updated": "DOB*TACAN*110.00/0.90"
	},
	{
		"name": "HIDOD",
		"latitude": "35-33-18.16 N",
		"longitude": "80-53-9.78 W",
		"state": "NORTH CAROLINA",
		"artcc": "ZTL",
		"type": "RNAV",
		"updated": "07/07/2014"
	},
	{
		"name": "HIDRO",
		"latitude": "33-57-22.73 N",
		"longitude": "84-47-29.26 W",
		"state": "GEORGIA",
		"artcc": "ZTL",
		"type": "RNAV",
		"updated": "07/25/2016"
	},
	{
		"name": "HIGAR",
		"latitude": "35-53-59.71 N",
		"longitude": "83-53-19.18 W",
		"state": "TENNESSEE",
		"artcc": "ZTL",
		"type": "RP",
		"updated": "VXV*VORTAC*137.90"
	},
	{
		"name": "HIGEM",
		"latitude": "32-43-15.91 N",
		"longitude": "83-39-41.01 W",
		"state": "GEORGIA",
		"artcc": "ZTL",
		"type": "MW",
		"updated": "05/14/2013"
	},
	{
		"name": "HIGEN",
		"latitude": "32-21-11.76 N",
		"longitude": "83-31-54.97 W",
		"state": "GEORGIA",
		"artcc": "ZTL",
		"type": "RNAV",
		"updated": "03/10/2011"
	},
	{
		"name": "HIGGI",
		"latitude": "35-26-46.57 N",
		"longitude": "83-46-41.05 W",
		"state": "NORTH CAROLINA",
		"artcc": "ZTL",
		"type": "RNAV",
		"updated": "07/26/2016"
	},
	{
		"name": "HIKAB",
		"latitude": "34-55-8.28 N",
		"longitude": "82-50-55.58 W",
		"state": "SOUTH CAROLINA",
		"artcc": "ZTL",
		"type": "RNAV",
		"updated": "04/13/2017"
	},
	{
		"name": "HIKUB",
		"latitude": "36-7-59.98 N",
		"longitude": "79-53-26.56 W",
		"state": "NORTH CAROLINA",
		"artcc": "ZTL",
		"type": "RNAV",
		"updated": "11/14/2002"
	},
	{
		"name": "HILAG",
		"latitude": "33-41-2.36 N",
		"longitude": "85-43-43.22 W",
		"state": "ALABAMA",
		"artcc": "ZTL",
		"type": "RNAV",
		"updated": "04/22/2010"
	},
	{
		"name": "HILEM",
		"latitude": "34-14-32.48 N",
		"longitude": "82-15-0.5 W",
		"state": "SOUTH CAROLINA",
		"artcc": "ZTL",
		"type": "RNAV",
		"updated": "09/20/2016"
	},
	{
		"name": "HILOP",
		"latitude": "35-24-41.71 N",
		"longitude": "83-17-26.89 W",
		"state": "NORTH CAROLINA",
		"artcc": "ZTL",
		"type": "RNAV",
		"updated": "02/07/2003"
	},
	{
		"name": "HILTO",
		"latitude": "36-41-48.46 N",
		"longitude": "82-26-7.44 W",
		"state": "VIRGINIA",
		"artcc": "ZTL",
		"type": "RP",
		"updated": "GZG*VOR/DME*248.00"
	},
	{
		"name": "HINCH",
		"latitude": "33-24-49.85 N",
		"longitude": "84-32-38.33 W",
		"state": "GEORGIA",
		"artcc": "ZTL",
		"type": "RP",
		"updated": "ATL*VORTAC*203.00/14.00"
	},
	{
		"name": "HINDE",
		"latitude": "35-29-11.79 N",
		"longitude": "84-3-7.57 W",
		"state": "TENNESSEE",
		"artcc": "ZTL",
		"type": "RP",
		"updated": "HCH*VOR/DME*113.00"
	},
	{
		"name": "HINIV",
		"latitude": "34-50-8.45 N",
		"longitude": "85-35-44.68 W",
		"state": "ALABAMA",
		"artcc": "ZTL",
		"type": "RNAV",
		"updated": "01/04/2007"
	},
	{
		"name": "HINUM",
		"latitude": "35-17-59.75 N",
		"longitude": "80-23-6.98 W",
		"state": "NORTH CAROLINA",
		"artcc": "ZTL",
		"type": "RNAV",
		"updated": "04/17/2010"
	},
	{
		"name": "HIPIX",
		"latitude": "33-16-50.39 N",
		"longitude": "86-34-16.98 W",
		"state": "ALABAMA",
		"artcc": "ZTL",
		"type": "RNAV",
		"updated": "08/17/2010"
	},
	{
		"name": "HIPUN",
		"latitude": "32-58-29.19 N",
		"longitude": "85-1-12.17 W",
		"state": "GEORGIA",
		"artcc": "ZTL",
		"type": "RP",
		"updated": "CSG*VORTAC*358.68"
	},
	{
		"name": "HIRAT",
		"latitude": "34-13-4.69 N",
		"longitude": "83-7-7 W",
		"state": "GEORGIA",
		"artcc": "ZTL",
		"type": "RNAV",
		"updated": "10/31/2013"
	},
	{
		"name": "HISEN",
		"latitude": "35-3-28.43 N",
		"longitude": "84-7-42.57 W",
		"state": "NORTH CAROLINA",
		"artcc": "ZTL",
		"type": "RNAV",
		"updated": "05/03/2002"
	},
	{
		"name": "HISGO",
		"latitude": "35-39-44.63 N",
		"longitude": "82-10-18.53 W",
		"state": "NORTH CAROLINA",
		"artcc": "ZTL",
		"type": "RNAV",
		"updated": "11/07/2014"
	},
	{
		"name": "HISMU",
		"latitude": "35-31-33.65 N",
		"longitude": "84-54-16.81 W",
		"state": "TENNESSEE",
		"artcc": "ZTL",
		"type": "RNAV",
		"updated": "06/15/2011"
	},
	{
		"name": "HISOD",
		"latitude": "34-53-7.9 N",
		"longitude": "80-43-9.95 W",
		"state": "NORTH CAROLINA",
		"artcc": "ZTL",
		"type": "RNAV",
		"updated": "02/03/2009"
	},
	{
		"name": "HITIT",
		"latitude": "34-58-57.37 N",
		"longitude": "83-15-32.79 W",
		"state": "GEORGIA",
		"artcc": "ZTL",
		"type": "RNAV",
		"updated": "03/19/2015"
	},
	{
		"name": "HITNI",
		"latitude": "35-10-57.88 N",
		"longitude": "81-53-19.81 W",
		"state": "SOUTH CAROLINA",
		"artcc": "ZTL",
		"type": "RNAV",
		"updated": "11/07/2011"
	},
	{
		"name": "HITNO",
		"latitude": "32-20-12.1 N",
		"longitude": "83-45-55.75 W",
		"state": "GEORGIA",
		"artcc": "ZTL",
		"type": "RNAV",
		"updated": "07/23/2007"
	},
	{
		"name": "HITTT",
		"latitude": "33-32-13.29 N",
		"longitude": "84-8-5.2 W",
		"state": "GEORGIA",
		"artcc": "ZTL",
		"type": "RNAV",
		"updated": "08/21/2017"
	},
	{
		"name": "HIVSI",
		"latitude": "35-20-46.95 N",
		"longitude": "81-28-1.99 W",
		"state": "NORTH CAROLINA",
		"artcc": "ZTL",
		"type": "RNAV",
		"updated": "11/03/2006"
	},
	{
		"name": "HIXEN",
		"latitude": "36-30-44.88 N",
		"longitude": "82-21-57.74 W",
		"state": "TENNESSEE",
		"artcc": "ZTL",
		"type": "RP",
		"updated": "HMV*VORTAC*295.62"
	},
	{
		"name": "HIXON",
		"latitude": "35-6-29.37 N",
		"longitude": "85-10-34.59 W",
		"state": "TENNESSEE",
		"artcc": "ZTL",
		"type": "RP",
		"updated": "02/13/2012"
	},
	{
		"name": "HIXOT",
		"latitude": "34-38-48.04 N",
		"longitude": "84-47-8.13 W",
		"state": "GEORGIA",
		"artcc": "ZTL",
		"type": "RNAV",
		"updated": "08/15/2006"
	},
	{
		"name": "HLNDS",
		"latitude": "34-29-30.87 N",
		"longitude": "85-6-59.69 W",
		"state": "GEORGIA",
		"artcc": "ZTL",
		"type": "RNAV",
		"updated": "07/26/2016"
	},
	{
		"name": "HMMPY",
		"latitude": "34-48-10.63 N",
		"longitude": "80-51-37.73 W",
		"state": "SOUTH CAROLINA",
		"artcc": "ZTL",
		"type": "RNAV",
		"updated": "05/06/2016"
	},
	{
		"name": "HOBBI",
		"latitude": "34-27-58.43 N",
		"longitude": "86-40-40.39 W",
		"state": "ALABAMA",
		"artcc": "ZME",
		"type": "RP",
		"updated": "DCU*VOR/DME*131.00/16.94"
	},
	{
		"name": "HOBID",
		"latitude": "35-52-26.92 N",
		"longitude": "83-39-33.77 W",
		"state": "TENNESSEE",
		"artcc": "ZTL",
		"type": "RNAV",
		"updated": "10/09/2008"
	},
	{
		"name": "HOBMO",
		"latitude": "33-53-1.11 N",
		"longitude": "84-23-35.07 W",
		"state": "GEORGIA",
		"artcc": "ZTL",
		"type": "MR",
		"updated": "DOB*TACAN*111.00/6.00"
	},
	{
		"name": "HOBTT",
		"latitude": "33-10-45.44 N",
		"longitude": "85-1-13.3 W",
		"state": "GEORGIA",
		"artcc": "ZTL",
		"type": "RNAV",
		"updated": "08/21/2017"
	},
	{
		"name": "HOCHE",
		"latitude": "34-48-6.29 N",
		"longitude": "84-53-49.79 W",
		"state": "GEORGIA",
		"artcc": "ZTL",
		"type": "RP",
		"updated": "RMG*VORTAC*015.00"
	},
	{
		"name": "HODAG",
		"latitude": "35-10-26.06 N",
		"longitude": "83-54-55.02 W",
		"state": "NORTH CAROLINA",
		"artcc": "ZTL",
		"type": "RNAV",
		"updated": "10/21/2014"
	},
	{
		"name": "HODNU",
		"latitude": "36-48-50.19 N",
		"longitude": "82-41-48.99 W",
		"state": "VIRGINIA",
		"artcc": "ZTL",
		"type": "RNAV",
		"updated": "05/11/2007"
	},
	{
		"name": "HODOE",
		"latitude": "32-34-44.52 N",
		"longitude": "84-50-8.01 W",
		"state": "GEORGIA",
		"artcc": "ZTL",
		"type": "RNAV",
		"updated": "11/09/2004"
	},
	{
		"name": "HODUS",
		"latitude": "35-57-27.9 N",
		"longitude": "84-24-13.61 W",
		"state": "TENNESSEE",
		"artcc": "ZTL",
		"type": "RNAV",
		"updated": "01/14/2003"
	},
	{
		"name": "HOGAL",
		"latitude": "36-41-38.16 N",
		"longitude": "80-23-7.09 W",
		"state": "VIRGINIA",
		"artcc": "ZTL",
		"type": "RNAV",
		"updated": "08/20/2010"
	},
	{
		"name": "HOGAN",
		"latitude": "33-12-16.92 N",
		"longitude": "84-56-53.05 W",
		"state": "GEORGIA",
		"artcc": "ZTL",
		"type": "RP",
		"updated": "LGC*VORTAC*053.31/16.00"
	},
	{
		"name": "HOGAP",
		"latitude": "35-12-52.35 N",
		"longitude": "81-38-56.78 W",
		"state": "NORTH CAROLINA",
		"artcc": "ZTL",
		"type": "RNAV",
		"updated": "12/08/2008"
	},
	{
		"name": "HOGEM",
		"latitude": "33-27-52.22 N",
		"longitude": "81-59-28.64 W",
		"state": "GEORGIA",
		"artcc": "ZTL",
		"type": "RP",
		"updated": "EMR*NDB*074.17"
	},
	{
		"name": "HOGGG",
		"latitude": "33-43-57.32 N",
		"longitude": "84-43-22.04 W",
		"state": "GEORGIA",
		"artcc": "ZTL",
		"type": "RNAV",
		"updated": "02/25/2013"
	},
	{
		"name": "HOGTA",
		"latitude": "35-5-18.42 N",
		"longitude": "83-4-9.46 W",
		"state": "NORTH CAROLINA",
		"artcc": "ZTL",
		"type": "RNAV",
		"updated": "11/06/2014"
	},
	{
		"name": "HOGUK",
		"latitude": "34-17-12.13 N",
		"longitude": "84-47-37.54 W",
		"state": "GEORGIA",
		"artcc": "ZTL",
		"type": "RNAV",
		"updated": "10/31/2013"
	},
	{
		"name": "HOGUV",
		"latitude": "33-30-26.52 N",
		"longitude": "82-3-40.29 W",
		"state": "GEORGIA",
		"artcc": "ZTL",
		"type": "RP",
		"updated": "IRQ*VORTAC*161.09/13.00"
	},
	{
		"name": "HOKES",
		"latitude": "33-55-30.08 N",
		"longitude": "85-59-33.2 W",
		"state": "ALABAMA",
		"artcc": "ZTL",
		"type": "RP",
		"updated": "GAD*VOR/DME*122.09/5.49"
	},
	{
		"name": "HOKID",
		"latitude": "34-0-57.29 N",
		"longitude": "83-5-55.19 W",
		"state": "GEORGIA",
		"artcc": "ZTL",
		"type": "RP",
		"updated": "AHN*VOR/DME*070.00/12.00"
	},
	{
		"name": "HOLTI",
		"latitude": "36-0-55.34 N",
		"longitude": "85-6-57.02 W",
		"state": "TENNESSEE",
		"artcc": "ZTL",
		"type": "RNAV",
		"updated": "11/15/2011"
	},
	{
		"name": "HOLTY",
		"latitude": "33-19-11.94 N",
		"longitude": "87-25-5.65 W",
		"state": "ALABAMA",
		"artcc": "ZTL",
		"type": "RP",
		"updated": "OKW*VORTAC*299.69"
	},
	{
		"name": "HOMEK",
		"latitude": "36-6-27.99 N",
		"longitude": "81-36-41.79 W",
		"state": "NORTH CAROLINA",
		"artcc": "ZTL",
		"type": "RP",
		"updated": "HMV*VORTAC*131.98/31.95"
	},
	{
		"name": "HOMEL",
		"latitude": "35-11-27.61 N",
		"longitude": "86-27-36.85 W",
		"state": "TENNESSEE",
		"artcc": "ZME",
		"type": "RNAV",
		"updated": "05/06/2016"
	},
	{
		"name": "HOMRU",
		"latitude": "33-10-7.61 N",
		"longitude": "81-55-4.29 W",
		"state": "GEORGIA",
		"artcc": "ZTL",
		"type": "RNAV",
		"updated": "06/12/2012"
	},
	{
		"name": "HONEB",
		"latitude": "36-37-32.43 N",
		"longitude": "83-16-44.66 W",
		"state": "VIRGINIA",
		"artcc": "ZTL",
		"type": "RNAV",
		"updated": "01/13/2017"
	},
	{
		"name": "HONIE",
		"latitude": "33-11-1.6 N",
		"longitude": "85-1-42.97 W",
		"state": "GEORGIA",
		"artcc": "ZTL",
		"type": "RP",
		"updated": "CSG*VORTAC*358.07/34.05"
	},
	{
		"name": "HONIS",
		"latitude": "32-52-0.55 N",
		"longitude": "86-31-2.31 W",
		"state": "ALABAMA",
		"artcc": "ZTL",
		"type": "RNAV",
		"updated": "08/11/2016"
	},
	{
		"name": "HONKA",
		"latitude": "32-48-45.38 N",
		"longitude": "83-27-18 W",
		"state": "GEORGIA",
		"artcc": "ZTL",
		"type": "RNAV",
		"updated": "05/27/2016"
	},
	{
		"name": "HONRR",
		"latitude": "33-57-35 N",
		"longitude": "85-1-28.33 W",
		"state": "GEORGIA",
		"artcc": "ZTL",
		"type": "RNAV",
		"updated": "01/30/2014"
	},
	{
		"name": "HOPEN",
		"latitude": "36-5-12.87 N",
		"longitude": "83-10-33.69 W",
		"state": "TENNESSEE",
		"artcc": "ZTL",
		"type": "RNAV",
		"updated": "04/27/2018"
	},
	{
		"name": "HOPLU",
		"latitude": "33-46-18.76 N",
		"longitude": "83-30-10.67 W",
		"state": "GEORGIA",
		"artcc": "ZTL",
		"type": "RNAV",
		"updated": "09/09/2015"
	},
	{
		"name": "HORAM",
		"latitude": "34-41-50.49 N",
		"longitude": "85-37-43.13 W",
		"state": "ALABAMA",
		"artcc": "ZTL",
		"type": "RNAV",
		"updated": "08/18/2010"
	},
	{
		"name": "HORIG",
		"latitude": "35-35-35 N",
		"longitude": "84-11-11 W",
		"state": "TENNESSEE",
		"artcc": "ZTL",
		"type": "RNAV",
		"updated": "01/14/2003"
	},
	{
		"name": "HORPO",
		"latitude": "33-52-9.27 N",
		"longitude": "86-5-11.47 W",
		"state": "ALABAMA",
		"artcc": "ZTL",
		"type": "RNAV",
		"updated": "07/15/2011"
	},
	{
		"name": "HORUX",
		"latitude": "34-12-38.42 N",
		"longitude": "81-51-19.77 W",
		"state": "SOUTH CAROLINA",
		"artcc": "ZTL",
		"type": "RNAV",
		"updated": "05/27/2009"
	},
	{
		"name": "HOSED",
		"latitude": "36-34-27.73 N",
		"longitude": "82-14-25.43 W",
		"state": "TENNESSEE",
		"artcc": "ZTL",
		"type": "RNAV",
		"updated": "07/14/2009"
	},
	{
		"name": "HOSEM",
		"latitude": "36-19-3.74 N",
		"longitude": "82-35-11.4 W",
		"state": "TENNESSEE",
		"artcc": "ZTL",
		"type": "RNAV",
		"updated": "12/14/2011"
	},
	{
		"name": "HOTHH",
		"latitude": "33-3-25.84 N",
		"longitude": "81-51-46.87 W",
		"state": "GEORGIA",
		"artcc": "ZTL",
		"type": "RNAV",
		"updated": "09/06/2017"
	},
	{
		"name": "HOTKA",
		"latitude": "33-47-35.75 N",
		"longitude": "84-12-8.63 W",
		"state": "GEORGIA",
		"artcc": "ZTL",
		"type": "RNAV",
		"updated": "04/08/2011"
	},
	{
		"name": "HOUPS",
		"latitude": "34-8-10.24 N",
		"longitude": "84-10-32.15 W",
		"state": "GEORGIA",
		"artcc": "ZTL",
		"type": "RNAV",
		"updated": "07/26/2016"
	},
	{
		"name": "HOVDO",
		"latitude": "35-13-58.25 N",
		"longitude": "84-16-51.31 W",
		"state": "TENNESSEE",
		"artcc": "ZTL",
		"type": "RNAV",
		"updated": "07/04/2011"
	},
	{
		"name": "HOVEN",
		"latitude": "31-39-50.98 N",
		"longitude": "87-19-34.24 W",
		"state": "ALABAMA",
		"artcc": "ZTL",
		"type": "RNAV",
		"updated": "10/16/2007"
	},
	{
		"name": "HOXOD",
		"latitude": "33-49-54.62 N",
		"longitude": "82-54-9.03 W",
		"state": "GEORGIA",
		"artcc": "ZTL",
		"type": "RNAV",
		"updated": "08/04/2008"
	},
	{
		"name": "HOYYT",
		"latitude": "33-50-54.53 N",
		"longitude": "84-10-45.04 W",
		"state": "GEORGIA",
		"artcc": "ZTL",
		"type": "RNAV",
		"updated": "12/09/2015"
	},
	{
		"name": "HRDEY",
		"latitude": "33-38-4.24 N",
		"longitude": "84-39-0.64 W",
		"state": "GEORGIA",
		"artcc": "ZTL",
		"type": "RP",
		"updated": "HZK*LD*274.99/11.92"
	},
	{
		"name": "HRSHL",
		"latitude": "33-40-57.97 N",
		"longitude": "84-16-46.44 W",
		"state": "GEORGIA",
		"artcc": "ZTL",
		"type": "RNAV",
		"updated": "01/14/2005"
	},
	{
		"name": "HRVEY",
		"latitude": "34-45-15.59 N",
		"longitude": "84-54-18.52 W",
		"state": "GEORGIA",
		"artcc": "ZTL",
		"type": "RNAV",
		"updated": "03/20/2017"
	},
	{
		"name": "HUBIE",
		"latitude": "34-28-39.05 N",
		"longitude": "85-10-46.77 W",
		"state": "GEORGIA",
		"artcc": "ZTL",
		"type": "RP",
		"updated": "RMG*VORTAC*350.00/19.10"
	},
	{
		"name": "HUBIG",
		"latitude": "32-25-47.24 N",
		"longitude": "86-24-3.27 W",
		"state": "ALABAMA",
		"artcc": "ZTL",
		"type": "MW",
		"updated": "09/24/2007"
	},
	{
		"name": "HUBJO",
		"latitude": "36-20-37.28 N",
		"longitude": "84-9-2.93 W",
		"state": "TENNESSEE",
		"artcc": "ZTL",
		"type": "RNAV",
		"updated": "04/19/2007"
	},
	{
		"name": "HUBJU",
		"latitude": "34-4-52.58 N",
		"longitude": "85-51-10.2 W",
		"state": "ALABAMA",
		"artcc": "ZTL",
		"type": "RP",
		"updated": "GAD*VOR/DME*059.30/13.11"
	},
	{
		"name": "HUBUP",
		"latitude": "35-34-27.06 N",
		"longitude": "80-51-12.63 W",
		"state": "NORTH CAROLINA",
		"artcc": "ZTL",
		"type": "RNAV",
		"updated": "08/22/2013"
	},
	{
		"name": "HUBVA",
		"latitude": "36-22-30.38 N",
		"longitude": "81-20-44.67 W",
		"state": "NORTH CAROLINA",
		"artcc": "ZTL",
		"type": "RP",
		"updated": "BZM*VOR/DME*356.46/30.76"
	},
	{
		"name": "HUCHH",
		"latitude": "34-45-49.23 N",
		"longitude": "84-9-0.31 W",
		"state": "GEORGIA",
		"artcc": "ZTL",
		"type": "RNAV",
		"updated": "12/09/2015"
	},
	{
		"name": "HUDBO",
		"latitude": "34-20-6.52 N",
		"longitude": "83-51-55.24 W",
		"state": "GEORGIA",
		"artcc": "ZTL",
		"type": "RNAV",
		"updated": "03/30/2006"
	},
	{
		"name": "HUDUR",
		"latitude": "34-49-52.4 N",
		"longitude": "82-18-8.18 W",
		"state": "SOUTH CAROLINA",
		"artcc": "ZTL",
		"type": "RNAV",
		"updated": "02/02/2007"
	},
	{
		"name": "HUGIS",
		"latitude": "35-42-34.83 N",
		"longitude": "79-52-4.88 W",
		"state": "NORTH CAROLINA",
		"artcc": "ZTL",
		"type": "RNAV",
		"updated": "05/18/2017"
	},
	{
		"name": "HUKAP",
		"latitude": "33-48-32.74 N",
		"longitude": "84-14-20.84 W",
		"state": "GEORGIA",
		"artcc": "ZTL",
		"type": "RNAV",
		"updated": "01/03/2013"
	},
	{
		"name": "HUKEV",
		"latitude": "33-38-45.38 N",
		"longitude": "86-36-47.13 W",
		"state": "ALABAMA",
		"artcc": "ZTL",
		"type": "RP",
		"updated": "ROE*LD*058.48/9.80"
	},
	{
		"name": "HULGA",
		"latitude": "32-49-15.49 N",
		"longitude": "83-48-3.66 W",
		"state": "GEORGIA",
		"artcc": "ZTL",
		"type": "MR",
		"updated": "MCN*VORTAC*314.00/11.00"
	},
	{
		"name": "HULMO",
		"latitude": "32-12-12.46 N",
		"longitude": "83-11-59.04 W",
		"state": "GEORGIA",
		"artcc": "ZJX",
		"type": "MR",
		"updated": "MCN*VORTAC*141.00/37.00"
	},
	{
		"name": "HULNO",
		"latitude": "34-37-36.56 N",
		"longitude": "82-46-33.22 W",
		"state": "SOUTH CAROLINA",
		"artcc": "ZTL",
		"type": "RNAV",
		"updated": "04/15/2010"
	},
	{
		"name": "HULUV",
		"latitude": "35-31-0.55 N",
		"longitude": "84-32-47.92 W",
		"state": "TENNESSEE",
		"artcc": "ZTL",
		"type": "RNAV",
		"updated": "10/29/2013"
	},
	{
		"name": "HUMDA",
		"latitude": "32-16-31.21 N",
		"longitude": "83-5-30.39 W",
		"state": "GEORGIA",
		"artcc": "ZJX",
		"type": "RNAV",
		"updated": "09/15/2009"
	},
	{
		"name": "HUMIL",
		"latitude": "35-53-29.54 N",
		"longitude": "84-4-51.85 W",
		"state": "TENNESSEE",
		"artcc": "ZTL",
		"type": "RNAV",
		"updated": "06/11/2012"
	},
	{
		"name": "HUNEX",
		"latitude": "34-55-33.83 N",
		"longitude": "80-55-38.35 W",
		"state": "SOUTH CAROLINA",
		"artcc": "ZTL",
		"type": "RP",
		"updated": "CLT*VOR/DME*/15.87"
	},
	{
		"name": "HUNOG",
		"latitude": "32-58-15.01 N",
		"longitude": "85-5-41.33 W",
		"state": "GEORGIA",
		"artcc": "ZTL",
		"type": "RNAV",
		"updated": "02/22/2010"
	},
	{
		"name": "HUNOS",
		"latitude": "35-29-14.66 N",
		"longitude": "80-20-55.02 W",
		"state": "NORTH CAROLINA",
		"artcc": "ZTL",
		"type": "RNAV",
		"updated": "04/17/2010"
	},
	{
		"name": "HUPNI",
		"latitude": "34-59-38.05 N",
		"longitude": "81-8-50.68 W",
		"state": "SOUTH CAROLINA",
		"artcc": "ZTL",
		"type": "RNAV",
		"updated": "09/30/2008"
	},
	{
		"name": "HUPOX",
		"latitude": "34-17-27.36 N",
		"longitude": "85-15-51.17 W",
		"state": "GEORGIA",
		"artcc": "ZTL",
		"type": "RNAV",
		"updated": "01/28/2009"
	},
	{
		"name": "HURGO",
		"latitude": "34-35-29.13 N",
		"longitude": "85-0-36.09 W",
		"state": "GEORGIA",
		"artcc": "ZTL",
		"type": "RNAV",
		"updated": "04/17/2017"
	},
	{
		"name": "HUROG",
		"latitude": "35-19-5.33 N",
		"longitude": "86-52-45.56 W",
		"state": "TENNESSEE",
		"artcc": "ZME",
		"type": "RNAV",
		"updated": "08/11/2010"
	},
	{
		"name": "HURTO",
		"latitude": "34-15-18.32 N",
		"longitude": "82-4-2.37 W",
		"state": "SOUTH CAROLINA",
		"artcc": "ZTL",
		"type": "RNAV",
		"updated": "09/20/2016"
	},
	{
		"name": "HUSKU",
		"latitude": "35-25-44.41 N",
		"longitude": "86-9-22.4 W",
		"state": "TENNESSEE",
		"artcc": "ZME",
		"type": "RNAV",
		"updated": "06/29/2011"
	},
	{
		"name": "HUSKY",
		"latitude": "33-19-49.65 N",
		"longitude": "83-58-48.75 W",
		"state": "GEORGIA",
		"artcc": "ZTL",
		"type": "RP",
		"updated": "AHN*VOR/DME*221.80"
	},
	{
		"name": "HUSNY",
		"latitude": "34-36-13.91 N",
		"longitude": "81-9-3.31 W",
		"state": "SOUTH CAROLINA",
		"artcc": "ZTL",
		"type": "RNAV",
		"updated": "10/09/2008"
	},
	{
		"name": "HUSOP",
		"latitude": "36-17-49.77 N",
		"longitude": "82-24-3.65 W",
		"state": "TENNESSEE",
		"artcc": "ZTL",
		"type": "RNAV",
		"updated": "10/31/2017"
	},
	{
		"name": "HUSTN",
		"latitude": "34-53-19.79 N",
		"longitude": "80-34-19.56 W",
		"state": "NORTH CAROLINA",
		"artcc": "ZTL",
		"type": "RP",
		"updated": "FAY*VOR/DME*270.53/83.91"
	},
	{
		"name": "HUSUL",
		"latitude": "35-32-19.8 N",
		"longitude": "81-55-35.54 W",
		"state": "NORTH CAROLINA",
		"artcc": "ZTL",
		"type": "RNAV",
		"updated": "04/16/2014"
	},
	{
		"name": "HUTGO",
		"latitude": "34-36-34.42 N",
		"longitude": "85-30-17.93 W",
		"state": "GEORGIA",
		"artcc": "ZTL",
		"type": "RNAV",
		"updated": "08/18/2010"
	},
	{
		"name": "HUTUN",
		"latitude": "34-49-49.66 N",
		"longitude": "86-35-37.28 W",
		"state": "ALABAMA",
		"artcc": "ZME",
		"type": "RP",
		"updated": "RQZ*VORTAC*042.90/2.81"
	},
	{
		"name": "HUVEP",
		"latitude": "35-35-46.22 N",
		"longitude": "84-28-48.39 W",
		"state": "TENNESSEE",
		"artcc": "ZTL",
		"type": "RNAV",
		"updated": "04/18/2010"
	},
	{
		"name": "HUVOV",
		"latitude": "33-51-53.78 N",
		"longitude": "83-21-36.96 W",
		"state": "GEORGIA",
		"artcc": "ZTL",
		"type": "RNAV",
		"updated": "09/09/2015"
	},
	{
		"name": "HUVPO",
		"latitude": "35-23-41.84 N",
		"longitude": "84-30-44.66 W",
		"state": "TENNESSEE",
		"artcc": "ZTL",
		"type": "RNAV",
		"updated": "04/22/2014"
	},
	{
		"name": "HUVSA",
		"latitude": "34-24-3.1 N",
		"longitude": "82-40-53.85 W",
		"state": "SOUTH CAROLINA",
		"artcc": "ZTL",
		"type": "RNAV",
		"updated": "09/25/2013"
	},
	{
		"name": "HUXEB",
		"latitude": "32-24-33.16 N",
		"longitude": "87-20-53.72 W",
		"state": "ALABAMA",
		"artcc": "ZTL",
		"type": "RNAV",
		"updated": "06/27/2013"
	},
	{
		"name": "HUZER",
		"latitude": "32-56-12.78 N",
		"longitude": "84-2-57.38 W",
		"state": "GEORGIA",
		"artcc": "ZTL",
		"type": "RP",
		"updated": "CSG*VORTAC*067.28/52.64"
	},
	{
		"name": "HWSEE",
		"latitude": "35-17-45.06 N",
		"longitude": "84-44-31.99 W",
		"state": "TENNESSEE",
		"artcc": "ZTL",
		"type": "RNAV",
		"updated": "04/22/2014"
	},
	{
		"name": "HYDER",
		"latitude": "35-58-40.41 N",
		"longitude": "84-58-28.59 W",
		"state": "TENNESSEE",
		"artcc": "ZTL",
		"type": "RP",
		"updated": "HCH*VOR/DME*002.91"
	},
	{
		"name": "HYZMN",
		"latitude": "33-27-25.15 N",
		"longitude": "84-16-35 W",
		"state": "GEORGIA",
		"artcc": "ZTL",
		"type": "RNAV",
		"updated": "06/28/2007"
	}
]
