[
	{
		"name": "IBAYY",
		"latitude": "33-36-48.27 N",
		"longitude": "83-36-51.94 W",
		"state": "GEORGIA",
		"artcc": "ZTL",
		"type": "RNAV",
		"updated": "09/24/2012"
	},
	{
		"name": "IBBUW",
		"latitude": "33-58-40.65 N",
		"longitude": "83-57-44.25 W",
		"state": "GEORGIA",
		"artcc": "ZTL",
		"type": "RNAV",
		"updated": "04/30/2007"
	},
	{
		"name": "IBIDE",
		"latitude": "35-40-26.6 N",
		"longitude": "81-24-11.59 W",
		"state": "NORTH CAROLINA",
		"artcc": "ZTL",
		"type": "RNAV",
		"updated": "07/15/2011"
	},
	{
		"name": "IBUDY",
		"latitude": "33-9-43.26 N",
		"longitude": "83-31-3.96 W",
		"state": "GEORGIA",
		"artcc": "ZTL",
		"type": "RNAV",
		"updated": "12/26/2017"
	},
	{
		"name": "IBUNE",
		"latitude": "34-27-8.76 N",
		"longitude": "81-30-38.51 W",
		"state": "SOUTH CAROLINA",
		"artcc": "ZTL",
		"type": "RNAV",
		"updated": "05/27/2009"
	},
	{
		"name": "ICASY",
		"latitude": "34-39-59.88 N",
		"longitude": "82-15-7.01 W",
		"state": "SOUTH CAROLINA",
		"artcc": "ZTL",
		"type": "RNAV",
		"updated": "05/27/2009"
	},
	{
		"name": "ICAVO",
		"latitude": "32-44-49.87 N",
		"longitude": "83-36-14.91 W",
		"state": "GEORGIA",
		"artcc": "ZTL",
		"type": "RP",
		"updated": "MCN*VORTAC*032.00/4.00"
	},
	{
		"name": "ICECA",
		"latitude": "32-38-21.02 N",
		"longitude": "85-8-16.73 W",
		"state": "ALABAMA",
		"artcc": "ZTL",
		"type": "RNAV",
		"updated": "10/27/2004"
	},
	{
		"name": "ICEKE",
		"latitude": "35-5-47.48 N",
		"longitude": "85-15-4.81 W",
		"state": "TENNESSEE",
		"artcc": "ZTL",
		"type": "RNAV",
		"updated": "08/11/2005"
	},
	{
		"name": "ICENU",
		"latitude": "35-45-33.3 N",
		"longitude": "80-53-42.81 W",
		"state": "NORTH CAROLINA",
		"artcc": "ZTL",
		"type": "RP",
		"updated": "SVH*LD*104.84/3.60"
	},
	{
		"name": "ICONS",
		"latitude": "34-37-14.82 N",
		"longitude": "80-58-21.27 W",
		"state": "SOUTH CAROLINA",
		"artcc": "ZTL",
		"type": "RNAV",
		"updated": "05/06/2016"
	},
	{
		"name": "ICONU",
		"latitude": "36-57-49.06 N",
		"longitude": "82-11-59.97 W",
		"state": "VIRGINIA",
		"artcc": "ZTL",
		"type": "RP",
		"updated": "GZG*VOR/DME*326.98/10.14"
	},
	{
		"name": "ICOTE",
		"latitude": "32-16-39.68 N",
		"longitude": "86-8-12.41 W",
		"state": "ALABAMA",
		"artcc": "ZTL",
		"type": "RNAV",
		"updated": "08/13/2013"
	},
	{
		"name": "ICUSI",
		"latitude": "34-13-44.05 N",
		"longitude": "84-58-46.75 W",
		"state": "GEORGIA",
		"artcc": "ZTL",
		"type": "RNAV",
		"updated": "10/31/2013"
	},
	{
		"name": "IDAXE",
		"latitude": "35-58-22.06 N",
		"longitude": "83-25-39.41 W",
		"state": "TENNESSEE",
		"artcc": "ZTL",
		"type": "RNAV",
		"updated": "10/09/2008"
	},
	{
		"name": "IDDAA",
		"latitude": "35-11-5.1 N",
		"longitude": "79-59-30.69 W",
		"state": "NORTH CAROLINA",
		"artcc": "ZTL",
		"type": "RNAV",
		"updated": "01/16/2014"
	},
	{
		"name": "IDEVY",
		"latitude": "33-9-30.64 N",
		"longitude": "84-3-47.4 W",
		"state": "GEORGIA",
		"artcc": "ZTL",
		"type": "RNAV",
		"updated": "06/11/2012"
	},
	{
		"name": "IDEYA",
		"latitude": "35-28-57.39 N",
		"longitude": "86-3-6.7 W",
		"state": "TENNESSEE",
		"artcc": "ZME",
		"type": "RNAV",
		"updated": "06/29/2011"
	},
	{
		"name": "IGEBE",
		"latitude": "33-43-58.98 N",
		"longitude": "84-2-14.06 W",
		"state": "GEORGIA",
		"artcc": "ZTL",
		"type": "RNAV",
		"updated": "12/16/2013"
	},
	{
		"name": "IJBEW",
		"latitude": "32-33-47.11 N",
		"longitude": "83-49-17.11 W",
		"state": "GEORGIA",
		"artcc": "ZTL",
		"type": "RP",
		"updated": "VNA*VORTAC*320.90"
	},
	{
		"name": "IJFIJ",
		"latitude": "35-40-57.72 N",
		"longitude": "84-13-7.37 W",
		"state": "TENNESSEE",
		"artcc": "ZTL",
		"type": "RNAV",
		"updated": "01/04/2013"
	},
	{
		"name": "IKAGE",
		"latitude": "31-44-40.56 N",
		"longitude": "85-8-39.24 W",
		"state": "ALABAMA",
		"artcc": "ZJX",
		"type": "RNAV",
		"updated": "07/14/2011"
	},
	{
		"name": "IKBAJ",
		"latitude": "32-49-0.98 N",
		"longitude": "83-49-4.31 W",
		"state": "GEORGIA",
		"artcc": "ZTL",
		"type": "RNAV",
		"updated": "06/09/2011"
	},
	{
		"name": "IKEBE",
		"latitude": "33-55-3.45 N",
		"longitude": "84-51-49.32 W",
		"state": "GEORGIA",
		"artcc": "ZTL",
		"type": "RNAV",
		"updated": "05/14/2007"
	},
	{
		"name": "IKECE",
		"latitude": "34-58-35.63 N",
		"longitude": "80-54-21.49 W",
		"state": "NORTH CAROLINA",
		"artcc": "ZTL",
		"type": "RP",
		"updated": "CLT*VOR/DME*175.00/13.00"
	},
	{
		"name": "IKICO",
		"latitude": "34-56-6.8 N",
		"longitude": "81-2-37.21 W",
		"state": "SOUTH CAROLINA",
		"artcc": "ZTL",
		"type": "RNAV",
		"updated": "03/13/2009"
	},
	{
		"name": "IKIMY",
		"latitude": "33-22-47.48 N",
		"longitude": "86-49-52.86 W",
		"state": "ALABAMA",
		"artcc": "ZTL",
		"type": "RNAV",
		"updated": "08/06/2010"
	},
	{
		"name": "IKPEZ",
		"latitude": "35-44-17.52 N",
		"longitude": "80-29-16.25 W",
		"state": "NORTH CAROLINA",
		"artcc": "ZTL",
		"type": "RNAV",
		"updated": "04/21/2011"
	},
	{
		"name": "IKWAM",
		"latitude": "35-50-24.62 N",
		"longitude": "80-12-54.7 W",
		"state": "NORTH CAROLINA",
		"artcc": "ZTL",
		"type": "RNAV",
		"updated": "06/06/2012"
	},
	{
		"name": "ILEYO",
		"latitude": "34-54-45.3 N",
		"longitude": "82-13-9.54 W",
		"state": "SOUTH CAROLINA",
		"artcc": "ZTL",
		"type": "RP",
		"updated": "SPA*VORTAC*245.37"
	},
	{
		"name": "ILLER",
		"latitude": "36-2-57.22 N",
		"longitude": "83-50-37.47 W",
		"state": "TENNESSEE",
		"artcc": "ZTL",
		"type": "RP",
		"updated": "VXV*VORTAC*019.00/9.00"
	},
	{
		"name": "ILMUH",
		"latitude": "35-5-27.42 N",
		"longitude": "81-20-17.72 W",
		"state": "SOUTH CAROLINA",
		"artcc": "ZTL",
		"type": "RNAV",
		"updated": "02/29/2000"
	},
	{
		"name": "IMASY",
		"latitude": "32-52-14.53 N",
		"longitude": "82-26-5.65 W",
		"state": "GEORGIA",
		"artcc": "ZTL",
		"type": "RNAV",
		"updated": "04/11/2011"
	},
	{
		"name": "IMAVE",
		"latitude": "33-57-16.85 N",
		"longitude": "83-5-37.32 W",
		"state": "GEORGIA",
		"artcc": "ZTL",
		"type": "RP",
		"updated": "AHN*VOR/DME*/11.54"
	},
	{
		"name": "IMEXE",
		"latitude": "33-10-10.6 N",
		"longitude": "86-3-30.51 W",
		"state": "ALABAMA",
		"artcc": "ZTL",
		"type": "RNAV",
		"updated": "11/30/2009"
	},
	{
		"name": "IMNEH",
		"latitude": "36-38-25.61 N",
		"longitude": "82-49-50.31 W",
		"state": "VIRGINIA",
		"artcc": "ZTL",
		"type": "RNAV",
		"updated": "01/13/2017"
	},
	{
		"name": "IMOBY",
		"latitude": "33-24-12.85 N",
		"longitude": "86-44-48.05 W",
		"state": "ALABAMA",
		"artcc": "ZTL",
		"type": "RNAV",
		"updated": "09/01/2009"
	},
	{
		"name": "IMTOY",
		"latitude": "33-36-23.8 N",
		"longitude": "86-44-49.83 W",
		"state": "ALABAMA",
		"artcc": "ZTL",
		"type": "RP",
		"updated": "BXO*LE*003.03/3.34"
	},
	{
		"name": "IMUPY",
		"latitude": "35-3-59.66 N",
		"longitude": "82-5-16.21 W",
		"state": "SOUTH CAROLINA",
		"artcc": "ZTL",
		"type": "RNAV",
		"updated": "03/22/2007"
	},
	{
		"name": "INCHU",
		"latitude": "32-33-33.88 N",
		"longitude": "86-26-1.92 W",
		"state": "ALABAMA",
		"artcc": "ZTL",
		"type": "MR",
		"updated": "MGM*VORTAC*341.00/21.00"
	},
	{
		"name": "INGON",
		"latitude": "36-13-6.99 N",
		"longitude": "80-17-39.89 W",
		"state": "NORTH CAROLINA",
		"artcc": "ZTL",
		"type": "RP",
		"updated": "GSO*VORTAC*306.92"
	},
	{
		"name": "INIKE",
		"latitude": "33-36-57.4 N",
		"longitude": "82-13-26.24 W",
		"state": "GEORGIA",
		"artcc": "ZTL",
		"type": "RNAV",
		"updated": "01/06/2017"
	},
	{
		"name": "INKEH",
		"latitude": "35-50-42.64 N",
		"longitude": "81-12-3.85 W",
		"state": "NORTH CAROLINA",
		"artcc": "ZTL",
		"type": "RNAV",
		"updated": "07/15/2011"
	},
	{
		"name": "INMAN",
		"latitude": "33-49-18.51 N",
		"longitude": "84-25-23.31 W",
		"state": "GEORGIA",
		"artcc": "ZTL",
		"type": "RP",
		"updated": "PDK*VOR/DME*247.61/7.00"
	},
	{
		"name": "INNOR",
		"latitude": "35-10-56.17 N",
		"longitude": "80-49-43.8 W",
		"state": "NORTH CAROLINA",
		"artcc": "ZTL",
		"type": "RNAV",
		"updated": "02/09/2016"
	},
	{
		"name": "INOGE",
		"latitude": "33-14-15.03 N",
		"longitude": "84-23-26.17 W",
		"state": "GEORGIA",
		"artcc": "ZTL",
		"type": "RNAV",
		"updated": "09/06/2012"
	},
	{
		"name": "INWAL",
		"latitude": "35-22-58.84 N",
		"longitude": "81-29-14.35 W",
		"state": "NORTH CAROLINA",
		"artcc": "ZTL",
		"type": "RNAV",
		"updated": "05/12/2016"
	},
	{
		"name": "INXUF",
		"latitude": "32-23-34.21 N",
		"longitude": "83-14-20.15 W",
		"state": "GEORGIA",
		"artcc": "ZTL",
		"type": "RNAV",
		"updated": "07/27/2010"
	},
	{
		"name": "IPECA",
		"latitude": "34-37-25.48 N",
		"longitude": "84-32-15.79 W",
		"state": "GEORGIA",
		"artcc": "ZTL",
		"type": "RNAV",
		"updated": "08/20/2007"
	},
	{
		"name": "IPJOM",
		"latitude": "32-49-31.69 N",
		"longitude": "83-28-38.43 W",
		"state": "GEORGIA",
		"artcc": "ZTL",
		"type": "RNAV",
		"updated": "08/09/2010"
	},
	{
		"name": "IPTAY",
		"latitude": "34-20-56.57 N",
		"longitude": "82-50-23.07 W",
		"state": "GEORGIA",
		"artcc": "ZTL",
		"type": "RNAV",
		"updated": "06/25/2015"
	},
	{
		"name": "IPUDE",
		"latitude": "34-53-7.69 N",
		"longitude": "86-43-52.99 W",
		"state": "ALABAMA",
		"artcc": "ZME",
		"type": "MW",
		"updated": "04/28/2008"
	},
	{
		"name": "IPWIT",
		"latitude": "35-34-8.61 N",
		"longitude": "81-2-19.69 W",
		"state": "NORTH CAROLINA",
		"artcc": "ZTL",
		"type": "RP",
		"updated": "BZM*VOR/DME*157.19/20.49"
	},
	{
		"name": "IQEGO",
		"latitude": "35-30-54.18 N",
		"longitude": "81-55-42.16 W",
		"state": "NORTH CAROLINA",
		"artcc": "ZTL",
		"type": "RNAV",
		"updated": "08/15/2010"
	},
	{
		"name": "IQPOD",
		"latitude": "35-47-39.15 N",
		"longitude": "80-21-41.51 W",
		"state": "NORTH CAROLINA",
		"artcc": "ZTL",
		"type": "RNAV",
		"updated": "12/20/2001"
	},
	{
		"name": "IQPOR",
		"latitude": "35-50-40.15 N",
		"longitude": "80-13-29.08 W",
		"state": "NORTH CAROLINA",
		"artcc": "ZTL",
		"type": "RP",
		"updated": "GSO*VORTAC*228.18/17.08"
	},
	{
		"name": "IRIVE",
		"latitude": "36-5-41.64 N",
		"longitude": "81-5-41.53 W",
		"state": "NORTH CAROLINA",
		"artcc": "ZTL",
		"type": "RP",
		"updated": "UKF*LD*186.65/8.34"
	},
	{
		"name": "IRKUW",
		"latitude": "35-56-57.8 N",
		"longitude": "79-46-8.36 W",
		"state": "NORTH CAROLINA",
		"artcc": "ZTL",
		"type": "RNAV",
		"updated": "11/07/2013"
	},
	{
		"name": "IRMOS",
		"latitude": "34-13-5.69 N",
		"longitude": "83-26-36.18 W",
		"state": "GEORGIA",
		"artcc": "ZTL",
		"type": "RP",
		"updated": "AHN*VOR/DME*340.00/17.26"
	},
	{
		"name": "IROPY",
		"latitude": "35-1-19.03 N",
		"longitude": "82-0-7.43 W",
		"state": "SOUTH CAROLINA",
		"artcc": "ZTL",
		"type": "RNAV",
		"updated": "03/22/2007"
	},
	{
		"name": "IROSY",
		"latitude": "33-25-5.68 N",
		"longitude": "87-32-7.02 W",
		"state": "ALABAMA",
		"artcc": "ZTL",
		"type": "RNAV",
		"updated": "02/12/2008"
	},
	{
		"name": "IRXEF",
		"latitude": "32-51-34.32 N",
		"longitude": "82-9-37.41 W",
		"state": "GEORGIA",
		"artcc": "ZTL",
		"type": "RNAV",
		"updated": "05/22/2017"
	},
	{
		"name": "ISATE",
		"latitude": "34-20-27.54 N",
		"longitude": "84-23-28.13 W",
		"state": "GEORGIA",
		"artcc": "ZTL",
		"type": "RNAV",
		"updated": "07/19/2011"
	},
	{
		"name": "ISAYE",
		"latitude": "35-9-6.73 N",
		"longitude": "83-59-49.38 W",
		"state": "NORTH CAROLINA",
		"artcc": "ZTL",
		"type": "RNAV",
		"updated": "07/10/2017"
	},
	{
		"name": "ISBAW",
		"latitude": "34-29-7.24 N",
		"longitude": "85-42-35.18 W",
		"state": "ALABAMA",
		"artcc": "ZTL",
		"type": "RNAV",
		"updated": "08/18/2010"
	},
	{
		"name": "ISBIW",
		"latitude": "35-20-50.57 N",
		"longitude": "84-38-19.14 W",
		"state": "TENNESSEE",
		"artcc": "ZTL",
		"type": "RNAV",
		"updated": "07/10/2017"
	},
	{
		"name": "ISIYA",
		"latitude": "35-38-30.1 N",
		"longitude": "85-8-28.43 W",
		"state": "TENNESSEE",
		"artcc": "ZTL",
		"type": "RNAV",
		"updated": "01/09/2001"
	},
	{
		"name": "ISOJO",
		"latitude": "33-25-39.85 N",
		"longitude": "87-12-43.5 W",
		"state": "ALABAMA",
		"artcc": "ZTL",
		"type": "RNAV",
		"updated": "08/18/2010"
	},
	{
		"name": "ISOPY",
		"latitude": "32-2-45.32 N",
		"longitude": "86-40-54.12 W",
		"state": "ALABAMA",
		"artcc": "ZTL",
		"type": "RNAV",
		"updated": "08/24/2004"
	},
	{
		"name": "ISRAW",
		"latitude": "31-46-48.05 N",
		"longitude": "86-32-43.77 W",
		"state": "ALABAMA",
		"artcc": "ZTL",
		"type": "RNAV",
		"updated": "08/24/2004"
	},
	{
		"name": "ISVIF",
		"latitude": "35-13-39.74 N",
		"longitude": "85-58-38.05 W",
		"state": "TENNESSEE",
		"artcc": "ZME",
		"type": "RNAV",
		"updated": "01/09/2001"
	},
	{
		"name": "ITCIB",
		"latitude": "31-32-6.46 N",
		"longitude": "87-53-3.28 W",
		"state": "ALABAMA",
		"artcc": "ZTL",
		"type": "RNAV",
		"updated": "04/17/2010"
	},
	{
		"name": "ITFAP",
		"latitude": "35-25-24.56 N",
		"longitude": "85-20-30.18 W",
		"state": "TENNESSEE",
		"artcc": "ZME",
		"type": "RNAV",
		"updated": "01/16/2001"
	},
	{
		"name": "ITIYO",
		"latitude": "35-3-1.43 N",
		"longitude": "85-35-42.33 W",
		"state": "TENNESSEE",
		"artcc": "ZME",
		"type": "RNAV",
		"updated": "01/04/2007"
	},
	{
		"name": "ITIYU",
		"latitude": "34-37-57.66 N",
		"longitude": "86-40-28.03 W",
		"state": "ALABAMA",
		"artcc": "ZME",
		"type": "MW",
		"updated": "12/10/2015"
	},
	{
		"name": "ITOYE",
		"latitude": "35-38-27.22 N",
		"longitude": "80-55-50.67 W",
		"state": "NORTH CAROLINA",
		"artcc": "ZTL",
		"type": "RNAV",
		"updated": "08/22/2013"
	},
	{
		"name": "ITVUC",
		"latitude": "32-34-16.96 N",
		"longitude": "83-28-21.43 W",
		"state": "GEORGIA",
		"artcc": "ZTL",
		"type": "RNAV",
		"updated": "10/26/2005"
	},
	{
		"name": "ITWAN",
		"latitude": "32-40-22.12 N",
		"longitude": "86-20-30.39 W",
		"state": "ALABAMA",
		"artcc": "ZTL",
		"type": "RP",
		"updated": "MGM*VORTAC*354.63/27.00"
	},
	{
		"name": "ITYOJ",
		"latitude": "34-55-9.85 N",
		"longitude": "85-45-32.48 W",
		"state": "ALABAMA",
		"artcc": "ZME",
		"type": "RNAV",
		"updated": "08/18/2017"
	},
	{
		"name": "IVANS",
		"latitude": "34-20-3.61 N",
		"longitude": "82-27-49.17 W",
		"state": "SOUTH CAROLINA",
		"artcc": "ZTL",
		"type": "RP",
		"updated": "AHN*VOR/DME*061.38/48.74"
	},
	{
		"name": "IVIJI",
		"latitude": "32-50-6.19 N",
		"longitude": "86-41-59.77 W",
		"state": "ALABAMA",
		"artcc": "ZTL",
		"type": "RNAV",
		"updated": "08/11/2016"
	},
	{
		"name": "IVLUH",
		"latitude": "31-58-41.63 N",
		"longitude": "87-2-28.75 W",
		"state": "ALABAMA",
		"artcc": "ZTL",
		"type": "RP",
		"updated": "GCV*VORTAC*049.20/90.92"
	},
	{
		"name": "IVUKE",
		"latitude": "36-17-43.92 N",
		"longitude": "80-44-31.03 W",
		"state": "NORTH CAROLINA",
		"artcc": "ZTL",
		"type": "RNAV",
		"updated": "09/05/2014"
	},
	{
		"name": "IVUWE",
		"latitude": "31-54-55.44 N",
		"longitude": "85-19-19.5 W",
		"state": "ALABAMA",
		"artcc": "ZTL",
		"type": "RP",
		"updated": "EUF*VORTAC*256.01/10.00"
	},
	{
		"name": "IVYIF",
		"latitude": "33-31-9.2 N",
		"longitude": "87-8-19.01 W",
		"state": "ALABAMA",
		"artcc": "ZTL",
		"type": "CN",
		"updated": "01/30/2001"
	},
	{
		"name": "IVZAF",
		"latitude": "33-55-13.76 N",
		"longitude": "86-54-37.02 W",
		"state": "ALABAMA",
		"artcc": "ZTL",
		"type": "CN",
		"updated": "01/30/2001"
	},
	{
		"name": "IWAKE",
		"latitude": "34-51-0.11 N",
		"longitude": "82-27-45.54 W",
		"state": "SOUTH CAROLINA",
		"artcc": "ZTL",
		"type": "RNAV",
		"updated": "04/17/2015"
	},
	{
		"name": "IWCIY",
		"latitude": "34-54-57.64 N",
		"longitude": "84-22-2.61 W",
		"state": "GEORGIA",
		"artcc": "ZTL",
		"type": "RNAV",
		"updated": "01/09/2001"
	},
	{
		"name": "IWIBY",
		"latitude": "34-30-46.11 N",
		"longitude": "85-39-5.56 W",
		"state": "ALABAMA",
		"artcc": "ZTL",
		"type": "RNAV",
		"updated": "01/09/2001"
	},
	{
		"name": "IWICY",
		"latitude": "34-54-57.64 N",
		"longitude": "84-22-2.61 W",
		"state": "GEORGIA",
		"artcc": "ZTL",
		"type": "RNAV",
		"updated": "04/27/2018"
	},
	{
		"name": "IWIGY",
		"latitude": "34-41-37.53 N",
		"longitude": "85-56-14.55 W",
		"state": "ALABAMA",
		"artcc": "ZTL",
		"type": "RNAV",
		"updated": "01/09/2001"
	},
	{
		"name": "IWWON",
		"latitude": "35-20-53.17 N",
		"longitude": "81-20-20.75 W",
		"state": "NORTH CAROLINA",
		"artcc": "ZTL",
		"type": "RNAV",
		"updated": "07/30/2009"
	},
	{
		"name": "IWZIJ",
		"latitude": "34-21-10.44 N",
		"longitude": "84-54-47.67 W",
		"state": "GEORGIA",
		"artcc": "ZTL",
		"type": "RP",
		"updated": "RMG*VORTAC*040.91"
	},
	{
		"name": "IXABE",
		"latitude": "35-37-22.66 N",
		"longitude": "84-34-36.85 W",
		"state": "TENNESSEE",
		"artcc": "ZTL",
		"type": "RNAV",
		"updated": "04/27/2010"
	},
	{
		"name": "IXOGE",
		"latitude": "34-15-19.77 N",
		"longitude": "83-52-46.25 W",
		"state": "GEORGIA",
		"artcc": "ZTL",
		"type": "CN",
		"updated": "03/28/2006"
	},
	{
		"name": "IXUSE",
		"latitude": "32-58-11.16 N",
		"longitude": "86-47-13.17 W",
		"state": "ALABAMA",
		"artcc": "ZTL",
		"type": "RNAV",
		"updated": "01/21/2009"
	},
	{
		"name": "IYDAD",
		"latitude": "34-52-42.14 N",
		"longitude": "81-13-16.75 W",
		"state": "SOUTH CAROLINA",
		"artcc": "ZTL",
		"type": "RNAV",
		"updated": "08/20/2010"
	},
	{
		"name": "IYGAF",
		"latitude": "37-4-26.24 N",
		"longitude": "85-10-56.19 W",
		"state": "KENTUCKY",
		"artcc": "ZTL",
		"type": "RNAV",
		"updated": "03/04/2015"
	},
	{
		"name": "IYITE",
		"latitude": "34-22-2.49 N",
		"longitude": "83-1-46.99 W",
		"state": "GEORGIA",
		"artcc": "ZTL",
		"type": "RNAV",
		"updated": "07/18/2008"
	},
	{
		"name": "IYODA",
		"latitude": "34-52-7.53 N",
		"longitude": "85-3-40.09 W",
		"state": "GEORGIA",
		"artcc": "ZTL",
		"type": "RNAV",
		"updated": "08/11/2005"
	},
	{
		"name": "IYONU",
		"latitude": "32-17-21.2 N",
		"longitude": "82-44-35.8 W",
		"state": "GEORGIA",
		"artcc": "ZJX",
		"type": "RP",
		"updated": "DBN*VORTAC*169.96/17.00"
	},
	{
		"name": "IYUKO",
		"latitude": "31-54-4.23 N",
		"longitude": "86-2-35.93 W",
		"state": "ALABAMA",
		"artcc": "ZTL",
		"type": "RNAV",
		"updated": "04/22/2014"
	},
	{
		"name": "IYULU",
		"latitude": "34-6-56.82 N",
		"longitude": "83-59-45.58 W",
		"state": "GEORGIA",
		"artcc": "ZTL",
		"type": "RP",
		"updated": "GVL*LD*224.01/12.99"
	},
	{
		"name": "IYUYO",
		"latitude": "34-21-36.9 N",
		"longitude": "83-22-59.63 W",
		"state": "GEORGIA",
		"artcc": "ZTL",
		"type": "RNAV",
		"updated": "07/18/2008"
	}
]
