[
	{
		"name": "JAACE",
		"latitude": "35-32-46.63 N",
		"longitude": "85-44-55.18 W",
		"state": "TENNESSEE",
		"artcc": "ZME",
		"type": "RNAV",
		"updated": "12/09/2015"
	},
	{
		"name": "JAAJJ",
		"latitude": "33-38-56.82 N",
		"longitude": "84-42-36.53 W",
		"state": "GEORGIA",
		"artcc": "ZTL",
		"type": "RP",
		"updated": "FT*NDB*212.73"
	},
	{
		"name": "JAARE",
		"latitude": "35-44-19.75 N",
		"longitude": "83-32-29.76 W",
		"state": "TENNESSEE",
		"artcc": "ZTL",
		"type": "RNAV",
		"updated": "01/24/2014"
	},
	{
		"name": "JABRD",
		"latitude": "35-14-55.57 N",
		"longitude": "85-31-17.3 W",
		"state": "TENNESSEE",
		"artcc": "ZME",
		"type": "RP",
		"updated": "HCH*VOR/DME*221.99"
	},
	{
		"name": "JACCC",
		"latitude": "33-45-38.35 N",
		"longitude": "83-38-59.56 W",
		"state": "GEORGIA",
		"artcc": "ZTL",
		"type": "RNAV",
		"updated": "05/17/2016"
	},
	{
		"name": "JACET",
		"latitude": "33-29-41.42 N",
		"longitude": "82-6-27.81 W",
		"state": "GEORGIA",
		"artcc": "ZTL",
		"type": "RNAV",
		"updated": "01/29/2014"
	},
	{
		"name": "JADLA",
		"latitude": "34-54-8.6 N",
		"longitude": "82-55-0.43 W",
		"state": "SOUTH CAROLINA",
		"artcc": "ZTL",
		"type": "RNAV",
		"updated": "04/13/2017"
	},
	{
		"name": "JADOT",
		"latitude": "34-50-36.03 N",
		"longitude": "82-7-12.91 W",
		"state": "SOUTH CAROLINA",
		"artcc": "ZTL",
		"type": "RNAV",
		"updated": "04/17/2015"
	},
	{
		"name": "JAGEV",
		"latitude": "35-1-52.41 N",
		"longitude": "83-20-28.49 W",
		"state": "NORTH CAROLINA",
		"artcc": "ZTL",
		"type": "RNAV",
		"updated": "12/01/2009"
	},
	{
		"name": "JAGGY",
		"latitude": "36-16-1.58 N",
		"longitude": "84-56-50.38 W",
		"state": "TENNESSEE",
		"artcc": "ZTL",
		"type": "RNAV",
		"updated": "05/03/2017"
	},
	{
		"name": "JAGIR",
		"latitude": "34-39-1.51 N",
		"longitude": "85-0-41.48 W",
		"state": "GEORGIA",
		"artcc": "ZTL",
		"type": "RNAV",
		"updated": "09/20/2012"
	},
	{
		"name": "JAGOS",
		"latitude": "33-39-52.78 N",
		"longitude": "81-54-12.64 W",
		"state": "SOUTH CAROLINA",
		"artcc": "ZTL",
		"type": "RNAV",
		"updated": "06/12/2012"
	},
	{
		"name": "JAGRR",
		"latitude": "33-53-59.67 N",
		"longitude": "84-49-57.64 W",
		"state": "GEORGIA",
		"artcc": "ZTL",
		"type": "RNAV",
		"updated": "08/22/2017"
	},
	{
		"name": "JAGUP",
		"latitude": "35-51-22.37 N",
		"longitude": "81-35-31.54 W",
		"state": "NORTH CAROLINA",
		"artcc": "ZTL",
		"type": "RNAV",
		"updated": "05/11/2011"
	},
	{
		"name": "JAILS",
		"latitude": "32-18-46.47 N",
		"longitude": "87-35-42.39 W",
		"state": "ALABAMA",
		"artcc": "ZTL",
		"type": "RP",
		"updated": "EWA*VORTAC*089.98/44.00"
	},
	{
		"name": "JAKIB",
		"latitude": "35-20-15.13 N",
		"longitude": "81-56-31.41 W",
		"state": "NORTH CAROLINA",
		"artcc": "ZTL",
		"type": "RP",
		"updated": "SUG*VORTAC*106.36"
	},
	{
		"name": "JAKTO",
		"latitude": "35-42-20.07 N",
		"longitude": "81-26-58.21 W",
		"state": "NORTH CAROLINA",
		"artcc": "ZTL",
		"type": "RNAV",
		"updated": "07/15/2011"
	},
	{
		"name": "JALES",
		"latitude": "31-32-3.49 N",
		"longitude": "87-18-1.2 W",
		"state": "ALABAMA",
		"artcc": "ZTL",
		"type": "RP",
		"updated": "10/16/2007"
	},
	{
		"name": "JALGA",
		"latitude": "32-33-33.18 N",
		"longitude": "83-31-21.34 W",
		"state": "GEORGIA",
		"artcc": "ZTL",
		"type": "MW",
		"updated": "10/27/2011"
	},
	{
		"name": "JALIT",
		"latitude": "35-33-35.53 N",
		"longitude": "81-53-17.26 W",
		"state": "NORTH CAROLINA",
		"artcc": "ZTL",
		"type": "RP",
		"updated": "SOT*VORTAC*107.28"
	},
	{
		"name": "JALOV",
		"latitude": "31-47-10.55 N",
		"longitude": "85-56-42.11 W",
		"state": "ALABAMA",
		"artcc": "ZTL",
		"type": "RNAV",
		"updated": "04/22/2014"
	},
	{
		"name": "JALRO",
		"latitude": "36-24-16.38 N",
		"longitude": "84-1-36.93 W",
		"state": "TENNESSEE",
		"artcc": "ZTL",
		"type": "RNAV",
		"updated": "09/03/2014"
	},
	{
		"name": "JALVO",
		"latitude": "32-43-20.77 N",
		"longitude": "85-3-50.52 W",
		"state": "GEORGIA",
		"artcc": "ZTL",
		"type": "RP",
		"updated": "CSG*VORTAC*338.90/6.83"
	},
	{
		"name": "JAMGO",
		"latitude": "35-32-34.84 N",
		"longitude": "80-38-36.23 W",
		"state": "NORTH CAROLINA",
		"artcc": "ZTL",
		"type": "RNAV",
		"updated": "03/29/2016"
	},
	{
		"name": "JAMMR",
		"latitude": "33-13-55.69 N",
		"longitude": "86-56-32.35 W",
		"state": "ALABAMA",
		"artcc": "ZTL",
		"type": "RP",
		"updated": "VUZ*VORTAC*182.00"
	},
	{
		"name": "JAMSR",
		"latitude": "35-8-58.82 N",
		"longitude": "80-26-57.34 W",
		"state": "NORTH CAROLINA",
		"artcc": "ZTL",
		"type": "RNAV",
		"updated": "11/17/2006"
	},
	{
		"name": "JAMTA",
		"latitude": "33-6-41.47 N",
		"longitude": "82-0-27 W",
		"state": "GEORGIA",
		"artcc": "ZTL",
		"type": "RNAV",
		"updated": "03/28/2008"
	},
	{
		"name": "JAMUD",
		"latitude": "33-42-14.6 N",
		"longitude": "85-36-13.6 W",
		"state": "ALABAMA",
		"artcc": "ZTL",
		"type": "RP",
		"updated": "GAD*VOR/DME*122.09/29.00"
	},
	{
		"name": "JAMUN",
		"latitude": "34-56-49.68 N",
		"longitude": "80-42-48.65 W",
		"state": "NORTH CAROLINA",
		"artcc": "ZTL",
		"type": "RP",
		"updated": "CLT*VOR/DME*146.08"
	},
	{
		"name": "JANEB",
		"latitude": "34-31-52.09 N",
		"longitude": "84-29-37.98 W",
		"state": "GEORGIA",
		"artcc": "ZTL",
		"type": "RNAV",
		"updated": "10/21/2011"
	},
	{
		"name": "JANVU",
		"latitude": "31-52-29.83 N",
		"longitude": "85-58-15.8 W",
		"state": "ALABAMA",
		"artcc": "ZTL",
		"type": "RNAV",
		"updated": "07/29/2016"
	},
	{
		"name": "JAPAM",
		"latitude": "33-16-39.51 N",
		"longitude": "86-52-31.1 W",
		"state": "ALABAMA",
		"artcc": "ZTL",
		"type": "RP",
		"updated": "VUZ*VORTAC*175.00/23.54"
	},
	{
		"name": "JAPON",
		"latitude": "34-44-50.41 N",
		"longitude": "83-13-33.67 W",
		"state": "SOUTH CAROLINA",
		"artcc": "ZTL",
		"type": "RNAV",
		"updated": "01/09/2013"
	},
	{
		"name": "JAROL",
		"latitude": "35-21-29.35 N",
		"longitude": "86-17-37.22 W",
		"state": "TENNESSEE",
		"artcc": "ZME",
		"type": "RNAV",
		"updated": "06/29/2011"
	},
	{
		"name": "JARPO",
		"latitude": "35-36-24.7 N",
		"longitude": "80-32-2.36 W",
		"state": "NORTH CAROLINA",
		"artcc": "ZTL",
		"type": "RNAV",
		"updated": "04/06/2018"
	},
	{
		"name": "JASBA",
		"latitude": "35-36-8.87 N",
		"longitude": "84-17-52.36 W",
		"state": "TENNESSEE",
		"artcc": "ZTL",
		"type": "RNAV",
		"updated": "04/27/2018"
	},
	{
		"name": "JASEX",
		"latitude": "34-49-41.59 N",
		"longitude": "86-46-42.86 W",
		"state": "ALABAMA",
		"artcc": "ZME",
		"type": "RP",
		"updated": "DCU*VOR/DME*037.40/13.40"
	},
	{
		"name": "JASIV",
		"latitude": "34-14-42.69 N",
		"longitude": "84-28-1.66 W",
		"state": "GEORGIA",
		"artcc": "ZTL",
		"type": "RNAV",
		"updated": "08/20/2007"
	},
	{
		"name": "JASVU",
		"latitude": "35-8-37.49 N",
		"longitude": "83-22-25.22 W",
		"state": "NORTH CAROLINA",
		"artcc": "ZTL",
		"type": "RNAV",
		"updated": "02/04/2009"
	},
	{
		"name": "JATAV",
		"latitude": "32-24-44.61 N",
		"longitude": "83-19-51.81 W",
		"state": "GEORGIA",
		"artcc": "ZTL",
		"type": "RNAV",
		"updated": "10/14/2009"
	},
	{
		"name": "JATLO",
		"latitude": "36-10-12.14 N",
		"longitude": "81-5-49.38 W",
		"state": "NORTH CAROLINA",
		"artcc": "ZTL",
		"type": "RP",
		"updated": "UKF*LD*186.65/3.84"
	},
	{
		"name": "JATOX",
		"latitude": "34-28-34.25 N",
		"longitude": "83-45-6.77 W",
		"state": "GEORGIA",
		"artcc": "ZTL",
		"type": "RNAV",
		"updated": "07/24/2007"
	},
	{
		"name": "JAVIV",
		"latitude": "32-26-53.41 N",
		"longitude": "86-5-18.91 W",
		"state": "ALABAMA",
		"artcc": "ZTL",
		"type": "RNAV",
		"updated": "04/17/2010"
	},
	{
		"name": "JAVJA",
		"latitude": "33-19-15.66 N",
		"longitude": "87-25-8.46 W",
		"state": "ALABAMA",
		"artcc": "ZTL",
		"type": "RNAV",
		"updated": "08/18/2010"
	},
	{
		"name": "JAYAA",
		"latitude": "33-37-12.22 N",
		"longitude": "84-8-39.99 W",
		"state": "GEORGIA",
		"artcc": "ZTL",
		"type": "RNAV",
		"updated": "04/22/2013"
	},
	{
		"name": "JAYQQ",
		"latitude": "33-32-12.08 N",
		"longitude": "84-12-53.91 W",
		"state": "GEORGIA",
		"artcc": "ZTL",
		"type": "RNAV",
		"updated": "08/12/2014"
	},
	{
		"name": "JCKEE",
		"latitude": "34-26-45.06 N",
		"longitude": "86-4-35.98 W",
		"state": "ALABAMA",
		"artcc": "ZTL",
		"type": "RNAV",
		"updated": "07/25/2016"
	},
	{
		"name": "JDEAN",
		"latitude": "35-34-47.6 N",
		"longitude": "80-57-38.66 W",
		"state": "NORTH CAROLINA",
		"artcc": "ZTL",
		"type": "RNAV",
		"updated": "06/25/2015"
	},
	{
		"name": "JEANI",
		"latitude": "33-24-21.01 N",
		"longitude": "84-20-46.46 W",
		"state": "GEORGIA",
		"artcc": "ZTL",
		"type": "RNAV",
		"updated": "06/11/2012"
	},
	{
		"name": "JEBUG",
		"latitude": "35-22-41.88 N",
		"longitude": "86-0-5.7 W",
		"state": "TENNESSEE",
		"artcc": "ZME",
		"type": "RNAV",
		"updated": "05/28/2014"
	},
	{
		"name": "JECYA",
		"latitude": "33-53-40.83 N",
		"longitude": "84-24-23.5 W",
		"state": "GEORGIA",
		"artcc": "ZTL",
		"type": "MR",
		"updated": "PDK*VOR/DME*287.00/5.50"
	},
	{
		"name": "JEDAV",
		"latitude": "34-33-33.09 N",
		"longitude": "85-3-22.94 W",
		"state": "GEORGIA",
		"artcc": "ZTL",
		"type": "RNAV",
		"updated": "04/17/2017"
	},
	{
		"name": "JEDKO",
		"latitude": "35-36-9.74 N",
		"longitude": "80-59-8.25 W",
		"state": "NORTH CAROLINA",
		"artcc": "ZTL",
		"type": "RP",
		"updated": "CLT*VOR/DME*/24.35"
	},
	{
		"name": "JEDOM",
		"latitude": "32-29-33.33 N",
		"longitude": "85-14-49.51 W",
		"state": "ALABAMA",
		"artcc": "ZTL",
		"type": "RNAV",
		"updated": "06/27/2005"
	},
	{
		"name": "JEDOP",
		"latitude": "32-7-6.38 N",
		"longitude": "86-10-8.25 W",
		"state": "ALABAMA",
		"artcc": "ZTL",
		"type": "RP",
		"updated": "MGM*VORTAC*125.96/9.88"
	},
	{
		"name": "JEFER",
		"latitude": "31-58-58.93 N",
		"longitude": "86-38-50.21 W",
		"state": "ALABAMA",
		"artcc": "ZTL",
		"type": "RP",
		"updated": "MGM*VORTAC*226.00/22.00"
	},
	{
		"name": "JEFFS",
		"latitude": "36-26-4.68 N",
		"longitude": "81-16-33.92 W",
		"state": "NORTH CAROLINA",
		"artcc": "ZTL",
		"type": "RNAV",
		"updated": "02/10/2017"
	},
	{
		"name": "JEFRS",
		"latitude": "33-54-28.91 N",
		"longitude": "86-11-48.47 W",
		"state": "ALABAMA",
		"artcc": "ZTL",
		"type": "RP",
		"updated": "GAD*VOR/DME*232.11/6.98"
	},
	{
		"name": "JEGEG",
		"latitude": "36-4-55.09 N",
		"longitude": "79-55-51.56 W",
		"state": "NORTH CAROLINA",
		"artcc": "ZTL",
		"type": "RP",
		"updated": "GFN*LD*145.22/1.45"
	},
	{
		"name": "JEGTI",
		"latitude": "34-41-38.4 N",
		"longitude": "84-50-17.14 W",
		"state": "GEORGIA",
		"artcc": "ZTL",
		"type": "RNAV",
		"updated": "02/28/2017"
	},
	{
		"name": "JEKAG",
		"latitude": "34-1-24.41 N",
		"longitude": "85-11-34.26 W",
		"state": "GEORGIA",
		"artcc": "ZTL",
		"type": "RNAV",
		"updated": "06/10/2011"
	},
	{
		"name": "JEKBA",
		"latitude": "35-7-8.3 N",
		"longitude": "86-33-8.57 W",
		"state": "TENNESSEE",
		"artcc": "ZME",
		"type": "RP",
		"updated": "SYI*VOR/DME*192.86/27.11"
	},
	{
		"name": "JEKIP",
		"latitude": "32-9-45.66 N",
		"longitude": "83-8-45.78 W",
		"state": "GEORGIA",
		"artcc": "ZJX",
		"type": "RNAV",
		"updated": "04/04/2014"
	},
	{
		"name": "JELEX",
		"latitude": "34-8-56.59 N",
		"longitude": "83-42-23.06 W",
		"state": "GEORGIA",
		"artcc": "ZTL",
		"type": "RNAV",
		"updated": "04/08/2011"
	},
	{
		"name": "JELNO",
		"latitude": "35-18-31.95 N",
		"longitude": "81-13-35.92 W",
		"state": "NORTH CAROLINA",
		"artcc": "ZTL",
		"type": "RNAV",
		"updated": "06/15/2017"
	},
	{
		"name": "JEMER",
		"latitude": "32-26-24.92 N",
		"longitude": "86-22-36.27 W",
		"state": "ALABAMA",
		"artcc": "ZTL",
		"type": "RNAV",
		"updated": "04/26/2012"
	},
	{
		"name": "JEMUR",
		"latitude": "33-12-1.36 N",
		"longitude": "87-32-50.55 W",
		"state": "ALABAMA",
		"artcc": "ZTL",
		"type": "RNAV",
		"updated": "02/12/2008"
	},
	{
		"name": "JENDA",
		"latitude": "34-58-46.67 N",
		"longitude": "80-54-54.62 W",
		"state": "SOUTH CAROLINA",
		"artcc": "ZTL",
		"type": "RP",
		"updated": "BQC*LD*182.97/14.78"
	},
	{
		"name": "JENIP",
		"latitude": "35-37-38.94 N",
		"longitude": "84-13-13.48 W",
		"state": "TENNESSEE",
		"artcc": "ZTL",
		"type": "RP",
		"updated": "VXV*VORTAC*/23.00"
	},
	{
		"name": "JENOP",
		"latitude": "32-48-57.38 N",
		"longitude": "84-56-0.14 W",
		"state": "GEORGIA",
		"artcc": "ZTL",
		"type": "RNAV",
		"updated": "02/22/2010"
	},
	{
		"name": "JENRU",
		"latitude": "35-8-7.85 N",
		"longitude": "85-10-58.65 W",
		"state": "TENNESSEE",
		"artcc": "ZTL",
		"type": "RNAV",
		"updated": "04/13/2017"
	},
	{
		"name": "JENUV",
		"latitude": "36-30-50.4 N",
		"longitude": "80-12-39.57 W",
		"state": "NORTH CAROLINA",
		"artcc": "ZTL",
		"type": "RNAV",
		"updated": "12/22/2006"
	},
	{
		"name": "JEPHS",
		"latitude": "35-24-55.89 N",
		"longitude": "80-39-52.48 W",
		"state": "NORTH CAROLINA",
		"artcc": "ZTL",
		"type": "RP",
		"updated": "APU*LD*055.48/18.92"
	},
	{
		"name": "JERDI",
		"latitude": "35-11-22.75 N",
		"longitude": "84-55-17.37 W",
		"state": "TENNESSEE",
		"artcc": "ZTL",
		"type": "RNAV",
		"updated": "02/04/2002"
	},
	{
		"name": "JESIG",
		"latitude": "34-3-10.33 N",
		"longitude": "83-8-54.58 W",
		"state": "GEORGIA",
		"artcc": "ZTL",
		"type": "RNAV",
		"updated": "10/31/2013"
	},
	{
		"name": "JESMU",
		"latitude": "31-27-18.55 N",
		"longitude": "87-2-32.88 W",
		"state": "ALABAMA",
		"artcc": "ZTL",
		"type": "RNAV",
		"updated": "02/27/2013"
	},
	{
		"name": "JESTA",
		"latitude": "37-4-46.19 N",
		"longitude": "80-46-16.5 W",
		"state": "VIRGINIA",
		"artcc": "ZTL",
		"type": "RP",
		"updated": "PSK*LO*000.00"
	},
	{
		"name": "JETAL",
		"latitude": "34-48-0 N",
		"longitude": "85-8-25.11 W",
		"state": "GEORGIA",
		"artcc": "ZTL",
		"type": "RNAV",
		"updated": "02/27/2017"
	},
	{
		"name": "JETOL",
		"latitude": "32-8-16.68 N",
		"longitude": "84-0-33.48 W",
		"state": "GEORGIA",
		"artcc": "ZTL",
		"type": "RNAV",
		"updated": "05/12/2003"
	},
	{
		"name": "JETOP",
		"latitude": "32-58-56.5 N",
		"longitude": "81-59-18.9 W",
		"state": "GEORGIA",
		"artcc": "ZTL",
		"type": "RNAV",
		"updated": "10/23/2014"
	},
	{
		"name": "JEVEN",
		"latitude": "35-58-24.31 N",
		"longitude": "80-7-8.79 W",
		"state": "NORTH CAROLINA",
		"artcc": "ZTL",
		"type": "RP",
		"updated": "LIB*VORTAC*294.58/26.53"
	},
	{
		"name": "JEVIN",
		"latitude": "33-34-55.05 N",
		"longitude": "83-24-19.07 W",
		"state": "GEORGIA",
		"artcc": "ZTL",
		"type": "RNAV",
		"updated": "08/02/2004"
	},
	{
		"name": "JEVMA",
		"latitude": "31-45-32.15 N",
		"longitude": "84-6-54.97 W",
		"state": "GEORGIA",
		"artcc": "ZJX",
		"type": "RNAV",
		"updated": "12/11/2006"
	},
	{
		"name": "JEVNA",
		"latitude": "36-24-47.49 N",
		"longitude": "83-30-0.29 W",
		"state": "TENNESSEE",
		"artcc": "ZTL",
		"type": "RNAV",
		"updated": "01/14/2003"
	},
	{
		"name": "JHUNT",
		"latitude": "35-20-25.31 N",
		"longitude": "80-58-38.42 W",
		"state": "NORTH CAROLINA",
		"artcc": "ZTL",
		"type": "RP",
		"updated": "RGS*LD*002.96/8.20"
	},
	{
		"name": "JIBAV",
		"latitude": "36-15-54.55 N",
		"longitude": "82-26-53.13 W",
		"state": "TENNESSEE",
		"artcc": "ZTL",
		"type": "RNAV",
		"updated": "10/31/2017"
	},
	{
		"name": "JIBEL",
		"latitude": "31-41-47.17 N",
		"longitude": "87-57-14 W",
		"state": "ALABAMA",
		"artcc": "ZTL",
		"type": "RNAV",
		"updated": "04/17/2010"
	},
	{
		"name": "JIDIK",
		"latitude": "32-32-59.19 N",
		"longitude": "82-17-5.82 W",
		"state": "GEORGIA",
		"artcc": "ZTL",
		"type": "RNAV",
		"updated": "04/12/2011"
	},
	{
		"name": "JIDOB",
		"latitude": "34-19-2.98 N",
		"longitude": "83-47-53.46 W",
		"state": "GEORGIA",
		"artcc": "ZTL",
		"type": "RP",
		"updated": "ODF*VORTAC*227.74/33.61"
	},
	{
		"name": "JIDOK",
		"latitude": "34-15-15.41 N",
		"longitude": "85-10-7.26 W",
		"state": "GEORGIA",
		"artcc": "ZTL",
		"type": "RNAV",
		"updated": "01/29/2009"
	},
	{
		"name": "JIDOR",
		"latitude": "33-51-58.74 N",
		"longitude": "84-18-56.43 W",
		"state": "GEORGIA",
		"artcc": "ZTL",
		"type": "MR",
		"updated": "DOB*TACAN*110.00/10.00"
	},
	{
		"name": "JIGID",
		"latitude": "32-12-17.14 N",
		"longitude": "88-20-13.42 W",
		"state": "ALABAMA",
		"artcc": "ZTL",
		"type": "RNAV",
		"updated": "03/16/2016"
	},
	{
		"name": "JIGPO",
		"latitude": "33-40-4.81 N",
		"longitude": "85-35-58.02 W",
		"state": "ALABAMA",
		"artcc": "ZTL",
		"type": "RNAV",
		"updated": "04/22/2010"
	},
	{
		"name": "JIKPA",
		"latitude": "34-51-31.82 N",
		"longitude": "82-8-30.53 W",
		"state": "SOUTH CAROLINA",
		"artcc": "ZTL",
		"type": "RNAV",
		"updated": "02/02/2007"
	},
	{
		"name": "JIKVI",
		"latitude": "33-39-0.64 N",
		"longitude": "84-4-22.34 W",
		"state": "GEORGIA",
		"artcc": "ZTL",
		"type": "RNAV",
		"updated": "10/03/2008"
	},
	{
		"name": "JILAP",
		"latitude": "31-59-30.62 N",
		"longitude": "83-48-51.75 W",
		"state": "GEORGIA",
		"artcc": "ZJX",
		"type": "RNAV",
		"updated": "03/22/2017"
	},
	{
		"name": "JILED",
		"latitude": "34-33-56.51 N",
		"longitude": "85-37-45.97 W",
		"state": "ALABAMA",
		"artcc": "ZTL",
		"type": "RNAV",
		"updated": "08/18/2010"
	},
	{
		"name": "JILIS",
		"latitude": "34-57-29.37 N",
		"longitude": "85-8-8.13 W",
		"state": "GEORGIA",
		"artcc": "ZTL",
		"type": "RNAV",
		"updated": "08/11/2005"
	},
	{
		"name": "JILOG",
		"latitude": "35-32-32 N",
		"longitude": "80-50-29 W",
		"state": "NORTH CAROLINA",
		"artcc": "ZTL",
		"type": "RNAV",
		"updated": "01/13/2011"
	},
	{
		"name": "JIMDO",
		"latitude": "33-27-45.13 N",
		"longitude": "84-57-9.63 W",
		"state": "GEORGIA",
		"artcc": "ZTL",
		"type": "RNAV",
		"updated": "02/16/2006"
	},
	{
		"name": "JIMOM",
		"latitude": "34-55-23.1 N",
		"longitude": "81-34-13.89 W",
		"state": "SOUTH CAROLINA",
		"artcc": "ZTL",
		"type": "RNAV",
		"updated": "07/05/2013"
	},
	{
		"name": "JIMOP",
		"latitude": "31-58-34.66 N",
		"longitude": "84-21-0.49 W",
		"state": "GEORGIA",
		"artcc": "ZJX",
		"type": "RNAV",
		"updated": "11/20/2002"
	},
	{
		"name": "JIPEB",
		"latitude": "35-27-21.21 N",
		"longitude": "83-32-45.17 W",
		"state": "NORTH CAROLINA",
		"artcc": "ZTL",
		"type": "RNAV",
		"updated": "07/10/2017"
	},
	{
		"name": "JIPUT",
		"latitude": "35-31-56.74 N",
		"longitude": "82-33-41.71 W",
		"state": "NORTH CAROLINA",
		"artcc": "ZTL",
		"type": "RNAV",
		"updated": "02/06/2003"
	},
	{
		"name": "JIRRI",
		"latitude": "33-38-46.41 N",
		"longitude": "84-0-41.09 W",
		"state": "GEORGIA",
		"artcc": "ZTL",
		"type": "RP",
		"updated": "PDK*VOR/DME*138.62"
	},
	{
		"name": "JIRUL",
		"latitude": "35-19-19.09 N",
		"longitude": "81-31-22.57 W",
		"state": "NORTH CAROLINA",
		"artcc": "ZTL",
		"type": "RNAV",
		"updated": "07/21/2011"
	},
	{
		"name": "JIRWI",
		"latitude": "34-5-39.89 N",
		"longitude": "83-31-56.61 W",
		"state": "GEORGIA",
		"artcc": "ZTL",
		"type": "RNAV",
		"updated": "12/29/2015"
	},
	{
		"name": "JISAK",
		"latitude": "35-8-41.11 N",
		"longitude": "83-18-56.72 W",
		"state": "NORTH CAROLINA",
		"artcc": "ZTL",
		"type": "RNAV",
		"updated": "02/07/2003"
	},
	{
		"name": "JISET",
		"latitude": "34-34-6.4 N",
		"longitude": "85-8-8.98 W",
		"state": "GEORGIA",
		"artcc": "ZTL",
		"type": "RNAV",
		"updated": "01/28/2009"
	},
	{
		"name": "JISIT",
		"latitude": "36-5-55.7 N",
		"longitude": "83-38-46.03 W",
		"state": "TENNESSEE",
		"artcc": "ZTL",
		"type": "RNAV",
		"updated": "08/06/2010"
	},
	{
		"name": "JISRA",
		"latitude": "36-22-20.76 N",
		"longitude": "83-6-3.31 W",
		"state": "TENNESSEE",
		"artcc": "ZTL",
		"type": "RNAV",
		"updated": "06/20/2017"
	},
	{
		"name": "JITAR",
		"latitude": "35-54-30.08 N",
		"longitude": "82-2-31.13 W",
		"state": "NORTH CAROLINA",
		"artcc": "ZTL",
		"type": "RNAV",
		"updated": "02/06/2003"
	},
	{
		"name": "JITOL",
		"latitude": "33-29-8.57 N",
		"longitude": "82-7-27.14 W",
		"state": "GEORGIA",
		"artcc": "ZTL",
		"type": "RNAV",
		"updated": "01/06/2017"
	},
	{
		"name": "JITPU",
		"latitude": "32-50-17.59 N",
		"longitude": "84-59-9.73 W",
		"state": "GEORGIA",
		"artcc": "ZTL",
		"type": "RNAV",
		"updated": "08/11/2010"
	},
	{
		"name": "JIVDA",
		"latitude": "34-10-55.21 N",
		"longitude": "83-18-59.42 W",
		"state": "GEORGIA",
		"artcc": "ZTL",
		"type": "RNAV",
		"updated": "09/09/2015"
	},
	{
		"name": "JIVET",
		"latitude": "32-44-45.18 N",
		"longitude": "83-41-33.04 W",
		"state": "GEORGIA",
		"artcc": "ZTL",
		"type": "RP",
		"updated": "MCN*VORTAC*324.00/4.00"
	},
	{
		"name": "JIVEW",
		"latitude": "35-40-3.46 N",
		"longitude": "81-47-44.51 W",
		"state": "NORTH CAROLINA",
		"artcc": "ZTL",
		"type": "RNAV",
		"updated": "04/16/2014"
	},
	{
		"name": "JIVIM",
		"latitude": "34-47-3.19 N",
		"longitude": "84-16-37.52 W",
		"state": "GEORGIA",
		"artcc": "ZTL",
		"type": "RNAV",
		"updated": "06/11/2014"
	},
	{
		"name": "JIVNA",
		"latitude": "34-13-59.48 N",
		"longitude": "85-21-46.97 W",
		"state": "GEORGIA",
		"artcc": "ZTL",
		"type": "RNAV",
		"updated": "01/28/2009"
	},
	{
		"name": "JIVOM",
		"latitude": "35-37-43.03 N",
		"longitude": "80-58-9.27 W",
		"state": "NORTH CAROLINA",
		"artcc": "ZTL",
		"type": "RP",
		"updated": "BZM*VOR/DME*143.29"
	},
	{
		"name": "JIXGU",
		"latitude": "34-16-45.73 N",
		"longitude": "85-7-27.65 W",
		"state": "GEORGIA",
		"artcc": "ZTL",
		"type": "RP",
		"updated": "RMG*VORTAC*357.00/7.00"
	},
	{
		"name": "JIXUB",
		"latitude": "34-23-54.45 N",
		"longitude": "82-54-46.24 W",
		"state": "GEORGIA",
		"artcc": "ZTL",
		"type": "RNAV",
		"updated": "07/18/2008"
	},
	{
		"name": "JIXUG",
		"latitude": "35-43-6.34 N",
		"longitude": "81-42-23.56 W",
		"state": "NORTH CAROLINA",
		"artcc": "ZTL",
		"type": "RNAV",
		"updated": "02/06/2003"
	},
	{
		"name": "JJEDI",
		"latitude": "33-11-25.42 N",
		"longitude": "83-49-21.76 W",
		"state": "GEORGIA",
		"artcc": "ZTL",
		"type": "RNAV",
		"updated": "09/06/2017"
	},
	{
		"name": "JJENY",
		"latitude": "35-37-36.86 N",
		"longitude": "82-16-57.77 W",
		"state": "NORTH CAROLINA",
		"artcc": "ZTL",
		"type": "RNAV",
		"updated": "06/24/2015"
	},
	{
		"name": "JKSON",
		"latitude": "34-20-12.96 N",
		"longitude": "86-8-59.98 W",
		"state": "ALABAMA",
		"artcc": "ZTL",
		"type": "RNAV",
		"updated": "07/25/2016"
	},
	{
		"name": "JLENA",
		"latitude": "35-34-11.11 N",
		"longitude": "82-17-11.46 W",
		"state": "NORTH CAROLINA",
		"artcc": "ZTL",
		"type": "RNAV",
		"updated": "11/10/2016"
	},
	{
		"name": "JMPER",
		"latitude": "32-15-50.52 N",
		"longitude": "84-55-50.68 W",
		"state": "ALABAMA",
		"artcc": "ZTL",
		"type": "MR",
		"updated": "LSF*VOR/DME*/5.17"
	},
	{
		"name": "JMPPR",
		"latitude": "32-57-42.02 N",
		"longitude": "84-33-18.56 W",
		"state": "GEORGIA",
		"artcc": "ZTL",
		"type": "RNAV",
		"updated": "01/31/2014"
	},
	{
		"name": "JNGLE",
		"latitude": "33-17-59.84 N",
		"longitude": "84-49-47.64 W",
		"state": "GEORGIA",
		"artcc": "ZTL",
		"type": "RNAV",
		"updated": "08/22/2017"
	},
	{
		"name": "JOANN",
		"latitude": "31-59-9.73 N",
		"longitude": "86-21-31.28 W",
		"state": "ALABAMA",
		"artcc": "ZTL",
		"type": "MR",
		"updated": "MGM*VORTAC*185.00/14.00"
	},
	{
		"name": "JOBOL",
		"latitude": "35-22-14.06 N",
		"longitude": "83-15-20.59 W",
		"state": "NORTH CAROLINA",
		"artcc": "ZTL",
		"type": "RNAV",
		"updated": "02/07/2003"
	},
	{
		"name": "JOBOT",
		"latitude": "35-29-24.88 N",
		"longitude": "81-35-38.45 W",
		"state": "NORTH CAROLINA",
		"artcc": "ZTL",
		"type": "RNAV",
		"updated": "06/24/2015"
	},
	{
		"name": "JOBRA",
		"latitude": "32-48-3.76 N",
		"longitude": "83-19-37.57 W",
		"state": "GEORGIA",
		"artcc": "ZTL",
		"type": "RNAV",
		"updated": "05/25/2016"
	},
	{
		"name": "JODAR",
		"latitude": "35-39-44.69 N",
		"longitude": "82-6-37.63 W",
		"state": "NORTH CAROLINA",
		"artcc": "ZTL",
		"type": "RNAV",
		"updated": "02/13/2003"
	},
	{
		"name": "JODAS",
		"latitude": "34-1-14.68 N",
		"longitude": "83-35-51.82 W",
		"state": "GEORGIA",
		"artcc": "ZTL",
		"type": "RNAV",
		"updated": "09/09/2015"
	},
	{
		"name": "JODAT",
		"latitude": "33-51-53.92 N",
		"longitude": "86-18-59.65 W",
		"state": "ALABAMA",
		"artcc": "ZTL",
		"type": "RNAV",
		"updated": "12/18/2007"
	},
	{
		"name": "JODRI",
		"latitude": "36-22-15.58 N",
		"longitude": "80-32-23.96 W",
		"state": "NORTH CAROLINA",
		"artcc": "ZTL",
		"type": "WP",
		"updated": "11/02/1998"
	},
	{
		"name": "JODVU",
		"latitude": "33-30-43.48 N",
		"longitude": "82-15-14.32 W",
		"state": "GEORGIA",
		"artcc": "ZTL",
		"type": "RNAV",
		"updated": "01/06/2017"
	},
	{
		"name": "JOEEM",
		"latitude": "34-33-27.54 N",
		"longitude": "81-45-13.8 W",
		"state": "SOUTH CAROLINA",
		"artcc": "ZTL",
		"type": "RNAV",
		"updated": "12/24/2013"
	},
	{
		"name": "JOEJO",
		"latitude": "33-17-58.18 N",
		"longitude": "84-17-32.09 W",
		"state": "GEORGIA",
		"artcc": "ZTL",
		"type": "RP",
		"updated": "ATL*VORTAC*160.00/21.00"
	},
	{
		"name": "JOEYE",
		"latitude": "33-29-33.92 N",
		"longitude": "87-20-39.69 W",
		"state": "ALABAMA",
		"artcc": "ZTL",
		"type": "RNAV",
		"updated": "03/30/2018"
	},
	{
		"name": "JOGED",
		"latitude": "34-40-12.46 N",
		"longitude": "82-27-14.27 W",
		"state": "SOUTH CAROLINA",
		"artcc": "ZTL",
		"type": "RNAV",
		"updated": "05/27/2009"
	},
	{
		"name": "JOGMI",
		"latitude": "35-28-6.26 N",
		"longitude": "81-55-55.12 W",
		"state": "NORTH CAROLINA",
		"artcc": "ZTL",
		"type": "RNAV",
		"updated": "04/16/2014"
	},
	{
		"name": "JOGUV",
		"latitude": "34-58-2.64 N",
		"longitude": "85-57-7.4 W",
		"state": "ALABAMA",
		"artcc": "ZME",
		"type": "RNAV",
		"updated": "06/16/2008"
	},
	{
		"name": "JOHGY",
		"latitude": "32-45-26.74 N",
		"longitude": "83-34-0.8 W",
		"state": "GEORGIA",
		"artcc": "ZTL",
		"type": "RNAV",
		"updated": "06/28/2012"
	},
	{
		"name": "JOHSN",
		"latitude": "35-37-58.1 N",
		"longitude": "80-39-56.18 W",
		"state": "NORTH CAROLINA",
		"artcc": "ZTL",
		"type": "RNAV",
		"updated": "03/29/2016"
	},
	{
		"name": "JOJJO",
		"latitude": "35-33-16.96 N",
		"longitude": "81-28-10.93 W",
		"state": "NORTH CAROLINA",
		"artcc": "ZTL",
		"type": "RNAV",
		"updated": "06/25/2015"
	},
	{
		"name": "JOJYO",
		"latitude": "34-28-12.98 N",
		"longitude": "83-54-19.38 W",
		"state": "GEORGIA",
		"artcc": "ZTL",
		"type": "CN",
		"updated": "04/13/2001"
	},
	{
		"name": "JOKER",
		"latitude": "33-50-17.27 N",
		"longitude": "81-54-22.6 W",
		"state": "SOUTH CAROLINA",
		"artcc": "ZTL",
		"type": "RP",
		"updated": "GRD*VORTAC*154.41"
	},
	{
		"name": "JOKLI",
		"latitude": "34-4-11.92 N",
		"longitude": "83-44-18.89 W",
		"state": "GEORGIA",
		"artcc": "ZTL",
		"type": "RNAV",
		"updated": "04/08/2011"
	},
	{
		"name": "JOKVU",
		"latitude": "31-54-16.85 N",
		"longitude": "82-58-27.01 W",
		"state": "GEORGIA",
		"artcc": "ZJX",
		"type": "RNAV",
		"updated": "06/16/2008"
	},
	{
		"name": "JOKZU",
		"latitude": "34-24-7.77 N",
		"longitude": "81-25-49 W",
		"state": "SOUTH CAROLINA",
		"artcc": "ZTL",
		"type": "RNAV",
		"updated": "05/27/2009"
	},
	{
		"name": "JOLAS",
		"latitude": "35-1-33.52 N",
		"longitude": "83-13-43.26 W",
		"state": "NORTH CAROLINA",
		"artcc": "ZTL",
		"type": "RNAV",
		"updated": "02/06/2003"
	},
	{
		"name": "JOLUM",
		"latitude": "31-45-15.91 N",
		"longitude": "87-20-7.73 W",
		"state": "ALABAMA",
		"artcc": "ZTL",
		"type": "RNAV",
		"updated": "12/01/2016"
	},
	{
		"name": "JOMAN",
		"latitude": "35-28-59.67 N",
		"longitude": "80-56-40.8 W",
		"state": "NORTH CAROLINA",
		"artcc": "ZTL",
		"type": "RNAV",
		"updated": "01/13/2011"
	},
	{
		"name": "JOMAP",
		"latitude": "34-2-1.92 N",
		"longitude": "83-3-43.08 W",
		"state": "GEORGIA",
		"artcc": "ZTL",
		"type": "RNAV",
		"updated": "09/09/2015"
	},
	{
		"name": "JOMRA",
		"latitude": "35-52-39.7 N",
		"longitude": "81-22-3.02 W",
		"state": "NORTH CAROLINA",
		"artcc": "ZTL",
		"type": "RNAV",
		"updated": "07/15/2011"
	},
	{
		"name": "JONDO",
		"latitude": "35-8-7.98 N",
		"longitude": "83-57-16.16 W",
		"state": "NORTH CAROLINA",
		"artcc": "ZTL",
		"type": "RNAV",
		"updated": "10/21/2014"
	},
	{
		"name": "JONEB",
		"latitude": "35-19-8.32 N",
		"longitude": "82-7-1.4 W",
		"state": "NORTH CAROLINA",
		"artcc": "ZTL",
		"type": "RP",
		"updated": "SUG*VORTAC*127.14/9.10"
	},
	{
		"name": "JONVI",
		"latitude": "35-43-21.82 N",
		"longitude": "80-23-28.4 W",
		"state": "NORTH CAROLINA",
		"artcc": "ZTL",
		"type": "RP",
		"updated": "EXX*LD*237.69/6.01"
	},
	{
		"name": "JONZE",
		"latitude": "34-45-7.9 N",
		"longitude": "81-30-59.05 W",
		"state": "SOUTH CAROLINA",
		"artcc": "ZTL",
		"type": "RNAV",
		"updated": "06/30/2017"
	},
	{
		"name": "JOOAN",
		"latitude": "33-43-52.2 N",
		"longitude": "84-9-47.22 W",
		"state": "GEORGIA",
		"artcc": "ZTL",
		"type": "RNAV",
		"updated": "08/09/2011"
	},
	{
		"name": "JOOLI",
		"latitude": "35-54-55.21 N",
		"longitude": "79-49-16.24 W",
		"state": "NORTH CAROLINA",
		"artcc": "ZTL",
		"type": "RNAV",
		"updated": "01/16/2014"
	},
	{
		"name": "JOPAT",
		"latitude": "35-42-7.69 N",
		"longitude": "81-3-9.31 W",
		"state": "NORTH CAROLINA",
		"artcc": "ZTL",
		"type": "RNAV",
		"updated": "07/07/2014"
	},
	{
		"name": "JOPEB",
		"latitude": "34-20-42.76 N",
		"longitude": "82-5-45.14 W",
		"state": "SOUTH CAROLINA",
		"artcc": "ZTL",
		"type": "RNAV",
		"updated": "12/24/2013"
	},
	{
		"name": "JOPED",
		"latitude": "34-18-44.7 N",
		"longitude": "86-29-59.63 W",
		"state": "ALABAMA",
		"artcc": "ZME",
		"type": "RNAV",
		"updated": "03/06/2017"
	},
	{
		"name": "JOPEK",
		"latitude": "33-25-27.17 N",
		"longitude": "87-30-33.03 W",
		"state": "ALABAMA",
		"artcc": "ZTL",
		"type": "MR",
		"updated": "LDK*VORTAC*005.00/10.00"
	},
	{
		"name": "JOPEM",
		"latitude": "35-56-56.65 N",
		"longitude": "84-27-51.96 W",
		"state": "TENNESSEE",
		"artcc": "ZTL",
		"type": "RNAV",
		"updated": "01/14/2003"
	},
	{
		"name": "JOPIB",
		"latitude": "33-6-49.8 N",
		"longitude": "85-58-23.51 W",
		"state": "ALABAMA",
		"artcc": "ZTL",
		"type": "RNAV",
		"updated": "10/22/2013"
	},
	{
		"name": "JOPKU",
		"latitude": "35-4-8.15 N",
		"longitude": "80-21-28.94 W",
		"state": "NORTH CAROLINA",
		"artcc": "ZTL",
		"type": "RNAV",
		"updated": "09/08/2016"
	},
	{
		"name": "JOPRU",
		"latitude": "34-12-5.31 N",
		"longitude": "83-19-15.76 W",
		"state": "GEORGIA",
		"artcc": "ZTL",
		"type": "RNAV",
		"updated": "07/18/2008"
	},
	{
		"name": "JOPUN",
		"latitude": "33-53-21.07 N",
		"longitude": "84-17-41.14 W",
		"state": "GEORGIA",
		"artcc": "ZTL",
		"type": "RNAV",
		"updated": "02/15/2005"
	},
	{
		"name": "JOREB",
		"latitude": "36-3-15.66 N",
		"longitude": "84-19-37.98 W",
		"state": "TENNESSEE",
		"artcc": "ZTL",
		"type": "RNAV",
		"updated": "10/25/2011"
	},
	{
		"name": "JORGA",
		"latitude": "35-12-21.68 N",
		"longitude": "80-11-4.83 W",
		"state": "NORTH CAROLINA",
		"artcc": "ZTL",
		"type": "RNAV",
		"updated": "11/10/2005"
	},
	{
		"name": "JOSEP",
		"latitude": "34-15-41.14 N",
		"longitude": "86-37-34.79 W",
		"state": "ALABAMA",
		"artcc": "ZME",
		"type": "RP",
		"updated": "VUZ*VORTAC*019.00"
	},
	{
		"name": "JOSOV",
		"latitude": "32-7-51 N",
		"longitude": "86-14-2.75 W",
		"state": "ALABAMA",
		"artcc": "ZTL",
		"type": "RP",
		"updated": "MGM*VORTAC*138.44/7.00"
	},
	{
		"name": "JOSPI",
		"latitude": "34-5-34.71 N",
		"longitude": "83-9-33.09 W",
		"state": "GEORGIA",
		"artcc": "ZTL",
		"type": "RP",
		"updated": "AHN*VOR/DME*043.43/12.00"
	},
	{
		"name": "JOTAV",
		"latitude": "33-36-18.25 N",
		"longitude": "86-18-24.59 W",
		"state": "ALABAMA",
		"artcc": "ZTL",
		"type": "RP",
		"updated": "GAD*VOR/DME*204.72/24.88"
	},
	{
		"name": "JOTEG",
		"latitude": "34-43-21.8 N",
		"longitude": "82-39-15.6 W",
		"state": "SOUTH CAROLINA",
		"artcc": "ZTL",
		"type": "RNAV",
		"updated": "09/25/2013"
	},
	{
		"name": "JOTER",
		"latitude": "33-3-9.37 N",
		"longitude": "84-29-5.16 W",
		"state": "GEORGIA",
		"artcc": "ZTL",
		"type": "RNAV",
		"updated": "09/14/2009"
	},
	{
		"name": "JOTKI",
		"latitude": "34-39-10.97 N",
		"longitude": "84-59-21.45 W",
		"state": "GEORGIA",
		"artcc": "ZTL",
		"type": "RNAV",
		"updated": "10/31/2013"
	},
	{
		"name": "JOTNO",
		"latitude": "33-45-15.27 N",
		"longitude": "83-23-15.95 W",
		"state": "GEORGIA",
		"artcc": "ZTL",
		"type": "RP",
		"updated": "AHN*VOR/DME*195.23/12.00"
	},
	{
		"name": "JOTTA",
		"latitude": "36-0-53.03 N",
		"longitude": "80-50-57.79 W",
		"state": "NORTH CAROLINA",
		"artcc": "ZTL",
		"type": "RP",
		"updated": "BZM*VOR/DME*071.25/20.97"
	},
	{
		"name": "JOVIS",
		"latitude": "33-41-9.7 N",
		"longitude": "81-59-2.76 W",
		"state": "SOUTH CAROLINA",
		"artcc": "ZTL",
		"type": "RP",
		"updated": "IRQ*VORTAC*102.11/9.00"
	},
	{
		"name": "JOXAT",
		"latitude": "35-11-24 N",
		"longitude": "85-8-46.88 W",
		"state": "TENNESSEE",
		"artcc": "ZTL",
		"type": "RNAV",
		"updated": "11/15/2010"
	},
	{
		"name": "JOXRE",
		"latitude": "33-45-59.42 N",
		"longitude": "84-14-55.18 W",
		"state": "GEORGIA",
		"artcc": "ZTL",
		"type": "RP",
		"updated": "PDK*VOR/DME*164.00/7.00"
	},
	{
		"name": "JOXUV",
		"latitude": "33-59-5.04 N",
		"longitude": "84-20-56.74 W",
		"state": "GEORGIA",
		"artcc": "ZTL",
		"type": "RP",
		"updated": "PDK*VOR/DME*344.00/7.00"
	},
	{
		"name": "JOYER",
		"latitude": "34-58-12.02 N",
		"longitude": "86-35-17.18 W",
		"state": "ALABAMA",
		"artcc": "ZME",
		"type": "RP",
		"updated": "RQZ*VORTAC*010.30/10.60"
	},
	{
		"name": "JRAMS",
		"latitude": "33-31-10.87 N",
		"longitude": "83-46-28.28 W",
		"state": "GEORGIA",
		"artcc": "ZTL",
		"type": "RNAV",
		"updated": "12/05/2016"
	},
	{
		"name": "JRDEN",
		"latitude": "35-20-45.79 N",
		"longitude": "81-4-48.3 W",
		"state": "NORTH CAROLINA",
		"artcc": "ZTL",
		"type": "RNAV",
		"updated": "06/15/2017"
	},
	{
		"name": "JRUTT",
		"latitude": "35-17-27.1 N",
		"longitude": "80-40-44.98 W",
		"state": "NORTH CAROLINA",
		"artcc": "ZTL",
		"type": "RNAV",
		"updated": "06/14/2017"
	},
	{
		"name": "JTEEA",
		"latitude": "36-26-21.64 N",
		"longitude": "81-48-29.12 W",
		"state": "TENNESSEE",
		"artcc": "ZTL",
		"type": "RP",
		"updated": "PSK*VORTAC*239.98"
	},
	{
		"name": "JUBBA",
		"latitude": "33-37-12.98 N",
		"longitude": "84-18-54.65 W",
		"state": "GEORGIA",
		"artcc": "ZTL",
		"type": "RP",
		"updated": "PKU*LD*094.98/6.83"
	},
	{
		"name": "JUBKI",
		"latitude": "32-52-8.14 N",
		"longitude": "85-57-38.17 W",
		"state": "ALABAMA",
		"artcc": "ZTL",
		"type": "RNAV",
		"updated": "10/22/2013"
	},
	{
		"name": "JUBXO",
		"latitude": "32-50-58.61 N",
		"longitude": "83-22-6.07 W",
		"state": "GEORGIA",
		"artcc": "ZTL",
		"type": "CN",
		"updated": "04/13/2001"
	},
	{
		"name": "JUDAK",
		"latitude": "34-4-57.67 N",
		"longitude": "82-52-33.55 W",
		"state": "GEORGIA",
		"artcc": "ZTL",
		"type": "RP",
		"updated": "AHN*VOR/DME*070.00/23.80"
	},
	{
		"name": "JUDKY",
		"latitude": "34-46-48.62 N",
		"longitude": "82-21-0.43 W",
		"state": "SOUTH CAROLINA",
		"artcc": "ZTL",
		"type": "RNAV",
		"updated": "04/20/2015"
	},
	{
		"name": "JUDOB",
		"latitude": "34-55-12.63 N",
		"longitude": "80-39-48.91 W",
		"state": "NORTH CAROLINA",
		"artcc": "ZTL",
		"type": "RNAV",
		"updated": "07/28/2011"
	},
	{
		"name": "JUDRY",
		"latitude": "32-57-34.38 N",
		"longitude": "83-45-24.54 W",
		"state": "GEORGIA",
		"artcc": "ZTL",
		"type": "RP",
		"updated": "MCN*VORTAC*340.00/17.00"
	},
	{
		"name": "JUDYY",
		"latitude": "33-51-33.94 N",
		"longitude": "84-4-46.2 W",
		"state": "GEORGIA",
		"artcc": "ZTL",
		"type": "RP",
		"updated": "PDK*VOR/DME*100.00/11.00"
	},
	{
		"name": "JUFTE",
		"latitude": "32-40-54.3 N",
		"longitude": "83-48-17.19 W",
		"state": "GEORGIA",
		"artcc": "ZTL",
		"type": "CN",
		"updated": "04/13/2001"
	},
	{
		"name": "JUFXO",
		"latitude": "32-36-18.15 N",
		"longitude": "83-6-15.64 W",
		"state": "GEORGIA",
		"artcc": "ZTL",
		"type": "CN",
		"updated": "04/13/2001"
	},
	{
		"name": "JUGIL",
		"latitude": "33-25-49.98 N",
		"longitude": "85-4-57.73 W",
		"state": "GEORGIA",
		"artcc": "ZTL",
		"type": "RNAV",
		"updated": "01/26/2005"
	},
	{
		"name": "JUKAK",
		"latitude": "34-43-36.99 N",
		"longitude": "81-21-2.37 W",
		"state": "SOUTH CAROLINA",
		"artcc": "ZTL",
		"type": "RNAV",
		"updated": "07/05/2013"
	},
	{
		"name": "JUKES",
		"latitude": "32-33-22.49 N",
		"longitude": "86-28-46 W",
		"state": "ALABAMA",
		"artcc": "ZTL",
		"type": "MR",
		"updated": "MXF*TACAN*329.00/12.00"
	},
	{
		"name": "JUKIN",
		"latitude": "35-24-6.25 N",
		"longitude": "86-10-49.34 W",
		"state": "TENNESSEE",
		"artcc": "ZME",
		"type": "RNAV",
		"updated": "06/16/2008"
	},
	{
		"name": "JUKRU",
		"latitude": "33-8-59.09 N",
		"longitude": "85-4-24.96 W",
		"state": "GEORGIA",
		"artcc": "ZTL",
		"type": "RP",
		"updated": "LGC*VORTAC*046.93/9.00"
	},
	{
		"name": "JUKVO",
		"latitude": "33-21-22.94 N",
		"longitude": "86-52-21.27 W",
		"state": "ALABAMA",
		"artcc": "ZTL",
		"type": "RNAV",
		"updated": "01/21/2009"
	},
	{
		"name": "JULEI",
		"latitude": "36-35-27.66 N",
		"longitude": "83-25-15.05 W",
		"state": "TENNESSEE",
		"artcc": "ZTL",
		"type": "RNAV",
		"updated": "06/01/2016"
	},
	{
		"name": "JULGA",
		"latitude": "33-36-55.68 N",
		"longitude": "83-48-53.24 W",
		"state": "GEORGIA",
		"artcc": "ZTL",
		"type": "RNAV",
		"updated": "12/05/2016"
	},
	{
		"name": "JUMJI",
		"latitude": "32-54-29 N",
		"longitude": "85-8-40.92 W",
		"state": "GEORGIA",
		"artcc": "ZTL",
		"type": "RP",
		"updated": "LGC*VORTAC*158.80/9.00"
	},
	{
		"name": "JUMOL",
		"latitude": "35-36-15.86 N",
		"longitude": "84-36-21.82 W",
		"state": "TENNESSEE",
		"artcc": "ZTL",
		"type": "RNAV",
		"updated": "10/29/2013"
	},
	{
		"name": "JUNIL",
		"latitude": "32-43-23.12 N",
		"longitude": "83-41-7.99 W",
		"state": "GEORGIA",
		"artcc": "ZTL",
		"type": "RNAV",
		"updated": "06/09/2011"
	},
	{
		"name": "JUNKU",
		"latitude": "32-45-46.26 N",
		"longitude": "84-14-42.03 W",
		"state": "GEORGIA",
		"artcc": "ZTL",
		"type": "RNAV",
		"updated": "07/11/2013"
	},
	{
		"name": "JUNNE",
		"latitude": "33-38-44.59 N",
		"longitude": "83-1-14.05 W",
		"state": "GEORGIA",
		"artcc": "ZTL",
		"type": "RP",
		"updated": "VVM*LE*069.10/7.07"
	},
	{
		"name": "JUNNR",
		"latitude": "35-53-34.59 N",
		"longitude": "80-39-6.99 W",
		"state": "NORTH CAROLINA",
		"artcc": "ZTL",
		"type": "RNAV",
		"updated": "02/03/2016"
	},
	{
		"name": "JUNOE",
		"latitude": "35-40-4.49 N",
		"longitude": "82-39-4.57 W",
		"state": "NORTH CAROLINA",
		"artcc": "ZTL",
		"type": "RP",
		"updated": "SOT*VORTAC*114.37/20.92"
	},
	{
		"name": "JUNPR",
		"latitude": "32-49-4.54 N",
		"longitude": "82-26-4.34 W",
		"state": "GEORGIA",
		"artcc": "ZTL",
		"type": "RNAV",
		"updated": "12/20/2007"
	},
	{
		"name": "JUNUL",
		"latitude": "35-59-30.04 N",
		"longitude": "84-4-51.86 W",
		"state": "TENNESSEE",
		"artcc": "ZTL",
		"type": "RNAV",
		"updated": "06/11/2012"
	},
	{
		"name": "JUPEP",
		"latitude": "33-16-25.19 N",
		"longitude": "84-31-27.55 W",
		"state": "GEORGIA",
		"artcc": "ZTL",
		"type": "RNAV",
		"updated": "03/26/2007"
	},
	{
		"name": "JUPES",
		"latitude": "34-36-48.57 N",
		"longitude": "86-55-47.83 W",
		"state": "ALABAMA",
		"artcc": "ZME",
		"type": "RNAV",
		"updated": "11/03/2014"
	},
	{
		"name": "JURAM",
		"latitude": "33-17-24.15 N",
		"longitude": "86-57-29.21 W",
		"state": "ALABAMA",
		"artcc": "ZTL",
		"type": "RP",
		"updated": "EKY*LD*232.81/2.76"
	},
	{
		"name": "JURMU",
		"latitude": "32-27-26.49 N",
		"longitude": "87-21-56.19 W",
		"state": "ALABAMA",
		"artcc": "ZTL",
		"type": "RNAV",
		"updated": "06/27/2013"
	},
	{
		"name": "JUSGO",
		"latitude": "33-30-34.1 N",
		"longitude": "86-51-0.32 W",
		"state": "ALABAMA",
		"artcc": "ZTL",
		"type": "RNAV",
		"updated": "09/04/2009"
	},
	{
		"name": "JUSTU",
		"latitude": "36-0-7 N",
		"longitude": "84-36-35.27 W",
		"state": "TENNESSEE",
		"artcc": "ZTL",
		"type": "RNAV",
		"updated": "10/25/2011"
	},
	{
		"name": "JUTEL",
		"latitude": "33-38-44.98 N",
		"longitude": "82-7-51.52 W",
		"state": "SOUTH CAROLINA",
		"artcc": "ZTL",
		"type": "RP",
		"updated": "IRQ*VORTAC*161.09/4.00"
	},
	{
		"name": "JUTIR",
		"latitude": "36-2-12.86 N",
		"longitude": "83-10-45.32 W",
		"state": "TENNESSEE",
		"artcc": "ZTL",
		"type": "RNAV",
		"updated": "01/14/2003"
	},
	{
		"name": "JUVAN",
		"latitude": "33-54-40.4 N",
		"longitude": "84-30-2.06 W",
		"state": "GEORGIA",
		"artcc": "ZTL",
		"type": "RP",
		"updated": "PDK*VOR/DME*287.00/10.30"
	},
	{
		"name": "JUVAP",
		"latitude": "35-54-44.35 N",
		"longitude": "80-33-0.85 W",
		"state": "NORTH CAROLINA",
		"artcc": "ZTL",
		"type": "RNAV",
		"updated": "08/12/2014"
	},
	{
		"name": "JUVAT",
		"latitude": "34-20-25.81 N",
		"longitude": "86-25-36.72 W",
		"state": "ALABAMA",
		"artcc": "ZME",
		"type": "RNAV",
		"updated": "03/06/2017"
	},
	{
		"name": "JUVKO",
		"latitude": "36-22-1.56 N",
		"longitude": "84-6-11.57 W",
		"state": "TENNESSEE",
		"artcc": "ZTL",
		"type": "RNAV",
		"updated": "09/03/2014"
	},
	{
		"name": "JWLGD",
		"latitude": "35-37-5.14 N",
		"longitude": "81-43-10.39 W",
		"state": "NORTH CAROLINA",
		"artcc": "ZTL",
		"type": "CN",
		"updated": "10/21/2011"
	},
	{
		"name": "JYROD",
		"latitude": "33-10-53.29 N",
		"longitude": "85-51-54.85 W",
		"state": "ALABAMA",
		"artcc": "ZTL",
		"type": "RNAV",
		"updated": "01/16/2014"
	}
]
