	{
		"name": "KACEL",
		"latitude": "33-9-58.14 N",
		"longitude": "84-37-19.02 W",
		"state": "GEORGIA",
		"artcc": "ZTL",
		"type": "RNAV",
		"updated": "09/15/2009",
	},
	{
		"name": "KADEE",
		"latitude": "34-3-12.47 N",
		"longitude": "84-45-14.26 W",
		"state": "GEORGIA",
		"artcc": "ZTL",
		"type": "RNAV",
		"updated": "12/08/2016",
	},
	{
		"name": "KADME",
		"latitude": "33-52-37.3 N",
		"longitude": "83-3-24.97 W",
		"state": "GEORGIA",
		"artcc": "ZTL",
		"type": "RNAV",
		"updated": "09/09/2015",
	},
	{
		"name": "KAILA",
		"latitude": "34-2-50.32 N",
		"longitude": "84-43-16.86 W",
		"state": "GEORGIA",
		"artcc": "ZTL",
		"type": "RP",
		"updated": "RMG*VORTAC*108.08/21.00",
	},
	{
		"name": "KAILL",
		"latitude": "34-1-47.21 N",
		"longitude": "84-31-24.18 W",
		"state": "GEORGIA",
		"artcc": "ZTL",
		"type": "RNAV",
		"updated": "01/16/2014",
	},
	{
		"name": "KAJIN",
		"latitude": "33-32-58.83 N",
		"longitude": "85-13-28.11 W",
		"state": "GEORGIA",
		"artcc": "ZTL",
		"type": "RNAV",
		"updated": "05/17/2016",
	},
	{
		"name": "KAKEC",
		"latitude": "35-18-26.99 N",
		"longitude": "83-12-1.49 W",
		"state": "NORTH CAROLINA",
		"artcc": "ZTL",
		"type": "RNAV",
		"updated": "11/06/2014",
	},
	{
		"name": "KAMDE",
		"latitude": "31-25-56.51 N",
		"longitude": "87-8-58.55 W",
		"state": "ALABAMA",
		"artcc": "ZTL",
		"type": "RNAV",
		"updated": "02/27/2013",
	},
	{
		"name": "KAMSE",
		"latitude": "33-55-17.07 N",
		"longitude": "84-32-32.78 W",
		"state": "GEORGIA",
		"artcc": "ZTL",
		"type": "MR",
		"updated": "DOB*TACAN*286.00/1.80",
	},
	{
		"name": "KANDY",
		"latitude": "33-46-36.05 N",
		"longitude": "82-29-29.57 W",
		"state": "GEORGIA",
		"artcc": "ZTL",
		"type": "RP",
		"updated": "GRD*VORTAC*211.70",
	},
	{
		"name": "KAOLN",
		"latitude": "32-57-52.56 N",
		"longitude": "82-50-17.5 W",
		"state": "GEORGIA",
		"artcc": "ZTL",
		"type": "RNAV",
		"updated": "12/20/2007",
	},
	{
		"name": "KAREL",
		"latitude": "34-10-32.52 N",
		"longitude": "85-10-39.72 W",
		"state": "GEORGIA",
		"artcc": "ZTL",
		"type": "RP",
		"updated": "RMG*VORTAC*284.18",
	},
	{
		"name": "KAREN",
		"latitude": "36-8-53.46 N",
		"longitude": "80-2-43.73 W",
		"state": "NORTH CAROLINA",
		"artcc": "ZTL",
		"type": "RP",
		"updated": "GSO*VORTAC*334.33/7.00",
	},
	{
		"name": "KATHE",
		"latitude": "32-27-52.96 N",
		"longitude": "83-43-31.85 W",
		"state": "GEORGIA",
		"artcc": "ZTL",
		"type": "RP",
		"updated": "VNA*VORTAC*321.42/19.00",
	},
	{
		"name": "KAWAS",
		"latitude": "34-13-44.83 N",
		"longitude": "83-34-50.6 W",
		"state": "GEORGIA",
		"artcc": "ZTL",
		"type": "RNAV",
		"updated": "08/09/2010",
	},
	{
		"name": "KAYAC",
		"latitude": "35-23-36.28 N",
		"longitude": "84-40-31.73 W",
		"state": "TENNESSEE",
		"artcc": "ZTL",
		"type": "RNAV",
		"updated": "05/12/2014",
	},
	{
		"name": "KAYBE",
		"latitude": "33-55-39 N",
		"longitude": "83-35-18.67 W",
		"state": "GEORGIA",
		"artcc": "ZTL",
		"type": "RP",
		"updated": "AHN*VOR/DME*264.85/13.22",
	},
	{
		"name": "KAYEY",
		"latitude": "36-41-48.99 N",
		"longitude": "80-49-18.3 W",
		"state": "VIRGINIA",
		"artcc": "ZTL",
		"type": "RNAV",
		"updated": "12/18/2006",
	},
	{
		"name": "KAYLO",
		"latitude": "36-10-4.75 N",
		"longitude": "80-18-3.53 W",
		"state": "NORTH CAROLINA",
		"artcc": "ZTL",
		"type": "RP",
		"updated": "GSO*VORTAC*298.00/17.40",
	},
	{
		"name": "KAZDU",
		"latitude": "34-21-50.84 N",
		"longitude": "86-49-26.09 W",
		"state": "ALABAMA",
		"artcc": "ZME",
		"type": "RP",
		"updated": "MSL*VORTAC*120.63/38.94",
	},
	{
		"name": "KAZNY",
		"latitude": "35-11-23.9 N",
		"longitude": "81-49-3.46 W",
		"state": "NORTH CAROLINA",
		"artcc": "ZTL",
		"type": "RNAV",
		"updated": "04/16/2014",
	},
	{
		"name": "KBLER",
		"latitude": "33-43-20.65 N",
		"longitude": "83-43-13.71 W",
		"state": "GEORGIA",
		"artcc": "ZTL",
		"type": "RNAV",
		"updated": "01/16/2014",
	},
	{
		"name": "KEANS",
		"latitude": "35-32-0.1 N",
		"longitude": "82-35-7.81 W",
		"state": "NORTH CAROLINA",
		"artcc": "ZTL",
		"type": "RNAV",
		"updated": "09/27/2017",
	},
	{
		"name": "KEAVY",
		"latitude": "33-43-59.46 N",
		"longitude": "84-2-19.95 W",
		"state": "GEORGIA",
		"artcc": "ZTL",
		"type": "RNAV",
		"updated": "02/25/2013",
	},
	{
		"name": "KEBKE",
		"latitude": "33-37-6.31 N",
		"longitude": "82-10-2.95 W",
		"state": "SOUTH CAROLINA",
		"artcc": "ZTL",
		"type": "RNAV",
		"updated": "06/12/2012",
	},
	{
		"name": "KECEB",
		"latitude": "34-33-9.04 N",
		"longitude": "83-27-31.36 W",
		"state": "GEORGIA",
		"artcc": "ZTL",
		"type": "RNAV",
		"updated": "05/19/2011",
	},
	{
		"name": "KECKS",
		"latitude": "35-4-57.56 N",
		"longitude": "81-7-23.73 W",
		"state": "SOUTH CAROLINA",
		"artcc": "ZTL",
		"type": "RP",
		"updated": "BZM*VOR/DME*179.01/47.45",
	},
	{
		"name": "KEEPS",
		"latitude": "33-0-2.82 N",
		"longitude": "85-22-15.02 W",
		"state": "ALABAMA",
		"artcc": "ZTL",
		"type": "RNAV",
		"updated": "08/18/2017",
	},
	{
		"name": "KEGTE",
		"latitude": "33-36-0.65 N",
		"longitude": "86-41-33.87 W",
		"state": "ALABAMA",
		"artcc": "ZTL",
		"type": "RNAV",
		"updated": "08/18/2010",
	},
	{
		"name": "KEIPY",
		"latitude": "36-40-36.92 N",
		"longitude": "82-10-38.85 W",
		"state": "VIRGINIA",
		"artcc": "ZTL",
		"type": "RP",
		"updated": "HMV*VORTAC*354.87",
	},
	{
		"name": "KEKTE",
		"latitude": "33-59-52.07 N",
		"longitude": "83-29-52.16 W",
		"state": "GEORGIA",
		"artcc": "ZTL",
		"type": "RNAV",
		"updated": "07/20/2007",
	},
	{
		"name": "KELCC",
		"latitude": "33-57-9.33 N",
		"longitude": "87-7-50.04 W",
		"state": "ALABAMA",
		"artcc": "ZTL",
		"type": "RNAV",
		"updated": "03/30/2018",
	},
	{
		"name": "KELLN",
		"latitude": "34-31-33.22 N",
		"longitude": "82-10-16.92 W",
		"state": "SOUTH CAROLINA",
		"artcc": "ZTL",
		"type": "RNAV",
		"updated": "12/09/2015",
	},
	{
		"name": "KELPY",
		"latitude": "35-25-15.72 N",
		"longitude": "85-57-19.17 W",
		"state": "TENNESSEE",
		"artcc": "ZME",
		"type": "RNAV",
		"updated": "06/29/2011",
	},
	{
		"name": "KEMSE",
		"latitude": "35-32-50.9 N",
		"longitude": "80-52-1.74 W",
		"state": "NORTH CAROLINA",
		"artcc": "ZTL",
		"type": "RNAV",
		"updated": "01/13/2011",
	},
	{
		"name": "KENTT",
		"latitude": "32-36-42.77 N",
		"longitude": "85-47-57.33 W",
		"state": "ALABAMA",
		"artcc": "ZTL",
		"type": "RP",
		"updated": "MGM*VORTAC*045.43/35.26",
	},
	{
		"name": "KENZI",
		"latitude": "34-8-15.78 N",
		"longitude": "84-23-4.86 W",
		"state": "GEORGIA",
		"artcc": "ZTL",
		"type": "RNAV",
		"updated": "07/26/2016",
	},
	{
		"name": "KEPDE",
		"latitude": "36-31-23.1 N",
		"longitude": "82-4-36.77 W",
		"state": "TENNESSEE",
		"artcc": "ZTL",
		"type": "RNAV",
		"updated": "07/17/2017",
	},
	{
		"name": "KEPIA",
		"latitude": "32-50-38.06 N",
		"longitude": "81-57-8.62 W",
		"state": "GEORGIA",
		"artcc": "ZTL",
		"type": "RNAV",
		"updated": "10/03/2014",
	},
	{
		"name": "KEVON",
		"latitude": "34-35-23.85 N",
		"longitude": "86-42-44.59 W",
		"state": "ALABAMA",
		"artcc": "ZME",
		"type": "MR",
		"updated": "RQZ*VORTAC*195.40/13.01",
	},
	{
		"name": "KEWPI",
		"latitude": "35-42-10.32 N",
		"longitude": "80-3-2.55 W",
		"state": "NORTH CAROLINA",
		"artcc": "ZTL",
		"type": "RP",
		"updated": "LIB*VORTAC*256.19/22.36",
	},
	{
		"name": "KEYEY",
		"latitude": "34-21-57.12 N",
		"longitude": "84-54-59.46 W",
		"state": "GEORGIA",
		"artcc": "ZTL",
		"type": "RNAV",
		"updated": "10/31/2013",
	},
	{
		"name": "KHANN",
		"latitude": "33-11-1.22 N",
		"longitude": "87-6-27.58 W",
		"state": "ALABAMA",
		"artcc": "ZTL",
		"type": "RP",
		"updated": "OKW*VORTAC*115.00/7.91",
	},
	{
		"name": "KHAOS",
		"latitude": "35-43-58.55 N",
		"longitude": "81-22-14.49 W",
		"state": "NORTH CAROLINA",
		"artcc": "ZTL",
		"type": "RP",
		"updated": "SPA*VORTAC*034.93/50.00",
	},
	{
		"name": "KHMYA",
		"latitude": "32-20-8.35 N",
		"longitude": "87-2-58.84 W",
		"state": "ALABAMA",
		"artcc": "ZTL",
		"type": "RNAV",
		"updated": "08/18/2017",
	},
	{
		"name": "KHOUM",
		"latitude": "36-16-1.76 N",
		"longitude": "81-5-59.54 W",
		"state": "NORTH CAROLINA",
		"artcc": "ZTL",
		"type": "RNAV",
		"updated": "07/06/2017",
	},
	{
		"name": "KIDDO",
		"latitude": "36-10-34.9 N",
		"longitude": "80-2-23.69 W",
		"state": "NORTH CAROLINA",
		"artcc": "ZTL",
		"type": "RNAV",
		"updated": "01/27/2014",
	},
	{
		"name": "KIDPE",
		"latitude": "32-42-36.39 N",
		"longitude": "86-18-48.15 W",
		"state": "ALABAMA",
		"artcc": "ZTL",
		"type": "MR",
		"updated": "09/18/2007",
	},
	{
		"name": "KIDZI",
		"latitude": "36-29-26.24 N",
		"longitude": "81-37-50.96 W",
		"state": "NORTH CAROLINA",
		"artcc": "ZTL",
		"type": "RNAV",
		"updated": "05/26/2009",
	},
	{
		"name": "KILEC",
		"latitude": "33-56-58.26 N",
		"longitude": "86-8-9.73 W",
		"state": "ALABAMA",
		"artcc": "ZTL",
		"type": "RNAV",
		"updated": "12/18/2007",
	},
	{
		"name": "KILNS",
		"latitude": "35-31-56.47 N",
		"longitude": "79-49-17.41 W",
		"state": "NORTH CAROLINA",
		"artcc": "ZTL",
		"type": "RNAV",
		"updated": "03/31/2016",
	},
	{
		"name": "KILRR",
		"latitude": "33-43-57.85 N",
		"longitude": "84-8-16.04 W",
		"state": "GEORGIA",
		"artcc": "ZTL",
		"type": "RNAV",
		"updated": "02/25/2013",
	},
	{
		"name": "KIMGE",
		"latitude": "35-28-47 N",
		"longitude": "83-58-14 W",
		"state": "TENNESSEE",
		"artcc": "ZTL",
		"type": "RNAV",
		"updated": "01/14/2003",
	},
	{
		"name": "KIMLY",
		"latitude": "34-40-15.88 N",
		"longitude": "82-45-10.1 W",
		"state": "SOUTH CAROLINA",
		"artcc": "ZTL",
		"type": "RP",
		"updated": "ODF*VORTAC*093.00/27.00",
	},
	{
		"name": "KIOSK",
		"latitude": "33-34-53.72 N",
		"longitude": "86-9-12.67 W",
		"state": "ALABAMA",
		"artcc": "ZTL",
		"type": "RNAV",
		"updated": "11/17/2017",
	},
	{
		"name": "KIRCH",
		"latitude": "35-27-13.13 N",
		"longitude": "84-49-59.46 W",
		"state": "TENNESSEE",
		"artcc": "ZTL",
		"type": "RP",
		"updated": "HCH*VOR/DME*162.04/20.86",
	},
	{
		"name": "KISTN",
		"latitude": "33-44-20.71 N",
		"longitude": "81-52-16.2 W",
		"state": "SOUTH CAROLINA",
		"artcc": "ZTL",
		"type": "RNAV",
		"updated": "07/26/2016",
	},
	{
		"name": "KITTZ",
		"latitude": "34-43-29.1 N",
		"longitude": "86-46-48 W",
		"state": "ALABAMA",
		"artcc": "ZME",
		"type": "RP",
		"updated": "RQZ*VORTAC*237.08",
	},
	{
		"name": "KIYED",
		"latitude": "34-28-40.63 N",
		"longitude": "82-56-36.93 W",
		"state": "GEORGIA",
		"artcc": "ZTL",
		"type": "RNAV",
		"updated": "07/18/2008",
	},
	{
		"name": "KIYET",
		"latitude": "34-30-14.16 N",
		"longitude": "86-55-53.59 W",
		"state": "ALABAMA",
		"artcc": "ZME",
		"type": "RNAV",
		"updated": "11/03/2014",
	},
	{
		"name": "KLAND",
		"latitude": "37-1-44.82 N",
		"longitude": "81-1-32.55 W",
		"state": "VIRGINIA",
		"artcc": "ZTL",
		"type": "RP",
		"updated": "BLF*VOR/DME*157.01",
	},
	{
		"name": "KLEGG",
		"latitude": "33-48-45.03 N",
		"longitude": "84-16-48.02 W",
		"state": "GEORGIA",
		"artcc": "ZTL",
		"type": "RNAV",
		"updated": "01/14/2005",
	},
	{
		"name": "KLICK",
		"latitude": "32-33-47 N",
		"longitude": "82-33-1.47 W",
		"state": "GEORGIA",
		"artcc": "ZTL",
		"type": "RP",
		"updated": "AMG*VORTAC*358.00",
	},
	{
		"name": "KLOWD",
		"latitude": "33-43-58.63 N",
		"longitude": "84-26-4.57 W",
		"state": "GEORGIA",
		"artcc": "ZTL",
		"type": "RNAV",
		"updated": "07/26/2016",
	},
	{
		"name": "KNINE",
		"latitude": "33-4-22.93 N",
		"longitude": "82-21-25.1 W",
		"state": "GEORGIA",
		"artcc": "ZTL",
		"type": "RP",
		"updated": "ALD*VOR*275.15",
	},
	{
		"name": "KNITS",
		"latitude": "35-41-1.18 N",
		"longitude": "83-53-58.56 W",
		"state": "TENNESSEE",
		"artcc": "ZTL",
		"type": "RP",
		"updated": "HCH*VOR/DME*098.00",
	},
	{
		"name": "KNOWW",
		"latitude": "34-38-1.04 N",
		"longitude": "83-42-52.24 W",
		"state": "GEORGIA",
		"artcc": "ZTL",
		"type": "RNAV",
		"updated": "07/26/2016",
	},
	{
		"name": "KOBVE",
		"latitude": "33-46-14.97 N",
		"longitude": "83-24-10.82 W",
		"state": "GEORGIA",
		"artcc": "ZTL",
		"type": "RNAV",
		"updated": "10/01/2008",
	},
	{
		"name": "KOCEY",
		"latitude": "33-35-20.4 N",
		"longitude": "85-41-2.32 W",
		"state": "ALABAMA",
		"artcc": "ZTL",
		"type": "RP",
		"updated": "TDG*VOR/DME*085.26/18.00",
	},
	{
		"name": "KODRE",
		"latitude": "32-49-54.9 N",
		"longitude": "83-40-18.72 W",
		"state": "GEORGIA",
		"artcc": "ZTL",
		"type": "RNAV",
		"updated": "05/25/2016",
	},
	{
		"name": "KOGPE",
		"latitude": "32-0-40.82 N",
		"longitude": "82-55-18.01 W",
		"state": "GEORGIA",
		"artcc": "ZJX",
		"type": "RNAV",
		"updated": "06/16/2008",
	},
	{
		"name": "KOJAK",
		"latitude": "35-11-35.86 N",
		"longitude": "86-14-34.46 W",
		"state": "TENNESSEE",
		"artcc": "ZME",
		"type": "RNAV",
		"updated": "06/29/2011",
	},
	{
		"name": "KOKRE",
		"latitude": "34-57-58.6 N",
		"longitude": "82-17-48.92 W",
		"state": "SOUTH CAROLINA",
		"artcc": "ZTL",
		"type": "RNAV",
		"updated": "02/02/2007",
	},
	{
		"name": "KOMER",
		"latitude": "32-0-50.86 N",
		"longitude": "85-24-17.19 W",
		"state": "ALABAMA",
		"artcc": "ZTL",
		"type": "RP",
		"updated": "EUF*VORTAC*283.36/14.51",
	},
	{
		"name": "KORKE",
		"latitude": "35-7-13.14 N",
		"longitude": "86-40-41.51 W",
		"state": "TENNESSEE",
		"artcc": "ZME",
		"type": "RNAV",
		"updated": "05/06/2016",
	},
	{
		"name": "KORNR",
		"latitude": "32-48-41.86 N",
		"longitude": "86-50-47.47 W",
		"state": "ALABAMA",
		"artcc": "ZTL",
		"type": "RP",
		"updated": "VUZ*VORTAC*175.00/51.49",
	},
	{
		"name": "KORVE",
		"latitude": "34-30-9.56 N",
		"longitude": "81-35-28.37 W",
		"state": "SOUTH CAROLINA",
		"artcc": "ZTL",
		"type": "RNAV",
		"updated": "05/27/2009",
	},
	{
		"name": "KOSEY",
		"latitude": "35-5-20.11 N",
		"longitude": "85-14-41.56 W",
		"state": "TENNESSEE",
		"artcc": "ZTL",
		"type": "RNAV",
		"updated": "08/11/2005",
	},
	{
		"name": "KOTEY",
		"latitude": "34-22-50.93 N",
		"longitude": "84-20-53.39 W",
		"state": "GEORGIA",
		"artcc": "ZTL",
		"type": "RNAV",
		"updated": "07/19/2011",
	},
	{
		"name": "KOTNE",
		"latitude": "35-33-16.48 N",
		"longitude": "80-33-8.35 W",
		"state": "NORTH CAROLINA",
		"artcc": "ZTL",
		"type": "RNAV",
		"updated": "04/06/2018",
	},
	{
		"name": "KOVEY",
		"latitude": "33-57-43.25 N",
		"longitude": "84-13-56.62 W",
		"state": "GEORGIA",
		"artcc": "ZTL",
		"type": "RNAV",
		"updated": "01/03/2013",
	},
	{
		"name": "KOZEY",
		"latitude": "32-34-39.57 N",
		"longitude": "86-28-21.53 W",
		"state": "ALABAMA",
		"artcc": "ZTL",
		"type": "MR",
		"updated": "MXF*TACAN*338.00/13.00",
	},
	{
		"name": "KOZJE",
		"latitude": "33-39-15.62 N",
		"longitude": "85-58-44.96 W",
		"state": "ALABAMA",
		"artcc": "ZTL",
		"type": "RNAV",
		"updated": "12/01/2017",
	},
	{
		"name": "KPASS",
		"latitude": "36-38-56.56 N",
		"longitude": "81-49-58.27 W",
		"state": "VIRGINIA",
		"artcc": "ZTL",
		"type": "RNAV",
		"updated": "11/19/2012",
	},
	{
		"name": "KRISI",
		"latitude": "33-43-49.86 N",
		"longitude": "84-37-24.23 W",
		"state": "GEORGIA",
		"artcc": "ZTL",
		"type": "RNAV",
		"updated": "08/09/2011",
	},
	{
		"name": "KRISL",
		"latitude": "34-52-24.99 N",
		"longitude": "80-55-22.22 W",
		"state": "SOUTH CAROLINA",
		"artcc": "ZTL",
		"type": "RP",
		"updated": "CLT*VOR/DME*/19.02",
	},
	{
		"name": "KRISS",
		"latitude": "35-44-52.11 N",
		"longitude": "80-30-2.82 W",
		"state": "NORTH CAROLINA",
		"artcc": "ZTL",
		"type": "RNAV",
		"updated": "04/28/2017",
	},
	{
		"name": "KRITR",
		"latitude": "35-41-21.47 N",
		"longitude": "80-55-27.55 W",
		"state": "NORTH CAROLINA",
		"artcc": "ZTL",
		"type": "RNAV",
		"updated": "06/25/2015",
	},
	{
		"name": "KRNKO",
		"latitude": "34-51-11.93 N",
		"longitude": "82-54-16.8 W",
		"state": "SOUTH CAROLINA",
		"artcc": "ZTL",
		"type": "RNAV",
		"updated": "04/13/2017",
	},
	{
		"name": "KT12M",
		"latitude": "32-0-0 N",
		"longitude": "88-0-0 W",
		"state": "ALABAMA",
		"artcc": "ZTL",
		"type": "NRS",
		"updated": "03/05/2005",
	},
	{
		"name": "KT12O",
		"latitude": "32-0-0 N",
		"longitude": "86-0-0 W",
		"state": "ALABAMA",
		"artcc": "ZTL",
		"type": "NRS",
		"updated": "03/05/2005",
	},
	{
		"name": "KT12Q",
		"latitude": "32-0-0 N",
		"longitude": "84-0-0 W",
		"state": "GEORGIA",
		"artcc": "ZJX",
		"type": "NRS",
		"updated": "03/05/2005",
	},
	{
		"name": "KT15M",
		"latitude": "32-30-0 N",
		"longitude": "88-0-0 W",
		"state": "ALABAMA",
		"artcc": "ZTL",
		"type": "NRS",
		"updated": "03/05/2005",
	},
	{
		"name": "KT15O",
		"latitude": "32-30-0 N",
		"longitude": "86-0-0 W",
		"state": "ALABAMA",
		"artcc": "ZTL",
		"type": "NRS",
		"updated": "03/05/2005",
	},
	{
		"name": "KT15Q",
		"latitude": "32-30-0 N",
		"longitude": "84-0-0 W",
		"state": "GEORGIA",
		"artcc": "ZTL",
		"type": "NRS",
		"updated": "03/05/2005",
	},
	{
		"name": "KT15S",
		"latitude": "32-30-0 N",
		"longitude": "82-0-0 W",
		"state": "GEORGIA",
		"artcc": "ZTL",
		"type": "NRS",
		"updated": "03/05/2005",
	},
	{
		"name": "KT18O",
		"latitude": "33-0-0 N",
		"longitude": "86-0-0 W",
		"state": "ALABAMA",
		"artcc": "ZTL",
		"type": "NRS",
		"updated": "03/05/2005",
	},
	{
		"name": "KT18Q",
		"latitude": "33-0-0 N",
		"longitude": "84-0-0 W",
		"state": "GEORGIA",
		"artcc": "ZTL",
		"type": "NRS",
		"updated": "03/05/2005",
	},
	{
		"name": "KT18S",
		"latitude": "33-0-0 N",
		"longitude": "82-0-0 W",
		"state": "GEORGIA",
		"artcc": "ZTL",
		"type": "NRS",
		"updated": "03/05/2005",
	},
	{
		"name": "KT21O",
		"latitude": "33-30-0 N",
		"longitude": "86-0-0 W",
		"state": "ALABAMA",
		"artcc": "ZTL",
		"type": "NRS",
		"updated": "03/05/2005",
	},
	{
		"name": "KT21Q",
		"latitude": "33-30-0 N",
		"longitude": "84-0-0 W",
		"state": "GEORGIA",
		"artcc": "ZTL",
		"type": "NRS",
		"updated": "03/05/2005",
	},
	{
		"name": "KT21S",
		"latitude": "33-30-0 N",
		"longitude": "82-0-0 W",
		"state": "GEORGIA",
		"artcc": "ZTL",
		"type": "NRS",
		"updated": "03/05/2005",
	},
	{
		"name": "KT24O",
		"latitude": "34-0-0 N",
		"longitude": "86-0-0 W",
		"state": "ALABAMA",
		"artcc": "ZTL",
		"type": "NRS",
		"updated": "03/05/2005",
	},
	{
		"name": "KT24Q",
		"latitude": "34-0-0 N",
		"longitude": "84-0-0 W",
		"state": "GEORGIA",
		"artcc": "ZTL",
		"type": "NRS",
		"updated": "03/05/2005",
	},
	{
		"name": "KT24S",
		"latitude": "34-0-0 N",
		"longitude": "82-0-0 W",
		"state": "SOUTH CAROLINA",
		"artcc": "ZTL",
		"type": "NRS",
		"updated": "03/05/2005",
	},
	{
		"name": "KT27O",
		"latitude": "34-30-0 N",
		"longitude": "86-0-0 W",
		"state": "ALABAMA",
		"artcc": "ZTL",
		"type": "NRS",
		"updated": "03/05/2005",
	},
	{
		"name": "KT27Q",
		"latitude": "34-30-0 N",
		"longitude": "84-0-0 W",
		"state": "GEORGIA",
		"artcc": "ZTL",
		"type": "NRS",
		"updated": "03/05/2005",
	},
	{
		"name": "KT27S",
		"latitude": "34-30-0 N",
		"longitude": "82-0-0 W",
		"state": "SOUTH CAROLINA",
		"artcc": "ZTL",
		"type": "NRS",
		"updated": "03/05/2005",
	},
	{
		"name": "KT30O",
		"latitude": "35-0-0 N",
		"longitude": "86-0-0 W",
		"state": "TENNESSEE",
		"artcc": "ZME",
		"type": "NRS",
		"updated": "03/05/2005",
	},
	{
		"name": "KT30Q",
		"latitude": "35-0-0 N",
		"longitude": "84-0-0 W",
		"state": "NORTH CAROLINA",
		"artcc": "ZTL",
		"type": "NRS",
		"updated": "03/05/2005",
	},
	{
		"name": "KT30S",
		"latitude": "35-0-0 N",
		"longitude": "82-0-0 W",
		"state": "SOUTH CAROLINA",
		"artcc": "ZTL",
		"type": "NRS",
		"updated": "03/05/2005",
	},
	{
		"name": "KT33O",
		"latitude": "35-30-0 N",
		"longitude": "86-0-0 W",
		"state": "TENNESSEE",
		"artcc": "ZME",
		"type": "NRS",
		"updated": "03/05/2005",
	},
	{
		"name": "KT33Q",
		"latitude": "35-30-0 N",
		"longitude": "84-0-0 W",
		"state": "TENNESSEE",
		"artcc": "ZTL",
		"type": "NRS",
		"updated": "03/05/2005",
	},
	{
		"name": "KT33S",
		"latitude": "35-30-0 N",
		"longitude": "82-0-0 W",
		"state": "NORTH CAROLINA",
		"artcc": "ZTL",
		"type": "NRS",
		"updated": "03/05/2005",
	},
	{
		"name": "KT33U",
		"latitude": "35-30-0 N",
		"longitude": "80-0-0 W",
		"state": "NORTH CAROLINA",
		"artcc": "ZTL",
		"type": "NRS",
		"updated": "03/05/2005",
	},
	{
		"name": "KT36Q",
		"latitude": "36-0-0 N",
		"longitude": "84-0-0 W",
		"state": "TENNESSEE",
		"artcc": "ZTL",
		"type": "NRS",
		"updated": "03/05/2005",
	},
	{
		"name": "KT36S",
		"latitude": "36-0-0 N",
		"longitude": "82-0-0 W",
		"state": "NORTH CAROLINA",
		"artcc": "ZTL",
		"type": "NRS",
		"updated": "03/05/2005",
	},
	{
		"name": "KT36U",
		"latitude": "36-0-0 N",
		"longitude": "80-0-0 W",
		"state": "NORTH CAROLINA",
		"artcc": "ZTL",
		"type": "NRS",
		"updated": "03/05/2005",
	},
	{
		"name": "KT39Q",
		"latitude": "36-30-0 N",
		"longitude": "84-0-0 W",
		"state": "TENNESSEE",
		"artcc": "ZTL",
		"type": "NRS",
		"updated": "03/05/2005",
	},
	{
		"name": "KT39S",
		"latitude": "36-30-0 N",
		"longitude": "82-0-0 W",
		"state": "TENNESSEE",
		"artcc": "ZTL",
		"type": "NRS",
		"updated": "03/05/2005",
	},
	{
		"name": "KT42S",
		"latitude": "37-0-0 N",
		"longitude": "82-0-0 W",
		"state": "VIRGINIA",
		"artcc": "ZTL",
		"type": "NRS",
		"updated": "03/05/2005",
	},
	{
		"name": "KTOWN",
		"latitude": "35-11-49.14 N",
		"longitude": "81-3-18.27 W",
		"state": "NORTH CAROLINA",
		"artcc": "ZTL",
		"type": "RNAV",
		"updated": "01/16/2014",
	},
	{
		"name": "KUCEG",
		"latitude": "33-1-24.89 N",
		"longitude": "85-58-6.77 W",
		"state": "ALABAMA",
		"artcc": "ZTL",
		"type": "RNAV",
		"updated": "07/25/2017",
	},
	{
		"name": "KUCPE",
		"latitude": "34-33-31.37 N",
		"longitude": "86-33-48.31 W",
		"state": "ALABAMA",
		"artcc": "ZME",
		"type": "RNAV",
		"updated": "05/20/2013",
	},
	{
		"name": "KUKRE",
		"latitude": "34-15-38.12 N",
		"longitude": "83-35-31.33 W",
		"state": "GEORGIA",
		"artcc": "ZTL",
		"type": "RNAV",
		"updated": "12/29/2015",
	},
	{
		"name": "KUNFU",
		"latitude": "33-43-58.59 N",
		"longitude": "84-33-52.84 W",
		"state": "GEORGIA",
		"artcc": "ZTL",
		"type": "RNAV",
		"updated": "08/22/2017",
	},
	{
		"name": "KUPPP",
		"latitude": "34-17-5.51 N",
		"longitude": "82-24-16.61 W",
		"state": "SOUTH CAROLINA",
		"artcc": "ZTL",
		"type": "RNAV",
		"updated": "06/30/2017",
	},
	{
		"name": "KURRU",
		"latitude": "36-48-3.76 N",
		"longitude": "81-49-21.78 W",
		"state": "VIRGINIA",
		"artcc": "ZTL",
		"type": "RNAV",
		"updated": "07/20/2009",
	},
	{
		"name": "KUTVE",
		"latitude": "31-52-1.02 N",
		"longitude": "84-27-4.69 W",
		"state": "GEORGIA",
		"artcc": "ZJX",
		"type": "RP",
		"updated": "EUF*VORTAC*096.00",
	},
	{
		"name": "KUVRE",
		"latitude": "35-39-36.17 N",
		"longitude": "81-31-48.52 W",
		"state": "NORTH CAROLINA",
		"artcc": "ZTL",
		"type": "RNAV",
		"updated": "07/15/2011",
	},
	{
		"name": "KUWZU",
		"latitude": "34-33-32.48 N",
		"longitude": "82-45-19.72 W",
		"state": "SOUTH CAROLINA",
		"artcc": "ZTL",
		"type": "RP",
		"updated": "ELW*VORTAC*009.80/8.50",
	},
	{
		"name": "KUXYI",
		"latitude": "35-22-18.43 N",
		"longitude": "86-29-16.54 W",
		"state": "TENNESSEE",
		"artcc": "ZME",
		"type": "RP",
		"updated": "SYI*VOR/DME*192.86/11.64",
	},
	{
		"name": "KUYES",
		"latitude": "35-13-20.02 N",
		"longitude": "83-25-7.87 W",
		"state": "NORTH CAROLINA",
		"artcc": "ZTL",
		"type": "RNAV",
		"updated": "02/03/2009",
	},
	{
		"name": "KVILL",
		"latitude": "36-5-46.78 N",
		"longitude": "80-11-14.62 W",
		"state": "NORTH CAROLINA",
		"artcc": "ZTL",
		"type": "RNAV",
		"updated": "11/10/2016",
	},
	{
		"name": "KWEEN",
		"latitude": "34-40-47.77 N",
		"longitude": "80-50-42.46 W",
		"state": "SOUTH CAROLINA",
		"artcc": "ZTL",
		"type": "RNAV",
		"updated": "05/06/2016",
	},
	{
		"name": "KWOOD",
		"latitude": "35-10-18.87 N",
		"longitude": "81-8-59.61 W",
		"state": "NORTH CAROLINA",
		"artcc": "ZTL",
		"type": "RNAV",
		"updated": "02/16/2016",
	},
	{
		"name": "KYLEE",
		"latitude": "33-9-41.04 N",
		"longitude": "86-21-57.72 W",
		"state": "ALABAMA",
		"artcc": "ZTL",
		"type": "RP",
		"updated": "MGM*VORTAC*354.63",
	},
	{
		"name": "KYMMY",
		"latitude": "33-43-59.09 N",
		"longitude": "84-8-19.67 W",
		"state": "GEORGIA",
		"artcc": "ZTL",
		"type": "RNAV",
		"updated": "08/12/2014",
	},
