	{
		"name": "MAACK",
		"latitude": "36-37-55.07 N",
		"longitude": "81-1-52.36 W",
		"state": "VIRGINIA",
		"artcc": "ZTL",
		"type": "RNAV",
		"updated": "06/20/2017",
	},
	{
		"name": "MAASN",
		"latitude": "33-38-3.5 N",
		"longitude": "84-7-44.57 W",
		"state": "GEORGIA",
		"artcc": "ZTL",
		"type": "RP",
		"updated": "PDK*VOR/DME*154.51",
	},
	{
		"name": "MABDY",
		"latitude": "34-48-14.84 N",
		"longitude": "82-42-14.7 W",
		"state": "SOUTH CAROLINA",
		"artcc": "ZTL",
		"type": "RP",
		"updated": "ELW*VORTAC*009.80/23.40",
	},
	{
		"name": "MABOJ",
		"latitude": "32-49-10.83 N",
		"longitude": "83-33-46.1 W",
		"state": "GEORGIA",
		"artcc": "ZTL",
		"type": "CN",
		"updated": "04/13/2001",
	},
	{
		"name": "MABVL",
		"latitude": "35-12-49.91 N",
		"longitude": "84-49-56.74 W",
		"state": "TENNESSEE",
		"artcc": "ZTL",
		"type": "CN",
		"updated": "05/09/2003",
	},
	{
		"name": "MACAH",
		"latitude": "34-51-18.28 N",
		"longitude": "86-33-39.76 W",
		"state": "ALABAMA",
		"artcc": "ZME",
		"type": "CN",
		"updated": "01/30/2001",
	},
	{
		"name": "MACER",
		"latitude": "34-14-6.96 N",
		"longitude": "82-21-0.76 W",
		"state": "SOUTH CAROLINA",
		"artcc": "ZTL",
		"type": "RNAV",
		"updated": "09/20/2016",
	},
	{
		"name": "MACEY",
		"latitude": "34-20-0.25 N",
		"longitude": "83-41-19.08 W",
		"state": "GEORGIA",
		"artcc": "ZTL",
		"type": "RP",
		"updated": "AHN*VOR/DME*322.00",
	},
	{
		"name": "MACUD",
		"latitude": "32-12-58.99 N",
		"longitude": "83-7-53.54 W",
		"state": "GEORGIA",
		"artcc": "ZJX",
		"type": "RP",
		"updated": "VNA*VORTAC*088.36/18.62",
	},
	{
		"name": "MACYU",
		"latitude": "34-7-23.86 N",
		"longitude": "84-50-59.19 W",
		"state": "GEORGIA",
		"artcc": "ZTL",
		"type": "RP",
		"updated": "RMG*VORTAC*098.86/13.63",
	},
	{
		"name": "MADDI",
		"latitude": "33-40-9.85 N",
		"longitude": "83-24-55.15 W",
		"state": "GEORGIA",
		"artcc": "ZTL",
		"type": "RP",
		"updated": "AHN*VOR/DME*195.23/17.26",
	},
	{
		"name": "MADDX",
		"latitude": "34-8-24.08 N",
		"longitude": "85-23-52.39 W",
		"state": "GEORGIA",
		"artcc": "ZTL",
		"type": "RNAV",
		"updated": "08/22/2017",
	},
	{
		"name": "MADGT",
		"latitude": "32-36-41.46 N",
		"longitude": "85-26-26.89 W",
		"state": "ALABAMA",
		"artcc": "ZTL",
		"type": "RP",
		"updated": "TGE*VOR/DME*054.74/13.85",
	},
	{
		"name": "MADOL",
		"latitude": "34-57-17.48 N",
		"longitude": "84-36-50.96 W",
		"state": "GEORGIA",
		"artcc": "ZTL",
		"type": "RP",
		"updated": "HCH*VOR/DME*162.04/52.63",
	},
	{
		"name": "MADVY",
		"latitude": "32-50-38.19 N",
		"longitude": "84-53-14.85 W",
		"state": "GEORGIA",
		"artcc": "ZTL",
		"type": "RP",
		"updated": "LGC*VORTAC*126.27/20.25",
	},
	{
		"name": "MAFEP",
		"latitude": "35-23-3.84 N",
		"longitude": "86-15-1.22 W",
		"state": "TENNESSEE",
		"artcc": "ZME",
		"type": "CN",
		"updated": "10/10/2000",
	},
	{
		"name": "MAFEV",
		"latitude": "32-26-32.85 N",
		"longitude": "86-30-55.69 W",
		"state": "ALABAMA",
		"artcc": "ZTL",
		"type": "RP",
		"updated": "MGM*VORTAC*320.01/16.52",
	},
	{
		"name": "MAFGY",
		"latitude": "32-31-54.51 N",
		"longitude": "84-57-7.75 W",
		"state": "GEORGIA",
		"artcc": "ZTL",
		"type": "CN",
		"updated": "10/22/2004",
	},
	{
		"name": "MAFLU",
		"latitude": "33-28-14.81 N",
		"longitude": "82-2-34.05 W",
		"state": "GEORGIA",
		"artcc": "ZTL",
		"type": "RP",
		"updated": "IRQ*VORTAC*161.09/15.38",
	},
	{
		"name": "MAFLY",
		"latitude": "34-2-29.32 N",
		"longitude": "85-22-14.95 W",
		"state": "GEORGIA",
		"artcc": "ZTL",
		"type": "RNAV",
		"updated": "06/10/2011",
	},
	{
		"name": "MAFRY",
		"latitude": "32-31-46.22 N",
		"longitude": "86-19-33.82 W",
		"state": "ALABAMA",
		"artcc": "ZTL",
		"type": "RP",
		"updated": "MGM*VORTAC*356.00/18.40",
	},
	{
		"name": "MAFZI",
		"latitude": "34-1-8.63 N",
		"longitude": "85-8-47.08 W",
		"state": "GEORGIA",
		"artcc": "ZTL",
		"type": "RP",
		"updated": "RMG*VORTAC*187.90/8.70",
	},
	{
		"name": "MAGFE",
		"latitude": "35-57-58.48 N",
		"longitude": "83-52-23.05 W",
		"state": "TENNESSEE",
		"artcc": "ZTL",
		"type": "RP",
		"updated": "08/06/2010",
	},
	{
		"name": "MAHAS",
		"latitude": "36-6-36.51 N",
		"longitude": "79-55-13.12 W",
		"state": "NORTH CAROLINA",
		"artcc": "ZTL",
		"type": "CN",
		"updated": "10/16/2003",
	},
	{
		"name": "MAHFA",
		"latitude": "33-31-54.85 N",
		"longitude": "82-30-35.12 W",
		"state": "GEORGIA",
		"artcc": "ZTL",
		"type": "RP",
		"updated": "IRQ*VORTAC*243.00/20.34",
	},
	{
		"name": "MAHUM",
		"latitude": "32-33-48.05 N",
		"longitude": "82-58-46.18 W",
		"state": "GEORGIA",
		"artcc": "ZTL",
		"type": "RP",
		"updated": "DBN*VORTAC*275.00/7.58",
	},
	{
		"name": "MAJEG",
		"latitude": "33-53-55.13 N",
		"longitude": "87-18-29.13 W",
		"state": "ALABAMA",
		"artcc": "ZTL",
		"type": "RP",
		"updated": "VUZ*VORTAC*301.94/24.58",
	},
	{
		"name": "MAJIC",
		"latitude": "35-48-42.89 N",
		"longitude": "80-26-9.99 W",
		"state": "NORTH CAROLINA",
		"artcc": "ZTL",
		"type": "RP",
		"updated": "CLT*VOR/DME*039.00/45.00",
	},
	{
		"name": "MAJIM",
		"latitude": "32-48-44.77 N",
		"longitude": "85-13-40.85 W",
		"state": "ALABAMA",
		"artcc": "ZTL",
		"type": "CN",
		"updated": "02/01/2001",
	},
	{
		"name": "MAJKU",
		"latitude": "32-30-22.32 N",
		"longitude": "83-45-48.11 W",
		"state": "GEORGIA",
		"artcc": "ZTL",
		"type": "CN",
		"updated": "04/13/2001",
	},
	{
		"name": "MAJMO",
		"latitude": "35-12-3.3 N",
		"longitude": "81-8-57.85 W",
		"state": "NORTH CAROLINA",
		"artcc": "ZTL",
		"type": "CN",
		"updated": "11/28/2000",
	},
	{
		"name": "MAJYO",
		"latitude": "31-56-12.79 N",
		"longitude": "85-7-47.98 W",
		"state": "ALABAMA",
		"artcc": "ZTL",
		"type": "RP",
		"updated": "EUF*VORTAC*176.00/0.80",
	},
	{
		"name": "MAKEY",
		"latitude": "31-47-20.66 N",
		"longitude": "86-14-22.74 W",
		"state": "ALABAMA",
		"artcc": "ZTL",
		"type": "RP",
		"updated": "MGM*VORTAC*168.03",
	},
	{
		"name": "MAKRP",
		"latitude": "36-17-56.17 N",
		"longitude": "80-8-50.84 W",
		"state": "NORTH CAROLINA",
		"artcc": "ZTL",
		"type": "CN",
		"updated": "09/12/2002",
	},
	{
		"name": "MAKSL",
		"latitude": "34-51-51.77 N",
		"longitude": "80-44-47.75 W",
		"state": "NORTH CAROLINA",
		"artcc": "ZTL",
		"type": "CN",
		"updated": "09/12/2002",
	},
	{
		"name": "MALIN",
		"latitude": "36-13-17.62 N",
		"longitude": "83-45-44.2 W",
		"state": "TENNESSEE",
		"artcc": "ZTL",
		"type": "RP",
		"updated": "SOT*VORTAC*311.00",
	},
	{
		"name": "MAMNN",
		"latitude": "34-25-12.33 N",
		"longitude": "84-18-20.59 W",
		"state": "GEORGIA",
		"artcc": "ZTL",
		"type": "RNAV",
		"updated": "07/19/2011",
	},
	{
		"name": "MANGY",
		"latitude": "34-53-27.02 N",
		"longitude": "80-28-31.71 W",
		"state": "NORTH CAROLINA",
		"artcc": "ZTL",
		"type": "RNAV",
		"updated": "05/13/2016",
	},
	{
		"name": "MAPSC",
		"latitude": "32-6-57.1 N",
		"longitude": "84-10-53.82 W",
		"state": "GEORGIA",
		"artcc": "ZTL",
		"type": "CN",
		"updated": "03/19/2003",
	},
	{
		"name": "MAPSD",
		"latitude": "32-54-34.15 N",
		"longitude": "85-57-44.6 W",
		"state": "ALABAMA",
		"artcc": "ZTL",
		"type": "CN",
		"updated": "03/10/2003",
	},
	{
		"name": "MARBL",
		"latitude": "35-9-5.35 N",
		"longitude": "84-10-36.92 W",
		"state": "NORTH CAROLINA",
		"artcc": "ZTL",
		"type": "RP",
		"updated": "HRS*VORTAC*314.21/17.93",
	},
	{
		"name": "MARJO",
		"latitude": "35-1-51.51 N",
		"longitude": "80-56-10.67 W",
		"state": "SOUTH CAROLINA",
		"artcc": "ZTL",
		"type": "RP",
		"updated": "CLT*VOR/DME*/9.57",
	},
	{
		"name": "MARKD",
		"latitude": "33-38-47.96 N",
		"longitude": "84-12-5.87 W",
		"state": "GEORGIA",
		"artcc": "ZTL",
		"type": "RP",
		"updated": "PDK*VOR/DME*165.45",
	},
	{
		"name": "MARRA",
		"latitude": "32-18-40.9 N",
		"longitude": "86-30-38.39 W",
		"state": "ALABAMA",
		"artcc": "ZTL",
		"type": "RNAV",
		"updated": "MGM*LS*277.01",
	},
	{
		"name": "MARSL",
		"latitude": "33-50-48.27 N",
		"longitude": "85-7-37.35 W",
		"state": "GEORGIA",
		"artcc": "ZTL",
		"type": "RNAV",
		"updated": "08/25/2009",
	},
	{
		"name": "MARST",
		"latitude": "32-25-49.39 N",
		"longitude": "86-2-33.66 W",
		"state": "ALABAMA",
		"artcc": "ZTL",
		"type": "RP",
		"updated": "MGM*VORTAC*045.00/19.00",
	},
	{
		"name": "MARTH",
		"latitude": "36-56-11.72 N",
		"longitude": "80-48-4.27 W",
		"state": "VIRGINIA",
		"artcc": "ZTL",
		"type": "RP",
		"updated": "PSK*VORTAC*211.13/10.00",
	},
	{
		"name": "MARVO",
		"latitude": "32-34-33.59 N",
		"longitude": "85-12-57.39 W",
		"state": "ALABAMA",
		"artcc": "ZTL",
		"type": "RP",
		"updated": "CSG*VORTAC*255.89",
	},
	{
		"name": "MASGV",
		"latitude": "34-27-2.41 N",
		"longitude": "84-56-21.79 W",
		"state": "GEORGIA",
		"artcc": "ZTL",
		"type": "CN",
		"updated": "03/19/2003",
	},
	{
		"name": "MASHA",
		"latitude": "34-25-8.52 N",
		"longitude": "86-55-48.39 W",
		"state": "ALABAMA",
		"artcc": "ZME",
		"type": "RP",
		"updated": "RQZ*VORTAC*211.01",
	},
	{
		"name": "MASHI",
		"latitude": "35-58-17.9 N",
		"longitude": "80-23-4.71 W",
		"state": "NORTH CAROLINA",
		"artcc": "ZTL",
		"type": "RNAV",
		"updated": "01/27/2014",
	},
	{
		"name": "MATKL",
		"latitude": "34-5-51.23 N",
		"longitude": "82-49-34.09 W",
		"state": "GEORGIA",
		"artcc": "ZTL",
		"type": "RP",
		"updated": "AHN*VOR/DME*070.00/26.44",
	},
	{
		"name": "MATKN",
		"latitude": "32-30-40.15 N",
		"longitude": "84-56-43.21 W",
		"state": "GEORGIA",
		"artcc": "ZTL",
		"type": "CN",
		"updated": "03/19/2003",
	},
	{
		"name": "MATME",
		"latitude": "34-8-40.82 N",
		"longitude": "83-39-3.59 W",
		"state": "GEORGIA",
		"artcc": "ZTL",
		"type": "RNAV",
		"updated": "02/27/2010",
	},
	{
		"name": "MAVCL",
		"latitude": "32-18-9.25 N",
		"longitude": "86-24-36.13 W",
		"state": "ALABAMA",
		"artcc": "ZTL",
		"type": "CN",
		"updated": "03/07/2003",
	},
	{
		"name": "MAVDC",
		"latitude": "31-51-29.88 N",
		"longitude": "86-1-19.9 W",
		"state": "ALABAMA",
		"artcc": "ZTL",
		"type": "CN",
		"updated": "03/07/2003",
	},
	{
		"name": "MAVDR",
		"latitude": "32-11-39.89 N",
		"longitude": "82-21-52.84 W",
		"state": "GEORGIA",
		"artcc": "ZJX",
		"type": "CN",
		"updated": "03/20/2003",
	},
	{
		"name": "MAVIN",
		"latitude": "34-42-55.1 N",
		"longitude": "82-43-21.9 W",
		"state": "SOUTH CAROLINA",
		"artcc": "ZTL",
		"type": "RP",
		"updated": "ELW*VORTAC*009.80/18.00",
	},
	{
		"name": "MAVPL",
		"latitude": "33-36-57.61 N",
		"longitude": "83-27-40.55 W",
		"state": "GEORGIA",
		"artcc": "ZTL",
		"type": "RP",
		"updated": "AHN*VOR/DME*199.01/21.00",
	},
	{
		"name": "MAXEY",
		"latitude": "32-53-42.05 N",
		"longitude": "86-41-36.95 W",
		"state": "ALABAMA",
		"artcc": "ZTL",
		"type": "MR",
		"updated": "MXF*TACAN*329.00/35.00",
	},
	{
		"name": "MAXME",
		"latitude": "36-57-51.16 N",
		"longitude": "80-59-11.21 W",
		"state": "VIRGINIA",
		"artcc": "ZTL",
		"type": "RP",
		"updated": "BLF*VOR/DME*157.01",
	},
	{
		"name": "MAYES",
		"latitude": "33-58-20.32 N",
		"longitude": "85-49-15.34 W",
		"state": "ALABAMA",
		"artcc": "ZTL",
		"type": "RP",
		"updated": "GAD*VOR/DME*089.00/13.11",
	},
	{
		"name": "MAYLE",
		"latitude": "33-53-55.94 N",
		"longitude": "87-12-1.65 W",
		"state": "ALABAMA",
		"artcc": "ZTL",
		"type": "RP",
		"updated": "JFX*LD*092.86/6.11",
	},
	{
		"name": "MCDEN",
		"latitude": "33-30-42.5 N",
		"longitude": "86-50-45.77 W",
		"state": "ALABAMA",
		"artcc": "ZTL",
		"type": "RP",
		"updated": "VUZ*VORTAC*162.06",
	},
	{
		"name": "MCHLN",
		"latitude": "34-14-12.38 N",
		"longitude": "81-58-43.51 W",
		"state": "SOUTH CAROLINA",
		"artcc": "ZTL",
		"type": "RNAV",
		"updated": "11/10/2016",
	},
	{
		"name": "MCKLS",
		"latitude": "33-35-2.58 N",
		"longitude": "83-49-39.14 W",
		"state": "GEORGIA",
		"artcc": "ZTL",
		"type": "RNAV",
		"updated": "12/09/2015",
	},
	{
		"name": "MDCDB",
		"latitude": "33-41-23.89 N",
		"longitude": "84-41-0.83 W",
		"state": "GEORGIA",
		"artcc": "ZTL",
		"type": "CN",
		"updated": "08/09/2011",
	},
	{
		"name": "MDTWN",
		"latitude": "34-49-50.61 N",
		"longitude": "85-26-9.46 W",
		"state": "GEORGIA",
		"artcc": "ZTL",
		"type": "RNAV",
		"updated": "07/26/2016",
	},
	{
		"name": "MEANS",
		"latitude": "34-51-46.21 N",
		"longitude": "82-0-48.41 W",
		"state": "SOUTH CAROLINA",
		"artcc": "ZTL",
		"type": "RP",
		"updated": "SPA*VORTAC*/11.09",
	},
	{
		"name": "MEATA",
		"latitude": "33-15-9.01 N",
		"longitude": "87-0-39.46 W",
		"state": "ALABAMA",
		"artcc": "ZTL",
		"type": "RP",
		"updated": "OKW*VORTAC*086.25",
	},
	{
		"name": "MEATT",
		"latitude": "35-33-48.65 N",
		"longitude": "80-33-55.96 W",
		"state": "NORTH CAROLINA",
		"artcc": "ZTL",
		"type": "RNAV",
		"updated": "03/22/2006",
	},
	{
		"name": "MEBGE",
		"latitude": "34-50-9.62 N",
		"longitude": "85-6-0.79 W",
		"state": "GEORGIA",
		"artcc": "ZTL",
		"type": "RNAV",
		"updated": "11/07/2016",
	},
	{
		"name": "MEDOW",
		"latitude": "34-7-40.91 N",
		"longitude": "84-52-55.41 W",
		"state": "GEORGIA",
		"artcc": "ZTL",
		"type": "RP",
		"updated": "RMG*VORTAC*098.86/12.00",
	},
	{
		"name": "MEETA",
		"latitude": "35-8-27.64 N",
		"longitude": "85-14-23.02 W",
		"state": "TENNESSEE",
		"artcc": "ZTL",
		"type": "WP",
		"updated": "08/03/1994",
	},
	{
		"name": "MEGGN",
		"latitude": "33-39-43.49 N",
		"longitude": "83-37-2.98 W",
		"state": "GEORGIA",
		"artcc": "ZTL",
		"type": "RP",
		"updated": "AHN*VOR/DME*220.64",
	},
	{
		"name": "MEGIC",
		"latitude": "33-40-55.35 N",
		"longitude": "83-31-44.07 W",
		"state": "GEORGIA",
		"artcc": "ZTL",
		"type": "WP",
		"updated": "06/07/2011",
	},
	{
		"name": "MEGXE",
		"latitude": "36-29-24.22 N",
		"longitude": "80-47-21.79 W",
		"state": "NORTH CAROLINA",
		"artcc": "ZTL",
		"type": "RP",
		"updated": "PSK*VORTAC*191.90/36.00",
	},
	{
		"name": "MELLS",
		"latitude": "34-56-57.14 N",
		"longitude": "84-15-6.59 W",
		"state": "GEORGIA",
		"artcc": "ZTL",
		"type": "RP",
		"updated": "HRS*VORTAC*271.38/16.58",
	},
	{
		"name": "MELNM",
		"latitude": "33-58-11.44 N",
		"longitude": "82-5-22.22 W",
		"state": "SOUTH CAROLINA",
		"artcc": "ZTL",
		"type": "RNAV",
		"updated": "08/22/2017",
	},
	{
		"name": "MELYE",
		"latitude": "34-4-44.27 N",
		"longitude": "86-55-32.4 W",
		"state": "ALABAMA",
		"artcc": "ZTL",
		"type": "RNAV",
		"updated": "08/21/2009",
	},
	{
		"name": "MENLA",
		"latitude": "34-26-42.11 N",
		"longitude": "85-34-23.17 W",
		"state": "ALABAMA",
		"artcc": "ZTL",
		"type": "RP",
		"updated": "GAD*VOR/DME*040.00/37.86",
	},
	{
		"name": "MESHY",
		"latitude": "35-15-7.33 N",
		"longitude": "80-27-56.77 W",
		"state": "NORTH CAROLINA",
		"artcc": "ZTL",
		"type": "RNAV",
		"updated": "03/31/2016",
	},
	{
		"name": "METAE",
		"latitude": "34-28-17.55 N",
		"longitude": "85-15-0.46 W",
		"state": "GEORGIA",
		"artcc": "ZTL",
		"type": "RP",
		"updated": "GQO*VORTAC*188.29/29.72",
	},
	{
		"name": "METER",
		"latitude": "32-32-35.04 N",
		"longitude": "83-44-26.13 W",
		"state": "GEORGIA",
		"artcc": "ZTL",
		"type": "RP",
		"updated": "VNA*VORTAC*327.00",
	},
	{
		"name": "METWO",
		"latitude": "36-4-22.44 N",
		"longitude": "85-18-38.04 W",
		"state": "TENNESSEE",
		"artcc": "ZTL",
		"type": "RNAV",
		"updated": "01/16/2014",
	},
	{
		"name": "MGRIF",
		"latitude": "35-16-10.09 N",
		"longitude": "86-1-50.58 W",
		"state": "TENNESSEE",
		"artcc": "ZME",
		"type": "RNAV",
		"updated": "08/22/2017",
	},
	{
		"name": "MHONY",
		"latitude": "34-56-16.55 N",
		"longitude": "82-52-57.54 W",
		"state": "SOUTH CAROLINA",
		"artcc": "ZTL",
		"type": "RNAV",
		"updated": "07/26/2016",
	},
	{
		"name": "MIAMI",
		"latitude": "36-33-13.9 N",
		"longitude": "83-37-19.56 W",
		"state": "TENNESSEE",
		"artcc": "ZTL",
		"type": "RP",
		"updated": "SOT*VORTAC*333.00/53.48",
	},
	{
		"name": "MIBUR",
		"latitude": "33-46-16.05 N",
		"longitude": "83-36-58.88 W",
		"state": "GEORGIA",
		"artcc": "ZTL",
		"type": "RNAV",
		"updated": "06/07/2011",
	},
	{
		"name": "MIFJU",
		"latitude": "36-52-52.65 N",
		"longitude": "81-47-39.17 W",
		"state": "VIRGINIA",
		"artcc": "ZTL",
		"type": "RP",
		"updated": "GZG*VOR/DME*078.12/14.12",
	},
	{
		"name": "MIGAE",
		"latitude": "32-0-59.46 N",
		"longitude": "83-44-18.3 W",
		"state": "GEORGIA",
		"artcc": "ZJX",
		"type": "RNAV",
		"updated": "03/22/2017",
	},
	{
		"name": "MIGVE",
		"latitude": "32-31-48.16 N",
		"longitude": "82-59-39.58 W",
		"state": "GEORGIA",
		"artcc": "ZTL",
		"type": "RNAV",
		"updated": "06/01/2016",
	},
	{
		"name": "MIJLO",
		"latitude": "34-22-57.21 N",
		"longitude": "83-38-9.46 W",
		"state": "GEORGIA",
		"artcc": "ZTL",
		"type": "RNAV",
		"updated": "09/15/2009",
	},
	{
		"name": "MIKEE",
		"latitude": "33-48-22.65 N",
		"longitude": "84-54-40.91 W",
		"state": "GEORGIA",
		"artcc": "ZTL",
		"type": "RP",
		"updated": "RMG*VORTAC*153.00/23.73",
	},
	{
		"name": "MILBO",
		"latitude": "32-28-7.02 N",
		"longitude": "86-25-19.08 W",
		"state": "ALABAMA",
		"artcc": "ZTL",
		"type": "MR",
		"updated": "MXF*TACAN*330.00/6.00",
	},
	{
		"name": "MILBY",
		"latitude": "34-41-2.23 N",
		"longitude": "83-18-42.53 W",
		"state": "SOUTH CAROLINA",
		"artcc": "ZTL",
		"type": "RNAV",
		"updated": "07/26/2016",
	},
	{
		"name": "MILCO",
		"latitude": "36-25-31.59 N",
		"longitude": "81-48-35.9 W",
		"state": "TENNESSEE",
		"artcc": "ZTL",
		"type": "RNAV",
		"updated": "05/28/2009",
	},
	{
		"name": "MILER",
		"latitude": "32-12-57.74 N",
		"longitude": "85-23-50.35 W",
		"state": "ALABAMA",
		"artcc": "ZTL",
		"type": "RP",
		"updated": "CSG*VORTAC*218.00/30.71",
	},
	{
		"name": "MILLZ",
		"latitude": "36-3-21.2 N",
		"longitude": "84-39-9.42 W",
		"state": "TENNESSEE",
		"artcc": "ZTL",
		"type": "RP",
		"updated": "VXV*VORTAC*287.00/38.00",
	},
	{
		"name": "MINES",
		"latitude": "36-1-56.71 N",
		"longitude": "84-28-20.74 W",
		"state": "TENNESSEE",
		"artcc": "ZTL",
		"type": "RP",
		"updated": "HCH*VOR/DME*060.44/28.90",
	},
	{
		"name": "MINTS",
		"latitude": "36-56-41.79 N",
		"longitude": "81-8-32.24 W",
		"state": "VIRGINIA",
		"artcc": "ZTL",
		"type": "RP",
		"updated": "MKJ*LE*079.22/10.91",
	},
	{
		"name": "MIRDE",
		"latitude": "32-39-43 N",
		"longitude": "85-26-6.54 W",
		"state": "ALABAMA",
		"artcc": "ZTL",
		"type": "RNAV",
		"updated": "06/11/2012",
	},
	{
		"name": "MIRNE",
		"latitude": "35-11-25.27 N",
		"longitude": "83-52-50.12 W",
		"state": "NORTH CAROLINA",
		"artcc": "ZTL",
		"type": "RNAV",
		"updated": "10/23/2015",
	},
	{
		"name": "MIRTY",
		"latitude": "35-49-28.06 N",
		"longitude": "81-14-16.98 W",
		"state": "NORTH CAROLINA",
		"artcc": "ZTL",
		"type": "RP",
		"updated": "BZM*VOR/DME*183.40",
	},
	{
		"name": "MISTY",
		"latitude": "33-14-46.49 N",
		"longitude": "82-50-36.62 W",
		"state": "GEORGIA",
		"artcc": "ZTL",
		"type": "RP",
		"updated": "AHN*VOR/DME*150.00",
	},
	{
		"name": "MISUE",
		"latitude": "34-51-19.09 N",
		"longitude": "86-33-49.07 W",
		"state": "ALABAMA",
		"artcc": "ZME",
		"type": "RP",
		"updated": "RQZ*VORTAC*042.90/4.91",
	},
	{
		"name": "MITLE",
		"latitude": "35-33-3.1 N",
		"longitude": "80-48-6.88 W",
		"state": "NORTH CAROLINA",
		"artcc": "ZTL",
		"type": "RNAV",
		"updated": "01/13/2011",
	},
	{
		"name": "MITNE",
		"latitude": "34-17-28.8 N",
		"longitude": "86-10-17.39 W",
		"state": "ALABAMA",
		"artcc": "ZTL",
		"type": "RNAV",
		"updated": "03/11/2015",
	},
	{
		"name": "MITPE",
		"latitude": "36-22-15.01 N",
		"longitude": "81-4-28.87 W",
		"state": "NORTH CAROLINA",
		"artcc": "ZTL",
		"type": "RNAV",
		"updated": "07/06/2017",
	},
	{
		"name": "MITVE",
		"latitude": "34-33-4.22 N",
		"longitude": "81-0-0.56 W",
		"state": "SOUTH CAROLINA",
		"artcc": "ZTL",
		"type": "RNAV",
		"updated": "11/04/2009",
	},
	{
		"name": "MIZXE",
		"latitude": "32-36-54.59 N",
		"longitude": "86-5-25.84 W",
		"state": "ALABAMA",
		"artcc": "ZTL",
		"type": "RNAV",
		"updated": "04/17/2010",
	},
	{
		"name": "MMARS",
		"latitude": "35-1-41.08 N",
		"longitude": "84-55-27.9 W",
		"state": "TENNESSEE",
		"artcc": "ZTL",
		"type": "RNAV",
		"updated": "04/22/2014",
	},
	{
		"name": "MMCAP",
		"latitude": "33-38-2.79 N",
		"longitude": "84-3-35.94 W",
		"state": "GEORGIA",
		"artcc": "ZTL",
		"type": "RP",
		"updated": "PDK*VOR/DME*145.38",
	},
	{
		"name": "MMMOE",
		"latitude": "32-24-12.99 N",
		"longitude": "82-7-11.54 W",
		"state": "GEORGIA",
		"artcc": "ZTL",
		"type": "RNAV",
		"updated": "07/26/2016",
	},
	{
		"name": "MOATE",
		"latitude": "32-41-46.05 N",
		"longitude": "83-38-23.9 W",
		"state": "GEORGIA",
		"artcc": "ZTL",
		"type": "RP",
		"updated": "MCN*VORTAC*050.00",
	},
	{
		"name": "MOBEE",
		"latitude": "32-35-50.77 N",
		"longitude": "86-50-0 W",
		"state": "ALABAMA",
		"artcc": "ZTL",
		"type": "RP",
		"updated": "VUZ*VORTAC*175.00",
	},
	{
		"name": "MOBSE",
		"latitude": "32-51-0.73 N",
		"longitude": "83-47-28.72 W",
		"state": "GEORGIA",
		"artcc": "ZTL",
		"type": "RP",
		"updated": "MCN*VORTAC*321.60",
	},
	{
		"name": "MOCCA",
		"latitude": "36-33-17.5 N",
		"longitude": "82-19-1.58 W",
		"state": "TENNESSEE",
		"artcc": "ZTL",
		"type": "RP",
		"updated": "HMV*VORTAC*311.95",
	},
	{
		"name": "MOHON",
		"latitude": "32-42-26.35 N",
		"longitude": "81-55-0.5 W",
		"state": "GEORGIA",
		"artcc": "ZTL",
		"type": "RNAV",
		"updated": "06/21/2010",
	},
	{
		"name": "MOKEE",
		"latitude": "33-31-28.05 N",
		"longitude": "86-34-20.19 W",
		"state": "ALABAMA",
		"artcc": "ZTL",
		"type": "RNAV",
		"updated": "08/18/2010",
	},
	{
		"name": "MOMEY",
		"latitude": "34-14-45.33 N",
		"longitude": "84-29-36.65 W",
		"state": "GEORGIA",
		"artcc": "ZTL",
		"type": "RNAV",
		"updated": "07/19/2011",
	},
	{
		"name": "MOPED",
		"latitude": "35-34-16.24 N",
		"longitude": "80-54-17.02 W",
		"state": "NORTH CAROLINA",
		"artcc": "ZTL",
		"type": "RP",
		"updated": "BZM*VOR/DME*143.29/24.23",
	},
	{
		"name": "MORDR",
		"latitude": "32-45-9.15 N",
		"longitude": "86-47-55.92 W",
		"state": "ALABAMA",
		"artcc": "ZTL",
		"type": "RNAV",
		"updated": "09/06/2017",
	},
	{
		"name": "MORRT",
		"latitude": "34-56-54.95 N",
		"longitude": "85-14-4.15 W",
		"state": "GEORGIA",
		"artcc": "ZTL",
		"type": "RP",
		"updated": "GQO*VORTAC*258.29",
	},
	{
		"name": "MOSEE",
		"latitude": "34-45-30.13 N",
		"longitude": "80-43-16.5 W",
		"state": "SOUTH CAROLINA",
		"artcc": "ZTL",
		"type": "RNAV",
		"updated": "09/16/2016",
	},
	{
		"name": "MOVIL",
		"latitude": "33-1-24.91 N",
		"longitude": "87-33-9.96 W",
		"state": "ALABAMA",
		"artcc": "ZTL",
		"type": "RP",
		"updated": "OKW*VORTAC*229.79/20.00",
	},
	{
		"name": "MOYEG",
		"latitude": "36-51-23.37 N",
		"longitude": "80-49-33.45 W",
		"state": "VIRGINIA",
		"artcc": "ZTL",
		"type": "RNAV",
		"updated": "03/19/2012",
	},
	{
		"name": "MPASS",
		"latitude": "33-41-34.94 N",
		"longitude": "84-34-55.31 W",
		"state": "GEORGIA",
		"artcc": "ZTL",
		"type": "RNAV",
		"updated": "05/09/2016",
	},
	{
		"name": "MRCER",
		"latitude": "33-38-4.1 N",
		"longitude": "84-12-14.77 W",
		"state": "GEORGIA",
		"artcc": "ZTL",
		"type": "RP",
		"updated": "PDK*VOR/DME*166.81",
	},
	{
		"name": "MRCHH",
		"latitude": "34-0-45.06 N",
		"longitude": "84-50-40.19 W",
		"state": "GEORGIA",
		"artcc": "ZTL",
		"type": "RNAV",
		"updated": "11/21/2017",
	},
	{
		"name": "MREKK",
		"latitude": "33-45-13.96 N",
		"longitude": "86-26-10.63 W",
		"state": "ALABAMA",
		"artcc": "ZTL",
		"type": "RNAV",
		"updated": "08/29/2010",
	},
	{
		"name": "MRICA",
		"latitude": "33-53-30.08 N",
		"longitude": "86-17-56.4 W",
		"state": "ALABAMA",
		"artcc": "ZTL",
		"type": "RNAV",
		"updated": "03/30/2018",
	},
	{
		"name": "MRLYN",
		"latitude": "33-14-58.68 N",
		"longitude": "87-23-53.55 W",
		"state": "ALABAMA",
		"artcc": "ZTL",
		"type": "RP",
		"updated": "LDK*VORTAC*091.51/7.00",
	},
	{
		"name": "MSTNE",
		"latitude": "33-38-57.42 N",
		"longitude": "84-8-13.83 W",
		"state": "GEORGIA",
		"artcc": "ZTL",
		"type": "RNAV",
		"updated": "08/09/2011",
	},
	{
		"name": "MSTRS",
		"latitude": "33-48-12.35 N",
		"longitude": "82-37-11.48 W",
		"state": "GEORGIA",
		"artcc": "ZTL",
		"type": "RP",
		"updated": "GRD*VORTAC*222.00",
	},
	{
		"name": "MTANG",
		"latitude": "31-51-21 N",
		"longitude": "83-30-33 W",
		"state": "GEORGIA",
		"artcc": "ZJX",
		"type": "RNAV",
		"updated": "08/22/2017",
	},
	{
		"name": "MTCHL",
		"latitude": "35-38-24.2 N",
		"longitude": "81-32-44.7 W",
		"state": "NORTH CAROLINA",
		"artcc": "ZTL",
		"type": "RNAV",
		"updated": "06/25/2015",
	},
	{
		"name": "MTHEW",
		"latitude": "35-25-48.28 N",
		"longitude": "86-11-11.67 W",
		"state": "TENNESSEE",
		"artcc": "ZME",
		"type": "RNAV",
		"updated": "08/21/2017",
	},
	{
		"name": "MUARY",
		"latitude": "32-31-23.75 N",
		"longitude": "82-48-5.66 W",
		"state": "GEORGIA",
		"artcc": "ZTL",
		"type": "RNAV",
		"updated": "07/26/2016",
	},
	{
		"name": "MUCEE",
		"latitude": "35-3-20.42 N",
		"longitude": "81-48-19.34 W",
		"state": "SOUTH CAROLINA",
		"artcc": "ZTL",
		"type": "RNAV",
		"updated": "11/07/2011",
	},
	{
		"name": "MUDSE",
		"latitude": "35-56-29.91 N",
		"longitude": "83-57-25.8 W",
		"state": "TENNESSEE",
		"artcc": "ZTL",
		"type": "RNAV",
		"updated": "06/11/2012",
	},
	{
		"name": "MULBE",
		"latitude": "36-16-20.06 N",
		"longitude": "81-19-27.34 W",
		"state": "NORTH CAROLINA",
		"artcc": "ZTL",
		"type": "RP",
		"updated": "BZM*VOR/DME*356.46/24.51",
	},
	{
		"name": "MULDE",
		"latitude": "34-49-30.13 N",
		"longitude": "82-16-22.17 W",
		"state": "SOUTH CAROLINA",
		"artcc": "ZTL",
		"type": "RP",
		"updated": "GSP*LD*218.21/6.04",
	},
	{
		"name": "MULSN",
		"latitude": "33-59-7.91 N",
		"longitude": "82-40-58.39 W",
		"state": "GEORGIA",
		"artcc": "ZTL",
		"type": "RNAV",
		"updated": "12/09/2015",
	},
	{
		"name": "MUMMI",
		"latitude": "35-39-48.6 N",
		"longitude": "82-47-30.15 W",
		"state": "NORTH CAROLINA",
		"artcc": "ZTL",
		"type": "RP",
		"updated": "SOT*VORTAC*124.70/14.82",
	},
	{
		"name": "MUNBE",
		"latitude": "35-19-45.5 N",
		"longitude": "80-29-21.6 W",
		"state": "NORTH CAROLINA",
		"artcc": "ZTL",
		"type": "RNAV",
		"updated": "01/19/2007",
	},
	{
		"name": "MURKY",
		"latitude": "35-18-49.18 N",
		"longitude": "81-42-20.3 W",
		"state": "NORTH CAROLINA",
		"artcc": "ZTL",
		"type": "RP",
		"updated": "SPA*VORTAC*034.92/20.00",
	},
	{
		"name": "MURVE",
		"latitude": "32-56-21.79 N",
		"longitude": "83-29-2.31 W",
		"state": "GEORGIA",
		"artcc": "ZTL",
		"type": "RP",
		"updated": "DBN*VORTAC*309.40",
	},
	{
		"name": "MXEEN",
		"latitude": "36-28-5.82 N",
		"longitude": "83-11-7.62 W",
		"state": "TENNESSEE",
		"artcc": "ZTL",
		"type": "RNAV",
		"updated": "01/16/2014",
	},
