[
	{
		"name": "NACEL",
		"latitude": "32-45-6.17 N",
		"longitude": "85-9-47.08 W",
		"state": "ALABAMA",
		"artcc": "ZTL",
		"type": "RP",
		"updated": "CSG*VORTAC*317.00/11.00"
	},
	{
		"name": "NADLE",
		"latitude": "35-44-30.51 N",
		"longitude": "79-54-32.52 W",
		"state": "NORTH CAROLINA",
		"artcc": "ZTL",
		"type": "RP",
		"updated": "LIB*VORTAC*256.97"
	},
	{
		"name": "NADZU",
		"latitude": "34-3-47.34 N",
		"longitude": "82-34-2.03 W",
		"state": "SOUTH CAROLINA",
		"artcc": "ZTL",
		"type": "RP",
		"updated": "GRD*VORTAC*242.36/23.46"
	},
	{
		"name": "NAFOR",
		"latitude": "32-25-49.79 N",
		"longitude": "85-2-37.88 W",
		"state": "ALABAMA",
		"artcc": "ZTL",
		"type": "MR",
		"updated": "LSF*VOR/DME*338.34/6.42"
	},
	{
		"name": "NAGRY",
		"latitude": "35-6-40.07 N",
		"longitude": "82-10-25.33 W",
		"state": "SOUTH CAROLINA",
		"artcc": "ZTL",
		"type": "RNAV",
		"updated": "03/22/2007"
	},
	{
		"name": "NALEY",
		"latitude": "36-21-9.7 N",
		"longitude": "80-48-24.51 W",
		"state": "NORTH CAROLINA",
		"artcc": "ZTL",
		"type": "RP",
		"updated": "CLT*VOR/DME*010.76/69.99"
	},
	{
		"name": "NALIZ",
		"latitude": "33-9-49.45 N",
		"longitude": "83-50-26.52 W",
		"state": "GEORGIA",
		"artcc": "ZTL",
		"type": "RP",
		"updated": "AHN*VOR/DME*209.00"
	},
	{
		"name": "NANKY",
		"latitude": "36-56-51.13 N",
		"longitude": "80-35-59.87 W",
		"state": "VIRGINIA",
		"artcc": "ZTL",
		"type": "RP",
		"updated": "PSK*VORTAC*153.10/10.00"
	},
	{
		"name": "NANNC",
		"latitude": "33-23-19.32 N",
		"longitude": "85-6-19.03 W",
		"state": "GEORGIA",
		"artcc": "ZTL",
		"type": "RP",
		"updated": "LGC*VORTAC*013.00/20.96"
	},
	{
		"name": "NARIE",
		"latitude": "34-38-34.69 N",
		"longitude": "83-16-27.17 W",
		"state": "GEORGIA",
		"artcc": "ZTL",
		"type": "RNAV",
		"updated": "07/20/2007"
	},
	{
		"name": "NASCR",
		"latitude": "35-27-19.99 N",
		"longitude": "80-32-19.15 W",
		"state": "NORTH CAROLINA",
		"artcc": "ZTL",
		"type": "RP",
		"updated": "LIB*VORTAC*248.05/50.06"
	},
	{
		"name": "NASDE",
		"latitude": "32-33-16 N",
		"longitude": "82-0-50 W",
		"state": "GEORGIA",
		"artcc": "ZTL",
		"type": "RNAV",
		"updated": "03/28/2008"
	},
	{
		"name": "NASSA",
		"latitude": "33-41-54.94 N",
		"longitude": "85-13-34.01 W",
		"state": "GEORGIA",
		"artcc": "ZTL",
		"type": "RNAV",
		"updated": "05/17/2016"
	},
	{
		"name": "NATAN",
		"latitude": "33-56-58.87 N",
		"longitude": "87-3-27.82 W",
		"state": "ALABAMA",
		"artcc": "ZTL",
		"type": "RP",
		"updated": "VUZ*VORTAC*332.79/18.51"
	},
	{
		"name": "NATCH",
		"latitude": "35-1-34.52 N",
		"longitude": "80-6-29.28 W",
		"state": "NORTH CAROLINA",
		"artcc": "ZTL",
		"type": "RP",
		"updated": "CTF*VOR/DME*023.05"
	},
	{
		"name": "NAVVY",
		"latitude": "33-44-21.04 N",
		"longitude": "84-53-50.25 W",
		"state": "GEORGIA",
		"artcc": "ZTL",
		"type": "RNAV",
		"updated": "02/25/2013"
	},
	{
		"name": "NCOMA",
		"latitude": "35-44-6.34 N",
		"longitude": "81-20-10.24 W",
		"state": "NORTH CAROLINA",
		"artcc": "ZTL",
		"type": "RNAV",
		"updated": "06/15/2017"
	},
	{
		"name": "NDINA",
		"latitude": "33-27-19.75 N",
		"longitude": "82-56-8.74 W",
		"state": "GEORGIA",
		"artcc": "ZTL",
		"type": "RNAV",
		"updated": "12/20/2007"
	},
	{
		"name": "NEALO",
		"latitude": "35-8-1.87 N",
		"longitude": "80-41-47.71 W",
		"state": "NORTH CAROLINA",
		"artcc": "ZTL",
		"type": "RP",
		"updated": "CTF*VOR/DME*327.41/35.66"
	},
	{
		"name": "NEANO",
		"latitude": "35-4-52.86 N",
		"longitude": "81-59-47.34 W",
		"state": "SOUTH CAROLINA",
		"artcc": "ZTL",
		"type": "RP",
		"updated": "ODF*VORTAC*069.85/68.25"
	},
	{
		"name": "NEDPE",
		"latitude": "32-58-44.11 N",
		"longitude": "82-13-5.15 W",
		"state": "GEORGIA",
		"artcc": "ZTL",
		"type": "RNAV",
		"updated": "06/24/2004"
	},
	{
		"name": "NEDRE",
		"latitude": "32-8-51.66 N",
		"longitude": "82-34-40.17 W",
		"state": "GEORGIA",
		"artcc": "ZJX",
		"type": "RP",
		"updated": "DBN*VORTAC*157.69/28.00"
	},
	{
		"name": "NEGEE",
		"latitude": "33-48-12.56 N",
		"longitude": "87-10-36.89 W",
		"state": "ALABAMA",
		"artcc": "ZTL",
		"type": "RP",
		"updated": "VUZ*VORTAC*298.01/16.00"
	},
	{
		"name": "NEHAI",
		"latitude": "34-12-54.96 N",
		"longitude": "87-8-30.64 W",
		"state": "ALABAMA",
		"artcc": "ZME",
		"type": "MR",
		"updated": "RQZ*VORTAC*214.00/43.00"
	},
	{
		"name": "NELLA",
		"latitude": "35-29-52.6 N",
		"longitude": "80-59-27.48 W",
		"state": "NORTH CAROLINA",
		"artcc": "ZTL",
		"type": "RP",
		"updated": "RGS*LD*002.96/17.67"
	},
	{
		"name": "NELLO",
		"latitude": "34-29-58.43 N",
		"longitude": "84-25-0.24 W",
		"state": "GEORGIA",
		"artcc": "ZTL",
		"type": "RP",
		"updated": "RMG*VORTAC*058.77/40.33"
	},
	{
		"name": "NELNE",
		"latitude": "33-35-41.77 N",
		"longitude": "81-55-18.98 W",
		"state": "SOUTH CAROLINA",
		"artcc": "ZTL",
		"type": "RNAV",
		"updated": "03/24/2004"
	},
	{
		"name": "NENMY",
		"latitude": "33-21-48.18 N",
		"longitude": "87-27-36.93 W",
		"state": "ALABAMA",
		"artcc": "ZTL",
		"type": "RNAV",
		"updated": "02/12/2008"
	},
	{
		"name": "NENRE",
		"latitude": "31-40-15.08 N",
		"longitude": "87-45-39.12 W",
		"state": "ALABAMA",
		"artcc": "ZTL",
		"type": "RNAV",
		"updated": "04/17/2010"
	},
	{
		"name": "NEPUE",
		"latitude": "35-46-0.46 N",
		"longitude": "80-58-20.34 W",
		"state": "NORTH CAROLINA",
		"artcc": "ZTL",
		"type": "RP",
		"updated": "BZM*VOR/DME*120.96/14.45"
	},
	{
		"name": "NEPVE",
		"latitude": "36-24-40.02 N",
		"longitude": "81-3-2.65 W",
		"state": "NORTH CAROLINA",
		"artcc": "ZTL",
		"type": "RNAV",
		"updated": "07/07/2017"
	},
	{
		"name": "NESTS",
		"latitude": "33-36-53.34 N",
		"longitude": "87-20-51.86 W",
		"state": "ALABAMA",
		"artcc": "ZTL",
		"type": "RNAV",
		"updated": "04/18/2017"
	},
	{
		"name": "NEUTO",
		"latitude": "35-4-41.87 N",
		"longitude": "85-50-2.13 W",
		"state": "TENNESSEE",
		"artcc": "ZME",
		"type": "RP",
		"updated": "RMG*VORTAC*326.38/65.27"
	},
	{
		"name": "NEWHP",
		"latitude": "32-35-21.8 N",
		"longitude": "83-11-39.18 W",
		"state": "GEORGIA",
		"artcc": "ZTL",
		"type": "RNAV",
		"updated": "08/22/2017"
	},
	{
		"name": "NEXIE",
		"latitude": "32-22-21.49 N",
		"longitude": "83-33-27.84 W",
		"state": "GEORGIA",
		"artcc": "ZTL",
		"type": "MW",
		"updated": "01/24/2017"
	},
	{
		"name": "NEYLN",
		"latitude": "35-57-17.28 N",
		"longitude": "83-49-17.28 W",
		"state": "TENNESSEE",
		"artcc": "ZTL",
		"type": "RP",
		"updated": "VXV*VORTAC*053.00/4.66"
	},
	{
		"name": "NFTRY",
		"latitude": "33-2-2.72 N",
		"longitude": "85-9-5.84 W",
		"state": "GEORGIA",
		"artcc": "ZTL",
		"type": "RNAV",
		"updated": "01/29/2014"
	},
	{
		"name": "NIBGE",
		"latitude": "36-19-1.14 N",
		"longitude": "83-10-35.98 W",
		"state": "TENNESSEE",
		"artcc": "ZTL",
		"type": "RNAV",
		"updated": "05/04/2011"
	},
	{
		"name": "NICGI",
		"latitude": "34-43-46.38 N",
		"longitude": "86-41-46.42 W",
		"state": "ALABAMA",
		"artcc": "ZME",
		"type": "MW",
		"updated": "12/10/2015"
	},
	{
		"name": "NICIY",
		"latitude": "33-43-35.31 N",
		"longitude": "82-43-42.68 W",
		"state": "GEORGIA",
		"artcc": "ZTL",
		"type": "RNAV",
		"updated": "08/04/2008"
	},
	{
		"name": "NILUE",
		"latitude": "32-53-14.69 N",
		"longitude": "83-36-32.09 W",
		"state": "GEORGIA",
		"artcc": "ZTL",
		"type": "MW",
		"updated": "01/24/2017"
	},
	{
		"name": "NINPY",
		"latitude": "32-47-23.06 N",
		"longitude": "85-5-0.42 W",
		"state": "GEORGIA",
		"artcc": "ZTL",
		"type": "RNAV",
		"updated": "02/22/2010"
	},
	{
		"name": "NINYI",
		"latitude": "34-35-37.11 N",
		"longitude": "82-32-35.7 W",
		"state": "SOUTH CAROLINA",
		"artcc": "ZTL",
		"type": "RNAV",
		"updated": "02/02/2007"
	},
	{
		"name": "NIOLA",
		"latitude": "34-46-59.59 N",
		"longitude": "85-16-14.09 W",
		"state": "GEORGIA",
		"artcc": "ZTL",
		"type": "RNAV",
		"updated": "01/24/2014"
	},
	{
		"name": "NITIC",
		"latitude": "34-55-0.71 N",
		"longitude": "85-6-4.25 W",
		"state": "GEORGIA",
		"artcc": "ZTL",
		"type": "RNAV",
		"updated": "08/11/2005"
	},
	{
		"name": "NIVLE",
		"latitude": "35-13-56.62 N",
		"longitude": "86-30-43.63 W",
		"state": "TENNESSEE",
		"artcc": "ZME",
		"type": "RNAV",
		"updated": "02/03/2010"
	},
	{
		"name": "NIVSE",
		"latitude": "35-5-0.34 N",
		"longitude": "80-56-26.86 W",
		"state": "SOUTH CAROLINA",
		"artcc": "ZTL",
		"type": "RP",
		"updated": "CLT*VOR/DME*/6.42"
	},
	{
		"name": "NIXBY",
		"latitude": "32-55-34.52 N",
		"longitude": "86-7-19.96 W",
		"state": "ALABAMA",
		"artcc": "ZTL",
		"type": "RP",
		"updated": "MGM*VORTAC*010.31/43.33"
	},
	{
		"name": "NIYIG",
		"latitude": "34-18-43.13 N",
		"longitude": "85-9-9.36 W",
		"state": "GEORGIA",
		"artcc": "ZTL",
		"type": "RP",
		"updated": "RMG*VORTAC*348.56/9.10"
	},
	{
		"name": "NIZAM",
		"latitude": "36-21-46.96 N",
		"longitude": "84-7-43.06 W",
		"state": "TENNESSEE",
		"artcc": "ZTL",
		"type": "RNAV",
		"updated": "05/12/2016"
	},
	{
		"name": "NKLAS",
		"latitude": "33-49-24.19 N",
		"longitude": "82-21-52.07 W",
		"state": "GEORGIA",
		"artcc": "ZTL",
		"type": "RNAV",
		"updated": "12/20/2007"
	},
	{
		"name": "NLSON",
		"latitude": "35-6-42.02 N",
		"longitude": "80-57-27.55 W",
		"state": "NORTH CAROLINA",
		"artcc": "ZTL",
		"type": "RP",
		"updated": "XUU*LD*182.96/6.64"
	},
	{
		"name": "NOCIM",
		"latitude": "33-35-23.65 N",
		"longitude": "86-35-14.49 W",
		"state": "ALABAMA",
		"artcc": "ZTL",
		"type": "RNAV",
		"updated": "07/13/2017"
	},
	{
		"name": "NODEW",
		"latitude": "35-34-10.88 N",
		"longitude": "80-34-9.81 W",
		"state": "NORTH CAROLINA",
		"artcc": "ZTL",
		"type": "RNAV",
		"updated": "03/29/2016"
	},
	{
		"name": "NOGBE",
		"latitude": "34-9-3.5 N",
		"longitude": "82-30-33.46 W",
		"state": "SOUTH CAROLINA",
		"artcc": "ZTL",
		"type": "RNAV",
		"updated": "10/31/2013"
	},
	{
		"name": "NOGIC",
		"latitude": "35-18-56.94 N",
		"longitude": "85-54-22.65 W",
		"state": "TENNESSEE",
		"artcc": "ZME",
		"type": "RP",
		"updated": "SYI*VOR/DME*120.29/30.00"
	},
	{
		"name": "NOHOW",
		"latitude": "33-29-1.71 N",
		"longitude": "86-7-25.74 W",
		"state": "ALABAMA",
		"artcc": "ZTL",
		"type": "RNAV",
		"updated": "12/26/2017"
	},
	{
		"name": "NOISE",
		"latitude": "36-11-7.13 N",
		"longitude": "83-56-51.58 W",
		"state": "TENNESSEE",
		"artcc": "ZTL",
		"type": "RP",
		"updated": "HCH*VOR/DME*065.94"
	},
	{
		"name": "NOKIE",
		"latitude": "32-41-28.86 N",
		"longitude": "83-38-49.88 W",
		"state": "GEORGIA",
		"artcc": "ZTL",
		"type": "RNAV",
		"updated": "07/26/2016"
	},
	{
		"name": "NOKNE",
		"latitude": "34-41-36.44 N",
		"longitude": "81-6-20.86 W",
		"state": "SOUTH CAROLINA",
		"artcc": "ZTL",
		"type": "RNAV",
		"updated": "11/04/2009"
	},
	{
		"name": "NONCI",
		"latitude": "35-9-12.68 N",
		"longitude": "86-6-32.72 W",
		"state": "TENNESSEE",
		"artcc": "ZME",
		"type": "RNAV",
		"updated": "06/29/2011"
	},
	{
		"name": "NONOC",
		"latitude": "35-27-23.74 N",
		"longitude": "84-32-16.91 W",
		"state": "TENNESSEE",
		"artcc": "ZTL",
		"type": "RNAV",
		"updated": "04/18/2010"
	},
	{
		"name": "NOONE",
		"latitude": "34-12-6.63 N",
		"longitude": "84-34-27.05 W",
		"state": "GEORGIA",
		"artcc": "ZTL",
		"type": "RP",
		"updated": "ATL*VORTAC*353.59/35.00"
	},
	{
		"name": "NOONN",
		"latitude": "36-0-38.37 N",
		"longitude": "85-5-43.68 W",
		"state": "TENNESSEE",
		"artcc": "ZTL",
		"type": "RNAV",
		"updated": "06/25/2015"
	},
	{
		"name": "NOPVE",
		"latitude": "33-35-27.3 N",
		"longitude": "86-10-51.81 W",
		"state": "ALABAMA",
		"artcc": "ZTL",
		"type": "RP",
		"updated": "VUZ*VORTAC*095.31/36.32"
	},
	{
		"name": "NORIC",
		"latitude": "32-24-12.49 N",
		"longitude": "82-13-43.28 W",
		"state": "GEORGIA",
		"artcc": "ZTL",
		"type": "RNAV",
		"updated": "07/07/2015"
	},
	{
		"name": "NORLK",
		"latitude": "33-15-41.09 N",
		"longitude": "87-33-57.94 W",
		"state": "ALABAMA",
		"artcc": "ZTL",
		"type": "RNAV",
		"updated": "04/27/2010"
	},
	{
		"name": "NOTKE",
		"latitude": "32-37-9.51 N",
		"longitude": "83-34-24.21 W",
		"state": "GEORGIA",
		"artcc": "ZTL",
		"type": "MR",
		"updated": "MCN*VORTAC*138.00/5.70"
	},
	{
		"name": "NOTWO",
		"latitude": "34-12-10.03 N",
		"longitude": "84-18-6.05 W",
		"state": "GEORGIA",
		"artcc": "ZTL",
		"type": "RP",
		"updated": "ATL*VORTAC*015.93/35.00"
	},
	{
		"name": "NOVME",
		"latitude": "33-6-39.32 N",
		"longitude": "82-36-29.05 W",
		"state": "GEORGIA",
		"artcc": "ZTL",
		"type": "RNAV",
		"updated": "05/22/2017"
	},
	{
		"name": "NOWIT",
		"latitude": "36-14-6.97 N",
		"longitude": "82-33-53.92 W",
		"state": "TENNESSEE",
		"artcc": "ZTL",
		"type": "RNAV",
		"updated": "10/31/2017"
	},
	{
		"name": "NOWOP",
		"latitude": "33-39-39.88 N",
		"longitude": "85-45-34.79 W",
		"state": "ALABAMA",
		"artcc": "ZTL",
		"type": "RNAV",
		"updated": "07/10/2017"
	},
	{
		"name": "NOYIB",
		"latitude": "36-26-29.38 N",
		"longitude": "83-48-47.53 W",
		"state": "TENNESSEE",
		"artcc": "ZTL",
		"type": "RNAV",
		"updated": "09/03/2014"
	},
	{
		"name": "NRWOD",
		"latitude": "33-31-33.11 N",
		"longitude": "82-25-6.1 W",
		"state": "GEORGIA",
		"artcc": "ZTL",
		"type": "RNAV",
		"updated": "06/05/2014"
	},
	{
		"name": "NTRST",
		"latitude": "33-56-51.21 N",
		"longitude": "81-53-18.78 W",
		"state": "SOUTH CAROLINA",
		"artcc": "ZTL",
		"type": "RNAV",
		"updated": "05/12/2016"
	},
	{
		"name": "NULLS",
		"latitude": "34-2-24.5 N",
		"longitude": "86-56-17.64 W",
		"state": "ALABAMA",
		"artcc": "ZTL",
		"type": "RNAV",
		"updated": "05/04/2017"
	},
	{
		"name": "NUMTE",
		"latitude": "32-13-57.55 N",
		"longitude": "86-27-24.21 W",
		"state": "ALABAMA",
		"artcc": "ZTL",
		"type": "RP",
		"updated": "MGM*VORTAC*272.13/7.00"
	},
	{
		"name": "NUMUE",
		"latitude": "35-54-48.55 N",
		"longitude": "80-2-51.68 W",
		"state": "NORTH CAROLINA",
		"artcc": "ZTL",
		"type": "RNAV",
		"updated": "09/17/2009"
	},
	{
		"name": "NUROE",
		"latitude": "35-34-36.78 N",
		"longitude": "80-31-14.76 W",
		"state": "NORTH CAROLINA",
		"artcc": "ZTL",
		"type": "RNAV",
		"updated": "04/09/2014"
	},
	{
		"name": "NURYI",
		"latitude": "34-16-51.12 N",
		"longitude": "83-21-7.59 W",
		"state": "GEORGIA",
		"artcc": "ZTL",
		"type": "RNAV",
		"updated": "07/18/2008"
	},
	{
		"name": "NUSEE",
		"latitude": "31-30-32.8 N",
		"longitude": "87-2-11.68 W",
		"state": "ALABAMA",
		"artcc": "ZTL",
		"type": "RNAV",
		"updated": "02/22/2013"
	},
	{
		"name": "NUXXY",
		"latitude": "34-55-40.14 N",
		"longitude": "80-56-30.74 W",
		"state": "SOUTH CAROLINA",
		"artcc": "ZTL",
		"type": "RP",
		"updated": "XUU*LD*182.96/17.68"
	},
	{
		"name": "NWANT",
		"latitude": "34-39-51.83 N",
		"longitude": "82-33-34.01 W",
		"state": "SOUTH CAROLINA",
		"artcc": "ZTL",
		"type": "RNAV",
		"updated": "12/09/2015"
	},
	{
		"name": "NYBLK",
		"latitude": "35-34-34.99 N",
		"longitude": "81-2-33.96 W",
		"state": "NORTH CAROLINA",
		"artcc": "ZTL",
		"type": "RNAV",
		"updated": "01/22/2014"
	},
	{
		"name": "NYLLA",
		"latitude": "34-34-38.94 N",
		"longitude": "81-17-0.48 W",
		"state": "SOUTH CAROLINA",
		"artcc": "ZTL",
		"type": "RNAV",
		"updated": "01/16/2014"
	},
	{
		"name": "NZBIT",
		"latitude": "33-38-47.52 N",
		"longitude": "84-38-25.48 W",
		"state": "GEORGIA",
		"artcc": "ZTL",
		"type": "RP",
		"updated": "FT*NDB*185.57"
	},
	{
		"name": "NZGUL",
		"latitude": "32-51-57.8 N",
		"longitude": "86-9-14.48 W",
		"state": "ALABAMA",
		"artcc": "ZTL",
		"type": "RNAV",
		"updated": "08/18/2017"
	}
]
