	{
		"name": "OAKGO",
		"latitude": "33-27-13.1 N",
		"longitude": "87-14-11.79 W",
		"state": "ALABAMA",
		"artcc": "ZTL",
		"type": "RP",
		"updated": "OKW*VORTAC*003.00",
	},
	{
		"name": "OBAPY",
		"latitude": "34-25-10.78 N",
		"longitude": "86-8-55.99 W",
		"state": "ALABAMA",
		"artcc": "ZTL",
		"type": "RNAV",
		"updated": "09/04/2007",
	},
	{
		"name": "OBNEE",
		"latitude": "34-44-24.2 N",
		"longitude": "80-37-35.92 W",
		"state": "SOUTH CAROLINA",
		"artcc": "ZTL",
		"type": "RNAV",
		"updated": "10/28/2013",
	},
	{
		"name": "OBOVE",
		"latitude": "35-22-42.27 N",
		"longitude": "82-31-3.34 W",
		"state": "NORTH CAROLINA",
		"artcc": "ZTL",
		"type": "RP",
		"updated": "SUG*VORTAC*264.23",
	},
	{
		"name": "OBTUY",
		"latitude": "33-26-43.69 N",
		"longitude": "86-44-18.46 W",
		"state": "ALABAMA",
		"artcc": "ZTL",
		"type": "RNAV",
		"updated": "08/06/2010",
	},
	{
		"name": "OBURY",
		"latitude": "35-12-58.85 N",
		"longitude": "82-5-38.14 W",
		"state": "NORTH CAROLINA",
		"artcc": "ZTL",
		"type": "RP",
		"updated": "SUG*VORTAC*144.97/14.26",
	},
	{
		"name": "OBXAY",
		"latitude": "32-45-19.77 N",
		"longitude": "85-43-5.99 W",
		"state": "ALABAMA",
		"artcc": "ZTL",
		"type": "RP",
		"updated": "VUZ*VORTAC*130.32",
	},
	{
		"name": "OCACA",
		"latitude": "35-36-37.78 N",
		"longitude": "84-18-13.46 W",
		"state": "TENNESSEE",
		"artcc": "ZTL",
		"type": "RNAV",
		"updated": "01/04/2013",
	},
	{
		"name": "OCAYA",
		"latitude": "35-44-57.43 N",
		"longitude": "80-21-5.37 W",
		"state": "NORTH CAROLINA",
		"artcc": "ZTL",
		"type": "RP",
		"updated": "EXX*LD*237.69/3.50",
	},
	{
		"name": "OCAYO",
		"latitude": "34-51-26.48 N",
		"longitude": "85-5-18.53 W",
		"state": "GEORGIA",
		"artcc": "ZTL",
		"type": "RP",
		"updated": "GQO*VORTAC*151.76/7.00",
	},
	{
		"name": "OCDAM",
		"latitude": "35-14-58.64 N",
		"longitude": "80-18-14.61 W",
		"state": "NORTH CAROLINA",
		"artcc": "ZTL",
		"type": "RNAV",
		"updated": "04/17/2010",
	},
	{
		"name": "OCENU",
		"latitude": "33-54-1.14 N",
		"longitude": "83-5-28.28 W",
		"state": "GEORGIA",
		"artcc": "ZTL",
		"type": "RP",
		"updated": "AHN*VOR/DME*103.58/12.00",
	},
	{
		"name": "OCEPI",
		"latitude": "35-56-42.19 N",
		"longitude": "84-5-38 W",
		"state": "TENNESSEE",
		"artcc": "ZTL",
		"type": "RP",
		"updated": "VXV*VORTAC*287.00/10.00",
	},
	{
		"name": "OCERU",
		"latitude": "34-53-39.68 N",
		"longitude": "80-53-18.32 W",
		"state": "NORTH CAROLINA",
		"artcc": "ZTL",
		"type": "RP",
		"updated": "CLT*VOR/DME*175.00/18.00",
	},
	{
		"name": "OCIPA",
		"latitude": "33-49-25.81 N",
		"longitude": "83-3-35.99 W",
		"state": "GEORGIA",
		"artcc": "ZTL",
		"type": "RNAV",
		"updated": "08/04/2008",
	},
	{
		"name": "OCOKO",
		"latitude": "34-7-23.16 N",
		"longitude": "86-5-6.68 W",
		"state": "ALABAMA",
		"artcc": "ZTL",
		"type": "RNAV",
		"updated": "07/26/2011",
	},
	{
		"name": "OCONE",
		"latitude": "32-31-26.14 N",
		"longitude": "82-39-27.28 W",
		"state": "GEORGIA",
		"artcc": "ZTL",
		"type": "RP",
		"updated": "VNA*VORTAC*065.23/46.54",
	},
	{
		"name": "OCOQY",
		"latitude": "34-6-44.65 N",
		"longitude": "86-24-47.63 W",
		"state": "ALABAMA",
		"artcc": "ZTL",
		"type": "RNAV",
		"updated": "02/27/2015",
	},
	{
		"name": "OCVEV",
		"latitude": "36-16-14.29 N",
		"longitude": "80-6-42.85 W",
		"state": "NORTH CAROLINA",
		"artcc": "ZTL",
		"type": "CN",
		"updated": "11/28/2000",
	},
	{
		"name": "OCVUY",
		"latitude": "36-0-55.34 N",
		"longitude": "79-50-14.85 W",
		"state": "NORTH CAROLINA",
		"artcc": "ZTL",
		"type": "CN",
		"updated": "11/28/2000",
	},
	{
		"name": "OCWUP",
		"latitude": "36-3-57.23 N",
		"longitude": "80-7-5.12 W",
		"state": "NORTH CAROLINA",
		"artcc": "ZTL",
		"type": "CN",
		"updated": "11/28/2000",
	},
	{
		"name": "ODAVE",
		"latitude": "34-27-4.5 N",
		"longitude": "86-8-14.25 W",
		"state": "ALABAMA",
		"artcc": "ZTL",
		"type": "RNAV",
		"updated": "03/06/2017",
	},
	{
		"name": "ODODY",
		"latitude": "34-6-55.23 N",
		"longitude": "81-45-36.8 W",
		"state": "SOUTH CAROLINA",
		"artcc": "ZTL",
		"type": "RNAV",
		"updated": "01/07/2010",
	},
	{
		"name": "ODOVY",
		"latitude": "33-44-58.25 N",
		"longitude": "85-38-23.59 W",
		"state": "ALABAMA",
		"artcc": "ZTL",
		"type": "RNAV",
		"updated": "07/10/2017",
	},
	{
		"name": "ODUSE",
		"latitude": "33-6-43.01 N",
		"longitude": "84-41-50.77 W",
		"state": "GEORGIA",
		"artcc": "ZTL",
		"type": "RNAV",
		"updated": "09/15/2009",
	},
	{
		"name": "OFCOH",
		"latitude": "32-31-21.04 N",
		"longitude": "84-55-37.17 W",
		"state": "GEORGIA",
		"artcc": "ZTL",
		"type": "RP",
		"updated": "CSG*VORTAC*139.37/7.21",
	},
	{
		"name": "OFNEY",
		"latitude": "35-10-8.44 N",
		"longitude": "83-56-23.11 W",
		"state": "NORTH CAROLINA",
		"artcc": "ZTL",
		"type": "RNAV",
		"updated": "01/10/2001",
	},
	{
		"name": "OFOLI",
		"latitude": "35-23-43.87 N",
		"longitude": "84-37-18.49 W",
		"state": "TENNESSEE",
		"artcc": "ZTL",
		"type": "RNAV",
		"updated": "01/16/2001",
	},
	{
		"name": "OFOLY",
		"latitude": "35-6-38.81 N",
		"longitude": "80-7-45.65 W",
		"state": "NORTH CAROLINA",
		"artcc": "ZTL",
		"type": "RNAV",
		"updated": "01/18/2011",
	},
	{
		"name": "OFXUX",
		"latitude": "35-40-54.05 N",
		"longitude": "85-6-15.46 W",
		"state": "TENNESSEE",
		"artcc": "ZTL",
		"type": "RNAV",
		"updated": "01/09/2001",
	},
	{
		"name": "OGIFY",
		"latitude": "36-58-32.06 N",
		"longitude": "80-56-13.87 W",
		"state": "VIRGINIA",
		"artcc": "ZTL",
		"type": "CN",
		"updated": "04/15/2011",
	},
	{
		"name": "OHAXE",
		"latitude": "35-27-46.6 N",
		"longitude": "85-18-14.52 W",
		"state": "TENNESSEE",
		"artcc": "ZME",
		"type": "RNAV",
		"updated": "01/16/2001",
	},
	{
		"name": "OHCEE",
		"latitude": "35-12-16.06 N",
		"longitude": "84-59-44.72 W",
		"state": "TENNESSEE",
		"artcc": "ZTL",
		"type": "RP",
		"updated": "GQO*VORTAC*027.00/16.50",
	},
	{
		"name": "OHELO",
		"latitude": "34-56-37.21 N",
		"longitude": "85-42-20.98 W",
		"state": "ALABAMA",
		"artcc": "ZME",
		"type": "RNAV",
		"updated": "01/10/2001",
	},
	{
		"name": "OHICE",
		"latitude": "37-12-7.69 N",
		"longitude": "80-34-27.38 W",
		"state": "VIRGINIA",
		"artcc": "ZTL",
		"type": "RNAV",
		"updated": "04/15/2011",
	},
	{
		"name": "OHJAB",
		"latitude": "35-23-17 N",
		"longitude": "85-11-11 W",
		"state": "TENNESSEE",
		"artcc": "ZTL",
		"type": "RNAV",
		"updated": "01/09/2001",
	},
	{
		"name": "OHNEG",
		"latitude": "34-56-38.5 N",
		"longitude": "84-19-1.15 W",
		"state": "GEORGIA",
		"artcc": "ZTL",
		"type": "RNAV",
		"updated": "04/27/2018",
	},
	{
		"name": "OHOPA",
		"latitude": "33-12-0.57 N",
		"longitude": "85-12-48.48 W",
		"state": "GEORGIA",
		"artcc": "ZTL",
		"type": "RNAV",
		"updated": "02/22/2010",
	},
	{
		"name": "OHUWE",
		"latitude": "34-28-58.4 N",
		"longitude": "85-43-44.76 W",
		"state": "ALABAMA",
		"artcc": "ZTL",
		"type": "RNAV",
		"updated": "01/09/2001",
	},
	{
		"name": "OJESS",
		"latitude": "35-55-0.45 N",
		"longitude": "83-10-53.73 W",
		"state": "TENNESSEE",
		"artcc": "ZTL",
		"type": "RNAV",
		"updated": "01/24/2014",
	},
	{
		"name": "OJIMI",
		"latitude": "34-40-27.12 N",
		"longitude": "85-59-35.49 W",
		"state": "ALABAMA",
		"artcc": "ZTL",
		"type": "RNAV",
		"updated": "01/09/2001",
	},
	{
		"name": "OKBAE",
		"latitude": "32-0-36.4 N",
		"longitude": "83-58-42.95 W",
		"state": "GEORGIA",
		"artcc": "ZJX",
		"type": "RNAV",
		"updated": "08/25/2017",
	},
	{
		"name": "OKECU",
		"latitude": "35-40-46.46 N",
		"longitude": "80-58-32.17 W",
		"state": "NORTH CAROLINA",
		"artcc": "ZTL",
		"type": "RNAV",
		"updated": "08/22/2013",
	},
	{
		"name": "OKJEJ",
		"latitude": "32-48-8.83 N",
		"longitude": "81-56-29.69 W",
		"state": "GEORGIA",
		"artcc": "ZTL",
		"type": "RNAV",
		"updated": "06/19/2015",
	},
	{
		"name": "OKLUH",
		"latitude": "36-47-7.41 N",
		"longitude": "82-56-0.19 W",
		"state": "VIRGINIA",
		"artcc": "ZTL",
		"type": "RNAV",
		"updated": "01/13/2017",
	},
	{
		"name": "OKRAA",
		"latitude": "34-15-27.65 N",
		"longitude": "86-17-51.52 W",
		"state": "ALABAMA",
		"artcc": "ZTL",
		"type": "RNAV",
		"updated": "07/26/2016",
	},
	{
		"name": "OKTEE",
		"latitude": "34-52-8.36 N",
		"longitude": "85-12-46.09 W",
		"state": "GEORGIA",
		"artcc": "ZTL",
		"type": "RNAV",
		"updated": "11/07/2016",
	},
	{
		"name": "OKZIF",
		"latitude": "36-1-19.5 N",
		"longitude": "79-51-27.77 W",
		"state": "NORTH CAROLINA",
		"artcc": "ZTL",
		"type": "RNAV",
		"updated": "11/07/2013",
	},
	{
		"name": "OLBUE",
		"latitude": "35-19-37.1 N",
		"longitude": "84-6-42.08 W",
		"state": "TENNESSEE",
		"artcc": "ZTL",
		"type": "RP",
		"updated": "VXV*VORTAC*200.11/36.21",
	},
	{
		"name": "OLEGG",
		"latitude": "33-43-58.4 N",
		"longitude": "84-12-19.6 W",
		"state": "GEORGIA",
		"artcc": "ZTL",
		"type": "RNAV",
		"updated": "08/13/2014",
	},
	{
		"name": "OLIMM",
		"latitude": "33-19-44.55 N",
		"longitude": "84-18-43.27 W",
		"state": "GEORGIA",
		"artcc": "ZTL",
		"type": "RP",
		"updated": "ATL*VORTAC*161.00/19.00",
	},
	{
		"name": "OLISY",
		"latitude": "33-10-44.66 N",
		"longitude": "84-24-7.76 W",
		"state": "GEORGIA",
		"artcc": "ZTL",
		"type": "RP",
		"updated": "LGC*VORTAC*077.91",
	},
	{
		"name": "OLPUE",
		"latitude": "34-39-14.95 N",
		"longitude": "85-5-24.91 W",
		"state": "GEORGIA",
		"artcc": "ZTL",
		"type": "RNAV",
		"updated": "10/31/2013",
	},
	{
		"name": "OMAHO",
		"latitude": "32-9-20.02 N",
		"longitude": "85-5-45.05 W",
		"state": "ALABAMA",
		"artcc": "ZTL",
		"type": "RP",
		"updated": "EUF*VORTAC*006.18/12.42",
	},
	{
		"name": "OMARR",
		"latitude": "35-26-37.18 N",
		"longitude": "83-27-18.57 W",
		"state": "NORTH CAROLINA",
		"artcc": "ZTL",
		"type": "RP",
		"updated": "VXV*VORTAC*145.00/35.00",
	},
	{
		"name": "OMDOE",
		"latitude": "35-37-52.87 N",
		"longitude": "80-4-42.47 W",
		"state": "NORTH CAROLINA",
		"artcc": "ZTL",
		"type": "RNAV",
		"updated": "04/17/2010",
	},
	{
		"name": "OMERE",
		"latitude": "35-47-18.06 N",
		"longitude": "81-18-8.7 W",
		"state": "NORTH CAROLINA",
		"artcc": "ZTL",
		"type": "RNAV",
		"updated": "07/15/2011",
	},
	{
		"name": "OMKUQ",
		"latitude": "36-25-50.26 N",
		"longitude": "82-57-12.71 W",
		"state": "TENNESSEE",
		"artcc": "ZTL",
		"type": "RNAV",
		"updated": "06/20/2017",
	},
	{
		"name": "OMREE",
		"latitude": "35-44-14.07 N",
		"longitude": "84-4-46.78 W",
		"state": "TENNESSEE",
		"artcc": "ZTL",
		"type": "RP",
		"updated": "VXV*VORTAC*225.00/13.50",
	},
	{
		"name": "OMUME",
		"latitude": "34-48-1.26 N",
		"longitude": "86-33-31.24 W",
		"state": "ALABAMA",
		"artcc": "ZME",
		"type": "RNAV",
		"updated": "05/20/2013",
	},
	{
		"name": "ONANY",
		"latitude": "34-14-52.43 N",
		"longitude": "85-48-56.66 W",
		"state": "ALABAMA",
		"artcc": "ZTL",
		"type": "RNAV",
		"updated": "08/18/2010",
	},
	{
		"name": "ONDOW",
		"latitude": "35-7-54.62 N",
		"longitude": "86-32-32.5 W",
		"state": "TENNESSEE",
		"artcc": "ZME",
		"type": "RNAV",
		"updated": "02/03/2010",
	},
	{
		"name": "ONDRE",
		"latitude": "34-11-38.83 N",
		"longitude": "83-58-24.81 W",
		"state": "GEORGIA",
		"artcc": "ZTL",
		"type": "RNAV",
		"updated": "08/22/2017",
	},
	{
		"name": "ONOYU",
		"latitude": "33-24-26.35 N",
		"longitude": "85-10-41.99 W",
		"state": "GEORGIA",
		"artcc": "ZTL",
		"type": "RNAV",
		"updated": "01/26/2005",
	},
	{
		"name": "ONTEE",
		"latitude": "33-56-0.22 N",
		"longitude": "84-36-17.64 W",
		"state": "GEORGIA",
		"artcc": "ZTL",
		"type": "MR",
		"updated": "DOB*TACAN*286.00/5.00",
	},
	{
		"name": "ONUCI",
		"latitude": "34-32-24.34 N",
		"longitude": "82-27-57.02 W",
		"state": "SOUTH CAROLINA",
		"artcc": "ZTL",
		"type": "RNAV",
		"updated": "02/02/2007",
	},
	{
		"name": "ONUTE",
		"latitude": "34-34-10.75 N",
		"longitude": "84-42-1.13 W",
		"state": "GEORGIA",
		"artcc": "ZTL",
		"type": "RNAV",
		"updated": "08/15/2006",
	},
	{
		"name": "ONZIQ",
		"latitude": "35-39-22.75 N",
		"longitude": "82-38-33.53 W",
		"state": "NORTH CAROLINA",
		"artcc": "ZTL",
		"type": "RNAV",
		"updated": "10/21/2015",
	},
	{
		"name": "OOUDT",
		"latitude": "33-47-45.64 N",
		"longitude": "84-45-33.67 W",
		"state": "GEORGIA",
		"artcc": "ZTL",
		"type": "RP",
		"updated": "PUJ*LD*131.45/12.12",
	},
	{
		"name": "OPALS",
		"latitude": "34-38-39.88 N",
		"longitude": "81-19-9.23 W",
		"state": "SOUTH CAROLINA",
		"artcc": "ZTL",
		"type": "RNAV",
		"updated": "06/16/2017",
	},
	{
		"name": "OPBEH",
		"latitude": "36-36-36.4 N",
		"longitude": "80-34-29.93 W",
		"state": "VIRGINIA",
		"artcc": "ZTL",
		"type": "RNAV",
		"updated": "04/28/2010",
	},
	{
		"name": "OPENS",
		"latitude": "35-25-51 N",
		"longitude": "80-57-56.4 W",
		"state": "NORTH CAROLINA",
		"artcc": "ZTL",
		"type": "RNAV",
		"updated": "02/03/2016",
	},
	{
		"name": "OPIME",
		"latitude": "35-40-23.65 N",
		"longitude": "82-45-49 W",
		"state": "NORTH CAROLINA",
		"artcc": "ZTL",
		"type": "RNAV",
		"updated": "09/27/2017",
	},
	{
		"name": "OPODE",
		"latitude": "36-27-9.27 N",
		"longitude": "80-56-25.98 W",
		"state": "NORTH CAROLINA",
		"artcc": "ZTL",
		"type": "RNAV",
		"updated": "07/07/2017",
	},
	{
		"name": "OPROE",
		"latitude": "32-30-7.23 N",
		"longitude": "85-7-45.73 W",
		"state": "ALABAMA",
		"artcc": "ZTL",
		"type": "RNAV",
		"updated": "06/27/2005",
	},
	{
		"name": "OREAD",
		"latitude": "35-52-2.85 N",
		"longitude": "81-16-32.27 W",
		"state": "NORTH CAROLINA",
		"artcc": "ZTL",
		"type": "RNAV",
		"updated": "04/09/2014",
	},
	{
		"name": "OREGE",
		"latitude": "33-20-29.32 N",
		"longitude": "84-34-56.36 W",
		"state": "GEORGIA",
		"artcc": "ZTL",
		"type": "RNAV",
		"updated": "03/26/2007",
	},
	{
		"name": "ORPEE",
		"latitude": "35-27-12.1 N",
		"longitude": "79-52-55.8 W",
		"state": "NORTH CAROLINA",
		"artcc": "ZTL",
		"type": "RNAV",
		"updated": "05/17/2017",
	},
	{
		"name": "ORRKK",
		"latitude": "32-32-22.55 N",
		"longitude": "87-57-24.95 W",
		"state": "ALABAMA",
		"artcc": "ZTL",
		"type": "RNAV",
		"updated": "08/18/2017",
	},
	{
		"name": "OSDOW",
		"latitude": "33-3-48.31 N",
		"longitude": "85-9-40.47 W",
		"state": "GEORGIA",
		"artcc": "ZTL",
		"type": "RNAV",
		"updated": "02/22/2010",
	},
	{
		"name": "OSEPE",
		"latitude": "34-52-5.85 N",
		"longitude": "85-41-20.23 W",
		"state": "ALABAMA",
		"artcc": "ZME",
		"type": "RNAV",
		"updated": "01/04/2007",
	},
	{
		"name": "OSILY",
		"latitude": "34-57-32.93 N",
		"longitude": "85-0-41.21 W",
		"state": "GEORGIA",
		"artcc": "ZTL",
		"type": "RP",
		"updated": "GQO*VORTAC*090.00/7.00",
	},
	{
		"name": "OSLAE",
		"latitude": "34-47-52.08 N",
		"longitude": "84-24-45.64 W",
		"state": "GEORGIA",
		"artcc": "ZTL",
		"type": "RNAV",
		"updated": "07/21/2011",
	},
	{
		"name": "OSOGE",
		"latitude": "35-38-25.94 N",
		"longitude": "80-42-54.72 W",
		"state": "NORTH CAROLINA",
		"artcc": "ZTL",
		"type": "RNAV",
		"updated": "06/12/2014",
	},
	{
		"name": "OSOXE",
		"latitude": "32-17-26.59 N",
		"longitude": "83-58-9.59 W",
		"state": "GEORGIA",
		"artcc": "ZTL",
		"type": "CN",
		"updated": "11/04/2011",
	},
	{
		"name": "OSTAE",
		"latitude": "32-28-36.17 N",
		"longitude": "83-25-38.81 W",
		"state": "GEORGIA",
		"artcc": "ZTL",
		"type": "MR",
		"updated": "MCN*VORTAC*138.00/17.00",
	},
	{
		"name": "OSTRR",
		"latitude": "33-38-4.66 N",
		"longitude": "84-18-16.13 W",
		"state": "GEORGIA",
		"artcc": "ZTL",
		"type": "RP",
		"updated": "PDK*VOR/DME*186.13",
	},
	{
		"name": "OSUCE",
		"latitude": "33-33-1.62 N",
		"longitude": "84-5-3.4 W",
		"state": "GEORGIA",
		"artcc": "ZTL",
		"type": "RNAV",
		"updated": "09/24/2012",
	},
	{
		"name": "OTADE",
		"latitude": "33-54-13.29 N",
		"longitude": "83-20-33.5 W",
		"state": "GEORGIA",
		"artcc": "ZTL",
		"type": "RNAV",
		"updated": "09/09/2015",
	},
	{
		"name": "OTGUQ",
		"latitude": "32-39-7.45 N",
		"longitude": "83-23-34.45 W",
		"state": "GEORGIA",
		"artcc": "ZTL",
		"type": "RP",
		"updated": "MCN*VORTAC*099.25/13.09",
	},
	{
		"name": "OTISE",
		"latitude": "36-43-3.35 N",
		"longitude": "80-41-42.53 W",
		"state": "VIRGINIA",
		"artcc": "ZTL",
		"type": "RNAV",
		"updated": "04/28/2010",
	},
	{
		"name": "OTKAE",
		"latitude": "33-56-51.97 N",
		"longitude": "83-23-3.37 W",
		"state": "GEORGIA",
		"artcc": "ZTL",
		"type": "RNAV",
		"updated": "09/09/2015",
	},
	{
		"name": "OTPUQ",
		"latitude": "32-54-2.14 N",
		"longitude": "83-43-57.53 W",
		"state": "GEORGIA",
		"artcc": "ZTL",
		"type": "RP",
		"updated": "MCN*VORTAC*340.00/13.26",
	},
	{
		"name": "OTSIE",
		"latitude": "32-24-30.38 N",
		"longitude": "86-23-7.66 W",
		"state": "ALABAMA",
		"artcc": "ZTL",
		"type": "RNAV",
		"updated": "09/18/2007",
	},
	{
		"name": "OTUVE",
		"latitude": "32-11-7.68 N",
		"longitude": "82-50-8.6 W",
		"state": "GEORGIA",
		"artcc": "ZJX",
		"type": "RNAV",
		"updated": "06/21/2010",
	},
	{
		"name": "OTVEZ",
		"latitude": "32-40-17.78 N",
		"longitude": "83-56-15.04 W",
		"state": "GEORGIA",
		"artcc": "ZTL",
		"type": "RP",
		"updated": "MCN*VORTAC*264.52/14.75",
	},
	{
		"name": "OTWAY",
		"latitude": "36-13-3.06 N",
		"longitude": "82-52-15.86 W",
		"state": "TENNESSEE",
		"artcc": "ZTL",
		"type": "RP",
		"updated": "SOT*VORTAC*022.96",
	},
	{
		"name": "OTZEJ",
		"latitude": "33-21-7.91 N",
		"longitude": "84-24-52.22 W",
		"state": "GEORGIA",
		"artcc": "ZTL",
		"type": "RNAV",
		"updated": "06/11/2012",
	},
	{
		"name": "OVDOF",
		"latitude": "35-10-3.57 N",
		"longitude": "80-55-52.58 W",
		"state": "NORTH CAROLINA",
		"artcc": "ZTL",
		"type": "RNAV",
		"updated": "06/27/2001",
	},
	{
		"name": "OVEHE",
		"latitude": "34-0-40.2 N",
		"longitude": "84-42-18.83 W",
		"state": "GEORGIA",
		"artcc": "ZTL",
		"type": "RNAV",
		"updated": "01/30/2009",
	},
	{
		"name": "OVPEW",
		"latitude": "34-1-3.26 N",
		"longitude": "84-20-9.12 W",
		"state": "GEORGIA",
		"artcc": "ZTL",
		"type": "RP",
		"updated": "RMG*VORTAC*101.32",
	},
	{
		"name": "OVUVE",
		"latitude": "35-25-10.2 N",
		"longitude": "79-49-57.81 W",
		"state": "NORTH CAROLINA",
		"artcc": "ZTL",
		"type": "RNAV",
		"updated": "05/17/2017",
	},
	{
		"name": "OVZES",
		"latitude": "32-10-51.07 N",
		"longitude": "84-6-10.32 W",
		"state": "GEORGIA",
		"artcc": "ZTL",
		"type": "CN",
		"updated": "11/04/2011",
	},
	{
		"name": "OVZET",
		"latitude": "33-48-56.08 N",
		"longitude": "84-17-8.11 W",
		"state": "GEORGIA",
		"artcc": "ZTL",
		"type": "RNAV",
		"updated": "05/22/2007",
	},
	{
		"name": "OWABE",
		"latitude": "31-54-53.46 N",
		"longitude": "86-40-46.49 W",
		"state": "ALABAMA",
		"artcc": "ZTL",
		"type": "RNAV",
		"updated": "08/24/2004",
	},
	{
		"name": "OWALT",
		"latitude": "35-44-58.11 N",
		"longitude": "80-52-57.21 W",
		"state": "NORTH CAROLINA",
		"artcc": "ZTL",
		"type": "RP",
		"updated": "BZM*VOR/DME*118.16/18.88",
	},
	{
		"name": "OWEMU",
		"latitude": "35-14-33.12 N",
		"longitude": "83-5-24.67 W",
		"state": "NORTH CAROLINA",
		"artcc": "ZTL",
		"type": "RNAV",
		"updated": "11/06/2014",
	},
	{
		"name": "OWENF",
		"latitude": "33-56-58.4 N",
		"longitude": "84-3-14.51 W",
		"state": "GEORGIA",
		"artcc": "ZTL",
		"type": "RP",
		"updated": "PDK*VOR/DME*075.02/13.00",
	},
	{
		"name": "OWENT",
		"latitude": "34-32-48.81 N",
		"longitude": "86-27-9.45 W",
		"state": "ALABAMA",
		"artcc": "ZME",
		"type": "RP",
		"updated": "DCU*VOR/DME*105.00",
	},
	{
		"name": "OWFEB",
		"latitude": "31-50-39.99 N",
		"longitude": "86-4-0.29 W",
		"state": "ALABAMA",
		"artcc": "ZTL",
		"type": "RNAV",
		"updated": "07/29/2016",
	},
	{
		"name": "OWNNS",
		"latitude": "34-14-19.3 N",
		"longitude": "85-18-44.08 W",
		"state": "ALABAMA",
		"artcc": "ZTL",
		"type": "RNAV",
		"updated": "07/25/2016",
	},
	{
		"name": "OWUXO",
		"latitude": "34-25-39.55 N",
		"longitude": "82-47-30.3 W",
		"state": "SOUTH CAROLINA",
		"artcc": "ZTL",
		"type": "RP",
		"updated": "ODF*VORTAC*122.51",
	},
	{
		"name": "OXABY",
		"latitude": "34-43-38.83 N",
		"longitude": "82-20-49.9 W",
		"state": "SOUTH CAROLINA",
		"artcc": "ZTL",
		"type": "RP",
		"updated": "SPA*VORTAC*230.64/27.69",
	},
	{
		"name": "OXADE",
		"latitude": "32-45-25.81 N",
		"longitude": "83-41-32.91 W",
		"state": "GEORGIA",
		"artcc": "ZTL",
		"type": "MR",
		"updated": "MCN*VORTAC*/4.57",
	},
	{
		"name": "OXOGE",
		"latitude": "35-10-51.67 N",
		"longitude": "84-52-55.95 W",
		"state": "TENNESSEE",
		"artcc": "ZTL",
		"type": "RNAV",
		"updated": "04/27/2018",
	},
	{
		"name": "OXOYO",
		"latitude": "34-58-39.03 N",
		"longitude": "86-35-19.07 W",
		"state": "ALABAMA",
		"artcc": "ZME",
		"type": "RNAV",
		"updated": "01/26/2010",
	},
	{
		"name": "OXSAP",
		"latitude": "33-29-17.11 N",
		"longitude": "86-7-12.71 W",
		"state": "ALABAMA",
		"artcc": "ZTL",
		"type": "RP",
		"updated": "ASN*LD*218.38/6.61",
	},
	{
		"name": "OXTIC",
		"latitude": "34-37-55.91 N",
		"longitude": "82-32-11.7 W",
		"state": "SOUTH CAROLINA",
		"artcc": "ZTL",
		"type": "RNAV",
		"updated": "02/02/2007",
	},
	{
		"name": "OYOVA",
		"latitude": "34-47-5.36 N",
		"longitude": "86-42-31.23 W",
		"state": "ALABAMA",
		"artcc": "ZME",
		"type": "MW",
		"updated": "12/10/2015",
	},
	{
		"name": "OYUNA",
		"latitude": "34-21-24.14 N",
		"longitude": "82-52-47.37 W",
		"state": "GEORGIA",
		"artcc": "ZTL",
		"type": "RP",
		"updated": "ODF*VORTAC*134.33",
	},
	{
		"name": "OZBRN",
		"latitude": "33-9-26.55 N",
		"longitude": "83-21-1.94 W",
		"state": "GEORGIA",
		"artcc": "ZTL",
		"type": "RNAV",
		"updated": "12/26/2017",
	},
	{
		"name": "OZEJI",
		"latitude": "35-20-25.59 N",
		"longitude": "80-57-46.49 W",
		"state": "NORTH CAROLINA",
		"artcc": "ZTL",
		"type": "RP",
		"updated": "CLT*VOR/DME*/8.60",
	},
	{
		"name": "OZONE",
		"latitude": "35-33-42.63 N",
		"longitude": "82-35-1.79 W",
		"state": "NORTH CAROLINA",
		"artcc": "ZTL",
		"type": "RP",
		"updated": "HMV*VORTAC*207.00/56.91",
	},
	{
		"name": "OZZZI",
		"latitude": "34-5-44.28 N",
		"longitude": "83-50-4.15 W",
		"state": "GEORGIA",
		"artcc": "ZTL",
		"type": "RNAV",
		"updated": "08/22/2017",
	},
