	{
		"name": "PABSE",
		"latitude": "31-53-24.22 N",
		"longitude": "85-55-24.86 W",
		"state": "ALABAMA",
		"artcc": "ZTL",
		"type": "RNAV",
		"updated": "07/29/2016",
	},
	{
		"name": "PACIR",
		"latitude": "33-59-43.27 N",
		"longitude": "85-49-56.19 W",
		"state": "ALABAMA",
		"artcc": "ZTL",
		"type": "RNAV",
		"updated": "01/30/2012",
	},
	{
		"name": "PACIY",
		"latitude": "33-53-29.46 N",
		"longitude": "83-0-5.09 W",
		"state": "GEORGIA",
		"artcc": "ZTL",
		"type": "RNAV",
		"updated": "08/04/2008",
	},
	{
		"name": "PACKO",
		"latitude": "36-47-5.97 N",
		"longitude": "82-42-41.86 W",
		"state": "VIRGINIA",
		"artcc": "ZTL",
		"type": "RP",
		"updated": "HMV*VORTAC*310.73/35.00",
	},
	{
		"name": "PACOK",
		"latitude": "34-48-8.52 N",
		"longitude": "81-1-55.1 W",
		"state": "SOUTH CAROLINA",
		"artcc": "ZTL",
		"type": "RNAV",
		"updated": "03/13/2009",
	},
	{
		"name": "PADGT",
		"latitude": "34-17-48.57 N",
		"longitude": "84-24-4.31 W",
		"state": "GEORGIA",
		"artcc": "ZTL",
		"type": "RNAV",
		"updated": "05/17/2016",
	},
	{
		"name": "PADVY",
		"latitude": "36-34-30 N",
		"longitude": "80-55-19.35 W",
		"state": "VIRGINIA",
		"artcc": "ZTL",
		"type": "WP",
		"updated": "11/02/1998",
	},
	{
		"name": "PAGAN",
		"latitude": "36-1-29.32 N",
		"longitude": "80-1-44.55 W",
		"state": "NORTH CAROLINA",
		"artcc": "ZTL",
		"type": "RP",
		"updated": "LIB*VORTAC*305.31/23.98",
	},
	{
		"name": "PAGIY",
		"latitude": "34-38-49.7 N",
		"longitude": "82-37-14.74 W",
		"state": "SOUTH CAROLINA",
		"artcc": "ZTL",
		"type": "RNAV",
		"updated": "02/02/2007",
	},
	{
		"name": "PAGMY",
		"latitude": "32-17-25.22 N",
		"longitude": "85-1-3.15 W",
		"state": "ALABAMA",
		"artcc": "ZTL",
		"type": "MR",
		"updated": "AWS*NDB*118.30",
	},
	{
		"name": "PAIRA",
		"latitude": "32-31-47.65 N",
		"longitude": "84-31-41.69 W",
		"state": "GEORGIA",
		"artcc": "ZTL",
		"type": "RNAV",
		"updated": "01/31/2014",
	},
	{
		"name": "PAKUL",
		"latitude": "35-49-16.05 N",
		"longitude": "80-15-6.18 W",
		"state": "NORTH CAROLINA",
		"artcc": "ZTL",
		"type": "RP",
		"updated": "GSO*VORTAC*228.00/19.00",
	},
	{
		"name": "PALER",
		"latitude": "35-16-15.65 N",
		"longitude": "85-21-6.06 W",
		"state": "TENNESSEE",
		"artcc": "ZME",
		"type": "RP",
		"updated": "HCH*VOR/DME*213.00/35.60",
	},
	{
		"name": "PARQR",
		"latitude": "35-46-56.92 N",
		"longitude": "81-22-10.56 W",
		"state": "NORTH CAROLINA",
		"artcc": "ZTL",
		"type": "RNAV",
		"updated": "06/16/2017",
	},
	{
		"name": "PARRR",
		"latitude": "33-18-33.6 N",
		"longitude": "82-17-4.7 W",
		"state": "GEORGIA",
		"artcc": "ZTL",
		"type": "RNAV",
		"updated": "12/20/2007",
	},
	{
		"name": "PARVY",
		"latitude": "33-51-32.55 N",
		"longitude": "83-29-44.46 W",
		"state": "GEORGIA",
		"artcc": "ZTL",
		"type": "RP",
		"updated": "AHN*VOR/DME*238.20/10.05",
	},
	{
		"name": "PASHN",
		"latitude": "35-4-53.36 N",
		"longitude": "86-58-36.22 W",
		"state": "TENNESSEE",
		"artcc": "ZME",
		"type": "RP",
		"updated": "RQZ*VORTAC*313.29/24.00",
	},
	{
		"name": "PATDA",
		"latitude": "37-18-46.96 N",
		"longitude": "80-39-55.61 W",
		"state": "VIRGINIA",
		"artcc": "ZTL",
		"type": "RP",
		"updated": "ROA*VOR/DME*270.52",
	},
	{
		"name": "PATTE",
		"latitude": "34-6-46.15 N",
		"longitude": "83-30-23.26 W",
		"state": "GEORGIA",
		"artcc": "ZTL",
		"type": "RNAV",
		"updated": "02/27/2010",
	},
	{
		"name": "PAYKN",
		"latitude": "35-34-3.48 N",
		"longitude": "81-12-58.97 W",
		"state": "NORTH CAROLINA",
		"artcc": "ZTL",
		"type": "RNAV",
		"updated": "06/24/2015",
	},
	{
		"name": "PAYOK",
		"latitude": "33-18-40.23 N",
		"longitude": "84-46-13.45 W",
		"state": "GEORGIA",
		"artcc": "ZTL",
		"type": "RP",
		"updated": "LGC*VORTAC*053.31/26.98",
	},
	{
		"name": "PDMNT",
		"latitude": "35-56-25.41 N",
		"longitude": "80-14-9.53 W",
		"state": "NORTH CAROLINA",
		"artcc": "ZTL",
		"type": "RNAV",
		"updated": "11/10/2016",
	},
	{
		"name": "PEARI",
		"latitude": "33-38-46.93 N",
		"longitude": "84-42-34.12 W",
		"state": "GEORGIA",
		"artcc": "ZTL",
		"type": "RP",
		"updated": "FT*NDB*211.95",
	},
	{
		"name": "PECAT",
		"latitude": "33-18-2.84 N",
		"longitude": "84-29-10.54 W",
		"state": "GEORGIA",
		"artcc": "ZTL",
		"type": "RP",
		"updated": "ATL*VORTAC*192.46/19.83",
	},
	{
		"name": "PECDI",
		"latitude": "35-38-56.89 N",
		"longitude": "84-37-55.93 W",
		"state": "TENNESSEE",
		"artcc": "ZTL",
		"type": "RNAV",
		"updated": "06/15/2011",
	},
	{
		"name": "PECIS",
		"latitude": "32-37-55.18 N",
		"longitude": "85-29-4.04 W",
		"state": "ALABAMA",
		"artcc": "ZTL",
		"type": "RNAV",
		"updated": "06/11/2012",
	},
	{
		"name": "PECOC",
		"latitude": "36-1-52 N",
		"longitude": "85-3-26.36 W",
		"state": "TENNESSEE",
		"artcc": "ZTL",
		"type": "RNAV",
		"updated": "11/15/2011",
	},
	{
		"name": "PEDAL",
		"latitude": "34-53-2.47 N",
		"longitude": "82-32-36.15 W",
		"state": "SOUTH CAROLINA",
		"artcc": "ZTL",
		"type": "RP",
		"updated": "SPA*VORTAC*255.75/31.69",
	},
	{
		"name": "PEECH",
		"latitude": "32-2-55.95 N",
		"longitude": "85-33-18.3 W",
		"state": "ALABAMA",
		"artcc": "ZTL",
		"type": "RP",
		"updated": "CSG*VORTAC*218.00",
	},
	{
		"name": "PEEKS",
		"latitude": "35-33-57.19 N",
		"longitude": "84-42-8.55 W",
		"state": "TENNESSEE",
		"artcc": "ZTL",
		"type": "RP",
		"updated": "HCH*VOR/DME*135.60/18.66",
	},
	{
		"name": "PEGTE",
		"latitude": "35-44-23.81 N",
		"longitude": "80-42-1.05 W",
		"state": "NORTH CAROLINA",
		"artcc": "ZTL",
		"type": "RP",
		"updated": "GSO*VORTAC*245.78/39.76",
	},
	{
		"name": "PELAM",
		"latitude": "34-57-43.12 N",
		"longitude": "82-13-27 W",
		"state": "SOUTH CAROLINA",
		"artcc": "ZTL",
		"type": "RP",
		"updated": "SPA*VORTAC*255.75/15.26",
	},
	{
		"name": "PELZE",
		"latitude": "34-35-2.2 N",
		"longitude": "82-33-24.57 W",
		"state": "SOUTH CAROLINA",
		"artcc": "ZTL",
		"type": "RP",
		"updated": "SPA*VORTAC*231.30/41.16",
	},
	{
		"name": "PENCE",
		"latitude": "36-1-9.8 N",
		"longitude": "83-31-26.31 W",
		"state": "TENNESSEE",
		"artcc": "ZTL",
		"type": "RP",
		"updated": "SOT*VORTAC*305.00/26.78",
	},
	{
		"name": "PENCL",
		"latitude": "34-15-19.39 N",
		"longitude": "84-42-47.92 W",
		"state": "GEORGIA",
		"artcc": "ZTL",
		"type": "RNAV",
		"updated": "05/17/2016",
	},
	{
		"name": "PENFI",
		"latitude": "33-44-45.98 N",
		"longitude": "83-15-6.14 W",
		"state": "GEORGIA",
		"artcc": "ZTL",
		"type": "RP",
		"updated": "AHN*VOR/DME*163.15/12.61",
	},
	{
		"name": "PENNE",
		"latitude": "34-43-2.61 N",
		"longitude": "80-53-10.94 W",
		"state": "SOUTH CAROLINA",
		"artcc": "ZTL",
		"type": "RNAV",
		"updated": "02/03/2009",
	},
	{
		"name": "PEPNE",
		"latitude": "35-31-41.31 N",
		"longitude": "81-25-43.31 W",
		"state": "NORTH CAROLINA",
		"artcc": "ZTL",
		"type": "RNAV",
		"updated": "07/15/2011",
	},
	{
		"name": "PERGE",
		"latitude": "31-51-34.32 N",
		"longitude": "85-14-57.38 W",
		"state": "ALABAMA",
		"artcc": "ZTL",
		"type": "RNAV",
		"updated": "04/15/2014",
	},
	{
		"name": "PERVE",
		"latitude": "31-22-55.98 N",
		"longitude": "87-24-4.93 W",
		"state": "ALABAMA",
		"artcc": "ZTL",
		"type": "RNAV",
		"updated": "10/16/2007",
	},
	{
		"name": "PETBE",
		"latitude": "33-50-13.27 N",
		"longitude": "86-5-49.29 W",
		"state": "ALABAMA",
		"artcc": "ZTL",
		"type": "RNAV",
		"updated": "07/15/2011",
	},
	{
		"name": "PETIC",
		"latitude": "35-45-48.37 N",
		"longitude": "81-20-48.3 W",
		"state": "NORTH CAROLINA",
		"artcc": "ZTL",
		"type": "RNAV",
		"updated": "07/15/2011",
	},
	{
		"name": "PETOC",
		"latitude": "32-17-59.34 N",
		"longitude": "86-13-0.32 W",
		"state": "ALABAMA",
		"artcc": "ZTL",
		"type": "RP",
		"updated": "MGM*VORTAC*045.43/7.00",
	},
	{
		"name": "PETON",
		"latitude": "34-38-45.05 N",
		"longitude": "82-11-34.3 W",
		"state": "SOUTH CAROLINA",
		"artcc": "ZTL",
		"type": "RP",
		"updated": "GRD*VORTAC*356.36/23.69",
	},
	{
		"name": "PETRY",
		"latitude": "32-0-5.14 N",
		"longitude": "85-59-47.63 W",
		"state": "ALABAMA",
		"artcc": "ZTL",
		"type": "RP",
		"updated": "MGM*VORTAC*126.00/21.00",
	},
	{
		"name": "PEYLI",
		"latitude": "32-29-23.18 N",
		"longitude": "84-14-42.75 W",
		"state": "GEORGIA",
		"artcc": "ZTL",
		"type": "RNAV",
		"updated": "07/11/2013",
	},
	{
		"name": "PEYTI",
		"latitude": "33-40-18.12 N",
		"longitude": "85-9-58.12 W",
		"state": "GEORGIA",
		"artcc": "ZTL",
		"type": "RNAV",
		"updated": "01/26/2005",
	},
	{
		"name": "PGAAA",
		"latitude": "33-8-13.75 N",
		"longitude": "82-40-56.79 W",
		"state": "GEORGIA",
		"artcc": "ZTL",
		"type": "RNAV",
		"updated": "12/20/2007",
	},
	{
		"name": "PHAYE",
		"latitude": "35-43-20.41 N",
		"longitude": "82-41-57.66 W",
		"state": "NORTH CAROLINA",
		"artcc": "ZTL",
		"type": "RNAV",
		"updated": "06/24/2015",
	},
	{
		"name": "PHENS",
		"latitude": "32-31-20.1 N",
		"longitude": "85-5-28.93 W",
		"state": "ALABAMA",
		"artcc": "ZTL",
		"type": "MR",
		"updated": "LSF*VOR/DME*338.34/12.42",
	},
	{
		"name": "PHIIL",
		"latitude": "33-39-22.74 N",
		"longitude": "83-38-13.82 W",
		"state": "GEORGIA",
		"artcc": "ZTL",
		"type": "RNAV",
		"updated": "09/09/2016",
	},
	{
		"name": "PHINZ",
		"latitude": "33-31-13.63 N",
		"longitude": "82-17-1.53 W",
		"state": "GEORGIA",
		"artcc": "ZTL",
		"type": "RNAV",
		"updated": "05/20/2011",
	},
	{
		"name": "PHYLL",
		"latitude": "32-23-3.45 N",
		"longitude": "83-50-25 W",
		"state": "GEORGIA",
		"artcc": "ZTL",
		"type": "RP",
		"updated": "VNA*VORTAC*299.48/20.22",
	},
	{
		"name": "PIBGE",
		"latitude": "35-11-41.34 N",
		"longitude": "84-45-12.27 W",
		"state": "TENNESSEE",
		"artcc": "ZTL",
		"type": "RNAV",
		"updated": "04/27/2010",
	},
	{
		"name": "PIBTE",
		"latitude": "35-31-48.89 N",
		"longitude": "79-54-57.18 W",
		"state": "NORTH CAROLINA",
		"artcc": "ZTL",
		"type": "RNAV",
		"updated": "04/17/2010",
	},
	{
		"name": "PICKS",
		"latitude": "31-47-2.35 N",
		"longitude": "86-55-3.13 W",
		"state": "ALABAMA",
		"artcc": "ZTL",
		"type": "RP",
		"updated": "MVC*VORTAC*045.00",
	},
	{
		"name": "PICKT",
		"latitude": "33-38-1.46 N",
		"longitude": "84-14-21.19 W",
		"state": "GEORGIA",
		"artcc": "ZTL",
		"type": "RNAV",
		"updated": "05/09/2016",
	},
	{
		"name": "PIDMY",
		"latitude": "33-57-53.63 N",
		"longitude": "82-32-37.51 W",
		"state": "SOUTH CAROLINA",
		"artcc": "ZTL",
		"type": "RNAV",
		"updated": "11/07/2013",
	},
	{
		"name": "PIGON",
		"latitude": "31-33-33.58 N",
		"longitude": "86-39-51.18 W",
		"state": "ALABAMA",
		"artcc": "ZTL",
		"type": "RP",
		"updated": "MGM*VORTAC*201.00/43.42",
	},
	{
		"name": "PIKIE",
		"latitude": "34-35-43.32 N",
		"longitude": "85-19-48.59 W",
		"state": "GEORGIA",
		"artcc": "ZTL",
		"type": "RNAV",
		"updated": "11/07/2016",
	},
	{
		"name": "PILRE",
		"latitude": "33-29-15.17 N",
		"longitude": "84-46-12.26 W",
		"state": "GEORGIA",
		"artcc": "ZTL",
		"type": "RNAV",
		"updated": "09/06/2012",
	},
	{
		"name": "PIMDE",
		"latitude": "32-22-33.07 N",
		"longitude": "85-1-26.07 W",
		"state": "ALABAMA",
		"artcc": "ZTL",
		"type": "RNAV",
		"updated": "06/27/2005",
	},
	{
		"name": "PINGG",
		"latitude": "33-25-22.46 N",
		"longitude": "85-6-11.74 W",
		"state": "GEORGIA",
		"artcc": "ZTL",
		"type": "RNAV",
		"updated": "08/21/2017",
	},
	{
		"name": "PINKS",
		"latitude": "34-48-26.87 N",
		"longitude": "86-45-44.49 W",
		"state": "ALABAMA",
		"artcc": "ZME",
		"type": "RP",
		"updated": "DCU*VOR/DME*043.53/12.95",
	},
	{
		"name": "PIROE",
		"latitude": "32-33-32.34 N",
		"longitude": "85-26-14.41 W",
		"state": "ALABAMA",
		"artcc": "ZTL",
		"type": "RNAV",
		"updated": "06/11/2012",
	},
	{
		"name": "PIRVE",
		"latitude": "35-38-2.55 N",
		"longitude": "80-46-37.13 W",
		"state": "NORTH CAROLINA",
		"artcc": "ZTL",
		"type": "RNAV",
		"updated": "01/13/2011",
	},
	{
		"name": "PISUE",
		"latitude": "36-24-55.9 N",
		"longitude": "83-32-28.6 W",
		"state": "TENNESSEE",
		"artcc": "ZTL",
		"type": "RNAV",
		"updated": "01/14/2003",
	},
	{
		"name": "PITTE",
		"latitude": "35-50-7.94 N",
		"longitude": "83-22-49.68 W",
		"state": "TENNESSEE",
		"artcc": "ZTL",
		"type": "RP",
		"updated": "HRS*VORTAC*026.00",
	},
	{
		"name": "PITTY",
		"latitude": "35-19-48.92 N",
		"longitude": "81-51-5.58 W",
		"state": "NORTH CAROLINA",
		"artcc": "ZTL",
		"type": "RP",
		"updated": "CLT*VOR/DME*286.00/45.00",
	},
	{
		"name": "PIZZO",
		"latitude": "33-4-59.45 N",
		"longitude": "84-54-54.87 W",
		"state": "GEORGIA",
		"artcc": "ZTL",
		"type": "RP",
		"updated": "CSG*VORTAC*009.44/28.49",
	},
	{
		"name": "PLAIR",
		"latitude": "33-3-11.22 N",
		"longitude": "82-52-0.07 W",
		"state": "GEORGIA",
		"artcc": "ZTL",
		"type": "RP",
		"updated": "DBN*VORTAC*001.39/29.38",
	},
	{
		"name": "PLMMR",
		"latitude": "33-57-10.16 N",
		"longitude": "83-43-37.22 W",
		"state": "GEORGIA",
		"artcc": "ZTL",
		"type": "RNAV",
		"updated": "05/17/2016",
	},
	{
		"name": "PLUUM",
		"latitude": "35-40-26.4 N",
		"longitude": "80-33-4.92 W",
		"state": "NORTH CAROLINA",
		"artcc": "ZTL",
		"type": "RP",
		"updated": "BZM*VOR/DME*114.93",
	},
	{
		"name": "PMPAS",
		"latitude": "33-27-40.48 N",
		"longitude": "82-31-38.11 W",
		"state": "GEORGIA",
		"artcc": "ZTL",
		"type": "RNAV",
		"updated": "12/20/2007",
	},
	{
		"name": "PNTHA",
		"latitude": "33-16-45.58 N",
		"longitude": "85-46-29.49 W",
		"state": "ALABAMA",
		"artcc": "ZTL",
		"type": "RNAV",
		"updated": "12/09/2015",
	},
	{
		"name": "POBYI",
		"latitude": "35-12-47.01 N",
		"longitude": "81-18-4.76 W",
		"state": "NORTH CAROLINA",
		"artcc": "ZTL",
		"type": "RNAV",
		"updated": "02/15/2011",
	},
	{
		"name": "POGGO",
		"latitude": "36-18-21 N",
		"longitude": "82-2-52.32 W",
		"state": "TENNESSEE",
		"artcc": "ZTL",
		"type": "RNAV",
		"updated": "05/28/2009",
	},
	{
		"name": "POGPE",
		"latitude": "36-36-37.09 N",
		"longitude": "83-43-31.65 W",
		"state": "KENTUCKY",
		"artcc": "ZTL",
		"type": "RNAV",
		"updated": "02/23/2018",
	},
	{
		"name": "POLLK",
		"latitude": "32-16-9.97 N",
		"longitude": "86-55-41.61 W",
		"state": "ALABAMA",
		"artcc": "ZTL",
		"type": "RP",
		"updated": "SEM*LD*148.81/6.23",
	},
	{
		"name": "POLLL",
		"latitude": "34-8-57.26 N",
		"longitude": "84-46-49.54 W",
		"state": "GEORGIA",
		"artcc": "ZTL",
		"type": "RNAV",
		"updated": "01/29/2014",
	},
	{
		"name": "PONBE",
		"latitude": "32-50-6.95 N",
		"longitude": "85-6-18.4 W",
		"state": "GEORGIA",
		"artcc": "ZTL",
		"type": "RNAV",
		"updated": "08/11/2010",
	},
	{
		"name": "PONGG",
		"latitude": "33-47-55.94 N",
		"longitude": "85-0-40.89 W",
		"state": "GEORGIA",
		"artcc": "ZTL",
		"type": "RNAV",
		"updated": "07/26/2016",
	},
	{
		"name": "PONTI",
		"latitude": "35-39-1.84 N",
		"longitude": "80-21-14.74 W",
		"state": "NORTH CAROLINA",
		"artcc": "ZTL",
		"type": "RP",
		"updated": "GSO*VORTAC*221.00/30.00",
	},
	{
		"name": "PONZE",
		"latitude": "33-46-54.76 N",
		"longitude": "81-57-45.93 W",
		"state": "SOUTH CAROLINA",
		"artcc": "ZTL",
		"type": "RNAV",
		"updated": "05/12/2016",
	},
	{
		"name": "POOBA",
		"latitude": "33-27-41.92 N",
		"longitude": "84-1-50.89 W",
		"state": "GEORGIA",
		"artcc": "ZTL",
		"type": "RNAV",
		"updated": "08/22/2017",
	},
	{
		"name": "POORE",
		"latitude": "35-5-1.34 N",
		"longitude": "80-49-13.73 W",
		"state": "NORTH CAROLINA",
		"artcc": "ZTL",
		"type": "RNAV",
		"updated": "05/13/2016",
	},
	{
		"name": "POSEC",
		"latitude": "32-21-22.7 N",
		"longitude": "83-4-3.83 W",
		"state": "GEORGIA",
		"artcc": "ZTL",
		"type": "RNAV",
		"updated": "09/15/2009",
	},
	{
		"name": "POSEY",
		"latitude": "33-45-14.55 N",
		"longitude": "83-57-32.8 W",
		"state": "GEORGIA",
		"artcc": "ZTL",
		"type": "RNAV",
		"updated": "07/26/2016",
	},
	{
		"name": "POSIY",
		"latitude": "33-27-13.35 N",
		"longitude": "84-59-13.29 W",
		"state": "GEORGIA",
		"artcc": "ZTL",
		"type": "RNAV",
		"updated": "01/26/2005",
	},
	{
		"name": "POTAR",
		"latitude": "32-29-25.49 N",
		"longitude": "84-3-17.83 W",
		"state": "GEORGIA",
		"artcc": "ZTL",
		"type": "RP",
		"updated": "VNA*VORTAC*299.48/32.84",
	},
	{
		"name": "POUFS",
		"latitude": "36-23-27.52 N",
		"longitude": "81-3-45.77 W",
		"state": "NORTH CAROLINA",
		"artcc": "ZTL",
		"type": "RNAV",
		"updated": "07/07/2017",
	},
	{
		"name": "POUNC",
		"latitude": "33-25-10.9 N",
		"longitude": "85-12-37.05 W",
		"state": "GEORGIA",
		"artcc": "ZTL",
		"type": "RNAV",
		"updated": "05/17/2016",
	},
	{
		"name": "POVGY",
		"latitude": "32-39-5.9 N",
		"longitude": "82-57-8.24 W",
		"state": "GEORGIA",
		"artcc": "ZTL",
		"type": "RNAV",
		"updated": "06/01/2016",
	},
	{
		"name": "POWER",
		"latitude": "36-22-53.66 N",
		"longitude": "83-31-33.24 W",
		"state": "TENNESSEE",
		"artcc": "ZTL",
		"type": "RP",
		"updated": "LOZ*VOR/DME*144.00",
	},
	{
		"name": "POYTU",
		"latitude": "34-26-49.34 N",
		"longitude": "83-6-59.17 W",
		"state": "GEORGIA",
		"artcc": "ZTL",
		"type": "RNAV",
		"updated": "09/22/2011",
	},
	{
		"name": "PPAGE",
		"latitude": "35-29-40.79 N",
		"longitude": "80-4-38.25 W",
		"state": "NORTH CAROLINA",
		"artcc": "ZTL",
		"type": "RNAV",
		"updated": "05/03/2010",
	},
	{
		"name": "PPEGE",
		"latitude": "33-45-47.88 N",
		"longitude": "85-7-48.79 W",
		"state": "GEORGIA",
		"artcc": "ZTL",
		"type": "RNAV",
		"updated": "08/25/2009",
	},
	{
		"name": "PRATZ",
		"latitude": "32-38-30.49 N",
		"longitude": "84-21-47.35 W",
		"state": "GEORGIA",
		"artcc": "ZTL",
		"type": "RP",
		"updated": "CSG*VORTAC*086.08/33.20",
	},
	{
		"name": "PRDUE",
		"latitude": "32-26-38.64 N",
		"longitude": "83-45-59.88 W",
		"state": "GEORGIA",
		"artcc": "ZTL",
		"type": "RP",
		"updated": "VNA*VORTAC*314.31",
	},
	{
		"name": "PREST",
		"latitude": "32-10-34.95 N",
		"longitude": "84-41-2.82 W",
		"state": "GEORGIA",
		"artcc": "ZTL",
		"type": "RP",
		"updated": "CSG*VORTAC*146.10",
	},
	{
		"name": "PRMAN",
		"latitude": "33-37-11.55 N",
		"longitude": "84-3-44.82 W",
		"state": "GEORGIA",
		"artcc": "ZTL",
		"type": "RP",
		"updated": "PKU*LD*094.98/19.49",
	},
	{
		"name": "PRODS",
		"latitude": "33-36-49.22 N",
		"longitude": "83-5-58.64 W",
		"state": "GEORGIA",
		"artcc": "ZTL",
		"type": "RNAV",
		"updated": "08/18/2016",
	},
	{
		"name": "PRONE",
		"latitude": "34-50-2.87 N",
		"longitude": "86-18-54.44 W",
		"state": "ALABAMA",
		"artcc": "ZME",
		"type": "RP",
		"updated": "RQZ*VORTAC*079.92",
	},
	{
		"name": "PROVE",
		"latitude": "36-16-56.32 N",
		"longitude": "80-7-8.27 W",
		"state": "NORTH CAROLINA",
		"artcc": "ZTL",
		"type": "RP",
		"updated": "SBV*VORTAC*251.56",
	},
	{
		"name": "PROVN",
		"latitude": "33-52-59.53 N",
		"longitude": "81-57-57.65 W",
		"state": "SOUTH CAROLINA",
		"artcc": "ZTL",
		"type": "RNAV",
		"updated": "11/10/2016",
	},
	{
		"name": "PUJJY",
		"latitude": "33-51-28.96 N",
		"longitude": "84-51-22.12 W",
		"state": "GEORGIA",
		"artcc": "ZTL",
		"type": "RP",
		"updated": "PUJ*LD*131.45/6.02",
	},
	{
		"name": "PUMOE",
		"latitude": "32-55-8.83 N",
		"longitude": "84-11-0 W",
		"state": "GEORGIA",
		"artcc": "ZTL",
		"type": "RNAV",
		"updated": "11/11/2009",
	},
	{
		"name": "PUMPR",
		"latitude": "33-41-41.85 N",
		"longitude": "83-25-43.88 W",
		"state": "GEORGIA",
		"artcc": "ZTL",
		"type": "RP",
		"updated": "AHN*VOR/DME*199.01/16.00",
	},
	{
		"name": "PUNJI",
		"latitude": "34-21-27.15 N",
		"longitude": "86-22-56.92 W",
		"state": "ALABAMA",
		"artcc": "ZME",
		"type": "RNAV",
		"updated": "03/06/2017",
	},
	{
		"name": "PUPDG",
		"latitude": "35-46-30.08 N",
		"longitude": "83-3-40.16 W",
		"state": "NORTH CAROLINA",
		"artcc": "ZTL",
		"type": "RNAV",
		"updated": "07/26/2016",
	},
	{
		"name": "PUTIC",
		"latitude": "33-16-19.67 N",
		"longitude": "87-30-41.77 W",
		"state": "ALABAMA",
		"artcc": "ZTL",
		"type": "MR",
		"updated": "LDK*VORTAC*055.00/1.50",
	},
	{
		"name": "PUTUE",
		"latitude": "35-33-39.29 N",
		"longitude": "84-34-32.46 W",
		"state": "TENNESSEE",
		"artcc": "ZTL",
		"type": "RNAV",
		"updated": "10/29/2013",
	},
	{
		"name": "PUVIY",
		"latitude": "34-20-4.7 N",
		"longitude": "85-9-27.5 W",
		"state": "GEORGIA",
		"artcc": "ZTL",
		"type": "RP",
		"updated": "RMG*VORTAC*348.56/10.48",
	},
	{
		"name": "PUVNE",
		"latitude": "31-29-12.81 N",
		"longitude": "87-41-20.64 W",
		"state": "ALABAMA",
		"artcc": "ZTL",
		"type": "RNAV",
		"updated": "04/22/2010",
	},
