[
	{
		"name": "QECKE",
		"latitude": "34-18-0.46 N",
		"longitude": "86-56-4.25 W",
		"state": "ALABAMA",
		"artcc": "ZME",
		"type": "RNAV",
		"updated": "11/03/2014"
	},
	{
		"name": "QERJU",
		"latitude": "35-10-0.1 N",
		"longitude": "80-56-52.63 W",
		"state": "NORTH CAROLINA",
		"artcc": "ZTL",
		"type": "RNAV",
		"updated": "06/27/2001"
	},
	{
		"name": "QLOWW",
		"latitude": "33-46-59.14 N",
		"longitude": "84-30-44.26 W",
		"state": "GEORGIA",
		"artcc": "ZTL",
		"type": "RP",
		"updated": "PDK*VOR/DME*247.61/12.02"
	},
	{
		"name": "QUARR",
		"latitude": "34-4-24.98 N",
		"longitude": "84-17-31.26 W",
		"state": "GEORGIA",
		"artcc": "ZTL",
		"type": "RNAV",
		"updated": "01/03/2013"
	},
	{
		"name": "QUBIT",
		"latitude": "33-27-9.95 N",
		"longitude": "84-49-47.63 W",
		"state": "GEORGIA",
		"artcc": "ZTL",
		"type": "RNAV",
		"updated": "08/22/2017"
	},
	{
		"name": "QUICK",
		"latitude": "35-46-55.02 N",
		"longitude": "84-1-57.92 W",
		"state": "TENNESSEE",
		"artcc": "ZTL",
		"type": "RP",
		"updated": "VXV*VORTAC*225.48/9.98"
	},
	{
		"name": "QUIDS",
		"latitude": "34-47-45.7 N",
		"longitude": "85-17-23.7 W",
		"state": "GEORGIA",
		"artcc": "ZTL",
		"type": "RP",
		"updated": "GQO*VORTAC*213.50/11.98"
	},
	{
		"name": "QUWED",
		"latitude": "35-20-22.87 N",
		"longitude": "80-56-45.75 W",
		"state": "NORTH CAROLINA",
		"artcc": "ZTL",
		"type": "RP",
		"updated": "VKQ*LD*002.97/8.55"
	},
	{
		"name": "QWEEN",
		"latitude": "35-35-6.73 N",
		"longitude": "84-31-19.5 W",
		"state": "TENNESSEE",
		"artcc": "ZTL",
		"type": "RNAV",
		"updated": "10/29/2013"
	},
	{
		"name": "QWONG",
		"latitude": "35-56-29.79 N",
		"longitude": "84-4-49.15 W",
		"state": "TENNESSEE",
		"artcc": "ZTL",
		"type": "RNAV",
		"updated": "06/11/2012"
	}
]
