	{
		"name": "TAARZ",
		"latitude": "36-42-10.44 N",
		"longitude": "80-36-13.46 W",
		"state": "VIRGINIA",
		"artcc": "ZTL",
		"type": "RNAV",
		"updated": "11/10/2016",
	},
	{
		"name": "TABUC",
		"latitude": "36-1-4.88 N",
		"longitude": "83-44-37.83 W",
		"state": "TENNESSEE",
		"artcc": "ZTL",
		"type": "RP",
		"updated": "VXV*VORTAC*/10.00",
	},
	{
		"name": "TACKL",
		"latitude": "33-44-25.45 N",
		"longitude": "83-30-30.99 W",
		"state": "GEORGIA",
		"artcc": "ZTL",
		"type": "RNAV",
		"updated": "01/31/2014",
	},
	{
		"name": "TACOC",
		"latitude": "35-8-33.25 N",
		"longitude": "86-37-8.69 W",
		"state": "TENNESSEE",
		"artcc": "ZME",
		"type": "RNAV",
		"updated": "05/06/2016",
	},
	{
		"name": "TACUL",
		"latitude": "33-32-16.93 N",
		"longitude": "85-7-11.39 W",
		"state": "GEORGIA",
		"artcc": "ZTL",
		"type": "RNAV",
		"updated": "01/26/2005",
	},
	{
		"name": "TADUW",
		"latitude": "33-43-55.47 N",
		"longitude": "86-9-53.1 W",
		"state": "ALABAMA",
		"artcc": "ZTL",
		"type": "RNAV",
		"updated": "07/16/2007",
	},
	{
		"name": "TAFOC",
		"latitude": "35-6-23.32 N",
		"longitude": "84-1-22.1 W",
		"state": "NORTH CAROLINA",
		"artcc": "ZTL",
		"type": "RNAV",
		"updated": "07/10/2017",
	},
	{
		"name": "TAGCU",
		"latitude": "34-45-50.11 N",
		"longitude": "80-56-45.76 W",
		"state": "SOUTH CAROLINA",
		"artcc": "ZTL",
		"type": "RNAV",
		"updated": "02/20/2014",
	},
	{
		"name": "TAGME",
		"latitude": "35-19-46.4 N",
		"longitude": "83-13-14.34 W",
		"state": "NORTH CAROLINA",
		"artcc": "ZTL",
		"type": "RNAV",
		"updated": "02/07/2003",
	},
	{
		"name": "TAGYI",
		"latitude": "35-25-39.41 N",
		"longitude": "84-36-38.03 W",
		"state": "TENNESSEE",
		"artcc": "ZTL",
		"type": "RNAV",
		"updated": "07/10/2017",
	},
	{
		"name": "TAILL",
		"latitude": "32-22-35.99 N",
		"longitude": "85-20-35.63 W",
		"state": "ALABAMA",
		"artcc": "ZTL",
		"type": "RNAV",
		"updated": "07/11/2011",
	},
	{
		"name": "TAJLE",
		"latitude": "35-43-52.97 N",
		"longitude": "85-5-48.51 W",
		"state": "TENNESSEE",
		"artcc": "ZTL",
		"type": "RNAV",
		"updated": "01/09/2001",
	},
	{
		"name": "TAKEN",
		"latitude": "36-20-12.78 N",
		"longitude": "82-28-13.22 W",
		"state": "TENNESSEE",
		"artcc": "ZTL",
		"type": "RP",
		"updated": "GZG*VOR/DME*215.00",
	},
	{
		"name": "TAKTE",
		"latitude": "34-9-38.2 N",
		"longitude": "81-46-30.38 W",
		"state": "SOUTH CAROLINA",
		"artcc": "ZTL",
		"type": "RNAV",
		"updated": "05/27/2009",
	},
	{
		"name": "TALBO",
		"latitude": "32-37-49 N",
		"longitude": "84-39-28.93 W",
		"state": "GEORGIA",
		"artcc": "ZTL",
		"type": "RP",
		"updated": "CSG*VORTAC*086.08/18.24",
	},
	{
		"name": "TALLA",
		"latitude": "35-41-27.19 N",
		"longitude": "83-58-31.63 W",
		"state": "TENNESSEE",
		"artcc": "ZTL",
		"type": "RP",
		"updated": "HCH*VOR/DME*098.00",
	},
	{
		"name": "TALLE",
		"latitude": "34-37-48.05 N",
		"longitude": "83-40-48.64 W",
		"state": "GEORGIA",
		"artcc": "ZTL",
		"type": "RP",
		"updated": "ODF*VORTAC*258.34/19.34",
	},
	{
		"name": "TALRR",
		"latitude": "36-15-49.89 N",
		"longitude": "80-25-14.28 W",
		"state": "NORTH CAROLINA",
		"artcc": "ZTL",
		"type": "RNAV",
		"updated": "04/17/2010",
	},
	{
		"name": "TALYU",
		"latitude": "34-7-49.44 N",
		"longitude": "83-5-37.93 W",
		"state": "GEORGIA",
		"artcc": "ZTL",
		"type": "RNAV",
		"updated": "10/31/2013",
	},
	{
		"name": "TAMPI",
		"latitude": "36-14-46.2 N",
		"longitude": "83-23-27.61 W",
		"state": "TENNESSEE",
		"artcc": "ZTL",
		"type": "RP",
		"updated": "SOT*VORTAC*333.00",
	},
	{
		"name": "TANCE",
		"latitude": "35-5-28.12 N",
		"longitude": "81-36-17.12 W",
		"state": "SOUTH CAROLINA",
		"artcc": "ZTL",
		"type": "RNAV",
		"updated": "02/03/2016",
	},
	{
		"name": "TANNE",
		"latitude": "34-45-38.68 N",
		"longitude": "86-59-14.53 W",
		"state": "ALABAMA",
		"artcc": "ZME",
		"type": "RP",
		"updated": "DCU*VOR/DME*341.65",
	},
	{
		"name": "TARAA",
		"latitude": "34-51-23.26 N",
		"longitude": "83-27-48.15 W",
		"state": "GEORGIA",
		"artcc": "ZTL",
		"type": "RNAV",
		"updated": "07/26/2016",
	},
	{
		"name": "TASYU",
		"latitude": "33-6-41.03 N",
		"longitude": "86-51-54 W",
		"state": "ALABAMA",
		"artcc": "ZTL",
		"type": "RP",
		"updated": "OKW*VORTAC*111.49",
	},
	{
		"name": "TATME",
		"latitude": "32-42-38.35 N",
		"longitude": "85-57-8.99 W",
		"state": "ALABAMA",
		"artcc": "ZTL",
		"type": "RNAV",
		"updated": "10/22/2013",
	},
	{
		"name": "TATRS",
		"latitude": "33-20-36.95 N",
		"longitude": "83-51-36.86 W",
		"state": "GEORGIA",
		"artcc": "ZTL",
		"type": "RNAV",
		"updated": "01/31/2014",
	},
	{
		"name": "TATYU",
		"latitude": "31-58-45.98 N",
		"longitude": "82-51-56.25 W",
		"state": "GEORGIA",
		"artcc": "ZJX",
		"type": "RNAV",
		"updated": "06/16/2008",
	},
	{
		"name": "TAVBE",
		"latitude": "35-39-44.75 N",
		"longitude": "82-2-49.37 W",
		"state": "NORTH CAROLINA",
		"artcc": "ZTL",
		"type": "RNAV",
		"updated": "11/07/2014",
	},
	{
		"name": "TAWBA",
		"latitude": "35-47-11.98 N",
		"longitude": "81-18-19.54 W",
		"state": "NORTH CAROLINA",
		"artcc": "ZTL",
		"type": "RNAV",
		"updated": "02/21/2014",
	},
	{
		"name": "TAYSO",
		"latitude": "34-34-29.99 N",
		"longitude": "81-18-55.69 W",
		"state": "SOUTH CAROLINA",
		"artcc": "ZTL",
		"type": "RP",
		"updated": "GRD*VORTAC*065.81/45.92",
	},
	{
		"name": "TAZMA",
		"latitude": "31-41-56.32 N",
		"longitude": "86-27-54.81 W",
		"state": "ALABAMA",
		"artcc": "ZTL",
		"type": "RNAV",
		"updated": "08/24/2004",
	},
	{
		"name": "TAZZA",
		"latitude": "35-48-51.72 N",
		"longitude": "84-38-38.87 W",
		"state": "TENNESSEE",
		"artcc": "ZTL",
		"type": "RNAV",
		"updated": "06/24/2015",
	},
	{
		"name": "TDAAY",
		"latitude": "34-33-46.59 N",
		"longitude": "82-26-52.95 W",
		"state": "SOUTH CAROLINA",
		"artcc": "ZTL",
		"type": "RNAV",
		"updated": "11/10/2016",
	},
	{
		"name": "TDUNN",
		"latitude": "35-25-31.83 N",
		"longitude": "82-17-25.46 W",
		"state": "NORTH CAROLINA",
		"artcc": "ZTL",
		"type": "RNAV",
		"updated": "08/02/2016",
	},
	{
		"name": "TEBOC",
		"latitude": "32-17-24.5 N",
		"longitude": "86-16-24.88 W",
		"state": "ALABAMA",
		"artcc": "ZTL",
		"type": "RNAV",
		"updated": "08/14/2013",
	},
	{
		"name": "TECUG",
		"latitude": "35-16-53.5 N",
		"longitude": "86-3-44.57 W",
		"state": "TENNESSEE",
		"artcc": "ZME",
		"type": "RNAV",
		"updated": "06/16/2008",
	},
	{
		"name": "TECUS",
		"latitude": "32-30-11.86 N",
		"longitude": "83-45-56.56 W",
		"state": "GEORGIA",
		"artcc": "ZTL",
		"type": "RP",
		"updated": "VNA*VORTAC*320.90/22.08",
	},
	{
		"name": "TEDGE",
		"latitude": "34-45-2.42 N",
		"longitude": "83-5-57.32 W",
		"state": "SOUTH CAROLINA",
		"artcc": "ZTL",
		"type": "RNAV",
		"updated": "07/26/2016",
	},
	{
		"name": "TEEAR",
		"latitude": "34-40-8.77 N",
		"longitude": "81-47-46.83 W",
		"state": "SOUTH CAROLINA",
		"artcc": "ZTL",
		"type": "RNAV",
		"updated": "12/18/2013",
	},
	{
		"name": "TEGOE",
		"latitude": "35-9-41.23 N",
		"longitude": "85-18-2.67 W",
		"state": "TENNESSEE",
		"artcc": "ZTL",
		"type": "RNAV",
		"updated": "04/13/2017",
	},
	{
		"name": "TEMAC",
		"latitude": "32-18-32.59 N",
		"longitude": "83-17-45.86 W",
		"state": "GEORGIA",
		"artcc": "ZTL",
		"type": "MR",
		"updated": "MCN*VORTAC*141.00/29.00",
	},
	{
		"name": "TEMKY",
		"latitude": "35-46-32.35 N",
		"longitude": "81-3-48.66 W",
		"state": "NORTH CAROLINA",
		"artcc": "ZTL",
		"type": "RNAV",
		"updated": "06/12/2014",
	},
	{
		"name": "TEMPO",
		"latitude": "33-36-40.69 N",
		"longitude": "85-2-19.09 W",
		"state": "GEORGIA",
		"artcc": "ZTL",
		"type": "RP",
		"updated": "RMG*VORTAC*172.01/33.26",
	},
	{
		"name": "TENKE",
		"latitude": "34-8-15.79 N",
		"longitude": "85-29-49.9 W",
		"state": "ALABAMA",
		"artcc": "ZTL",
		"type": "RNAV",
		"updated": "01/30/2012",
	},
	{
		"name": "TENOC",
		"latitude": "35-16-50.81 N",
		"longitude": "86-4-50.83 W",
		"state": "TENNESSEE",
		"artcc": "ZME",
		"type": "RNAV",
		"updated": "01/09/2001",
	},
	{
		"name": "TENSE",
		"latitude": "34-18-31.07 N",
		"longitude": "83-8-40.08 W",
		"state": "GEORGIA",
		"artcc": "ZTL",
		"type": "RNAV",
		"updated": "08/15/2016",
	},
	{
		"name": "TEPDE",
		"latitude": "33-45-5.45 N",
		"longitude": "81-55-39.18 W",
		"state": "SOUTH CAROLINA",
		"artcc": "ZTL",
		"type": "RNAV",
		"updated": "01/07/2010",
	},
	{
		"name": "TEQNU",
		"latitude": "32-31-54 N",
		"longitude": "86-5-22.37 W",
		"state": "ALABAMA",
		"artcc": "ZTL",
		"type": "RNAV",
		"updated": "04/17/2010",
	},
	{
		"name": "TERIE",
		"latitude": "34-53-34.94 N",
		"longitude": "80-37-17.31 W",
		"state": "NORTH CAROLINA",
		"artcc": "ZTL",
		"type": "RNAV",
		"updated": "06/20/2017",
	},
	{
		"name": "TERII",
		"latitude": "33-28-34.86 N",
		"longitude": "83-57-9.34 W",
		"state": "GEORGIA",
		"artcc": "ZTL",
		"type": "RP",
		"updated": "03/28/2013",
	},
	{
		"name": "TERYO",
		"latitude": "34-21-11.5 N",
		"longitude": "86-56-1.48 W",
		"state": "ALABAMA",
		"artcc": "ZME",
		"type": "RNAV",
		"updated": "11/03/2014",
	},
	{
		"name": "TESLY",
		"latitude": "34-28-56.08 N",
		"longitude": "83-18-14.6 W",
		"state": "GEORGIA",
		"artcc": "ZTL",
		"type": "RP",
		"updated": "ODF*VORTAC*181.42/12.80",
	},
	{
		"name": "TESQE",
		"latitude": "32-31-43.2 N",
		"longitude": "86-24-7.54 W",
		"state": "ALABAMA",
		"artcc": "ZTL",
		"type": "RNAV",
		"updated": "04/17/2010",
	},
	{
		"name": "TESYO",
		"latitude": "35-29-37.55 N",
		"longitude": "85-21-8.23 W",
		"state": "TENNESSEE",
		"artcc": "ZME",
		"type": "RNAV",
		"updated": "01/18/2001",
	},
	{
		"name": "TETCO",
		"latitude": "35-27-36.78 N",
		"longitude": "86-14-37.73 W",
		"state": "TENNESSEE",
		"artcc": "ZME",
		"type": "RNAV",
		"updated": "06/29/2011",
	},
	{
		"name": "TFALS",
		"latitude": "34-15-27.62 N",
		"longitude": "84-6-5.84 W",
		"state": "GEORGIA",
		"artcc": "ZTL",
		"type": "RNAV",
		"updated": "07/26/2016",
	},
	{
		"name": "THACK",
		"latitude": "35-29-20.19 N",
		"longitude": "81-9-14.41 W",
		"state": "NORTH CAROLINA",
		"artcc": "ZTL",
		"type": "RNAV",
		"updated": "05/13/2016",
	},
	{
		"name": "THERZ",
		"latitude": "36-16-42.03 N",
		"longitude": "82-58-48.9 W",
		"state": "TENNESSEE",
		"artcc": "ZTL",
		"type": "RNAV",
		"updated": "07/26/2016",
	},
	{
		"name": "THEWY",
		"latitude": "34-49-14.15 N",
		"longitude": "82-53-47.73 W",
		"state": "SOUTH CAROLINA",
		"artcc": "ZTL",
		"type": "RNAV",
		"updated": "04/13/2017",
	},
	{
		"name": "THHUD",
		"latitude": "31-50-50 N",
		"longitude": "83-46-46 W",
		"state": "GEORGIA",
		"artcc": "ZJX",
		"type": "RNAV",
		"updated": "08/22/2017",
	},
	{
		"name": "THMSN",
		"latitude": "35-53-20.51 N",
		"longitude": "80-28-56.91 W",
		"state": "NORTH CAROLINA",
		"artcc": "ZTL",
		"type": "RNAV",
		"updated": "04/09/2014",
	},
	{
		"name": "THUDS",
		"latitude": "34-7-34.35 N",
		"longitude": "83-8-24.41 W",
		"state": "GEORGIA",
		"artcc": "ZTL",
		"type": "RNAV",
		"updated": "09/09/2015",
	},
	{
		"name": "THURM",
		"latitude": "33-45-34.02 N",
		"longitude": "81-55-33.62 W",
		"state": "SOUTH CAROLINA",
		"artcc": "ZTL",
		"type": "RNAV",
		"updated": "09/15/2010",
	},
	{
		"name": "TIELR",
		"latitude": "36-44-40.11 N",
		"longitude": "82-52-44 W",
		"state": "VIRGINIA",
		"artcc": "ZTL",
		"type": "RNAV",
		"updated": "06/25/2015",
	},
	{
		"name": "TIGNA",
		"latitude": "33-49-56.96 N",
		"longitude": "82-45-36.51 W",
		"state": "GEORGIA",
		"artcc": "ZTL",
		"type": "RP",
		"updated": "IRQ*VORTAC*288.23/30.84",
	},
	{
		"name": "TIINI",
		"latitude": "33-41-53.89 N",
		"longitude": "85-3-4.84 W",
		"state": "GEORGIA",
		"artcc": "ZTL",
		"type": "RP",
		"updated": "RMG*VORTAC*172.01/28.01",
	},
	{
		"name": "TIKUC",
		"latitude": "33-54-55.79 N",
		"longitude": "84-10-1.43 W",
		"state": "GEORGIA",
		"artcc": "ZTL",
		"type": "RP",
		"updated": "PDK*VOR/DME*075.02/7.00",
	},
	{
		"name": "TILYU",
		"latitude": "36-32-6.45 N",
		"longitude": "83-28-24.44 W",
		"state": "TENNESSEE",
		"artcc": "ZTL",
		"type": "RNAV",
		"updated": "01/13/2017",
	},
	{
		"name": "TIMMY",
		"latitude": "32-48-1.37 N",
		"longitude": "85-32-41.09 W",
		"state": "ALABAMA",
		"artcc": "ZTL",
		"type": "RP",
		"updated": "MGM*VORTAC*045.43/52.39",
	},
	{
		"name": "TINAE",
		"latitude": "35-25-53.17 N",
		"longitude": "86-13-31.6 W",
		"state": "TENNESSEE",
		"artcc": "ZME",
		"type": "RNAV",
		"updated": "07/25/2011",
	},
	{
		"name": "TINCO",
		"latitude": "35-0-57.88 N",
		"longitude": "85-38-9.02 W",
		"state": "TENNESSEE",
		"artcc": "ZME",
		"type": "RNAV",
		"updated": "01/10/2001",
	},
	{
		"name": "TIPDY",
		"latitude": "35-4-38.82 N",
		"longitude": "81-2-7.92 W",
		"state": "NORTH CAROLINA",
		"artcc": "ZTL",
		"type": "RNAV",
		"updated": "07/12/2011",
	},
	{
		"name": "TIPPN",
		"latitude": "35-23-8.28 N",
		"longitude": "86-23-32.15 W",
		"state": "TENNESSEE",
		"artcc": "ZME",
		"type": "RNAV",
		"updated": "09/17/2012",
	},
	{
		"name": "TIPPY",
		"latitude": "34-6-8.49 N",
		"longitude": "84-54-38.78 W",
		"state": "GEORGIA",
		"artcc": "ZTL",
		"type": "RP",
		"updated": "RMG*VORTAC*108.08/11.00",
	},
	{
		"name": "TIROE",
		"latitude": "33-18-23.23 N",
		"longitude": "84-51-57.71 W",
		"state": "GEORGIA",
		"artcc": "ZTL",
		"type": "RP",
		"updated": "RMG*VORTAC*165.04/52.82",
	},
	{
		"name": "TISOE",
		"latitude": "35-3-17.62 N",
		"longitude": "83-12-30.2 W",
		"state": "NORTH CAROLINA",
		"artcc": "ZTL",
		"type": "RNAV",
		"updated": "02/06/2003",
	},
	{
		"name": "TISUC",
		"latitude": "33-55-30.65 N",
		"longitude": "84-49-59.61 W",
		"state": "GEORGIA",
		"artcc": "ZTL",
		"type": "RNAV",
		"updated": "01/30/2009",
	},
	{
		"name": "TIVIL",
		"latitude": "35-1-19.99 N",
		"longitude": "82-20-38.27 W",
		"state": "SOUTH CAROLINA",
		"artcc": "ZTL",
		"type": "RNAV",
		"updated": "04/20/2015",
	},
	{
		"name": "TIZRA",
		"latitude": "32-22-51.33 N",
		"longitude": "83-10-58.69 W",
		"state": "GEORGIA",
		"artcc": "ZTL",
		"type": "RNAV",
		"updated": "09/15/2009",
	},
	{
		"name": "TIZZY",
		"latitude": "33-20-12.5 N",
		"longitude": "84-0-48.96 W",
		"state": "GEORGIA",
		"artcc": "ZTL",
		"type": "RNAV",
		"updated": "08/22/2017",
	},
	{
		"name": "TMALL",
		"latitude": "32-35-30.07 N",
		"longitude": "85-19-54.52 W",
		"state": "ALABAMA",
		"artcc": "ZTL",
		"type": "RNAV",
		"updated": "06/18/2012",
	},
	{
		"name": "TMMEL",
		"latitude": "35-52-23.82 N",
		"longitude": "84-59-25.88 W",
		"state": "TENNESSEE",
		"artcc": "ZTL",
		"type": "RNAV",
		"updated": "11/15/2011",
	},
	{
		"name": "TNSLY",
		"latitude": "35-5-41.78 N",
		"longitude": "82-0-1.14 W",
		"state": "SOUTH CAROLINA",
		"artcc": "ZTL",
		"type": "RNAV",
		"updated": "06/25/2015",
	},
	{
		"name": "TOBAY",
		"latitude": "35-11-35.54 N",
		"longitude": "85-38-38.76 W",
		"state": "TENNESSEE",
		"artcc": "ZME",
		"type": "RP",
		"updated": "HCH*VOR/DME*225.00",
	},
	{
		"name": "TOBSE",
		"latitude": "32-40-40.86 N",
		"longitude": "85-39-35.28 W",
		"state": "ALABAMA",
		"artcc": "ZTL",
		"type": "RNAV",
		"updated": "06/11/2012",
	},
	{
		"name": "TOCPO",
		"latitude": "34-47-44.52 N",
		"longitude": "80-52-2.69 W",
		"state": "SOUTH CAROLINA",
		"artcc": "ZTL",
		"type": "RP",
		"updated": "CLT*VOR/DME*175.00/24.00",
	},
	{
		"name": "TODEN",
		"latitude": "35-45-7.99 N",
		"longitude": "80-7-18.46 W",
		"state": "NORTH CAROLINA",
		"artcc": "ZTL",
		"type": "RP",
		"updated": "LIB*VORTAC*265.00",
	},
	{
		"name": "TODTI",
		"latitude": "34-59-7.98 N",
		"longitude": "84-21-3.59 W",
		"state": "TENNESSEE",
		"artcc": "ZTL",
		"type": "RNAV",
		"updated": "01/09/2001",
	},
	{
		"name": "TOGBE",
		"latitude": "32-55-33.72 N",
		"longitude": "85-7-8 W",
		"state": "GEORGIA",
		"artcc": "ZTL",
		"type": "RNAV",
		"updated": "02/22/2010",
	},
	{
		"name": "TOGPE",
		"latitude": "35-5-10.43 N",
		"longitude": "83-57-54.27 W",
		"state": "NORTH CAROLINA",
		"artcc": "ZTL",
		"type": "RNAV",
		"updated": "10/21/2014",
	},
	{
		"name": "TOJVU",
		"latitude": "34-27-5.44 N",
		"longitude": "85-44-34.4 W",
		"state": "ALABAMA",
		"artcc": "ZTL",
		"type": "RNAV",
		"updated": "01/09/2001",
	},
	{
		"name": "TOJXE",
		"latitude": "34-39-40.18 N",
		"longitude": "86-1-49.42 W",
		"state": "ALABAMA",
		"artcc": "ZTL",
		"type": "RNAV",
		"updated": "01/09/2001",
	},
	{
		"name": "TOMME",
		"latitude": "35-26-43.3 N",
		"longitude": "80-58-19.13 W",
		"state": "NORTH CAROLINA",
		"artcc": "ZTL",
		"type": "RP",
		"updated": "BZM*VOR/DME*158.56/28.57",
	},
	{
		"name": "TOMSE",
		"latitude": "34-9-35.56 N",
		"longitude": "84-35-9.27 W",
		"state": "GEORGIA",
		"artcc": "ZTL",
		"type": "RNAV",
		"updated": "07/19/2011",
	},
	{
		"name": "TORRO",
		"latitude": "33-4-43.19 N",
		"longitude": "82-0-49.74 W",
		"state": "GEORGIA",
		"artcc": "ZTL",
		"type": "RNAV",
		"updated": "01/14/2003",
	},
	{
		"name": "TOTUY",
		"latitude": "36-37-41.51 N",
		"longitude": "80-49-11.92 W",
		"state": "VIRGINIA",
		"artcc": "ZTL",
		"type": "RNAV",
		"updated": "03/19/2012",
	},
	{
		"name": "TOXJI",
		"latitude": "36-21-49.1 N",
		"longitude": "83-40-30.61 W",
		"state": "TENNESSEE",
		"artcc": "ZTL",
		"type": "RNAV",
		"updated": "04/18/2014",
	},
	{
		"name": "TOXOZ",
		"latitude": "34-0-24.72 N",
		"longitude": "83-30-43.57 W",
		"state": "GEORGIA",
		"artcc": "ZTL",
		"type": "RP",
		"updated": "AHN*VOR/DME*290.85/10.00",
	},
	{
		"name": "TOYOT",
		"latitude": "32-26-55.34 N",
		"longitude": "83-58-13.56 W",
		"state": "GEORGIA",
		"artcc": "ZTL",
		"type": "RP",
		"updated": "VNA*VORTAC*299.48/27.88",
	},
	{
		"name": "TRAKS",
		"latitude": "36-8-5.89 N",
		"longitude": "80-41-15.52 W",
		"state": "NORTH CAROLINA",
		"artcc": "ZTL",
		"type": "RP",
		"updated": "GSO*VORTAC*282.00/35.00",
	},
	{
		"name": "TRALZ",
		"latitude": "34-59-30.78 N",
		"longitude": "83-40-31.59 W",
		"state": "NORTH CAROLINA",
		"artcc": "ZTL",
		"type": "RNAV",
		"updated": "07/26/2016",
	},
	{
		"name": "TRAPE",
		"latitude": "33-43-57.33 N",
		"longitude": "84-42-58.2 W",
		"state": "GEORGIA",
		"artcc": "ZTL",
		"type": "RNAV",
		"updated": "05/04/2015",
	},
	{
		"name": "TRAPI",
		"latitude": "33-29-44.81 N",
		"longitude": "83-9-41.23 W",
		"state": "GEORGIA",
		"artcc": "ZTL",
		"type": "RP",
		"updated": "AHN*VOR/DME*163.15/28.27",
	},
	{
		"name": "TRAYE",
		"latitude": "33-36-31.83 N",
		"longitude": "81-52-11.84 W",
		"state": "SOUTH CAROLINA",
		"artcc": "ZTL",
		"type": "RNAV",
		"updated": "11/29/2017",
	},
	{
		"name": "TRBOW",
		"latitude": "33-23-11.9 N",
		"longitude": "83-39-40.14 W",
		"state": "GEORGIA",
		"artcc": "ZTL",
		"type": "RP",
		"updated": "DBN*VORTAC*324.83/64.73",
	},
	{
		"name": "TREAD",
		"latitude": "33-45-50.87 N",
		"longitude": "82-3-4.52 W",
		"state": "SOUTH CAROLINA",
		"artcc": "ZTL",
		"type": "RP",
		"updated": "GRD*VORTAC*171.00",
	},
	{
		"name": "TRIES",
		"latitude": "36-28-45.18 N",
		"longitude": "82-20-31.46 W",
		"state": "TENNESSEE",
		"artcc": "ZTL",
		"type": "RNAV",
		"updated": "07/17/2017",
	},
	{
		"name": "TRILE",
		"latitude": "33-15-46.49 N",
		"longitude": "84-51-3.74 W",
		"state": "GEORGIA",
		"artcc": "ZTL",
		"type": "RP",
		"updated": "LGC*VORTAC*053.31/22.00",
	},
	{
		"name": "TROFY",
		"latitude": "33-23-25.73 N",
		"longitude": "84-15-40.26 W",
		"state": "GEORGIA",
		"artcc": "ZTL",
		"type": "RNAV",
		"updated": "12/09/2015",
	},
	{
		"name": "TROYS",
		"latitude": "33-52-46.3 N",
		"longitude": "84-26-6.26 W",
		"state": "GEORGIA",
		"artcc": "ZTL",
		"type": "RP",
		"updated": "RMG*VORTAC*115.22/38.11",
	},
	{
		"name": "TRPLE",
		"latitude": "33-43-15.98 N",
		"longitude": "82-3-48.7 W",
		"state": "SOUTH CAROLINA",
		"artcc": "ZTL",
		"type": "RNAV",
		"updated": "12/20/2007",
	},
	{
		"name": "TRREE",
		"latitude": "33-47-14.78 N",
		"longitude": "82-55-30.22 W",
		"state": "GEORGIA",
		"artcc": "ZTL",
		"type": "RNAV",
		"updated": "01/31/2014",
	},
	{
		"name": "TRSHA",
		"latitude": "36-20-34.68 N",
		"longitude": "80-25-59.56 W",
		"state": "NORTH CAROLINA",
		"artcc": "ZTL",
		"type": "RNAV",
		"updated": "11/10/2016",
	},
	{
		"name": "TRUET",
		"latitude": "32-18-4.71 N",
		"longitude": "82-35-9.31 W",
		"state": "GEORGIA",
		"artcc": "ZJX",
		"type": "RP",
		"updated": "DBN*VORTAC*146.64/20.00",
	},
	{
		"name": "TRUST",
		"latitude": "33-38-21.99 N",
		"longitude": "86-36-58.83 W",
		"state": "ALABAMA",
		"artcc": "ZTL",
		"type": "RP",
		"updated": "GAD*VOR/DME*231.00/33.42",
	},
	{
		"name": "TSKGE",
		"latitude": "32-35-45.77 N",
		"longitude": "85-52-45.22 W",
		"state": "ALABAMA",
		"artcc": "ZTL",
		"type": "RNAV",
		"updated": "07/11/2011",
	},
	{
		"name": "TUANN",
		"latitude": "33-40-16.64 N",
		"longitude": "84-15-28.65 W",
		"state": "GEORGIA",
		"artcc": "ZTL",
		"type": "RNAV",
		"updated": "12/09/2015",
	},
	{
		"name": "TUCKR",
		"latitude": "33-45-8.67 N",
		"longitude": "83-50-54.2 W",
		"state": "GEORGIA",
		"artcc": "ZTL",
		"type": "RP",
		"updated": "AHN*VOR/DME*246.07/28.66",
	},
	{
		"name": "TUCOP",
		"latitude": "34-49-30.23 N",
		"longitude": "81-27-37.66 W",
		"state": "SOUTH CAROLINA",
		"artcc": "ZTL",
		"type": "RNAV",
		"updated": "07/05/2013",
	},
	{
		"name": "TUDAY",
		"latitude": "33-47-22.97 N",
		"longitude": "83-23-23.61 W",
		"state": "GEORGIA",
		"artcc": "ZTL",
		"type": "RP",
		"updated": "AHN*VOR/DME*199.01/10.00",
	},
	{
		"name": "TUFTY",
		"latitude": "32-36-1.44 N",
		"longitude": "82-58-12.06 W",
		"state": "GEORGIA",
		"artcc": "ZTL",
		"type": "RNAV",
		"updated": "06/01/2016",
	},
	{
		"name": "TUGIE",
		"latitude": "32-4-13.71 N",
		"longitude": "87-20-26.11 W",
		"state": "ALABAMA",
		"artcc": "ZTL",
		"type": "RNAV",
		"updated": "12/01/2016",
	},
	{
		"name": "TUGOC",
		"latitude": "33-56-28.69 N",
		"longitude": "83-7-28.4 W",
		"state": "GEORGIA",
		"artcc": "ZTL",
		"type": "RP",
		"updated": "AHN*VOR/DME*092.10/10.00",
	},
	{
		"name": "TUKUC",
		"latitude": "34-31-50.5 N",
		"longitude": "82-43-15.56 W",
		"state": "SOUTH CAROLINA",
		"artcc": "ZTL",
		"type": "RNAV",
		"updated": "09/25/2013",
	},
	{
		"name": "TURGE",
		"latitude": "35-19-19.34 N",
		"longitude": "86-30-53.54 W",
		"state": "TENNESSEE",
		"artcc": "ZME",
		"type": "RP",
		"updated": "ULH*NDB*241.12",
	},
	{
		"name": "TUSDE",
		"latitude": "34-6-7.25 N",
		"longitude": "82-52-9.47 W",
		"state": "GEORGIA",
		"artcc": "ZTL",
		"type": "RNAV",
		"updated": "10/31/2013",
	},
	{
		"name": "TUSKE",
		"latitude": "33-9-33.92 N",
		"longitude": "87-40-17.79 W",
		"state": "ALABAMA",
		"artcc": "ZTL",
		"type": "RNAV",
		"updated": "09/16/2014",
	},
	{
		"name": "TUSRE",
		"latitude": "35-40-8.4 N",
		"longitude": "82-7-33.61 W",
		"state": "NORTH CAROLINA",
		"artcc": "ZTL",
		"type": "RNAV",
		"updated": "08/12/2010",
	},
	{
		"name": "TUXDO",
		"latitude": "35-8-23.51 N",
		"longitude": "82-24-33.52 W",
		"state": "SOUTH CAROLINA",
		"artcc": "ZTL",
		"type": "RP",
		"updated": "SPA*VORTAC*287.14",
	},
	{
		"name": "TUYUG",
		"latitude": "34-29-48.54 N",
		"longitude": "84-58-6.03 W",
		"state": "GEORGIA",
		"artcc": "ZTL",
		"type": "RNAV",
		"updated": "01/29/2009",
	},
	{
		"name": "TUYUV",
		"latitude": "34-25-5.95 N",
		"longitude": "85-10-5.89 W",
		"state": "GEORGIA",
		"artcc": "ZTL",
		"type": "RP",
		"updated": "RMG*VORTAC*350.00/15.51",
	},
	{
		"name": "TUZKO",
		"latitude": "34-41-55.24 N",
		"longitude": "83-14-29.6 W",
		"state": "SOUTH CAROLINA",
		"artcc": "ZTL",
		"type": "RNAV",
		"updated": "09/22/2011",
	},
	{
		"name": "TWINS",
		"latitude": "32-46-42.75 N",
		"longitude": "82-18-43.85 W",
		"state": "GEORGIA",
		"artcc": "ZTL",
		"type": "RP",
		"updated": "IRQ*VORTAC*191.78/56.13",
	},
	{
		"name": "TWOUP",
		"latitude": "33-53-45.39 N",
		"longitude": "83-49-8.39 W",
		"state": "GEORGIA",
		"artcc": "ZTL",
		"type": "RNAV",
		"updated": "01/22/2014",
	},
	{
		"name": "TYFTR",
		"latitude": "32-24-13.44 N",
		"longitude": "82-7-12 W",
		"state": "GEORGIA",
		"artcc": "ZTL",
		"type": "RNAV",
		"updated": "08/22/2017",
	},
	{
		"name": "TYGRR",
		"latitude": "33-35-2.25 N",
		"longitude": "82-50-42.2 W",
		"state": "GEORGIA",
		"artcc": "ZTL",
		"type": "RP",
		"updated": "IRQ*VORTAC*262.00/35.00",
	},
	{
		"name": "TYMER",
		"latitude": "34-48-37.6 N",
		"longitude": "80-32-23.41 W",
		"state": "SOUTH CAROLINA",
		"artcc": "ZTL",
		"type": "RNAV",
		"updated": "07/24/2017",
	},
	{
		"name": "TYRES",
		"latitude": "34-27-33.06 N",
		"longitude": "81-59-10.46 W",
		"state": "SOUTH CAROLINA",
		"artcc": "ZTL",
		"type": "RNAV",
		"updated": "11/10/2016",
	},
	{
		"name": "TYRNN",
		"latitude": "33-27-24.46 N",
		"longitude": "84-30-45.76 W",
		"state": "GEORGIA",
		"artcc": "ZTL",
		"type": "RNAV",
		"updated": "12/29/2015",
	},
