[
	{
		"name": "VACEE",
		"latitude": "35-15-28.95 N",
		"longitude": "80-56-20.44 W",
		"state": "NORTH CAROLINA",
		"artcc": "ZTL",
		"type": "RNAV",
		"updated": "06/27/2001"
	},
	{
		"name": "VACUN",
		"latitude": "32-5-8.1 N",
		"longitude": "82-42-51.3 W",
		"state": "GEORGIA",
		"artcc": "ZJX",
		"type": "RNAV",
		"updated": "06/16/2008"
	},
	{
		"name": "VAESE",
		"latitude": "35-43-51.8 N",
		"longitude": "81-33-0.91 W",
		"state": "NORTH CAROLINA",
		"artcc": "ZTL",
		"type": "RP",
		"updated": "BZM*VOR/DME*247.45/17.22"
	},
	{
		"name": "VALLL",
		"latitude": "35-3-54.4 N",
		"longitude": "81-3-18.39 W",
		"state": "NORTH CAROLINA",
		"artcc": "ZTL",
		"type": "RNAV",
		"updated": "06/20/2017"
	},
	{
		"name": "VARNM",
		"latitude": "34-17-1.09 N",
		"longitude": "84-35-39.23 W",
		"state": "GEORGIA",
		"artcc": "ZTL",
		"type": "RNAV",
		"updated": "05/17/2016"
	},
	{
		"name": "VAYKU",
		"latitude": "34-25-6.06 N",
		"longitude": "84-56-2.25 W",
		"state": "GEORGIA",
		"artcc": "ZTL",
		"type": "RNAV",
		"updated": "01/29/2009"
	},
	{
		"name": "VEMSY",
		"latitude": "36-24-24.4 N",
		"longitude": "83-0-50.46 W",
		"state": "TENNESSEE",
		"artcc": "ZTL",
		"type": "RNAV",
		"updated": "07/12/2017"
	},
	{
		"name": "VERAL",
		"latitude": "36-29-24.38 N",
		"longitude": "82-12-49.84 W",
		"state": "TENNESSEE",
		"artcc": "ZTL",
		"type": "RP",
		"updated": "GZG*VOR/DME*200.01"
	},
	{
		"name": "VESTO",
		"latitude": "33-55-55.96 N",
		"longitude": "82-51-5.62 W",
		"state": "GEORGIA",
		"artcc": "ZTL",
		"type": "RP",
		"updated": "AHN*VOR/DME*092.10/23.64"
	},
	{
		"name": "VETPY",
		"latitude": "34-51-39.7 N",
		"longitude": "82-0-55.41 W",
		"state": "SOUTH CAROLINA",
		"artcc": "ZTL",
		"type": "RNAV",
		"updated": "11/07/2011"
	},
	{
		"name": "VEYUY",
		"latitude": "34-22-0.98 N",
		"longitude": "85-6-16.16 W",
		"state": "GEORGIA",
		"artcc": "ZTL",
		"type": "RNAV",
		"updated": "01/29/2009"
	},
	{
		"name": "VICTU",
		"latitude": "33-57-30.87 N",
		"longitude": "84-0-36.38 W",
		"state": "GEORGIA",
		"artcc": "ZTL",
		"type": "RP",
		"updated": "ATL*VORTAC*052.00/29.00"
	},
	{
		"name": "VIDJO",
		"latitude": "35-3-32.48 N",
		"longitude": "86-59-52.72 W",
		"state": "TENNESSEE",
		"artcc": "ZME",
		"type": "RNAV",
		"updated": "09/27/2011"
	},
	{
		"name": "VIDUC",
		"latitude": "31-57-16.67 N",
		"longitude": "82-42-53.2 W",
		"state": "GEORGIA",
		"artcc": "ZJX",
		"type": "RNAV",
		"updated": "06/16/2008"
	},
	{
		"name": "VIEWS",
		"latitude": "35-35-49.52 N",
		"longitude": "82-24-50.69 W",
		"state": "NORTH CAROLINA",
		"artcc": "ZTL",
		"type": "RNAV",
		"updated": "07/26/2016"
	},
	{
		"name": "VIMIW",
		"latitude": "36-43-6.59 N",
		"longitude": "81-58-31.55 W",
		"state": "VIRGINIA",
		"artcc": "ZTL",
		"type": "RNAV",
		"updated": "08/30/2017"
	},
	{
		"name": "VINII",
		"latitude": "33-38-4.74 N",
		"longitude": "84-32-59.43 W",
		"state": "GEORGIA",
		"artcc": "ZTL",
		"type": "RP",
		"updated": "FT*NDB*154.69"
	},
	{
		"name": "VIPRR",
		"latitude": "31-39-10.5 N",
		"longitude": "84-50-29.91 W",
		"state": "GEORGIA",
		"artcc": "ZJX",
		"type": "RNAV",
		"updated": "02/11/2011"
	},
	{
		"name": "VIRUY",
		"latitude": "34-21-33.49 N",
		"longitude": "85-9-25.18 W",
		"state": "GEORGIA",
		"artcc": "ZTL",
		"type": "RP",
		"updated": "RMG*VORTAC*350.00/11.93"
	},
	{
		"name": "VIVIC",
		"latitude": "34-16-31.93 N",
		"longitude": "84-22-24.47 W",
		"state": "GEORGIA",
		"artcc": "ZTL",
		"type": "RNAV",
		"updated": "08/20/2007"
	},
	{
		"name": "VIXLY",
		"latitude": "33-33-1.04 N",
		"longitude": "81-53-46.47 W",
		"state": "SOUTH CAROLINA",
		"artcc": "ZTL",
		"type": "RP",
		"updated": "CAE*VORTAC*248.68"
	},
	{
		"name": "VOLTS",
		"latitude": "33-55-3.79 N",
		"longitude": "84-4-42.71 W",
		"state": "GEORGIA",
		"artcc": "ZTL",
		"type": "RNAV",
		"updated": "08/22/2017"
	},
	{
		"name": "VOLVY",
		"latitude": "32-46-47.44 N",
		"longitude": "82-54-28.21 W",
		"state": "GEORGIA",
		"artcc": "ZTL",
		"type": "RNAV",
		"updated": "06/01/2016"
	},
	{
		"name": "VORTX",
		"latitude": "34-14-24.17 N",
		"longitude": "85-15-11.47 W",
		"state": "ALABAMA",
		"artcc": "ZTL",
		"type": "RNAV",
		"updated": "07/25/2016"
	},
	{
		"name": "VOTES",
		"latitude": "33-29-26.63 N",
		"longitude": "84-30-18.52 W",
		"state": "GEORGIA",
		"artcc": "ZTL",
		"type": "RP",
		"updated": "ATL*VORTAC*203.00/9.00"
	},
	{
		"name": "VOTUC",
		"latitude": "32-23-6.22 N",
		"longitude": "84-14-42.91 W",
		"state": "GEORGIA",
		"artcc": "ZTL",
		"type": "RNAV",
		"updated": "07/11/2013"
	},
	{
		"name": "VOYUD",
		"latitude": "34-54-30.29 N",
		"longitude": "86-36-20.8 W",
		"state": "ALABAMA",
		"artcc": "ZME",
		"type": "RP",
		"updated": "DCU*VOR/DME*047.54/22.69"
	},
	{
		"name": "VOYUR",
		"latitude": "35-44-10.03 N",
		"longitude": "84-4-54.72 W",
		"state": "TENNESSEE",
		"artcc": "ZTL",
		"type": "RNAV",
		"updated": "05/18/2015"
	},
	{
		"name": "VPCPR",
		"latitude": "33-28-0 N",
		"longitude": "84-10-0 W",
		"state": "GEORGIA",
		"artcc": "ZTL",
		"type": "VFR",
		"updated": "01/10/2013"
	},
	{
		"name": "VPDEU",
		"latitude": "33-38-0 N",
		"longitude": "84-10-0 W",
		"state": "GEORGIA",
		"artcc": "ZTL",
		"type": "VFR",
		"updated": "01/10/2013"
	},
	{
		"name": "VPENO",
		"latitude": "34-39-11 N",
		"longitude": "81-58-1 W",
		"state": "SOUTH CAROLINA",
		"artcc": "ZTL",
		"type": "VFR",
		"updated": "04/30/2015"
	},
	{
		"name": "VPFRH",
		"latitude": "33-45-0 N",
		"longitude": "84-12-0 W",
		"state": "GEORGIA",
		"artcc": "ZTL",
		"type": "VFR",
		"updated": "01/10/2013"
	},
	{
		"name": "VPGHT",
		"latitude": "33-28-0 N",
		"longitude": "83-58-0 W",
		"state": "GEORGIA",
		"artcc": "ZTL",
		"type": "VFR",
		"updated": "01/10/2013"
	},
	{
		"name": "VPHUB",
		"latitude": "33-48-22 N",
		"longitude": "83-57-25 W",
		"state": "GEORGIA",
		"artcc": "ZTL",
		"type": "VFR",
		"updated": "01/10/2013"
	},
	{
		"name": "VPJBF",
		"latitude": "33-28-0 N",
		"longitude": "84-42-30 W",
		"state": "GEORGIA",
		"artcc": "ZTL",
		"type": "VFR",
		"updated": "01/11/2013"
	},
	{
		"name": "VPKNM",
		"latitude": "33-38-0 N",
		"longitude": "84-42-30 W",
		"state": "GEORGIA",
		"artcc": "ZTL",
		"type": "VFR",
		"updated": "01/10/2013"
	},
	{
		"name": "VPLOW",
		"latitude": "34-46-42.85 N",
		"longitude": "82-18-35.74 W",
		"state": "SOUTH CAROLINA",
		"artcc": "ZTL",
		"type": "VFR",
		"updated": "11/22/2017"
	},
	{
		"name": "VPLRF",
		"latitude": "33-45-0 N",
		"longitude": "84-40-0 W",
		"state": "GEORGIA",
		"artcc": "ZTL",
		"type": "VFR",
		"updated": "01/10/2013"
	},
	{
		"name": "VPMNG",
		"latitude": "33-28-0 N",
		"longitude": "84-55-0 W",
		"state": "GEORGIA",
		"artcc": "ZTL",
		"type": "VFR",
		"updated": "01/10/2013"
	},
	{
		"name": "VPWLW",
		"latitude": "34-32-53 N",
		"longitude": "81-59-56 W",
		"state": "SOUTH CAROLINA",
		"artcc": "ZTL",
		"type": "VFR",
		"updated": "04/30/2015"
	},
	{
		"name": "VRGIL",
		"latitude": "37-4-37.25 N",
		"longitude": "80-46-30.82 W",
		"state": "VIRGINIA",
		"artcc": "ZTL",
		"type": "RNAV",
		"updated": "04/15/2011"
	},
	{
		"name": "VRSTY",
		"latitude": "33-5-3.05 N",
		"longitude": "83-58-29.17 W",
		"state": "GEORGIA",
		"artcc": "ZTL",
		"type": "RNAV",
		"updated": "05/17/2016"
	},
	{
		"name": "VUNUY",
		"latitude": "34-10-19.16 N",
		"longitude": "85-26-16.21 W",
		"state": "GEORGIA",
		"artcc": "ZTL",
		"type": "RNAV",
		"updated": "06/10/2011"
	}
]
