	{
		"name": "WABDO",
		"latitude": "36-46-3.43 N",
		"longitude": "80-20-11.97 W",
		"state": "VIRGINIA",
		"artcc": "ZTL",
		"type": "RNAV",
		"updated": "11/26/2002",
	},
	{
		"name": "WABUP",
		"latitude": "36-33-10.81 N",
		"longitude": "83-55-4.15 W",
		"state": "TENNESSEE",
		"artcc": "ZTL",
		"type": "RNAV",
		"updated": "09/03/2014",
	},
	{
		"name": "WADAV",
		"latitude": "35-9-46.44 N",
		"longitude": "81-10-33.42 W",
		"state": "NORTH CAROLINA",
		"artcc": "ZTL",
		"type": "RNAV",
		"updated": "11/03/2006",
	},
	{
		"name": "WADAX",
		"latitude": "33-9-8.98 N",
		"longitude": "83-10-58.11 W",
		"state": "GEORGIA",
		"artcc": "ZTL",
		"type": "RNAV",
		"updated": "06/21/2010",
	},
	{
		"name": "WADEG",
		"latitude": "33-38-22.06 N",
		"longitude": "86-58-27.84 W",
		"state": "ALABAMA",
		"artcc": "ZTL",
		"type": "RNAV",
		"updated": "04/08/2016",
	},
	{
		"name": "WAGOD",
		"latitude": "35-56-35.81 N",
		"longitude": "84-30-17.51 W",
		"state": "TENNESSEE",
		"artcc": "ZTL",
		"type": "RNAV",
		"updated": "01/14/2003",
	},
	{
		"name": "WAGUL",
		"latitude": "35-31-49.14 N",
		"longitude": "80-57-56.18 W",
		"state": "NORTH CAROLINA",
		"artcc": "ZTL",
		"type": "RNAV",
		"updated": "01/13/2011",
	},
	{
		"name": "WAGUS",
		"latitude": "32-52-58.09 N",
		"longitude": "84-52-26.85 W",
		"state": "GEORGIA",
		"artcc": "ZTL",
		"type": "RNAV",
		"updated": "03/03/2010",
	},
	{
		"name": "WAKIM",
		"latitude": "36-1-59.91 N",
		"longitude": "80-11-26.29 W",
		"state": "NORTH CAROLINA",
		"artcc": "ZTL",
		"type": "RNAV",
		"updated": "09/17/2009",
	},
	{
		"name": "WAKIS",
		"latitude": "37-14-19.29 N",
		"longitude": "80-48-6.12 W",
		"state": "VIRGINIA",
		"artcc": "ZTL",
		"type": "RP",
		"updated": "PSK*VORTAC*340.82/10.00",
	},
	{
		"name": "WAKUR",
		"latitude": "36-0-12.85 N",
		"longitude": "83-10-53.06 W",
		"state": "TENNESSEE",
		"artcc": "ZTL",
		"type": "RNAV",
		"updated": "04/27/2018",
	},
	{
		"name": "WALET",
		"latitude": "32-21-55.83 N",
		"longitude": "83-54-47.1 W",
		"state": "GEORGIA",
		"artcc": "ZTL",
		"type": "RNAV",
		"updated": "12/09/2015",
	},
	{
		"name": "WALIG",
		"latitude": "33-49-14.3 N",
		"longitude": "85-13-4.6 W",
		"state": "GEORGIA",
		"artcc": "ZTL",
		"type": "RNAV",
		"updated": "01/26/2005",
	},
	{
		"name": "WALLK",
		"latitude": "36-6-35.61 N",
		"longitude": "80-29-3.32 W",
		"state": "NORTH CAROLINA",
		"artcc": "ZTL",
		"type": "RP",
		"updated": "GSO*VORTAC*282.00/25.00",
	},
	{
		"name": "WALNI",
		"latitude": "32-57-19.85 N",
		"longitude": "85-57-54.17 W",
		"state": "ALABAMA",
		"artcc": "ZTL",
		"type": "RNAV",
		"updated": "10/22/2013",
	},
	{
		"name": "WALTY",
		"latitude": "33-0-11.43 N",
		"longitude": "86-51-29.95 W",
		"state": "ALABAMA",
		"artcc": "ZTL",
		"type": "RP",
		"updated": "VUZ*VORTAC*175.00/40.00",
	},
	{
		"name": "WALUT",
		"latitude": "34-39-59.92 N",
		"longitude": "80-50-31.83 W",
		"state": "SOUTH CAROLINA",
		"artcc": "ZTL",
		"type": "RP",
		"updated": "CTF*VOR/DME*275.13/28.09",
	},
	{
		"name": "WAMIR",
		"latitude": "34-35-26.83 N",
		"longitude": "85-28-23.37 W",
		"state": "GEORGIA",
		"artcc": "ZTL",
		"type": "RNAV",
		"updated": "08/18/2010",
	},
	{
		"name": "WAMLU",
		"latitude": "35-28-6.68 N",
		"longitude": "81-45-15.17 W",
		"state": "NORTH CAROLINA",
		"artcc": "ZTL",
		"type": "RNAV",
		"updated": "08/11/2010",
	},
	{
		"name": "WAMPM",
		"latitude": "34-11-17.51 N",
		"longitude": "86-31-21.49 W",
		"state": "ALABAMA",
		"artcc": "ZTL",
		"type": "RNAV",
		"updated": "09/15/2015",
	},
	{
		"name": "WAMUR",
		"latitude": "36-11-48.86 N",
		"longitude": "80-26-37.12 W",
		"state": "NORTH CAROLINA",
		"artcc": "ZTL",
		"type": "RNAV",
		"updated": "05/26/2016",
	},
	{
		"name": "WANBU",
		"latitude": "33-48-31.21 N",
		"longitude": "84-18-39.66 W",
		"state": "GEORGIA",
		"artcc": "ZTL",
		"type": "RNAV",
		"updated": "01/03/2013",
	},
	{
		"name": "WANDS",
		"latitude": "33-10-6.95 N",
		"longitude": "86-23-8.1 W",
		"state": "ALABAMA",
		"artcc": "ZTL",
		"type": "RNAV",
		"updated": "04/18/2017",
	},
	{
		"name": "WANEB",
		"latitude": "34-0-6.15 N",
		"longitude": "86-1-26.85 W",
		"state": "ALABAMA",
		"artcc": "ZTL",
		"type": "RP",
		"updated": "GAD*LD*063.76/4.60",
	},
	{
		"name": "WANOL",
		"latitude": "34-43-53.53 N",
		"longitude": "82-21-4.87 W",
		"state": "SOUTH CAROLINA",
		"artcc": "ZTL",
		"type": "RP",
		"updated": "SPA*VORTAC*231.30/27.68",
	},
	{
		"name": "WANUG",
		"latitude": "35-13-34.02 N",
		"longitude": "86-3-51.84 W",
		"state": "TENNESSEE",
		"artcc": "ZME",
		"type": "RNAV",
		"updated": "06/16/2008",
	},
	{
		"name": "WAOUT",
		"latitude": "36-31-12.99 N",
		"longitude": "83-23-59.94 W",
		"state": "TENNESSEE",
		"artcc": "ZTL",
		"type": "RNAV",
		"updated": "06/05/2010",
	},
	{
		"name": "WAPMO",
		"latitude": "34-41-30.57 N",
		"longitude": "84-53-59.72 W",
		"state": "GEORGIA",
		"artcc": "ZTL",
		"type": "RNAV",
		"updated": "10/31/2013",
	},
	{
		"name": "WAPNI",
		"latitude": "32-36-17.56 N",
		"longitude": "82-3-15.15 W",
		"state": "GEORGIA",
		"artcc": "ZTL",
		"type": "RNAV",
		"updated": "04/12/2011",
	},
	{
		"name": "WARAN",
		"latitude": "33-41-11.63 N",
		"longitude": "82-16-26.79 W",
		"state": "GEORGIA",
		"artcc": "ZTL",
		"type": "RNAV",
		"updated": "05/20/2011",
	},
	{
		"name": "WASEM",
		"latitude": "34-30-24.12 N",
		"longitude": "84-31-41.53 W",
		"state": "GEORGIA",
		"artcc": "ZTL",
		"type": "RNAV",
		"updated": "02/28/2018",
	},
	{
		"name": "WASTO",
		"latitude": "34-50-6.46 N",
		"longitude": "83-11-7.38 W",
		"state": "SOUTH CAROLINA",
		"artcc": "ZTL",
		"type": "RNAV",
		"updated": "07/20/2007",
	},
	{
		"name": "WASUP",
		"latitude": "35-24-10.23 N",
		"longitude": "86-12-25.35 W",
		"state": "TENNESSEE",
		"artcc": "ZME",
		"type": "RNAV",
		"updated": "06/29/2011",
	},
	{
		"name": "WATAV",
		"latitude": "35-49-13.07 N",
		"longitude": "85-7-48.49 W",
		"state": "TENNESSEE",
		"artcc": "ZTL",
		"type": "RNAV",
		"updated": "02/04/2009",
	},
	{
		"name": "WATEM",
		"latitude": "33-16-59.7 N",
		"longitude": "81-56-46.37 W",
		"state": "GEORGIA",
		"artcc": "ZTL",
		"type": "RNAV",
		"updated": "06/12/2012",
	},
	{
		"name": "WATTZ",
		"latitude": "35-40-15.35 N",
		"longitude": "84-48-29.26 W",
		"state": "TENNESSEE",
		"artcc": "ZTL",
		"type": "RNAV",
		"updated": "06/15/2011",
	},
	{
		"name": "WAVKA",
		"latitude": "31-41-29.97 N",
		"longitude": "84-1-42 W",
		"state": "GEORGIA",
		"artcc": "ZJX",
		"type": "RNAV",
		"updated": "07/15/2009",
	},
	{
		"name": "WAXIB",
		"latitude": "35-11-57.34 N",
		"longitude": "80-13-22.61 W",
		"state": "NORTH CAROLINA",
		"artcc": "ZTL",
		"type": "RNAV",
		"updated": "04/17/2010",
	},
	{
		"name": "WAYDS",
		"latitude": "35-26-35.52 N",
		"longitude": "81-16-32.64 W",
		"state": "NORTH CAROLINA",
		"artcc": "ZTL",
		"type": "RNAV",
		"updated": "06/25/2015",
	},
	{
		"name": "WEAKS",
		"latitude": "35-43-19.92 N",
		"longitude": "82-30-4.97 W",
		"state": "NORTH CAROLINA",
		"artcc": "ZTL",
		"type": "RP",
		"updated": "HMV*VORTAC*207.00/46.49",
	},
	{
		"name": "WEALL",
		"latitude": "35-4-16.38 N",
		"longitude": "83-27-48.43 W",
		"state": "NORTH CAROLINA",
		"artcc": "ZTL",
		"type": "RNAV",
		"updated": "07/26/2016",
	},
	{
		"name": "WEAZL",
		"latitude": "35-40-26.02 N",
		"longitude": "81-5-11.28 W",
		"state": "NORTH CAROLINA",
		"artcc": "ZTL",
		"type": "RNAV",
		"updated": "06/25/2015",
	},
	{
		"name": "WEBIL",
		"latitude": "34-11-1.86 N",
		"longitude": "85-23-16.48 W",
		"state": "GEORGIA",
		"artcc": "ZTL",
		"type": "RNAV",
		"updated": "01/25/2012",
	},
	{
		"name": "WEBUS",
		"latitude": "32-27-57.97 N",
		"longitude": "84-0-20.36 W",
		"state": "GEORGIA",
		"artcc": "ZTL",
		"type": "RNAV",
		"updated": "05/12/2003",
	},
	{
		"name": "WECIJ",
		"latitude": "32-50-32.23 N",
		"longitude": "86-39-30.63 W",
		"state": "ALABAMA",
		"artcc": "ZTL",
		"type": "RNAV",
		"updated": "08/09/2016",
	},
	{
		"name": "WEDAS",
		"latitude": "33-13-10.28 N",
		"longitude": "86-48-14.65 W",
		"state": "ALABAMA",
		"artcc": "ZTL",
		"type": "RNAV",
		"updated": "07/14/2010",
	},
	{
		"name": "WEDEB",
		"latitude": "33-20-36.49 N",
		"longitude": "86-28-11 W",
		"state": "ALABAMA",
		"artcc": "ZTL",
		"type": "RNAV",
		"updated": "09/27/2010",
	},
	{
		"name": "WEDNA",
		"latitude": "36-41-11.83 N",
		"longitude": "83-8-51.33 W",
		"state": "VIRGINIA",
		"artcc": "ZTL",
		"type": "RNAV",
		"updated": "01/13/2017",
	},
	{
		"name": "WEGIP",
		"latitude": "34-18-5.12 N",
		"longitude": "85-25-15.5 W",
		"state": "GEORGIA",
		"artcc": "ZTL",
		"type": "RNAV",
		"updated": "01/29/2009",
	},
	{
		"name": "WEGTI",
		"latitude": "35-20-12.92 N",
		"longitude": "80-43-14.12 W",
		"state": "NORTH CAROLINA",
		"artcc": "ZTL",
		"type": "RNAV",
		"updated": "03/22/2006",
	},
	{
		"name": "WEKED",
		"latitude": "32-25-18.27 N",
		"longitude": "83-22-30.8 W",
		"state": "GEORGIA",
		"artcc": "ZTL",
		"type": "RNAV",
		"updated": "03/10/2011",
	},
	{
		"name": "WEKMU",
		"latitude": "32-17-39.53 N",
		"longitude": "86-7-59.03 W",
		"state": "ALABAMA",
		"artcc": "ZTL",
		"type": "MR",
		"updated": "MXF*TACAN*115.00/13.00",
	},
	{
		"name": "WEKPA",
		"latitude": "32-28-39.81 N",
		"longitude": "86-8-24.52 W",
		"state": "ALABAMA",
		"artcc": "ZTL",
		"type": "MR",
		"updated": "MXF*TACAN*065.00/13.00",
	},
	{
		"name": "WEKSI",
		"latitude": "35-17-38.83 N",
		"longitude": "86-14-35.69 W",
		"state": "TENNESSEE",
		"artcc": "ZME",
		"type": "RNAV",
		"updated": "06/29/2011",
	},
	{
		"name": "WEKUG",
		"latitude": "34-32-56.51 N",
		"longitude": "84-38-16.4 W",
		"state": "GEORGIA",
		"artcc": "ZTL",
		"type": "RNAV",
		"updated": "02/28/2018",
	},
	{
		"name": "WELAN",
		"latitude": "32-33-14.52 N",
		"longitude": "87-24-1.86 W",
		"state": "ALABAMA",
		"artcc": "ZTL",
		"type": "RNAV",
		"updated": "06/27/2013",
	},
	{
		"name": "WELET",
		"latitude": "34-52-31.02 N",
		"longitude": "80-56-14.53 W",
		"state": "SOUTH CAROLINA",
		"artcc": "ZTL",
		"type": "RP",
		"updated": "XUU*LD*182.96/20.84",
	},
	{
		"name": "WELOR",
		"latitude": "32-25-50.18 N",
		"longitude": "86-24-5.44 W",
		"state": "ALABAMA",
		"artcc": "ZTL",
		"type": "MR",
		"updated": "MXF*TACAN*333.24/3.50",
	},
	{
		"name": "WELRU",
		"latitude": "32-22-30.55 N",
		"longitude": "87-0-46.05 W",
		"state": "ALABAMA",
		"artcc": "ZTL",
		"type": "RNAV",
		"updated": "10/08/2014",
	},
	{
		"name": "WELSI",
		"latitude": "34-26-10.43 N",
		"longitude": "85-45-31.61 W",
		"state": "ALABAMA",
		"artcc": "ZTL",
		"type": "RNAV",
		"updated": "08/18/2010",
	},
	{
		"name": "WEMIP",
		"latitude": "34-28-6.65 N",
		"longitude": "85-8-46.7 W",
		"state": "GEORGIA",
		"artcc": "ZTL",
		"type": "RNAV",
		"updated": "01/29/2009",
	},
	{
		"name": "WEMXO",
		"latitude": "33-2-13.26 N",
		"longitude": "82-28-33.2 W",
		"state": "GEORGIA",
		"artcc": "ZTL",
		"type": "RNAV",
		"updated": "05/22/2017",
	},
	{
		"name": "WENDO",
		"latitude": "33-51-20.43 N",
		"longitude": "86-16-31.27 W",
		"state": "ALABAMA",
		"artcc": "ZTL",
		"type": "RP",
		"updated": "GAD*VOR/DME*231.00/12.00",
	},
	{
		"name": "WENNY",
		"latitude": "32-50-39.12 N",
		"longitude": "83-46-2.96 W",
		"state": "GEORGIA",
		"artcc": "ZTL",
		"type": "RP",
		"updated": "MCN*VORTAC*/11.00",
	},
	{
		"name": "WEONE",
		"latitude": "33-31-32.48 N",
		"longitude": "85-7-20.09 W",
		"state": "GEORGIA",
		"artcc": "ZTL",
		"type": "RP",
		"updated": "ATL*VORTAC*265.00/35.00",
	},
	{
		"name": "WEPEG",
		"latitude": "36-4-4.32 N",
		"longitude": "79-58-27.26 W",
		"state": "NORTH CAROLINA",
		"artcc": "ZTL",
		"type": "RNAV",
		"updated": "11/14/2002",
	},
	{
		"name": "WEPLY",
		"latitude": "35-45-57.94 N",
		"longitude": "80-57-54.42 W",
		"state": "NORTH CAROLINA",
		"artcc": "ZTL",
		"type": "WP",
		"updated": "11/02/1998",
	},
	{
		"name": "WEPMI",
		"latitude": "35-20-20.54 N",
		"longitude": "84-28-29.69 W",
		"state": "TENNESSEE",
		"artcc": "ZTL",
		"type": "RNAV",
		"updated": "01/04/2013",
	},
	{
		"name": "WERTU",
		"latitude": "33-7-59.28 N",
		"longitude": "85-16-21.59 W",
		"state": "ALABAMA",
		"artcc": "ZTL",
		"type": "RNAV",
		"updated": "02/22/2010",
	},
	{
		"name": "WESEK",
		"latitude": "33-38-5.45 N",
		"longitude": "84-43-45.36 W",
		"state": "GEORGIA",
		"artcc": "ZTL",
		"type": "RNAV",
		"updated": "01/14/2005",
	},
	{
		"name": "WESOR",
		"latitude": "34-47-2.49 N",
		"longitude": "85-14-57.61 W",
		"state": "GEORGIA",
		"artcc": "ZTL",
		"type": "RNAV",
		"updated": "11/07/2016",
	},
	{
		"name": "WESOX",
		"latitude": "35-6-0.45 N",
		"longitude": "85-15-27.44 W",
		"state": "TENNESSEE",
		"artcc": "ZTL",
		"type": "RNAV",
		"updated": "04/13/2017",
	},
	{
		"name": "WESSN",
		"latitude": "33-58-25.07 N",
		"longitude": "84-35-46.71 W",
		"state": "GEORGIA",
		"artcc": "ZTL",
		"type": "RNAV",
		"updated": "07/29/2013",
	},
	{
		"name": "WESUV",
		"latitude": "32-18-45.41 N",
		"longitude": "85-4-9.26 W",
		"state": "ALABAMA",
		"artcc": "ZTL",
		"type": "RP",
		"updated": "CSG*VORTAC*187.24/18.31",
	},
	{
		"name": "WETSO",
		"latitude": "35-4-59.26 N",
		"longitude": "86-4-10.55 W",
		"state": "TENNESSEE",
		"artcc": "ZME",
		"type": "RNAV",
		"updated": "06/16/2008",
	},
	{
		"name": "WETUM",
		"latitude": "32-32-36.68 N",
		"longitude": "86-6-45.07 W",
		"state": "ALABAMA",
		"artcc": "ZTL",
		"type": "RP",
		"updated": "MGM*VORTAC*026.00/21.90",
	},
	{
		"name": "WETVO",
		"latitude": "31-43-54.09 N",
		"longitude": "84-16-21.4 W",
		"state": "GEORGIA",
		"artcc": "ZJX",
		"type": "RNAV",
		"updated": "12/11/2006",
	},
	{
		"name": "WETWO",
		"latitude": "33-43-43.12 N",
		"longitude": "85-7-25.91 W",
		"state": "GEORGIA",
		"artcc": "ZTL",
		"type": "RP",
		"updated": "ATL*VORTAC*285.00/35.00",
	},
	{
		"name": "WEVAK",
		"latitude": "32-46-51.93 N",
		"longitude": "83-46-2.16 W",
		"state": "GEORGIA",
		"artcc": "ZTL",
		"type": "RNAV",
		"updated": "06/09/2011",
	},
	{
		"name": "WEVLI",
		"latitude": "35-35-49.84 N",
		"longitude": "81-55-19.3 W",
		"state": "NORTH CAROLINA",
		"artcc": "ZTL",
		"type": "RNAV",
		"updated": "04/16/2014",
	},
	{
		"name": "WEVOL",
		"latitude": "33-38-45.17 N",
		"longitude": "83-29-36.53 W",
		"state": "GEORGIA",
		"artcc": "ZTL",
		"type": "RNAV",
		"updated": "06/07/2011",
	},
	{
		"name": "WEVOS",
		"latitude": "33-13-13.1 N",
		"longitude": "84-32-46.93 W",
		"state": "GEORGIA",
		"artcc": "ZTL",
		"type": "RNAV",
		"updated": "09/15/2009",
	},
	{
		"name": "WEVUG",
		"latitude": "35-47-2.85 N",
		"longitude": "81-1-3.61 W",
		"state": "NORTH CAROLINA",
		"artcc": "ZTL",
		"type": "RP",
		"updated": "BZM*VOR/DME*120.96/12.00",
	},
	{
		"name": "WEXEX",
		"latitude": "34-18-46.17 N",
		"longitude": "85-9-45.28 W",
		"state": "GEORGIA",
		"artcc": "ZTL",
		"type": "RNAV",
		"updated": "01/29/2009",
	},
	{
		"name": "WHAYN",
		"latitude": "36-17-5.39 N",
		"longitude": "80-20-37.2 W",
		"state": "NORTH CAROLINA",
		"artcc": "ZTL",
		"type": "RNAV",
		"updated": "11/10/2016",
	},
	{
		"name": "WHDRW",
		"latitude": "34-49-43.82 N",
		"longitude": "81-15-6.33 W",
		"state": "SOUTH CAROLINA",
		"artcc": "ZTL",
		"type": "RP",
		"updated": "SPA*VORTAC*112.02",
	},
	{
		"name": "WHFRD",
		"latitude": "35-33-22.87 N",
		"longitude": "81-4-36.48 W",
		"state": "NORTH CAROLINA",
		"artcc": "ZTL",
		"type": "RNAV",
		"updated": "06/25/2015",
	},
	{
		"name": "WHINE",
		"latitude": "36-44-0.98 N",
		"longitude": "81-56-51.21 W",
		"state": "VIRGINIA",
		"artcc": "ZTL",
		"type": "RP",
		"updated": "GZG*VOR/DME*132.84",
	},
	{
		"name": "WHINS",
		"latitude": "36-5-40.54 N",
		"longitude": "83-16-40.6 W",
		"state": "TENNESSEE",
		"artcc": "ZTL",
		"type": "RP",
		"updated": "SOT*VORTAC*333.00",
	},
	{
		"name": "WHINZ",
		"latitude": "34-4-59.4 N",
		"longitude": "83-50-53 W",
		"state": "GEORGIA",
		"artcc": "ZTL",
		"type": "RP",
		"updated": "ODF*VORTAC*216.83/45.76",
	},
	{
		"name": "WHIZE",
		"latitude": "35-25-26.54 N",
		"longitude": "80-43-55.47 W",
		"state": "NORTH CAROLINA",
		"artcc": "ZTL",
		"type": "RNAV",
		"updated": "03/29/2016",
	},
	{
		"name": "WHYLE",
		"latitude": "34-56-49.99 N",
		"longitude": "81-15-58.72 W",
		"state": "SOUTH CAROLINA",
		"artcc": "ZTL",
		"type": "RNAV",
		"updated": "05/13/2016",
	},
	{
		"name": "WIBOM",
		"latitude": "34-29-52.25 N",
		"longitude": "81-58-55.87 W",
		"state": "SOUTH CAROLINA",
		"artcc": "ZTL",
		"type": "RNAV",
		"updated": "12/24/2013",
	},
	{
		"name": "WIDPU",
		"latitude": "32-1-57.12 N",
		"longitude": "82-47-23.93 W",
		"state": "GEORGIA",
		"artcc": "ZJX",
		"type": "RNAV",
		"updated": "06/16/2008",
	},
	{
		"name": "WIGAB",
		"latitude": "35-36-16.67 N",
		"longitude": "84-28-45.09 W",
		"state": "TENNESSEE",
		"artcc": "ZTL",
		"type": "RNAV",
		"updated": "10/29/2013",
	},
	{
		"name": "WIGAR",
		"latitude": "35-37-8.87 N",
		"longitude": "84-12-33.61 W",
		"state": "TENNESSEE",
		"artcc": "ZTL",
		"type": "MR",
		"updated": "VXV*VORTAC*225.00/23.00",
	},
	{
		"name": "WIGLE",
		"latitude": "33-33-33.37 N",
		"longitude": "84-8-32.21 W",
		"state": "GEORGIA",
		"artcc": "ZTL",
		"type": "RNAV",
		"updated": "12/09/2015",
	},
	{
		"name": "WIGVO",
		"latitude": "32-27-24 N",
		"longitude": "82-2-18 W",
		"state": "GEORGIA",
		"artcc": "ZTL",
		"type": "RNAV",
		"updated": "01/16/2018",
	},
	{
		"name": "WIKMU",
		"latitude": "33-30-35.07 N",
		"longitude": "86-16-22.35 W",
		"state": "ALABAMA",
		"artcc": "ZTL",
		"type": "RNAV",
		"updated": "03/23/2017",
	},
	{
		"name": "WILED",
		"latitude": "34-0-46.36 N",
		"longitude": "86-26-40.92 W",
		"state": "ALABAMA",
		"artcc": "ZTL",
		"type": "RP",
		"updated": "DCU*VOR/DME*148.00",
	},
	{
		"name": "WILIZ",
		"latitude": "36-52-29.87 N",
		"longitude": "80-32-30.13 W",
		"state": "VIRGINIA",
		"artcc": "ZTL",
		"type": "RP",
		"updated": "ROA*VOR/DME*223.00",
	},
	{
		"name": "WILLS",
		"latitude": "34-29-43.48 N",
		"longitude": "81-31-26.27 W",
		"state": "SOUTH CAROLINA",
		"artcc": "ZTL",
		"type": "RP",
		"updated": "SPA*VORTAC*150.17/37.90",
	},
	{
		"name": "WILMS",
		"latitude": "32-20-51.92 N",
		"longitude": "84-20-31.65 W",
		"state": "GEORGIA",
		"artcc": "ZTL",
		"type": "RP",
		"updated": "PZD*VOR/DME*358.56/41.54",
	},
	{
		"name": "WILUM",
		"latitude": "36-26-15.89 N",
		"longitude": "81-48-35.64 W",
		"state": "TENNESSEE",
		"artcc": "ZTL",
		"type": "RNAV",
		"updated": "06/24/2015",
	},
	{
		"name": "WIMUX",
		"latitude": "35-35-10.56 N",
		"longitude": "80-45-30.75 W",
		"state": "NORTH CAROLINA",
		"artcc": "ZTL",
		"type": "RNAV",
		"updated": "01/13/2011",
	},
	{
		"name": "WINNA",
		"latitude": "36-12-0.52 N",
		"longitude": "84-26-29.24 W",
		"state": "TENNESSEE",
		"artcc": "ZTL",
		"type": "RP",
		"updated": "HCH*VOR/DME*048.00",
	},
	{
		"name": "WINNG",
		"latitude": "34-17-25.14 N",
		"longitude": "83-37-39.05 W",
		"state": "GEORGIA",
		"artcc": "ZTL",
		"type": "RNAV",
		"updated": "07/28/2016",
	},
	{
		"name": "WINOX",
		"latitude": "35-18-32.6 N",
		"longitude": "86-7-56.26 W",
		"state": "TENNESSEE",
		"artcc": "ZME",
		"type": "MW",
		"updated": "02/03/2010",
	},
	{
		"name": "WINRI",
		"latitude": "36-14-55.27 N",
		"longitude": "83-16-31.71 W",
		"state": "TENNESSEE",
		"artcc": "ZTL",
		"type": "RNAV",
		"updated": "05/04/2011",
	},
	{
		"name": "WINSI",
		"latitude": "32-28-34.55 N",
		"longitude": "82-10-47.89 W",
		"state": "GEORGIA",
		"artcc": "ZTL",
		"type": "RNAV",
		"updated": "04/12/2011",
	},
	{
		"name": "WINUT",
		"latitude": "32-13-7.02 N",
		"longitude": "86-27-8.66 W",
		"state": "ALABAMA",
		"artcc": "ZTL",
		"type": "RNAV",
		"updated": "06/27/2013",
	},
	{
		"name": "WIPPS",
		"latitude": "31-58-14.43 N",
		"longitude": "84-18-55.28 W",
		"state": "GEORGIA",
		"artcc": "ZJX",
		"type": "RP",
		"updated": "PZD*VOR/DME*358.56/18.92",
	},
	{
		"name": "WIPUS",
		"latitude": "35-54-40.16 N",
		"longitude": "80-35-28.72 W",
		"state": "NORTH CAROLINA",
		"artcc": "ZTL",
		"type": "RNAV",
		"updated": "08/12/2014",
	},
	{
		"name": "WIPUT",
		"latitude": "35-56-10.63 N",
		"longitude": "84-40-0.52 W",
		"state": "TENNESSEE",
		"artcc": "ZTL",
		"type": "RP",
		"updated": "HCH*VOR/DME*060.44/17.82",
	},
	{
		"name": "WIPVI",
		"latitude": "34-55-31.02 N",
		"longitude": "84-22-27.19 W",
		"state": "GEORGIA",
		"artcc": "ZTL",
		"type": "RNAV",
		"updated": "07/21/2011",
	},
	{
		"name": "WIREN",
		"latitude": "34-52-20.54 N",
		"longitude": "82-37-48.01 W",
		"state": "SOUTH CAROLINA",
		"artcc": "ZTL",
		"type": "RNAV",
		"updated": "04/15/2010",
	},
	{
		"name": "WIRKA",
		"latitude": "35-26-52.57 N",
		"longitude": "84-57-23.49 W",
		"state": "TENNESSEE",
		"artcc": "ZTL",
		"type": "RNAV",
		"updated": "06/15/2011",
	},
	{
		"name": "WIRVU",
		"latitude": "36-23-26.32 N",
		"longitude": "83-22-12.11 W",
		"state": "TENNESSEE",
		"artcc": "ZTL",
		"type": "RNAV",
		"updated": "01/13/2017",
	},
	{
		"name": "WISLU",
		"latitude": "36-44-39.08 N",
		"longitude": "80-24-54.41 W",
		"state": "VIRGINIA",
		"artcc": "ZTL",
		"type": "RNAV",
		"updated": "04/28/2010",
	},
	{
		"name": "WISTU",
		"latitude": "36-14-32.96 N",
		"longitude": "80-53-32.76 W",
		"state": "NORTH CAROLINA",
		"artcc": "ZTL",
		"type": "RNAV",
		"updated": "09/05/2014",
	},
	{
		"name": "WITBI",
		"latitude": "32-17-49.83 N",
		"longitude": "86-21-5.93 W",
		"state": "ALABAMA",
		"artcc": "ZTL",
		"type": "RP",
		"updated": "MGM*VORTAC*337.10",
	},
	{
		"name": "WITIV",
		"latitude": "35-30-29.5 N",
		"longitude": "84-45-31.98 W",
		"state": "TENNESSEE",
		"artcc": "ZTL",
		"type": "RNAV",
		"updated": "04/22/2014",
	},
	{
		"name": "WITUR",
		"latitude": "34-46-10.68 N",
		"longitude": "80-45-43.4 W",
		"state": "SOUTH CAROLINA",
		"artcc": "ZTL",
		"type": "RNAV",
		"updated": "11/04/2009",
	},
	{
		"name": "WIVAR",
		"latitude": "33-58-27.66 N",
		"longitude": "84-49-11.07 W",
		"state": "GEORGIA",
		"artcc": "ZTL",
		"type": "MR",
		"updated": "DOB*TACAN*286.00/16.00",
	},
	{
		"name": "WIVDI",
		"latitude": "34-38-16.13 N",
		"longitude": "81-42-18.86 W",
		"state": "SOUTH CAROLINA",
		"artcc": "ZTL",
		"type": "RNAV",
		"updated": "07/05/2013",
	},
	{
		"name": "WIVPI",
		"latitude": "32-19-55.42 N",
		"longitude": "86-26-36.4 W",
		"state": "ALABAMA",
		"artcc": "ZTL",
		"type": "RP",
		"updated": "MGM*VORTAC*313.28/9.10",
	},
	{
		"name": "WIXID",
		"latitude": "35-46-46.92 N",
		"longitude": "84-55-34.03 W",
		"state": "TENNESSEE",
		"artcc": "ZTL",
		"type": "RNAV",
		"updated": "06/15/2011",
	},
	{
		"name": "WIXXU",
		"latitude": "34-47-48.11 N",
		"longitude": "80-48-41.4 W",
		"state": "SOUTH CAROLINA",
		"artcc": "ZTL",
		"type": "RNAV",
		"updated": "02/03/2009",
	},
	{
		"name": "WLLGO",
		"latitude": "35-36-43.94 N",
		"longitude": "81-36-17.44 W",
		"state": "NORTH CAROLINA",
		"artcc": "ZTL",
		"type": "RNAV",
		"updated": "06/25/2015",
	},
	{
		"name": "WLLSH",
		"latitude": "35-53-21.38 N",
		"longitude": "80-12-9.65 W",
		"state": "NORTH CAROLINA",
		"artcc": "ZTL",
		"type": "RNAV",
		"updated": "05/01/2017",
	},
	{
		"name": "WLLSN",
		"latitude": "35-9-39.64 N",
		"longitude": "82-37-5.39 W",
		"state": "NORTH CAROLINA",
		"artcc": "ZTL",
		"type": "RNAV",
		"updated": "08/08/2016",
	},
	{
		"name": "WLSON",
		"latitude": "33-34-26.31 N",
		"longitude": "84-35-4.65 W",
		"state": "GEORGIA",
		"artcc": "ZTL",
		"type": "RNAV",
		"updated": "06/28/2007",
	},
	{
		"name": "WOBAS",
		"latitude": "33-23-58.42 N",
		"longitude": "82-15-49.24 W",
		"state": "GEORGIA",
		"artcc": "ZTL",
		"type": "RNAV",
		"updated": "06/12/2012",
	},
	{
		"name": "WOBIK",
		"latitude": "34-9-14.9 N",
		"longitude": "85-10-44.77 W",
		"state": "GEORGIA",
		"artcc": "ZTL",
		"type": "RNAV",
		"updated": "01/29/2009",
	},
	{
		"name": "WOBUS",
		"latitude": "35-9-33.54 N",
		"longitude": "84-47-2.6 W",
		"state": "TENNESSEE",
		"artcc": "ZTL",
		"type": "RNAV",
		"updated": "02/04/2002",
	},
	{
		"name": "WODDY",
		"latitude": "34-26-15.23 N",
		"longitude": "86-29-17.25 W",
		"state": "ALABAMA",
		"artcc": "ZME",
		"type": "RP",
		"updated": "RMG*VORTAC*283.00/70.00",
	},
	{
		"name": "WODET",
		"latitude": "32-14-11.64 N",
		"longitude": "83-10-59.13 W",
		"state": "GEORGIA",
		"artcc": "ZJX",
		"type": "MR",
		"updated": "MCN*VORTAC*138.00/36.00",
	},
	{
		"name": "WODUM",
		"latitude": "32-23-51.93 N",
		"longitude": "86-22-39.85 W",
		"state": "ALABAMA",
		"artcc": "ZTL",
		"type": "MR",
		"updated": "MXF*TACAN*338.60/1.20",
	},
	{
		"name": "WODUS",
		"latitude": "34-14-51 N",
		"longitude": "83-58-57 W",
		"state": "GEORGIA",
		"artcc": "ZTL",
		"type": "RNAV",
		"updated": "02/15/2005",
	},
	{
		"name": "WOGAG",
		"latitude": "35-40-15.92 N",
		"longitude": "82-2-19.45 W",
		"state": "NORTH CAROLINA",
		"artcc": "ZTL",
		"type": "RNAV",
		"updated": "04/16/2014",
	},
	{
		"name": "WOGEL",
		"latitude": "35-58-40.23 N",
		"longitude": "83-48-30.23 W",
		"state": "TENNESSEE",
		"artcc": "ZTL",
		"type": "RP",
		"updated": "VXV*VORTAC*046.85",
	},
	{
		"name": "WOGIB",
		"latitude": "33-37-47.49 N",
		"longitude": "82-18-57.78 W",
		"state": "GEORGIA",
		"artcc": "ZTL",
		"type": "RP",
		"updated": "IRQ*VORTAC*243.00/9.00",
	},
	{
		"name": "WOGOM",
		"latitude": "32-58-59.38 N",
		"longitude": "83-27-18.03 W",
		"state": "GEORGIA",
		"artcc": "ZTL",
		"type": "RP",
		"updated": "DBN*VORTAC*313.65/40.39",
	},
	{
		"name": "WOKEP",
		"latitude": "34-44-32.62 N",
		"longitude": "82-55-18.26 W",
		"state": "SOUTH CAROLINA",
		"artcc": "ZTL",
		"type": "RNAV",
		"updated": "04/15/2010",
	},
	{
		"name": "WOKIE",
		"latitude": "33-8-25.93 N",
		"longitude": "83-46-12.15 W",
		"state": "GEORGIA",
		"artcc": "ZTL",
		"type": "RNAV",
		"updated": "08/22/2017",
	},
	{
		"name": "WOKIR",
		"latitude": "35-39-1.36 N",
		"longitude": "80-29-57.22 W",
		"state": "NORTH CAROLINA",
		"artcc": "ZTL",
		"type": "RP",
		"updated": "BZM*VOR/DME*115.66",
	},
	{
		"name": "WOLFR",
		"latitude": "33-38-56.84 N",
		"longitude": "84-42-33.76 W",
		"state": "GEORGIA",
		"artcc": "ZTL",
		"type": "RNAV",
		"updated": "08/09/2011",
	},
	{
		"name": "WOMAC",
		"latitude": "34-7-48.86 N",
		"longitude": "83-54-20.77 W",
		"state": "GEORGIA",
		"artcc": "ZTL",
		"type": "RP",
		"updated": "AHN*VOR/DME*290.85/30.97",
	},
	{
		"name": "WONIL",
		"latitude": "33-17-43.11 N",
		"longitude": "82-12-2.5 W",
		"state": "GEORGIA",
		"artcc": "ZTL",
		"type": "RNAV",
		"updated": "06/12/2012",
	},
	{
		"name": "WONOR",
		"latitude": "33-17-20.27 N",
		"longitude": "86-57-34.67 W",
		"state": "ALABAMA",
		"artcc": "ZTL",
		"type": "RNAV",
		"updated": "08/05/2010",
	},
	{
		"name": "WONYY",
		"latitude": "36-34-36.5 N",
		"longitude": "80-49-6.99 W",
		"state": "VIRGINIA",
		"artcc": "ZTL",
		"type": "WP",
		"updated": "11/02/1998",
	},
	{
		"name": "WONZR",
		"latitude": "33-37-12.63 N",
		"longitude": "84-12-53.07 W",
		"state": "GEORGIA",
		"artcc": "ZTL",
		"type": "RP",
		"updated": "PKU*LD*094.98/11.86",
	},
	{
		"name": "WOODS",
		"latitude": "33-12-53.42 N",
		"longitude": "87-3-55.38 W",
		"state": "ALABAMA",
		"artcc": "ZTL",
		"type": "RP",
		"updated": "OKW*VORTAC*099.00/9.41",
	},
	{
		"name": "WOOOO",
		"latitude": "35-19-27.51 N",
		"longitude": "80-55-54.62 W",
		"state": "NORTH CAROLINA",
		"artcc": "ZTL",
		"type": "RNAV",
		"updated": "05/12/2016",
	},
	{
		"name": "WORIK",
		"latitude": "35-34-25.3 N",
		"longitude": "80-59-46.54 W",
		"state": "NORTH CAROLINA",
		"artcc": "ZTL",
		"type": "RNAV",
		"updated": "01/13/2011",
	},
	{
		"name": "WORUD",
		"latitude": "34-14-42.79 N",
		"longitude": "82-11-36.33 W",
		"state": "SOUTH CAROLINA",
		"artcc": "ZTL",
		"type": "RP",
		"updated": "GRD*VORTAC*260.00/1.99",
	},
	{
		"name": "WORUR",
		"latitude": "31-29-28.83 N",
		"longitude": "87-19-44.07 W",
		"state": "ALABAMA",
		"artcc": "ZTL",
		"type": "RNAV",
		"updated": "10/16/2007",
	},
	{
		"name": "WORXS",
		"latitude": "33-58-17.27 N",
		"longitude": "82-59-13.11 W",
		"state": "GEORGIA",
		"artcc": "ZTL",
		"type": "RNAV",
		"updated": "11/10/2016",
	},
	{
		"name": "WOSIX",
		"latitude": "33-22-32.28 N",
		"longitude": "87-11-21.5 W",
		"state": "ALABAMA",
		"artcc": "ZTL",
		"type": "RNAV",
		"updated": "08/18/2010",
	},
	{
		"name": "WOTAD",
		"latitude": "36-9-27.53 N",
		"longitude": "83-9-55.94 W",
		"state": "TENNESSEE",
		"artcc": "ZTL",
		"type": "RNAV",
		"updated": "04/01/2014",
	},
	{
		"name": "WOTGO",
		"latitude": "32-28-10.38 N",
		"longitude": "86-25-47.01 W",
		"state": "ALABAMA",
		"artcc": "ZTL",
		"type": "MR",
		"updated": "MXF*TACAN*/6.20",
	},
	{
		"name": "WOTLI",
		"latitude": "34-26-59.5 N",
		"longitude": "81-42-45.43 W",
		"state": "SOUTH CAROLINA",
		"artcc": "ZTL",
		"type": "RNAV",
		"updated": "07/05/2013",
	},
	{
		"name": "WOVDO",
		"latitude": "36-32-24.33 N",
		"longitude": "80-49-3.7 W",
		"state": "NORTH CAROLINA",
		"artcc": "ZTL",
		"type": "RNAV",
		"updated": "03/19/2012",
	},
	{
		"name": "WOVEN",
		"latitude": "35-26-43.51 N",
		"longitude": "80-59-11.1 W",
		"state": "NORTH CAROLINA",
		"artcc": "ZTL",
		"type": "RP",
		"updated": "RGS*LD*002.96/14.51",
	},
	{
		"name": "WOVEX",
		"latitude": "34-51-4.26 N",
		"longitude": "80-11-6.54 W",
		"state": "NORTH CAROLINA",
		"artcc": "ZTL",
		"type": "RNAV",
		"updated": "01/25/2017",
	},
	{
		"name": "WRATH",
		"latitude": "32-13-17.79 N",
		"longitude": "87-20-34.94 W",
		"state": "ALABAMA",
		"artcc": "ZTL",
		"type": "RNAV",
		"updated": "12/01/2016",
	},
	{
		"name": "WRAYS",
		"latitude": "36-26-11.18 N",
		"longitude": "81-8-54.61 W",
		"state": "NORTH CAROLINA",
		"artcc": "ZTL",
		"type": "RNAV",
		"updated": "02/10/2017",
	},
	{
		"name": "WRGNZ",
		"latitude": "33-22-43.94 N",
		"longitude": "83-40-15.24 W",
		"state": "GEORGIA",
		"artcc": "ZTL",
		"type": "RNAV",
		"updated": "08/21/2017",
	},
	{
		"name": "WTWTH",
		"latitude": "34-8-42.32 N",
		"longitude": "84-2-34.55 W",
		"state": "GEORGIA",
		"artcc": "ZTL",
		"type": "RNAV",
		"updated": "07/26/2016",
	},
	{
		"name": "WUBOL",
		"latitude": "34-43-2.91 N",
		"longitude": "81-36-4.73 W",
		"state": "SOUTH CAROLINA",
		"artcc": "ZTL",
		"type": "RNAV",
		"updated": "07/05/2013",
	},
	{
		"name": "WUBRA",
		"latitude": "33-54-41.18 N",
		"longitude": "84-30-1.9 W",
		"state": "GEORGIA",
		"artcc": "ZTL",
		"type": "MW",
		"updated": "05/08/2014",
	},
	{
		"name": "WUDEE",
		"latitude": "34-34-43.52 N",
		"longitude": "84-39-58.83 W",
		"state": "GEORGIA",
		"artcc": "ZTL",
		"type": "RP",
		"updated": "DOB*TACAN*352.00/40.00",
	},
	{
		"name": "WUDGI",
		"latitude": "33-15-54.44 N",
		"longitude": "86-59-35.54 W",
		"state": "ALABAMA",
		"artcc": "ZTL",
		"type": "RNAV",
		"updated": "08/06/2010",
	},
	{
		"name": "WUDPO",
		"latitude": "33-58-10.39 N",
		"longitude": "85-1-50.91 W",
		"state": "GEORGIA",
		"artcc": "ZTL",
		"type": "RNAV",
		"updated": "03/03/2011",
	},
	{
		"name": "WUGUP",
		"latitude": "36-22-46.91 N",
		"longitude": "83-38-4.2 W",
		"state": "TENNESSEE",
		"artcc": "ZTL",
		"type": "RNAV",
		"updated": "04/27/2010",
	},
	{
		"name": "WUKRI",
		"latitude": "34-27-23.55 N",
		"longitude": "82-8-19.52 W",
		"state": "SOUTH CAROLINA",
		"artcc": "ZTL",
		"type": "RNAV",
		"updated": "12/24/2013",
	},
	{
		"name": "WULBA",
		"latitude": "35-34-25.91 N",
		"longitude": "84-20-48.45 W",
		"state": "TENNESSEE",
		"artcc": "ZTL",
		"type": "RNAV",
		"updated": "01/04/2013",
	},
	{
		"name": "WULNI",
		"latitude": "32-19-56.62 N",
		"longitude": "86-45-16.16 W",
		"state": "ALABAMA",
		"artcc": "ZTL",
		"type": "RP",
		"updated": "MGM*VORTAC*283.72/23.08",
	},
	{
		"name": "WULVA",
		"latitude": "32-33-56.91 N",
		"longitude": "86-29-58.5 W",
		"state": "ALABAMA",
		"artcc": "ZTL",
		"type": "MR",
		"updated": "MXF*TACAN*/13.00",
	},
	{
		"name": "WUNAL",
		"latitude": "33-3-3.05 N",
		"longitude": "82-9-46.46 W",
		"state": "GEORGIA",
		"artcc": "ZTL",
		"type": "RNAV",
		"updated": "10/03/2014",
	},
	{
		"name": "WUNET",
		"latitude": "33-31-40.47 N",
		"longitude": "87-7-17.21 W",
		"state": "ALABAMA",
		"artcc": "ZTL",
		"type": "RP",
		"updated": "VUZ*VORTAC*230.57/14.00",
	},
	{
		"name": "WUNPO",
		"latitude": "34-49-57.53 N",
		"longitude": "84-5-4.01 W",
		"state": "GEORGIA",
		"artcc": "ZTL",
		"type": "RNAV",
		"updated": "06/11/2014",
	},
	{
		"name": "WUNRU",
		"latitude": "34-36-36.52 N",
		"longitude": "84-32-12.03 W",
		"state": "GEORGIA",
		"artcc": "ZTL",
		"type": "RNAV",
		"updated": "02/28/2018",
	},
	{
		"name": "WUPLA",
		"latitude": "33-46-14.2 N",
		"longitude": "84-34-59.52 W",
		"state": "GEORGIA",
		"artcc": "ZTL",
		"type": "RNAV",
		"updated": "09/24/2012",
	},
	{
		"name": "WUPOX",
		"latitude": "34-18-48.24 N",
		"longitude": "82-31-50.71 W",
		"state": "SOUTH CAROLINA",
		"artcc": "ZTL",
		"type": "RNAV",
		"updated": "09/25/2013",
	},
	{
		"name": "WUPUL",
		"latitude": "35-39-52.92 N",
		"longitude": "84-10-6.95 W",
		"state": "TENNESSEE",
		"artcc": "ZTL",
		"type": "RNAV",
		"updated": "10/09/2008",
	},
	{
		"name": "WURAS",
		"latitude": "32-49-1.67 N",
		"longitude": "83-30-19.61 W",
		"state": "GEORGIA",
		"artcc": "ZTL",
		"type": "RNAV",
		"updated": "05/25/2016",
	},
	{
		"name": "WURDO",
		"latitude": "32-18-8.64 N",
		"longitude": "86-24-35.92 W",
		"state": "ALABAMA",
		"artcc": "ZTL",
		"type": "MR",
		"updated": "MGM*VORTAC*313.28/6.64",
	},
	{
		"name": "WURLD",
		"latitude": "33-50-47.83 N",
		"longitude": "84-34-51.84 W",
		"state": "GEORGIA",
		"artcc": "ZTL",
		"type": "RNAV",
		"updated": "12/09/2015",
	},
	{
		"name": "WURTI",
		"latitude": "35-50-39.48 N",
		"longitude": "84-46-4.64 W",
		"state": "TENNESSEE",
		"artcc": "ZTL",
		"type": "RNAV",
		"updated": "10/25/2011",
	},
	{
		"name": "WUTIM",
		"latitude": "35-25-53.03 N",
		"longitude": "83-23-12.43 W",
		"state": "NORTH CAROLINA",
		"artcc": "ZTL",
		"type": "RNAV",
		"updated": "01/14/2003",
	},
	{
		"name": "WUUTN",
		"latitude": "35-37-19.85 N",
		"longitude": "82-11-48.49 W",
		"state": "NORTH CAROLINA",
		"artcc": "ZTL",
		"type": "RP",
		"updated": "SOT*VORTAC*107.28/43.00",
	},
	{
		"name": "WUVOD",
		"latitude": "35-36-36.2 N",
		"longitude": "82-28-1.24 W",
		"state": "NORTH CAROLINA",
		"artcc": "ZTL",
		"type": "RNAV",
		"updated": "02/06/2003",
	},
	{
		"name": "WUVTO",
		"latitude": "34-35-11.81 N",
		"longitude": "82-44-16.72 W",
		"state": "SOUTH CAROLINA",
		"artcc": "ZTL",
		"type": "RNAV",
		"updated": "09/25/2013",
	},
	{
		"name": "WUVUL",
		"latitude": "34-59-33.47 N",
		"longitude": "80-39-15.61 W",
		"state": "NORTH CAROLINA",
		"artcc": "ZTL",
		"type": "RP",
		"updated": "CLT*VOR/DME*133.87",
	},
	{
		"name": "WUXVO",
		"latitude": "34-58-50.05 N",
		"longitude": "80-33-57.71 W",
		"state": "NORTH CAROLINA",
		"artcc": "ZTL",
		"type": "RNAV",
		"updated": "02/03/2009",
	},
	{
		"name": "WUYZE",
		"latitude": "35-11-10.15 N",
		"longitude": "83-52-56.79 W",
		"state": "NORTH CAROLINA",
		"artcc": "ZTL",
		"type": "RNAV",
		"updated": "07/10/2017",
	},
	{
		"name": "WUZUR",
		"latitude": "36-57-50.59 N",
		"longitude": "81-3-45.35 W",
		"state": "VIRGINIA",
		"artcc": "ZTL",
		"type": "RP",
		"updated": "BLF*VOR/DME*165.85",
	},
