[
	{
		"name": "XABZO",
		"latitude": "35-30-28.2 N",
		"longitude": "84-34-56.67 W",
		"state": "TENNESSEE",
		"artcc": "ZTL",
		"type": "RNAV",
		"updated": "01/19/2001"
	},
	{
		"name": "XAMNU",
		"latitude": "35-39-5.52 N",
		"longitude": "85-3-19.06 W",
		"state": "TENNESSEE",
		"artcc": "ZTL",
		"type": "RNAV",
		"updated": "01/09/2001"
	},
	{
		"name": "XAWTE",
		"latitude": "32-18-18.97 N",
		"longitude": "86-26-28.54 W",
		"state": "ALABAMA",
		"artcc": "ZTL",
		"type": "RP",
		"updated": "MGM*VORTAC*305.79"
	},
	{
		"name": "XEKEF",
		"latitude": "35-50-47.15 N",
		"longitude": "83-56-50.8 W",
		"state": "TENNESSEE",
		"artcc": "ZTL",
		"type": "RP",
		"updated": "OXH*LD*050.81/4.09"
	},
	{
		"name": "XEMFO",
		"latitude": "35-12-42.46 N",
		"longitude": "86-3-40.88 W",
		"state": "TENNESSEE",
		"artcc": "ZME",
		"type": "RNAV",
		"updated": "01/09/2001"
	},
	{
		"name": "XEWIR",
		"latitude": "35-3-8.77 N",
		"longitude": "80-34-35.02 W",
		"state": "NORTH CAROLINA",
		"artcc": "ZTL",
		"type": "RNAV",
		"updated": "09/08/2016"
	},
	{
		"name": "XEWKA",
		"latitude": "35-46-37.52 N",
		"longitude": "84-2-19.21 W",
		"state": "TENNESSEE",
		"artcc": "ZTL",
		"type": "RP",
		"updated": "VXV*VORTAC*/10.39"
	},
	{
		"name": "XIHTI",
		"latitude": "34-3-12.4 N",
		"longitude": "84-3-39.25 W",
		"state": "GEORGIA",
		"artcc": "ZTL",
		"type": "RNAV",
		"updated": "08/08/2008"
	},
	{
		"name": "XIHZE",
		"latitude": "35-25-55.57 N",
		"longitude": "85-15-20.95 W",
		"state": "TENNESSEE",
		"artcc": "ZME",
		"type": "RNAV",
		"updated": "01/18/2001"
	},
	{
		"name": "XITHO",
		"latitude": "34-52-43.88 N",
		"longitude": "85-50-51.28 W",
		"state": "ALABAMA",
		"artcc": "ZME",
		"type": "RNAV",
		"updated": "01/10/2001"
	},
	{
		"name": "XIVZU",
		"latitude": "35-51-5.29 N",
		"longitude": "83-56-52.55 W",
		"state": "TENNESSEE",
		"artcc": "ZTL",
		"type": "RNAV",
		"updated": "03/23/2015"
	},
	{
		"name": "XIYDE",
		"latitude": "34-42-47.4 N",
		"longitude": "85-39-52.2 W",
		"state": "ALABAMA",
		"artcc": "ZTL",
		"type": "RNAV",
		"updated": "01/09/2001"
	},
	{
		"name": "XIZMO",
		"latitude": "35-46-5.11 N",
		"longitude": "84-2-34.69 W",
		"state": "TENNESSEE",
		"artcc": "ZTL",
		"type": "RNAV",
		"updated": "05/18/2015"
	},
	{
		"name": "XODCO",
		"latitude": "34-58-19.28 N",
		"longitude": "84-15-59.57 W",
		"state": "GEORGIA",
		"artcc": "ZTL",
		"type": "RNAV",
		"updated": "01/09/2001"
	},
	{
		"name": "XOLEW",
		"latitude": "34-23-44.89 N",
		"longitude": "85-49-3.19 W",
		"state": "ALABAMA",
		"artcc": "ZTL",
		"type": "RNAV",
		"updated": "01/09/2001"
	},
	{
		"name": "XUWAF",
		"latitude": "34-38-51.54 N",
		"longitude": "85-54-49.3 W",
		"state": "ALABAMA",
		"artcc": "ZTL",
		"type": "RNAV",
		"updated": "01/09/2001"
	},
	{
		"name": "XWNNG",
		"latitude": "33-10-2 N",
		"longitude": "83-26-14.66 W",
		"state": "GEORGIA",
		"artcc": "ZTL",
		"type": "RNAV",
		"updated": "08/22/2017"
	}
]
