	{
		"name": "YAALL",
		"latitude": "33-47-36.3 N",
		"longitude": "87-28-51.23 W",
		"state": "ALABAMA",
		"artcc": "ZTL",
		"type": "RP",
		"updated": "VUZ*VORTAC*282.41/30.00",
	},
	{
		"name": "YABBA",
		"latitude": "33-50-52.06 N",
		"longitude": "84-54-35.74 W",
		"state": "GEORGIA",
		"artcc": "ZTL",
		"type": "RNAV",
		"updated": "08/22/2017",
	},
	{
		"name": "YACUD",
		"latitude": "34-57-54.56 N",
		"longitude": "82-31-16.82 W",
		"state": "SOUTH CAROLINA",
		"artcc": "ZTL",
		"type": "RNAV",
		"updated": "04/15/2010",
	},
	{
		"name": "YACUR",
		"latitude": "33-29-44.97 N",
		"longitude": "86-52-25.38 W",
		"state": "ALABAMA",
		"artcc": "ZTL",
		"type": "RNAV",
		"updated": "08/18/2010",
	},
	{
		"name": "YADKI",
		"latitude": "36-22-53.13 N",
		"longitude": "80-55-9.03 W",
		"state": "NORTH CAROLINA",
		"artcc": "ZTL",
		"type": "RP",
		"updated": "GSO*VORTAC*297.00/50.00",
	},
	{
		"name": "YAKUB",
		"latitude": "34-15-18.38 N",
		"longitude": "86-13-14.08 W",
		"state": "ALABAMA",
		"artcc": "ZTL",
		"type": "RNAV",
		"updated": "02/27/2015",
	},
	{
		"name": "YALBU",
		"latitude": "34-15-53.02 N",
		"longitude": "82-45-53.64 W",
		"state": "GEORGIA",
		"artcc": "ZTL",
		"type": "RNAV",
		"updated": "09/25/2013",
	},
	{
		"name": "YALUK",
		"latitude": "35-15-24.65 N",
		"longitude": "83-6-52 W",
		"state": "NORTH CAROLINA",
		"artcc": "ZTL",
		"type": "RNAV",
		"updated": "11/06/2014",
	},
	{
		"name": "YARBE",
		"latitude": "32-42-44.8 N",
		"longitude": "85-39-49.27 W",
		"state": "ALABAMA",
		"artcc": "ZTL",
		"type": "RP",
		"updated": "MGM*VORTAC*045.43/44.39",
	},
	{
		"name": "YARCU",
		"latitude": "31-54-28.69 N",
		"longitude": "85-44-4.57 W",
		"state": "ALABAMA",
		"artcc": "ZTL",
		"type": "RNAV",
		"updated": "04/15/2014",
	},
	{
		"name": "YASLU",
		"latitude": "32-49-42.36 N",
		"longitude": "81-56-51.69 W",
		"state": "GEORGIA",
		"artcc": "ZTL",
		"type": "RNAV",
		"updated": "03/19/2008",
	},
	{
		"name": "YATES",
		"latitude": "32-55-14.01 N",
		"longitude": "84-11-11.64 W",
		"state": "GEORGIA",
		"artcc": "ZTL",
		"type": "RP",
		"updated": "OPN*LD*120.77/5.01",
	},
	{
		"name": "YAVUL",
		"latitude": "34-9-37.59 N",
		"longitude": "85-18-39.37 W",
		"state": "GEORGIA",
		"artcc": "ZTL",
		"type": "RP",
		"updated": "GQO*VORTAC*188.29/48.60",
	},
	{
		"name": "YEBUB",
		"latitude": "35-56-14.42 N",
		"longitude": "83-35-38.72 W",
		"state": "TENNESSEE",
		"artcc": "ZTL",
		"type": "RNAV",
		"updated": "08/10/2010",
	},
	{
		"name": "YEBUT",
		"latitude": "33-30-38.54 N",
		"longitude": "84-7-44.62 W",
		"state": "GEORGIA",
		"artcc": "ZTL",
		"type": "RNAV",
		"updated": "07/11/2013",
	},
	{
		"name": "YECCU",
		"latitude": "36-19-4.91 N",
		"longitude": "80-40-40.45 W",
		"state": "NORTH CAROLINA",
		"artcc": "ZTL",
		"type": "RNAV",
		"updated": "09/05/2014",
	},
	{
		"name": "YEGMY",
		"latitude": "34-24-59.51 N",
		"longitude": "82-57-0.17 W",
		"state": "GEORGIA",
		"artcc": "ZTL",
		"type": "RNAV",
		"updated": "02/02/2007",
	},
	{
		"name": "YEGNU",
		"latitude": "36-14-14.3 N",
		"longitude": "84-36-8.57 W",
		"state": "TENNESSEE",
		"artcc": "ZTL",
		"type": "RNAV",
		"updated": "10/25/2011",
	},
	{
		"name": "YELKS",
		"latitude": "35-20-32.84 N",
		"longitude": "81-1-43.76 W",
		"state": "NORTH CAROLINA",
		"artcc": "ZTL",
		"type": "RNAV",
		"updated": "02/03/2016",
	},
	{
		"name": "YENYU",
		"latitude": "31-27-12.4 N",
		"longitude": "87-17-52.08 W",
		"state": "ALABAMA",
		"artcc": "ZTL",
		"type": "RNAV",
		"updated": "02/27/2013",
	},
	{
		"name": "YEOLD",
		"latitude": "36-19-19.49 N",
		"longitude": "81-11-49.29 W",
		"state": "NORTH CAROLINA",
		"artcc": "ZTL",
		"type": "RNAV",
		"updated": "07/26/2016",
	},
	{
		"name": "YEPUK",
		"latitude": "33-57-6.25 N",
		"longitude": "84-54-14.74 W",
		"state": "GEORGIA",
		"artcc": "ZTL",
		"type": "RNAV",
		"updated": "02/02/2009",
	},
	{
		"name": "YESVU",
		"latitude": "34-19-29.05 N",
		"longitude": "84-46-58.93 W",
		"state": "GEORGIA",
		"artcc": "ZTL",
		"type": "RP",
		"updated": "RMG*VORTAC*058.77/19.35",
	},
	{
		"name": "YETPO",
		"latitude": "36-26-22.28 N",
		"longitude": "82-26-54.43 W",
		"state": "TENNESSEE",
		"artcc": "ZTL",
		"type": "RNAV",
		"updated": "12/14/2011",
	},
	{
		"name": "YIBUR",
		"latitude": "33-15-50.22 N",
		"longitude": "86-49-34.64 W",
		"state": "ALABAMA",
		"artcc": "ZTL",
		"type": "RNAV",
		"updated": "07/14/2010",
	},
	{
		"name": "YIBYI",
		"latitude": "31-44-10.5 N",
		"longitude": "86-16-47.98 W",
		"state": "ALABAMA",
		"artcc": "ZTL",
		"type": "CN",
		"updated": "12/04/2014",
	},
	{
		"name": "YICUT",
		"latitude": "36-50-33.86 N",
		"longitude": "81-23-57.42 W",
		"state": "VIRGINIA",
		"artcc": "ZTL",
		"type": "RNAV",
		"updated": "07/11/2016",
	},
	{
		"name": "YIDPO",
		"latitude": "35-53-57.02 N",
		"longitude": "80-38-39.97 W",
		"state": "NORTH CAROLINA",
		"artcc": "ZTL",
		"type": "RNAV",
		"updated": "04/21/2011",
	},
	{
		"name": "YIGUB",
		"latitude": "34-38-41.9 N",
		"longitude": "82-31-48.52 W",
		"state": "SOUTH CAROLINA",
		"artcc": "ZTL",
		"type": "RNAV",
		"updated": "09/22/2011",
	},
	{
		"name": "YIGUG",
		"latitude": "35-13-31.95 N",
		"longitude": "81-38-10.32 W",
		"state": "NORTH CAROLINA",
		"artcc": "ZTL",
		"type": "RNAV",
		"updated": "07/21/2011",
	},
	{
		"name": "YILUG",
		"latitude": "33-54-18.6 N",
		"longitude": "87-26-1.68 W",
		"state": "ALABAMA",
		"artcc": "ZTL",
		"type": "RNAV",
		"updated": "02/27/2012",
	},
	{
		"name": "YINNZ",
		"latitude": "33-29-36.27 N",
		"longitude": "84-54-40.65 W",
		"state": "GEORGIA",
		"artcc": "ZTL",
		"type": "RNAV",
		"updated": "04/02/2013",
	},
	{
		"name": "YIRUP",
		"latitude": "36-2-6.66 N",
		"longitude": "83-1-32.9 W",
		"state": "TENNESSEE",
		"artcc": "ZTL",
		"type": "RNAV",
		"updated": "04/01/2014",
	},
	{
		"name": "YIVUS",
		"latitude": "34-40-25.74 N",
		"longitude": "82-53-22.4 W",
		"state": "SOUTH CAROLINA",
		"artcc": "ZTL",
		"type": "RNAV",
		"updated": "09/25/2013",
	},
	{
		"name": "YNGUN",
		"latitude": "35-11-20.63 N",
		"longitude": "81-31-59.61 W",
		"state": "NORTH CAROLINA",
		"artcc": "ZTL",
		"type": "RNAV",
		"updated": "06/25/2015",
	},
	{
		"name": "YOBUD",
		"latitude": "35-58-22.82 N",
		"longitude": "84-14-0.33 W",
		"state": "TENNESSEE",
		"artcc": "ZTL",
		"type": "RP",
		"updated": "VXV*VORTAC*287.00/17.00",
	},
	{
		"name": "YOBUY",
		"latitude": "34-1-50.16 N",
		"longitude": "85-7-36.45 W",
		"state": "GEORGIA",
		"artcc": "ZTL",
		"type": "RNAV",
		"updated": "02/02/2009",
	},
	{
		"name": "YODRU",
		"latitude": "36-58-27.79 N",
		"longitude": "80-57-59.03 W",
		"state": "VIRGINIA",
		"artcc": "ZTL",
		"type": "RNAV",
		"updated": "03/19/2012",
	},
	{
		"name": "YODUL",
		"latitude": "35-1-33.47 N",
		"longitude": "85-5-12.29 W",
		"state": "TENNESSEE",
		"artcc": "ZTL",
		"type": "RNAV",
		"updated": "04/22/2014",
	},
	{
		"name": "YOKUS",
		"latitude": "34-58-13.56 N",
		"longitude": "86-4-25.24 W",
		"state": "ALABAMA",
		"artcc": "ZME",
		"type": "RNAV",
		"updated": "06/16/2008",
	},
	{
		"name": "YOLGU",
		"latitude": "32-39-41.07 N",
		"longitude": "83-41-34.39 W",
		"state": "GEORGIA",
		"artcc": "ZTL",
		"type": "RP",
		"updated": "MCN*VORTAC*/2.92",
	},
	{
		"name": "YONTO",
		"latitude": "35-50-51.86 N",
		"longitude": "83-28-11.29 W",
		"state": "TENNESSEE",
		"artcc": "ZTL",
		"type": "RNAV",
		"updated": "06/07/2010",
	},
	{
		"name": "YONUN",
		"latitude": "34-27-27.41 N",
		"longitude": "84-15-54.4 W",
		"state": "GEORGIA",
		"artcc": "ZTL",
		"type": "RNAV",
		"updated": "10/29/2007",
	},
	{
		"name": "YOPLU",
		"latitude": "35-11-49.1 N",
		"longitude": "84-55-59.97 W",
		"state": "TENNESSEE",
		"artcc": "ZTL",
		"type": "RNAV",
		"updated": "06/15/2011",
	},
	{
		"name": "YORUR",
		"latitude": "36-6-34.21 N",
		"longitude": "79-55-9.22 W",
		"state": "NORTH CAROLINA",
		"artcc": "ZTL",
		"type": "RNAV",
		"updated": "12/08/2008",
	},
	{
		"name": "YOSSU",
		"latitude": "36-31-19.47 N",
		"longitude": "82-21-16.38 W",
		"state": "TENNESSEE",
		"artcc": "ZTL",
		"type": "RNAV",
		"updated": "12/14/2011",
	},
	{
		"name": "YOSTR",
		"latitude": "36-16-31.2 N",
		"longitude": "76-37-18.97 W",
		"state": "NORTH CAROLINA",
		"artcc": "ZTL",
		"type": "RP",
		"updated": "EPR*LD*283.39/22.49",
	},
	{
		"name": "YOSVU",
		"latitude": "33-6-22.69 N",
		"longitude": "81-51-52.68 W",
		"state": "GEORGIA",
		"artcc": "ZTL",
		"type": "RNAV",
		"updated": "10/03/2014",
	},
	{
		"name": "YOUYU",
		"latitude": "33-38-1.95 N",
		"longitude": "83-59-28.02 W",
		"state": "GEORGIA",
		"artcc": "ZTL",
		"type": "RP",
		"updated": "09/07/2017",
	},
	{
		"name": "YOYNU",
		"latitude": "32-56-44.06 N",
		"longitude": "87-12-30.56 W",
		"state": "ALABAMA",
		"artcc": "ZTL",
		"type": "RNAV",
		"updated": "10/15/2007",
	},
	{
		"name": "YUCUB",
		"latitude": "32-31-46.19 N",
		"longitude": "84-14-42.69 W",
		"state": "GEORGIA",
		"artcc": "ZTL",
		"type": "RNAV",
		"updated": "07/11/2013",
	},
	{
		"name": "YUGUC",
		"latitude": "35-17-45.39 N",
		"longitude": "84-21-33.03 W",
		"state": "TENNESSEE",
		"artcc": "ZTL",
		"type": "RP",
		"updated": "HRS*VORTAC*314.21/30.39",
	},
	{
		"name": "YUKUG",
		"latitude": "35-28-1.38 N",
		"longitude": "84-38-28.76 W",
		"state": "TENNESSEE",
		"artcc": "ZTL",
		"type": "RNAV",
		"updated": "01/04/2013",
	},
	{
		"name": "YUMMY",
		"latitude": "36-36-26.54 N",
		"longitude": "82-40-52.85 W",
		"state": "VIRGINIA",
		"artcc": "ZTL",
		"type": "RP",
		"updated": "GZG*VOR/DME*248.00/31.85",
	},
	{
		"name": "YUNUC",
		"latitude": "34-38-43.35 N",
		"longitude": "81-55-57.32 W",
		"state": "SOUTH CAROLINA",
		"artcc": "ZTL",
		"type": "RNAV",
		"updated": "07/05/2013",
	},
	{
		"name": "YURII",
		"latitude": "33-32-13.67 N",
		"longitude": "84-2-7.59 W",
		"state": "GEORGIA",
		"artcc": "ZTL",
		"type": "RNAV",
		"updated": "08/22/2017",
	},
	{
		"name": "YURSU",
		"latitude": "36-2-33.92 N",
		"longitude": "83-34-18.03 W",
		"state": "TENNESSEE",
		"artcc": "ZTL",
		"type": "RNAV",
		"updated": "05/04/2011",
	},
	{
		"name": "YURUR",
		"latitude": "34-31-28.09 N",
		"longitude": "82-40-16.32 W",
		"state": "SOUTH CAROLINA",
		"artcc": "ZTL",
		"type": "RNAV",
		"updated": "02/02/2007",
	},
	{
		"name": "YUTUC",
		"latitude": "34-27-15.25 N",
		"longitude": "82-41-52.05 W",
		"state": "SOUTH CAROLINA",
		"artcc": "ZTL",
		"type": "RNAV",
		"updated": "09/25/2013",
	},
	{
		"name": "YUUNS",
		"latitude": "35-13-31.79 N",
		"longitude": "86-7-16.71 W",
		"state": "TENNESSEE",
		"artcc": "ZME",
		"type": "RNAV",
		"updated": "09/25/2012",
	},
	{
		"name": "YUYPY",
		"latitude": "36-40-44.59 N",
		"longitude": "80-49-16.67 W",
		"state": "VIRGINIA",
		"artcc": "ZTL",
		"type": "RNAV",
		"updated": "03/19/2012",
	},
