[
	{
		"name": "BAAKR",
		"latitude": "47-20-11.44 N",
		"longitude": "122-19-8.18 W",
		"state": "WASHINGTON",
		"artcc": "ZSE",
		"type": "RNAV",
		"updated": "06/04/2012"
	},
	{
		"name": "BAARB",
		"latitude": "41-9-27.38 N",
		"longitude": "120-6-49.2 W",
		"state": "CALIFORNIA",
		"artcc": "ZSE",
		"type": "RP",
		"updated": "LKV*VORTAC*148.44/82.00"
	},
	{
		"name": "BABRE",
		"latitude": "46-38-34.43 N",
		"longitude": "120-50-30.61 W",
		"state": "WASHINGTON",
		"artcc": "ZSE",
		"type": "RP",
		"updated": "YKM*VORTAC*/17.00"
	},
	{
		"name": "BACHS",
		"latitude": "41-15-42.44 N",
		"longitude": "121-0-4.5 W",
		"state": "CALIFORNIA",
		"artcc": "ZSE",
		"type": "RP",
		"updated": "LMT*VORTAC*131.35/62.63"
	},
	{
		"name": "BACON",
		"latitude": "48-43-17.45 N",
		"longitude": "122-23-9.77 W",
		"state": "WASHINGTON",
		"artcc": "ZSE",
		"type": "RP",
		"updated": "YVR*VOR/DME*103.98/37.00"
	},
	{
		"name": "BACUN",
		"latitude": "46-18-16.04 N",
		"longitude": "118-29-12.44 W",
		"state": "WASHINGTON",
		"artcc": "ZSE",
		"type": "RP",
		"updated": "PSC*VOR/DME*070.30/26.32"
	},
	{
		"name": "BACUP",
		"latitude": "45-35-2.94 N",
		"longitude": "122-34-5.8 W",
		"state": "OREGON",
		"artcc": "ZSE",
		"type": "WP",
		"updated": "10/24/1990"
	},
	{
		"name": "BADKE",
		"latitude": "47-59-6.5 N",
		"longitude": "117-25-52.5 W",
		"state": "WASHINGTON",
		"artcc": "ZSE",
		"type": "RNAV",
		"updated": "03/10/2016"
	},
	{
		"name": "BAKCA",
		"latitude": "46-30-16.84 N",
		"longitude": "119-9-58.82 W",
		"state": "WASHINGTON",
		"artcc": "ZSE",
		"type": "RP",
		"updated": "PSC*VOR/DME*336.78/14.22"
	},
	{
		"name": "BAKMN",
		"latitude": "47-18-18.38 N",
		"longitude": "122-19-9.13 W",
		"state": "WASHINGTON",
		"artcc": "ZSE",
		"type": "RNAV",
		"updated": "10/06/2014"
	},
	{
		"name": "BALDY",
		"latitude": "44-2-0 N",
		"longitude": "120-26-0 W",
		"state": "OREGON",
		"artcc": "ZSE",
		"type": "RNAV",
		"updated": "02/20/2002"
	},
	{
		"name": "BANCH",
		"latitude": "46-21-38.14 N",
		"longitude": "117-20-12.06 W",
		"state": "WASHINGTON",
		"artcc": "ZSE",
		"type": "RP",
		"updated": "MQG*VOR/DME*246.46/19.45"
	},
	{
		"name": "BANDR",
		"latitude": "47-15-30.14 N",
		"longitude": "121-29-32.11 W",
		"state": "WASHINGTON",
		"artcc": "ZSE",
		"type": "RP",
		"updated": "SEA*VORTAC*088.37/35.00"
	},
	{
		"name": "BANFO",
		"latitude": "47-0-14.98 N",
		"longitude": "122-17-19.61 W",
		"state": "WASHINGTON",
		"artcc": "ZSE",
		"type": "RNAV",
		"updated": "08/18/2015"
	},
	{
		"name": "BANGR",
		"latitude": "47-38-38.05 N",
		"longitude": "122-54-53.69 W",
		"state": "WASHINGTON",
		"artcc": "ZSE",
		"type": "RNAV",
		"updated": "02/16/2006"
	},
	{
		"name": "BAPLE",
		"latitude": "47-36-15.2 N",
		"longitude": "117-41-34.36 W",
		"state": "WASHINGTON",
		"artcc": "ZSE",
		"type": "MR",
		"updated": "SKA*TACAN*/1.30"
	},
	{
		"name": "BARKL",
		"latitude": "48-9-28.91 N",
		"longitude": "122-12-33.39 W",
		"state": "WASHINGTON",
		"artcc": "ZSE",
		"type": "RNAV",
		"updated": "01/11/2013"
	},
	{
		"name": "BARYN",
		"latitude": "47-34-0 N",
		"longitude": "120-5-40 W",
		"state": "WASHINGTON",
		"artcc": "ZSE",
		"type": "RNAV",
		"updated": "12/26/2017"
	},
	{
		"name": "BATCH",
		"latitude": "44-6-9.55 N",
		"longitude": "124-4-42.57 W",
		"state": "OREGON",
		"artcc": "ZSE",
		"type": "RNAV",
		"updated": "03/14/2011"
	},
	{
		"name": "BATEE",
		"latitude": "44-33-4.18 N",
		"longitude": "124-9-51.22 W",
		"state": "OREGON",
		"artcc": "ZSE",
		"type": "RNAV",
		"updated": "03/14/2011"
	},
	{
		"name": "BATKY",
		"latitude": "45-34-35.42 N",
		"longitude": "123-55-45.24 W",
		"state": "OREGON",
		"artcc": "ZSE",
		"type": "RNAV",
		"updated": "03/14/2011"
	},
	{
		"name": "BATTR",
		"latitude": "44-58-16.06 N",
		"longitude": "124-8-18.35 W",
		"state": "OREGON",
		"artcc": "ZSE",
		"type": "RNAV",
		"updated": "04/25/2011"
	},
	{
		"name": "BATUM",
		"latitude": "47-15-38.43 N",
		"longitude": "119-5-14.68 W",
		"state": "WASHINGTON",
		"artcc": "ZSE",
		"type": "RP",
		"updated": "MWH*VOR/DME*054.23/9.84"
	},
	{
		"name": "BATYL",
		"latitude": "45-44-52.04 N",
		"longitude": "122-35-29.61 W",
		"state": "WASHINGTON",
		"artcc": "ZSE",
		"type": "RNAV",
		"updated": "04/23/2015"
	},
	{
		"name": "BAYKA",
		"latitude": "45-46-38.64 N",
		"longitude": "119-8-4.62 W",
		"state": "OREGON",
		"artcc": "ZSE",
		"type": "RP",
		"updated": "PDT*VORTAC*280.00/9.50"
	},
	{
		"name": "BAYTS",
		"latitude": "42-4-39.5 N",
		"longitude": "123-6-33.32 W",
		"state": "OREGON",
		"artcc": "ZSE",
		"type": "RP",
		"updated": "OED*VORTAC*181.00/25.64"
	},
	{
		"name": "BAYYR",
		"latitude": "45-31-43.56 N",
		"longitude": "121-24-12.24 W",
		"state": "OREGON",
		"artcc": "ZSE",
		"type": "RNAV",
		"updated": "01/10/2013"
	},
	{
		"name": "BBELT",
		"latitude": "48-29-27.33 N",
		"longitude": "122-29-20.18 W",
		"state": "WASHINGTON",
		"artcc": "ZSE",
		"type": "RNAV",
		"updated": "01/17/2017"
	},
	{
		"name": "BBREW",
		"latitude": "45-34-39.31 N",
		"longitude": "122-49-23.96 W",
		"state": "OREGON",
		"artcc": "ZSE",
		"type": "RNAV",
		"updated": "08/28/2013"
	},
	{
		"name": "BCHLR",
		"latitude": "43-58-46 N",
		"longitude": "121-41-19 W",
		"state": "OREGON",
		"artcc": "ZSE",
		"type": "RNAV",
		"updated": "06/21/2005"
	},
	{
		"name": "BDDEE",
		"latitude": "46-25-54 N",
		"longitude": "119-36-14 W",
		"state": "WASHINGTON",
		"artcc": "ZSE",
		"type": "RNAV",
		"updated": "02/21/2014"
	},
	{
		"name": "BEARB",
		"latitude": "47-50-40.15 N",
		"longitude": "122-22-42.44 W",
		"state": "WASHINGTON",
		"artcc": "ZSE",
		"type": "RNAV",
		"updated": "05/04/2017"
	},
	{
		"name": "BEAST",
		"latitude": "45-36-14.47 N",
		"longitude": "122-50-51.85 W",
		"state": "OREGON",
		"artcc": "ZSE",
		"type": "MR",
		"updated": "CBU*TACAN*255.38/10.01"
	},
	{
		"name": "BEAVS",
		"latitude": "44-18-40.44 N",
		"longitude": "123-17-37.16 W",
		"state": "OREGON",
		"artcc": "ZSE",
		"type": "RP",
		"updated": "CVO*VOR/DME*162.00/11.30"
	},
	{
		"name": "BEEHI",
		"latitude": "47-18-52.33 N",
		"longitude": "120-16-2.42 W",
		"state": "WASHINGTON",
		"artcc": "ZSE",
		"type": "RP",
		"updated": "EAT*VOR/DME*185.30/5.61"
	},
	{
		"name": "BEEZR",
		"latitude": "47-7-28.93 N",
		"longitude": "120-53-44.19 W",
		"state": "WASHINGTON",
		"artcc": "ZSE",
		"type": "RP",
		"updated": "ELN*VOR/DME*267.73/18.91"
	},
	{
		"name": "BEKKR",
		"latitude": "47-16-59.38 N",
		"longitude": "122-18-33.59 W",
		"state": "WASHINGTON",
		"artcc": "ZSE",
		"type": "RNAV",
		"updated": "12/23/2013"
	},
	{
		"name": "BELNE",
		"latitude": "47-18-20.46 N",
		"longitude": "122-27-58.14 W",
		"state": "WASHINGTON",
		"artcc": "ZSE",
		"type": "RNAV",
		"updated": "05/13/2016"
	},
	{
		"name": "BENTY",
		"latitude": "46-16-47.84 N",
		"longitude": "119-25-25.54 W",
		"state": "WASHINGTON",
		"artcc": "ZSE",
		"type": "RP",
		"updated": "PSC*VOR/DME*257.72/12.77"
	},
	{
		"name": "BENZA",
		"latitude": "48-53-56.76 N",
		"longitude": "122-32-5.18 W",
		"state": "WASHINGTON",
		"artcc": "ZSE",
		"type": "WP",
		"updated": "05/23/2002"
	},
	{
		"name": "BEPAM",
		"latitude": "47-15-51.33 N",
		"longitude": "122-28-38.24 W",
		"state": "WASHINGTON",
		"artcc": "ZSE",
		"type": "MR",
		"updated": "TCM*VORTAC*344.25/7.00"
	},
	{
		"name": "BEPVE",
		"latitude": "42-12-36.3 N",
		"longitude": "120-23-55.6 W",
		"state": "OREGON",
		"artcc": "ZSE",
		"type": "RNAV",
		"updated": "01/30/2013"
	},
	{
		"name": "BERNI",
		"latitude": "45-7-15.37 N",
		"longitude": "123-12-27.6 W",
		"state": "OREGON",
		"artcc": "ZSE",
		"type": "RP",
		"updated": "UBG*VOR/DME*194.00/17.00"
	},
	{
		"name": "BESME",
		"latitude": "47-36-52.25 N",
		"longitude": "122-11-20.43 W",
		"state": "WASHINGTON",
		"artcc": "ZSE",
		"type": "RNAV",
		"updated": "08/17/2015"
	},
	{
		"name": "BEZOV",
		"latitude": "48-32-12.35 N",
		"longitude": "122-27-27.58 W",
		"state": "WASHINGTON",
		"artcc": "ZSE",
		"type": "RP",
		"updated": "HUH*VORTAC*148.82/25.00"
	},
	{
		"name": "BIBHO",
		"latitude": "47-41-10.69 N",
		"longitude": "117-18-55 W",
		"state": "WASHINGTON",
		"artcc": "ZSE",
		"type": "RNAV",
		"updated": "07/16/2013"
	},
	{
		"name": "BIDDS",
		"latitude": "42-14-31.97 N",
		"longitude": "121-24-47.66 W",
		"state": "OREGON",
		"artcc": "ZSE",
		"type": "RP",
		"updated": "LMT*VORTAC*052.03/15.00"
	},
	{
		"name": "BIDDY",
		"latitude": "46-34-17.17 N",
		"longitude": "117-24-49.45 W",
		"state": "WASHINGTON",
		"artcc": "ZSE",
		"type": "RP",
		"updated": "MQG*VOR/DME*276.99/25.28"
	},
	{
		"name": "BISLE",
		"latitude": "45-25-58.86 N",
		"longitude": "122-18-38.95 W",
		"state": "OREGON",
		"artcc": "ZSE",
		"type": "RNAV",
		"updated": "06/09/2008"
	},
	{
		"name": "BLAKO",
		"latitude": "47-19-35.77 N",
		"longitude": "122-4-5.28 W",
		"state": "WASHINGTON",
		"artcc": "ZSE",
		"type": "RP",
		"updated": "SEA*VORTAC*104.46/11.81"
	},
	{
		"name": "BLAZR",
		"latitude": "45-38-36.62 N",
		"longitude": "122-43-15.24 W",
		"state": "OREGON",
		"artcc": "ZSE",
		"type": "RP",
		"updated": "BTG*VORTAC*200.04"
	},
	{
		"name": "BLEIR",
		"latitude": "47-34-44.66 N",
		"longitude": "122-13-43.56 W",
		"state": "WASHINGTON",
		"artcc": "ZSE",
		"type": "RNAV",
		"updated": "06/28/2017"
	},
	{
		"name": "BLKLY",
		"latitude": "48-48-13.88 N",
		"longitude": "122-47-35.38 W",
		"state": "WASHINGTON",
		"artcc": "ZSE",
		"type": "RNAV",
		"updated": "04/21/2014"
	},
	{
		"name": "BLOWS",
		"latitude": "47-16-9.99 N",
		"longitude": "115-0-0.09 W",
		"state": "MONTANA",
		"artcc": "ZSE",
		"type": "RNAV",
		"updated": "04/05/2012"
	},
	{
		"name": "BLRUN",
		"latitude": "45-32-17.38 N",
		"longitude": "121-57-27.02 W",
		"state": "OREGON",
		"artcc": "ZSE",
		"type": "RNAV",
		"updated": "01/10/2013"
	},
	{
		"name": "BLUIT",
		"latitude": "47-24-21.36 N",
		"longitude": "120-25-5.51 W",
		"state": "WASHINGTON",
		"artcc": "ZSE",
		"type": "RP",
		"updated": "SEA*VORTAC*071.62/77.08"
	},
	{
		"name": "BLUNT",
		"latitude": "47-3-56.72 N",
		"longitude": "117-39-41.12 W",
		"state": "WASHINGTON",
		"artcc": "ZSE",
		"type": "RP",
		"updated": "GEG*VORTAC*161.71/30.00"
	},
	{
		"name": "BOANE",
		"latitude": "47-59-6 N",
		"longitude": "122-43-31 W",
		"state": "WASHINGTON",
		"artcc": "ZSE",
		"type": "RNAV",
		"updated": "09/21/2014"
	},
	{
		"name": "BOBAC",
		"latitude": "44-36-57.47 N",
		"longitude": "123-6-9.63 W",
		"state": "OREGON",
		"artcc": "ZSE",
		"type": "RNAV",
		"updated": "03/15/2011"
	},
	{
		"name": "BOCAT",
		"latitude": "48-20-32.01 N",
		"longitude": "122-9-44.74 W",
		"state": "WASHINGTON",
		"artcc": "ZSE",
		"type": "RP",
		"updated": "NUW*TACAN*074.00/20.00"
	},
	{
		"name": "BODKE",
		"latitude": "44-13-52.16 N",
		"longitude": "121-5-56.83 W",
		"state": "OREGON",
		"artcc": "ZSE",
		"type": "RNAV",
		"updated": "06/24/2015"
	},
	{
		"name": "BOILR",
		"latitude": "44-50-30.42 N",
		"longitude": "124-4-34.13 W",
		"state": "OREGON",
		"artcc": "ZSE",
		"type": "RP",
		"updated": "ONP*VORTAC*/16.00"
	},
	{
		"name": "BOJET",
		"latitude": "48-3-4.92 N",
		"longitude": "122-9-50.15 W",
		"state": "WASHINGTON",
		"artcc": "ZSE",
		"type": "RNAV",
		"updated": "11/04/2016"
	},
	{
		"name": "BONNR",
		"latitude": "47-12-59.39 N",
		"longitude": "121-38-4.36 W",
		"state": "WASHINGTON",
		"artcc": "ZSE",
		"type": "RP",
		"updated": "SEA*VORTAC*096.24/30.53"
	},
	{
		"name": "BONVL",
		"latitude": "45-30-48.02 N",
		"longitude": "121-54-14.32 W",
		"state": "OREGON",
		"artcc": "ZSE",
		"type": "RP",
		"updated": "LTJ*VOR/DME*229.73/35.90"
	},
	{
		"name": "BOPSS",
		"latitude": "46-35-48.11 N",
		"longitude": "120-39-21.77 W",
		"state": "WASHINGTON",
		"artcc": "ZSE",
		"type": "RNAV",
		"updated": "10/15/2009"
	},
	{
		"name": "BOSTO",
		"latitude": "47-10-57.6 N",
		"longitude": "122-50-30.72 W",
		"state": "WASHINGTON",
		"artcc": "ZSE",
		"type": "RP",
		"updated": "OLM*VORTAC*/12.90"
	},
	{
		"name": "BOSVE",
		"latitude": "44-9-34.66 N",
		"longitude": "124-5-59.14 W",
		"state": "OREGON",
		"artcc": "ZSE",
		"type": "RP",
		"updated": "ONP*VORTAC*168.88/25.00"
	},
	{
		"name": "BOTTL",
		"latitude": "44-22-1.01 N",
		"longitude": "121-28-21.48 W",
		"state": "OREGON",
		"artcc": "ZSE",
		"type": "RP",
		"updated": "DSD*VORTAC*295.30/10.00"
	},
	{
		"name": "BOVYA",
		"latitude": "47-3-41.32 N",
		"longitude": "120-14-14.51 W",
		"state": "WASHINGTON",
		"artcc": "ZSE",
		"type": "RP",
		"updated": "ELN*VOR/DME*055.12/9.34"
	},
	{
		"name": "BOXER",
		"latitude": "42-43-0 N",
		"longitude": "126-10-48 W",
		"state": "OFFSHORE PACIFIC",
		"artcc": "ZSE",
		"type": "RNAV",
		"updated": "05/07/2015"
	},
	{
		"name": "BREAF",
		"latitude": "45-1-51.49 N",
		"longitude": "123-5-54.25 W",
		"state": "OREGON",
		"artcc": "ZSE",
		"type": "RP",
		"updated": "UBG*VOR/DME*173.82/20.00"
	},
	{
		"name": "BREED",
		"latitude": "45-23-2.78 N",
		"longitude": "119-48-10.8 W",
		"state": "OREGON",
		"artcc": "ZSE",
		"type": "RP",
		"updated": "IMB*VOR/DME*335.00"
	},
	{
		"name": "BREMM",
		"latitude": "47-37-12 N",
		"longitude": "122-28-6 W",
		"state": "WASHINGTON",
		"artcc": "ZSE",
		"type": "RNAV",
		"updated": "05/14/2007"
	},
	{
		"name": "BRENN",
		"latitude": "48-32-24.95 N",
		"longitude": "122-33-30.34 W",
		"state": "WASHINGTON",
		"artcc": "ZSE",
		"type": "RNAV",
		"updated": "01/11/2013"
	},
	{
		"name": "BREVE",
		"latitude": "47-11-23.74 N",
		"longitude": "122-28-48.46 W",
		"state": "WASHINGTON",
		"artcc": "ZSE",
		"type": "RNAV",
		"updated": "01/10/2013"
	},
	{
		"name": "BREWW",
		"latitude": "44-0-25 N",
		"longitude": "120-50-0 W",
		"state": "OREGON",
		"artcc": "ZSE",
		"type": "RNAV",
		"updated": "02/20/2002"
	},
	{
		"name": "BRILO",
		"latitude": "40-26-44.34 N",
		"longitude": "123-46-53.58 W",
		"state": "CALIFORNIA",
		"artcc": "ZSE",
		"type": "RP",
		"updated": "ACV*VOR/DME*136.00"
	},
	{
		"name": "BRKET",
		"latitude": "42-2-50.31 N",
		"longitude": "122-44-37.49 W",
		"state": "OREGON",
		"artcc": "ZSE",
		"type": "RP",
		"updated": "OED*VORTAC*144.73/27.00"
	},
	{
		"name": "BROKN",
		"latitude": "42-45-37.47 N",
		"longitude": "122-57-53.29 W",
		"state": "OREGON",
		"artcc": "ZSE",
		"type": "RP",
		"updated": "OED*VORTAC*333.26/17.00"
	},
	{
		"name": "BRUKK",
		"latitude": "46-11-28.86 N",
		"longitude": "119-46-48.16 W",
		"state": "WASHINGTON",
		"artcc": "ZSE",
		"type": "RP",
		"updated": "PDT*VORTAC*290.33/46.00"
	},
	{
		"name": "BRUTE",
		"latitude": "42-24-27.1 N",
		"longitude": "122-43-21.12 W",
		"state": "OREGON",
		"artcc": "ZSE",
		"type": "RP",
		"updated": "OED*VORTAC*098.00/9.50"
	},
	{
		"name": "BRYNE",
		"latitude": "44-4-14.38 N",
		"longitude": "123-10-34.86 W",
		"state": "OREGON",
		"artcc": "ZSE",
		"type": "RNAV",
		"updated": "03/15/2011"
	},
	{
		"name": "BUCKK",
		"latitude": "47-19-43.74 N",
		"longitude": "122-18-32.16 W",
		"state": "WASHINGTON",
		"artcc": "ZSE",
		"type": "RP",
		"updated": "SEA*LD*S CRS/6.34"
	},
	{
		"name": "BUGNE",
		"latitude": "47-36-23.88 N",
		"longitude": "122-18-59.91 W",
		"state": "WASHINGTON",
		"artcc": "ZSE",
		"type": "RP",
		"updated": "CJL*LD*N CRS/10.14"
	},
	{
		"name": "BUHNR",
		"latitude": "48-10-18 N",
		"longitude": "122-53-27 W",
		"state": "WASHINGTON",
		"artcc": "ZSE",
		"type": "RNAV",
		"updated": "09/21/2014"
	},
	{
		"name": "BUHRS",
		"latitude": "44-41-8.83 N",
		"longitude": "124-3-57.11 W",
		"state": "OREGON",
		"artcc": "ZSE",
		"type": "RP",
		"updated": "ONP*VORTAC*343.05/6.63"
	},
	{
		"name": "BUMVE",
		"latitude": "45-46-4.39 N",
		"longitude": "118-21-53.73 W",
		"state": "OREGON",
		"artcc": "ZSE",
		"type": "RNAV",
		"updated": "05/08/2009"
	},
	{
		"name": "BURDI",
		"latitude": "48-26-23.22 N",
		"longitude": "121-34-46.83 W",
		"state": "WASHINGTON",
		"artcc": "ZSE",
		"type": "RP",
		"updated": "HUH*VORTAC*107.00/50.00"
	},
	{
		"name": "BURTY",
		"latitude": "44-54-9.77 N",
		"longitude": "122-53-20.88 W",
		"state": "OREGON",
		"artcc": "ZSE",
		"type": "RNAV",
		"updated": "03/15/2011"
	},
	{
		"name": "BUTOC",
		"latitude": "46-19-15.1 N",
		"longitude": "118-9-31.07 W",
		"state": "WASHINGTON",
		"artcc": "ZSE",
		"type": "RP",
		"updated": "PSC*VOR/DME*070.30/40.00"
	},
	{
		"name": "BUWZO",
		"latitude": "46-57-8.19 N",
		"longitude": "122-18-34.62 W",
		"state": "WASHINGTON",
		"artcc": "ZSE",
		"type": "RP",
		"updated": "SEA*VORTAC*161.00/29.00"
	},
	{
		"name": "BUXOM",
		"latitude": "45-41-51.27 N",
		"longitude": "122-51-38.38 W",
		"state": "OREGON",
		"artcc": "ZSE",
		"type": "RP",
		"updated": "BTG*VORTAC*234.17"
	},
	{
		"name": "BYKES",
		"latitude": "45-28-42.21 N",
		"longitude": "122-25-32.97 W",
		"state": "OREGON",
		"artcc": "ZSE",
		"type": "RNAV",
		"updated": "08/08/2012"
	},
	{
		"name": "BYMEE",
		"latitude": "44-23-58.44 N",
		"longitude": "123-17-37.16 W",
		"state": "OREGON",
		"artcc": "ZSE",
		"type": "RP",
		"updated": "CVO*VOR/DME*162.00/6.00"
	},
	{
		"name": "BZXIV",
		"latitude": "49-0-0 N",
		"longitude": "116-31-51.36 W",
		"state": "IDAHO",
		"artcc": "ZSE",
		"type": "CN",
		"updated": "07/25/2002"
	}
]
