[
	{
		"name": "CABAN",
		"latitude": "45-35-11.26 N",
		"longitude": "118-35-41.59 W",
		"state": "OREGON",
		"artcc": "ZSE",
		"type": "RP",
		"updated": "ALW*VOR/DME*182.99"
	},
	{
		"name": "CABGO",
		"latitude": "48-8-12.99 N",
		"longitude": "117-18-18.06 W",
		"state": "WASHINGTON",
		"artcc": "ZSE",
		"type": "RNAV",
		"updated": "03/10/2016"
	},
	{
		"name": "CADED",
		"latitude": "46-43-53.27 N",
		"longitude": "120-46-58.02 W",
		"state": "WASHINGTON",
		"artcc": "ZSE",
		"type": "RP",
		"updated": "YKM*VORTAC*283.82/17.00"
	},
	{
		"name": "CAGAM",
		"latitude": "47-35-57.35 N",
		"longitude": "117-42-31.11 W",
		"state": "WASHINGTON",
		"artcc": "ZSE",
		"type": "MR",
		"updated": "SKA*TACAN*235.00/2.00"
	},
	{
		"name": "CAGOG",
		"latitude": "44-20-40.11 N",
		"longitude": "120-55-43.27 W",
		"state": "OREGON",
		"artcc": "ZSE",
		"type": "RNAV",
		"updated": "07/01/2011"
	},
	{
		"name": "CAHLA",
		"latitude": "47-31-51.82 N",
		"longitude": "117-25-22.79 W",
		"state": "WASHINGTON",
		"artcc": "ZSE",
		"type": "RNAV",
		"updated": "01/24/2011"
	},
	{
		"name": "CAKIL",
		"latitude": "44-5-26.99 N",
		"longitude": "124-8-45.27 W",
		"state": "OREGON",
		"artcc": "ZSE",
		"type": "RNAV",
		"updated": "03/15/2011"
	},
	{
		"name": "CALAX",
		"latitude": "44-39-12.15 N",
		"longitude": "124-3-49.44 W",
		"state": "OREGON",
		"artcc": "ZSE",
		"type": "RNAV",
		"updated": "06/16/2016"
	},
	{
		"name": "CALBA",
		"latitude": "44-32-16.76 N",
		"longitude": "124-5-48.42 W",
		"state": "OREGON",
		"artcc": "ZSE",
		"type": "RNAV",
		"updated": "03/15/2011"
	},
	{
		"name": "CALBI",
		"latitude": "48-47-14.66 N",
		"longitude": "122-51-18.82 W",
		"state": "WASHINGTON",
		"artcc": "ZSE",
		"type": "RNAV",
		"updated": "12/10/2015"
	},
	{
		"name": "CAMAS",
		"latitude": "43-0-48.45 N",
		"longitude": "123-37-19.87 W",
		"state": "OREGON",
		"artcc": "ZSE",
		"type": "RP",
		"updated": "OTH*VOR/DME*119.99/34.00"
	},
	{
		"name": "CAMUR",
		"latitude": "47-20-35.31 N",
		"longitude": "120-5-15.09 W",
		"state": "WASHINGTON",
		"artcc": "ZSE",
		"type": "RNAV",
		"updated": "10/31/2016"
	},
	{
		"name": "CANAM",
		"latitude": "44-19-23.26 N",
		"longitude": "121-11-8.83 W",
		"state": "OREGON",
		"artcc": "ZSE",
		"type": "RNAV",
		"updated": "05/14/2014"
	},
	{
		"name": "CANBY",
		"latitude": "45-18-38.05 N",
		"longitude": "122-45-53.61 W",
		"state": "OREGON",
		"artcc": "ZSE",
		"type": "RP",
		"updated": "UBG*VOR/DME*084.76/9.38"
	},
	{
		"name": "CANDL",
		"latitude": "48-42-50.26 N",
		"longitude": "122-37-39.49 W",
		"state": "WASHINGTON",
		"artcc": "ZSE",
		"type": "RP",
		"updated": "HUH*VORTAC*167.88/14.02"
	},
	{
		"name": "CANKI",
		"latitude": "41-33-29.45 N",
		"longitude": "122-29-11.01 W",
		"state": "CALIFORNIA",
		"artcc": "ZSE",
		"type": "RNAV",
		"updated": "12/27/2016"
	},
	{
		"name": "CANUN",
		"latitude": "48-11-52.11 N",
		"longitude": "122-31-14.33 W",
		"state": "WASHINGTON",
		"artcc": "ZSE",
		"type": "MR",
		"updated": "NUW*TACAN*131.00/11.00"
	},
	{
		"name": "CANVA",
		"latitude": "45-31-54.1 N",
		"longitude": "123-57-38.78 W",
		"state": "OREGON",
		"artcc": "ZSE",
		"type": "RNAV",
		"updated": "03/15/2011"
	},
	{
		"name": "CARBY",
		"latitude": "45-44-5.96 N",
		"longitude": "121-55-31.67 W",
		"state": "WASHINGTON",
		"artcc": "ZSE",
		"type": "RP",
		"updated": "BTG*VORTAC*070.34/28.00"
	},
	{
		"name": "CARRO",
		"latitude": "47-17-38.03 N",
		"longitude": "122-51-27.86 W",
		"state": "WASHINGTON",
		"artcc": "ZSE",
		"type": "RP",
		"updated": "SEA*VORTAC*230.40/23.91"
	},
	{
		"name": "CARUT",
		"latitude": "47-33-25.85 N",
		"longitude": "117-37-46.32 W",
		"state": "WASHINGTON",
		"artcc": "ZSE",
		"type": "RP",
		"updated": "GEG*VORTAC*172.00"
	},
	{
		"name": "CASDA",
		"latitude": "47-30-52.05 N",
		"longitude": "122-18-26.31 W",
		"state": "WASHINGTON",
		"artcc": "ZSE",
		"type": "RNAV",
		"updated": "01/27/2013"
	},
	{
		"name": "CASHS",
		"latitude": "47-24-21.3 N",
		"longitude": "120-27-30.29 W",
		"state": "WASHINGTON",
		"artcc": "ZSE",
		"type": "RP",
		"updated": "EAT*VOR/DME*257.21/10.10"
	},
	{
		"name": "CATET",
		"latitude": "47-31-11.82 N",
		"longitude": "117-58-47.38 W",
		"state": "WASHINGTON",
		"artcc": "ZSE",
		"type": "MR",
		"updated": "SKA*TACAN*/14.00"
	},
	{
		"name": "CATMI",
		"latitude": "45-34-1.48 N",
		"longitude": "122-26-28.52 W",
		"state": "OREGON",
		"artcc": "ZSE",
		"type": "RNAV",
		"updated": "04/20/2015"
	},
	{
		"name": "CATUL",
		"latitude": "45-42-55.87 N",
		"longitude": "122-45-49.29 W",
		"state": "WASHINGTON",
		"artcc": "ZSE",
		"type": "RNAV",
		"updated": "08/15/2012"
	},
	{
		"name": "CAVOB",
		"latitude": "47-23-46.29 N",
		"longitude": "122-18-30.05 W",
		"state": "WASHINGTON",
		"artcc": "ZSE",
		"type": "RNAV",
		"updated": "09/25/2008"
	},
	{
		"name": "CAXAM",
		"latitude": "47-17-0.97 N",
		"longitude": "122-12-55.65 W",
		"state": "WASHINGTON",
		"artcc": "ZSE",
		"type": "RNAV",
		"updated": "07/13/2017"
	},
	{
		"name": "CAYJU",
		"latitude": "44-32-41.91 N",
		"longitude": "123-17-2.3 W",
		"state": "OREGON",
		"artcc": "ZSE",
		"type": "RNAV",
		"updated": "09/30/2016"
	},
	{
		"name": "CBAIN",
		"latitude": "47-37-23.66 N",
		"longitude": "122-24-41.51 W",
		"state": "WASHINGTON",
		"artcc": "ZSE",
		"type": "RNAV",
		"updated": "08/17/2017"
	},
	{
		"name": "CCAPS",
		"latitude": "41-28-40.2 N",
		"longitude": "121-48-51.96 W",
		"state": "CALIFORNIA",
		"artcc": "ZSE",
		"type": "RNAV",
		"updated": "04/24/2017"
	},
	{
		"name": "CCHUK",
		"latitude": "40-31-42.18 N",
		"longitude": "124-4-16.08 W",
		"state": "CALIFORNIA",
		"artcc": "ZSE",
		"type": "RNAV",
		"updated": "04/24/2017"
	},
	{
		"name": "CDGPN",
		"latitude": "48-22-47.94 N",
		"longitude": "123-9-42.43 W",
		"state": "WASHINGTON",
		"artcc": "ZSE",
		"type": "CN",
		"updated": "06/03/2002"
	},
	{
		"name": "CEBIK",
		"latitude": "44-55-48.11 N",
		"longitude": "124-5-54.01 W",
		"state": "OREGON",
		"artcc": "ZSE",
		"type": "RNAV",
		"updated": "03/15/2011"
	},
	{
		"name": "CEBOD",
		"latitude": "47-24-46.55 N",
		"longitude": "122-50-17.24 W",
		"state": "WASHINGTON",
		"artcc": "ZSE",
		"type": "RNAV",
		"updated": "06/25/2013"
	},
	{
		"name": "CEBTA",
		"latitude": "47-32-48.91 N",
		"longitude": "117-36-5.53 W",
		"state": "WASHINGTON",
		"artcc": "ZSE",
		"type": "RNAV",
		"updated": "07/15/2013"
	},
	{
		"name": "CEBUS",
		"latitude": "47-46-20.98 N",
		"longitude": "117-18-16.67 W",
		"state": "WASHINGTON",
		"artcc": "ZSE",
		"type": "RNAV",
		"updated": "09/27/2010"
	},
	{
		"name": "CEDUB",
		"latitude": "44-39-25.47 N",
		"longitude": "123-8-33.09 W",
		"state": "OREGON",
		"artcc": "ZSE",
		"type": "RNAV",
		"updated": "03/15/2011"
	},
	{
		"name": "CEGAN",
		"latitude": "42-16-26.18 N",
		"longitude": "122-22-22.39 W",
		"state": "OREGON",
		"artcc": "ZSE",
		"type": "RP",
		"updated": "OED*VORTAC*098.00/27.00"
	},
	{
		"name": "CEKPI",
		"latitude": "44-9-40.64 N",
		"longitude": "123-7-3.69 W",
		"state": "OREGON",
		"artcc": "ZSE",
		"type": "RNAV",
		"updated": "03/15/2011"
	},
	{
		"name": "CEKUG",
		"latitude": "41-49-51.52 N",
		"longitude": "121-36-43.62 W",
		"state": "CALIFORNIA",
		"artcc": "ZSE",
		"type": "MR",
		"updated": "LMT*VORTAC*148.00/20.00"
	},
	{
		"name": "CELAK",
		"latitude": "47-38-54.5 N",
		"longitude": "122-18-58.63 W",
		"state": "WASHINGTON",
		"artcc": "ZSE",
		"type": "RP",
		"updated": "CJL*LD*N CRS/12.65"
	},
	{
		"name": "CELIB",
		"latitude": "45-28-58.61 N",
		"longitude": "119-57-20.65 W",
		"state": "OREGON",
		"artcc": "ZSE",
		"type": "RNAV",
		"updated": "12/02/2004"
	},
	{
		"name": "CELUS",
		"latitude": "48-4-28.21 N",
		"longitude": "116-46-20.18 W",
		"state": "IDAHO",
		"artcc": "ZSE",
		"type": "RNAV",
		"updated": "05/13/2016"
	},
	{
		"name": "CELVA",
		"latitude": "44-7-39.01 N",
		"longitude": "121-13-5.38 W",
		"state": "OREGON",
		"artcc": "ZSE",
		"type": "RNAV",
		"updated": "12/05/2007"
	},
	{
		"name": "CEMAK",
		"latitude": "44-49-50.85 N",
		"longitude": "122-59-12.48 W",
		"state": "OREGON",
		"artcc": "ZSE",
		"type": "RNAV",
		"updated": "03/15/2011"
	},
	{
		"name": "CEMAR",
		"latitude": "44-34-18.48 N",
		"longitude": "124-3-33.83 W",
		"state": "OREGON",
		"artcc": "ZSE",
		"type": "RP",
		"updated": "ONP*VORTAC*151.45/0.22"
	},
	{
		"name": "CEMOM",
		"latitude": "47-52-38.93 N",
		"longitude": "117-23-38.69 W",
		"state": "WASHINGTON",
		"artcc": "ZSE",
		"type": "RP",
		"updated": "GEG*VORTAC*005.60/21.00"
	},
	{
		"name": "CENEV",
		"latitude": "46-23-19.53 N",
		"longitude": "117-10-6.81 W",
		"state": "WASHINGTON",
		"artcc": "ZSE",
		"type": "RNAV",
		"updated": "04/15/2010"
	},
	{
		"name": "CENEX",
		"latitude": "47-38-25.12 N",
		"longitude": "122-27-27.36 W",
		"state": "WASHINGTON",
		"artcc": "ZSE",
		"type": "RNAV",
		"updated": "07/16/2001"
	},
	{
		"name": "CEPER",
		"latitude": "46-28-11.37 N",
		"longitude": "116-25-47.6 W",
		"state": "IDAHO",
		"artcc": "ZSE",
		"type": "RP",
		"updated": "MQG*VOR/DME*053.65/19.00"
	},
	{
		"name": "CEPUM",
		"latitude": "48-49-18.69 N",
		"longitude": "122-32-15.49 W",
		"state": "WASHINGTON",
		"artcc": "ZSE",
		"type": "RP",
		"updated": "BLI*LD*343.85/2.45"
	},
	{
		"name": "CERAB",
		"latitude": "43-57-51.84 N",
		"longitude": "121-25-6.13 W",
		"state": "OREGON",
		"artcc": "ZSE",
		"type": "RP",
		"updated": "DSD*VORTAC*178.05/18.00"
	},
	{
		"name": "CEREP",
		"latitude": "47-43-34.22 N",
		"longitude": "122-11-2.31 W",
		"state": "WASHINGTON",
		"artcc": "ZSE",
		"type": "RNAV",
		"updated": "08/17/2015"
	},
	{
		"name": "CERGI",
		"latitude": "44-15-49.1 N",
		"longitude": "121-1-32.31 W",
		"state": "OREGON",
		"artcc": "ZSE",
		"type": "RP",
		"updated": "DSD*VORTAC*068.79/12.00"
	},
	{
		"name": "CEROS",
		"latitude": "42-25-16.96 N",
		"longitude": "122-35-4.36 W",
		"state": "OREGON",
		"artcc": "ZSE",
		"type": "RP",
		"updated": "OED*VORTAC*084.35/15.00"
	},
	{
		"name": "CESDO",
		"latitude": "44-26-44.54 N",
		"longitude": "123-18-3.32 W",
		"state": "OREGON",
		"artcc": "ZSE",
		"type": "RNAV",
		"updated": "07/15/2003"
	},
	{
		"name": "CESIG",
		"latitude": "47-57-10.89 N",
		"longitude": "116-29-43.39 W",
		"state": "IDAHO",
		"artcc": "ZSE",
		"type": "RNAV",
		"updated": "05/13/2016"
	},
	{
		"name": "CESIN",
		"latitude": "46-32-34.31 N",
		"longitude": "116-50-4.38 W",
		"state": "IDAHO",
		"artcc": "ZSE",
		"type": "RNAV",
		"updated": "02/07/2005"
	},
	{
		"name": "CESMI",
		"latitude": "45-41-42.85 N",
		"longitude": "118-54-3.34 W",
		"state": "OREGON",
		"artcc": "ZSE",
		"type": "RNAV",
		"updated": "05/08/2009"
	},
	{
		"name": "CESNO",
		"latitude": "47-48-18.64 N",
		"longitude": "117-0-8.22 W",
		"state": "IDAHO",
		"artcc": "ZSE",
		"type": "RNAV",
		"updated": "02/12/2014"
	},
	{
		"name": "CESUK",
		"latitude": "44-17-49.2 N",
		"longitude": "121-18-58.64 W",
		"state": "OREGON",
		"artcc": "ZSE",
		"type": "RNAV",
		"updated": "06/24/2015"
	},
	{
		"name": "CETEP",
		"latitude": "47-10-35.51 N",
		"longitude": "120-21-32.67 W",
		"state": "WASHINGTON",
		"artcc": "ZSE",
		"type": "RP",
		"updated": "ELN*VOR/DME*003.00/10.00"
	},
	{
		"name": "CETRA",
		"latitude": "46-43-48.8 N",
		"longitude": "122-59-45.19 W",
		"state": "WASHINGTON",
		"artcc": "ZSE",
		"type": "RP",
		"updated": "OLM*VORTAC*176.00/15.00"
	},
	{
		"name": "CETUV",
		"latitude": "46-35-59.91 N",
		"longitude": "123-21-20.75 W",
		"state": "WASHINGTON",
		"artcc": "ZSE",
		"type": "RP",
		"updated": "OLM*VORTAC*201.16/29.12"
	},
	{
		"name": "CEVBI",
		"latitude": "45-29-5.06 N",
		"longitude": "120-47-45.89 W",
		"state": "OREGON",
		"artcc": "ZSE",
		"type": "RP",
		"updated": "LTJ*VOR/DME*115.82/18.80"
	},
	{
		"name": "CEVET",
		"latitude": "46-55-52.27 N",
		"longitude": "122-29-1.52 W",
		"state": "WASHINGTON",
		"artcc": "ZSE",
		"type": "MR",
		"updated": "TCM*VORTAC*166.58/13.00"
	},
	{
		"name": "CEVLI",
		"latitude": "48-0-51.21 N",
		"longitude": "122-6-15.94 W",
		"state": "WASHINGTON",
		"artcc": "ZSE",
		"type": "RP",
		"updated": "PAE*VOR/DME*030.90/9.00"
	},
	{
		"name": "CEVOS",
		"latitude": "47-41-15.02 N",
		"longitude": "117-2-47.93 W",
		"state": "WASHINGTON",
		"artcc": "ZSE",
		"type": "RNAV",
		"updated": "07/15/2013"
	},
	{
		"name": "CEVUK",
		"latitude": "46-39-2.71 N",
		"longitude": "117-12-19.06 W",
		"state": "WASHINGTON",
		"artcc": "ZSE",
		"type": "RNAV",
		"updated": "03/28/2013"
	},
	{
		"name": "CEXEB",
		"latitude": "46-22-12.5 N",
		"longitude": "116-53-45.56 W",
		"state": "IDAHO",
		"artcc": "ZSE",
		"type": "RNAV",
		"updated": "04/15/2010"
	},
	{
		"name": "CEXOS",
		"latitude": "47-21-11.08 N",
		"longitude": "120-6-33.31 W",
		"state": "WASHINGTON",
		"artcc": "ZSE",
		"type": "RP",
		"updated": "EAT*VOR/DME*109.00/5.00"
	},
	{
		"name": "CEXUN",
		"latitude": "42-1-20.02 N",
		"longitude": "123-47-13.74 W",
		"state": "OREGON",
		"artcc": "ZSE",
		"type": "RP",
		"updated": "CEC*VORTAC*040.25/25.00"
	},
	{
		"name": "CFBBN",
		"latitude": "46-25-54.51 N",
		"longitude": "120-2-53.43 W",
		"state": "WASHINGTON",
		"artcc": "ZSE",
		"type": "CN",
		"updated": "02/06/2013"
	},
	{
		"name": "CFBBQ",
		"latitude": "46-31-5.52 N",
		"longitude": "120-20-37.64 W",
		"state": "WASHINGTON",
		"artcc": "ZSE",
		"type": "CN",
		"updated": "01/19/2012"
	},
	{
		"name": "CFBDX",
		"latitude": "44-11-45.67 N",
		"longitude": "120-56-24.97 W",
		"state": "OREGON",
		"artcc": "ZSE",
		"type": "CN",
		"updated": "05/14/2014"
	},
	{
		"name": "CFBDZ",
		"latitude": "44-7-7.83 N",
		"longitude": "121-12-23.84 W",
		"state": "OREGON",
		"artcc": "ZSE",
		"type": "CN",
		"updated": "05/15/2014"
	},
	{
		"name": "CFBFB",
		"latitude": "44-15-31.97 N",
		"longitude": "121-16-43.79 W",
		"state": "OREGON",
		"artcc": "ZSE",
		"type": "CN",
		"updated": "06/25/2015"
	},
	{
		"name": "CFBFC",
		"latitude": "44-16-3.16 N",
		"longitude": "121-16-28.74 W",
		"state": "OREGON",
		"artcc": "ZSE",
		"type": "CN",
		"updated": "06/25/2015"
	},
	{
		"name": "CFBGC",
		"latitude": "45-35-54.38 N",
		"longitude": "122-36-17.81 W",
		"state": "OREGON",
		"artcc": "ZSE",
		"type": "CN",
		"updated": "08/15/2012"
	},
	{
		"name": "CFBGF",
		"latitude": "46-41-40.14 N",
		"longitude": "117-9-30.47 W",
		"state": "WASHINGTON",
		"artcc": "ZSE",
		"type": "CN",
		"updated": "03/21/2013"
	},
	{
		"name": "CFBGG",
		"latitude": "46-43-19.73 N",
		"longitude": "117-15-55.64 W",
		"state": "WASHINGTON",
		"artcc": "ZSE",
		"type": "CN",
		"updated": "03/21/2013"
	},
	{
		"name": "CFBGH",
		"latitude": "46-43-13.75 N",
		"longitude": "117-15-55.1 W",
		"state": "WASHINGTON",
		"artcc": "ZSE",
		"type": "CN",
		"updated": "03/21/2013"
	},
	{
		"name": "CFBGJ",
		"latitude": "46-40-47.5 N",
		"longitude": "117-9-31.32 W",
		"state": "WASHINGTON",
		"artcc": "ZSE",
		"type": "CN",
		"updated": "03/21/2013"
	},
	{
		"name": "CFBGK",
		"latitude": "46-40-43.53 N",
		"longitude": "117-9-37.86 W",
		"state": "WASHINGTON",
		"artcc": "ZSE",
		"type": "CN",
		"updated": "03/21/2013"
	},
	{
		"name": "CFBHP",
		"latitude": "45-30-4.93 N",
		"longitude": "122-28-14.29 W",
		"state": "OREGON",
		"artcc": "ZSE",
		"type": "CN",
		"updated": "08/08/2012"
	},
	{
		"name": "CFBHQ",
		"latitude": "45-36-31.01 N",
		"longitude": "122-26-49.67 W",
		"state": "WASHINGTON",
		"artcc": "ZSE",
		"type": "CN",
		"updated": "04/23/2015"
	},
	{
		"name": "CFBHR",
		"latitude": "45-35-39.038 N",
		"longitude": "122-30-21.763 W",
		"state": "WASHINGTON",
		"artcc": "ZSE",
		"type": "CN",
		"updated": "12/31/2013"
	},
	{
		"name": "CFBHS",
		"latitude": "45-29-51.26 N",
		"longitude": "122-29-8.62 W",
		"state": "OREGON",
		"artcc": "ZSE",
		"type": "CN",
		"updated": "08/08/2012"
	},
	{
		"name": "CFBJH",
		"latitude": "45-35-12.89 N",
		"longitude": "122-31-19.58 W",
		"state": "OREGON",
		"artcc": "ZSE",
		"type": "CN",
		"updated": "04/20/2015"
	},
	{
		"name": "CFBLV",
		"latitude": "47-15-13.07 N",
		"longitude": "122-34-51.76 W",
		"state": "WASHINGTON",
		"artcc": "ZSE",
		"type": "CN",
		"updated": "10/28/2013"
	},
	{
		"name": "CFBMH",
		"latitude": "47-12-54.85 N",
		"longitude": "122-37-35.79 W",
		"state": "WASHINGTON",
		"artcc": "ZSE",
		"type": "CN",
		"updated": "03/04/2013"
	},
	{
		"name": "CFBRH",
		"latitude": "47-33-47.06 N",
		"longitude": "122-23-9.54 W",
		"state": "WASHINGTON",
		"artcc": "ZSE",
		"type": "CN",
		"updated": "10/08/2014"
	},
	{
		"name": "CFBRK",
		"latitude": "47-39-43.65 N",
		"longitude": "122-23-8.62 W",
		"state": "WASHINGTON",
		"artcc": "ZSE",
		"type": "CN",
		"updated": "10/08/2014"
	},
	{
		"name": "CFBRP",
		"latitude": "47-18-19.32 N",
		"longitude": "122-23-33.63 W",
		"state": "WASHINGTON",
		"artcc": "ZSE",
		"type": "CN",
		"updated": "01/27/2013"
	},
	{
		"name": "CFBRQ",
		"latitude": "47-18-11.37 N",
		"longitude": "122-22-25.05 W",
		"state": "WASHINGTON",
		"artcc": "ZSE",
		"type": "CN",
		"updated": "01/27/2013"
	},
	{
		"name": "CFBRX",
		"latitude": "47-33-16.96 N",
		"longitude": "122-23-36.33 W",
		"state": "WASHINGTON",
		"artcc": "ZSE",
		"type": "CN",
		"updated": "10/08/2014"
	},
	{
		"name": "CFBVT",
		"latitude": "44-10-50.95 N",
		"longitude": "121-12-21.16 W",
		"state": "OREGON",
		"artcc": "ZSE",
		"type": "CN",
		"updated": "05/15/2014"
	},
	{
		"name": "CFBVV",
		"latitude": "44-19-40.39 N",
		"longitude": "121-5-32.64 W",
		"state": "OREGON",
		"artcc": "ZSE",
		"type": "CN",
		"updated": "06/25/2015"
	},
	{
		"name": "CFBVW",
		"latitude": "44-19-40.39 N",
		"longitude": "121-5-32.62 W",
		"state": "OREGON",
		"artcc": "ZSE",
		"type": "CN",
		"updated": "06/25/2015"
	},
	{
		"name": "CFBVX",
		"latitude": "44-15-13.7 N",
		"longitude": "121-2-1.92 W",
		"state": "OREGON",
		"artcc": "ZSE",
		"type": "CN",
		"updated": "06/25/2015"
	},
	{
		"name": "CFBVZ",
		"latitude": "44-14-16.22 N",
		"longitude": "121-2-48.83 W",
		"state": "OREGON",
		"artcc": "ZSE",
		"type": "CN",
		"updated": "06/25/2015"
	},
	{
		"name": "CFBWC",
		"latitude": "44-14-15.91 N",
		"longitude": "121-1-48.04 W",
		"state": "OREGON",
		"artcc": "ZSE",
		"type": "CN",
		"updated": "06/25/2015"
	},
	{
		"name": "CFBWD",
		"latitude": "44-4-41.46 N",
		"longitude": "121-3-11.81 W",
		"state": "OREGON",
		"artcc": "ZSE",
		"type": "CN",
		"updated": "06/25/2015"
	},
	{
		"name": "CFBWF",
		"latitude": "44-10-15.79 N",
		"longitude": "120-57-8.15 W",
		"state": "OREGON",
		"artcc": "ZSE",
		"type": "CN",
		"updated": "06/25/2015"
	},
	{
		"name": "CFBWG",
		"latitude": "47-33-45.13 N",
		"longitude": "117-26-38.11 W",
		"state": "WASHINGTON",
		"artcc": "ZSE",
		"type": "CN",
		"updated": "02/12/2014"
	},
	{
		"name": "CFBWH",
		"latitude": "47-33-46.72 N",
		"longitude": "117-26-41.82 W",
		"state": "WASHINGTON",
		"artcc": "ZSE",
		"type": "CN",
		"updated": "02/12/2014"
	},
	{
		"name": "CFBWJ",
		"latitude": "47-40-4.48 N",
		"longitude": "117-26-36.2 W",
		"state": "WASHINGTON",
		"artcc": "ZSE",
		"type": "CN",
		"updated": "02/12/2014"
	},
	{
		"name": "CFBZG",
		"latitude": "47-42-3.34 N",
		"longitude": "122-22-32.23 W",
		"state": "WASHINGTON",
		"artcc": "ZSE",
		"type": "CN",
		"updated": "08/03/2017"
	},
	{
		"name": "CFCFF",
		"latitude": "47-9-46.03 N",
		"longitude": "122-43-59.98 W",
		"state": "WASHINGTON",
		"artcc": "ZSE",
		"type": "CN",
		"updated": "09/10/2015"
	},
	{
		"name": "CFCFL",
		"latitude": "47-15-50.42 N",
		"longitude": "119-54-58.34 W",
		"state": "WASHINGTON",
		"artcc": "ZSE",
		"type": "CN",
		"updated": "10/03/2016"
	},
	{
		"name": "CFCGL",
		"latitude": "47-14-20.74 N",
		"longitude": "119-51-44.84 W",
		"state": "WASHINGTON",
		"artcc": "ZSE",
		"type": "CN",
		"updated": "10/03/2016"
	},
	{
		"name": "CFCGR",
		"latitude": "47-23-26.2 N",
		"longitude": "120-11-55.45 W",
		"state": "WASHINGTON",
		"artcc": "ZSE",
		"type": "CN",
		"updated": "10/31/2016"
	},
	{
		"name": "CFCHS",
		"latitude": "47-33-47.07 N",
		"longitude": "122-23-9.54 W",
		"state": "WASHINGTON",
		"artcc": "ZSE",
		"type": "CN",
		"updated": "10/08/2014"
	},
	{
		"name": "CFCHX",
		"latitude": "47-33-3.24 N",
		"longitude": "122-25-59.23 W",
		"state": "WASHINGTON",
		"artcc": "ZSE",
		"type": "CN",
		"updated": "08/03/2017"
	},
	{
		"name": "CFCHZ",
		"latitude": "47-18-28.95 N",
		"longitude": "122-23-25.36 W",
		"state": "WASHINGTON",
		"artcc": "ZSE",
		"type": "CN",
		"updated": "10/08/2014"
	},
	{
		"name": "CFCYH",
		"latitude": "47-29-17.83 N",
		"longitude": "120-26-50.17 W",
		"state": "WASHINGTON",
		"artcc": "ZSE",
		"type": "CN",
		"updated": "12/04/2014"
	},
	{
		"name": "CFDRK",
		"latitude": "47-33-46.43 N",
		"longitude": "122-23-9.54 W",
		"state": "WASHINGTON",
		"artcc": "ZSE",
		"type": "CN",
		"updated": "10/08/2014"
	},
	{
		"name": "CFDSN",
		"latitude": "47-20-30.99 N",
		"longitude": "120-8-21.58 W",
		"state": "WASHINGTON",
		"artcc": "ZSE",
		"type": "CN",
		"updated": "10/03/2016"
	},
	{
		"name": "CFDXP",
		"latitude": "43-33-22.32 N",
		"longitude": "124-8-28.46 W",
		"state": "OREGON",
		"artcc": "ZSE",
		"type": "CN",
		"updated": "05/21/2015"
	},
	{
		"name": "CFEFF",
		"latitude": "47-51-57.71 N",
		"longitude": "122-19-45.05 W",
		"state": "WASHINGTON",
		"artcc": "ZSE",
		"type": "CN",
		"updated": "06/25/2013"
	},
	{
		"name": "CFEKE",
		"latitude": "47-56-50.87 N",
		"longitude": "122-29-58.56 W",
		"state": "WASHINGTON",
		"artcc": "ZSE",
		"type": "CN",
		"updated": "06/25/2013"
	},
	{
		"name": "CFFLK",
		"latitude": "44-11-6.53 N",
		"longitude": "123-15-32.15 W",
		"state": "OREGON",
		"artcc": "ZSE",
		"type": "CN",
		"updated": "11/01/2017"
	},
	{
		"name": "CFFLW",
		"latitude": "46-9-55.1 N",
		"longitude": "119-11-0.18 W",
		"state": "WASHINGTON",
		"artcc": "ZSE",
		"type": "CN",
		"updated": "09/12/2014"
	},
	{
		"name": "CFFLX",
		"latitude": "46-9-45.93 N",
		"longitude": "119-10-56.1 W",
		"state": "WASHINGTON",
		"artcc": "ZSE",
		"type": "CN",
		"updated": "09/12/2014"
	},
	{
		"name": "CFFLZ",
		"latitude": "46-13-14.67 N",
		"longitude": "119-16-4.5 W",
		"state": "WASHINGTON",
		"artcc": "ZSE",
		"type": "CN",
		"updated": "09/12/2014"
	},
	{
		"name": "CFFMB",
		"latitude": "46-16-19.65 N",
		"longitude": "118-57-15.69 W",
		"state": "WASHINGTON",
		"artcc": "ZSE",
		"type": "CN",
		"updated": "09/12/2014"
	},
	{
		"name": "CFFMC",
		"latitude": "46-9-45.35 N",
		"longitude": "119-11-9.9 W",
		"state": "WASHINGTON",
		"artcc": "ZSE",
		"type": "CN",
		"updated": "09/12/2014"
	},
	{
		"name": "CFFMJ",
		"latitude": "46-54-57.33 N",
		"longitude": "118-26-47.56 W",
		"state": "WASHINGTON",
		"artcc": "ZSE",
		"type": "CN",
		"updated": "09/21/2014"
	},
	{
		"name": "CFFML",
		"latitude": "46-21-29.01 N",
		"longitude": "119-9-34.8 W",
		"state": "WASHINGTON",
		"artcc": "ZSE",
		"type": "CN",
		"updated": "09/12/2014"
	},
	{
		"name": "CFFMW",
		"latitude": "46-16-48.91 N",
		"longitude": "119-16-28.71 W",
		"state": "WASHINGTON",
		"artcc": "ZSE",
		"type": "CN",
		"updated": "09/12/2014"
	},
	{
		"name": "CFFMX",
		"latitude": "46-15-24 N",
		"longitude": "118-57-14.67 W",
		"state": "WASHINGTON",
		"artcc": "ZSE",
		"type": "CN",
		"updated": "09/12/2014"
	},
	{
		"name": "CFFNM",
		"latitude": "46-16-55.18 N",
		"longitude": "119-1-28.63 W",
		"state": "WASHINGTON",
		"artcc": "ZSE",
		"type": "CN",
		"updated": "09/12/2014"
	},
	{
		"name": "CFFNP",
		"latitude": "46-15-56.14 N",
		"longitude": "119-18-4.68 W",
		"state": "WASHINGTON",
		"artcc": "ZSE",
		"type": "CN",
		"updated": "09/12/2014"
	},
	{
		"name": "CFFNR",
		"latitude": "46-20-10.55 N",
		"longitude": "119-5-49.53 W",
		"state": "WASHINGTON",
		"artcc": "ZSE",
		"type": "CN",
		"updated": "09/12/2014"
	},
	{
		"name": "CFFNT",
		"latitude": "46-14-1 N",
		"longitude": "118-59-17.93 W",
		"state": "WASHINGTON",
		"artcc": "ZSE",
		"type": "CN",
		"updated": "09/12/2014"
	},
	{
		"name": "CFFNV",
		"latitude": "46-16-31.5 N",
		"longitude": "119-16-54.38 W",
		"state": "WASHINGTON",
		"artcc": "ZSE",
		"type": "CN",
		"updated": "09/12/2014"
	},
	{
		"name": "CFFNW",
		"latitude": "46-16-41.38 N",
		"longitude": "118-5-17.02 W",
		"state": "WASHINGTON",
		"artcc": "ZSE",
		"type": "CN",
		"updated": "10/09/2014"
	},
	{
		"name": "CFFPK",
		"latitude": "46-10-31.97 N",
		"longitude": "119-4-27.67 W",
		"state": "WASHINGTON",
		"artcc": "ZSE",
		"type": "CN",
		"updated": "09/12/2014"
	},
	{
		"name": "CFFPL",
		"latitude": "46-16-44.45 N",
		"longitude": "119-1-0.12 W",
		"state": "WASHINGTON",
		"artcc": "ZSE",
		"type": "CN",
		"updated": "09/12/2014"
	},
	{
		"name": "CFFQK",
		"latitude": "46-35-7.99 N",
		"longitude": "120-23-8.07 W",
		"state": "WASHINGTON",
		"artcc": "ZSE",
		"type": "CN",
		"updated": "01/11/2018"
	},
	{
		"name": "CFFSK",
		"latitude": "44-43-59.01 N",
		"longitude": "123-15-6.08 W",
		"state": "OREGON",
		"artcc": "ZSE",
		"type": "CN",
		"updated": "10/03/2016"
	},
	{
		"name": "CFFSV",
		"latitude": "44-2-18.41 N",
		"longitude": "123-17-58.83 W",
		"state": "OREGON",
		"artcc": "ZSE",
		"type": "CN",
		"updated": "11/01/2017"
	},
	{
		"name": "CFFVN",
		"latitude": "48-43-36.91 N",
		"longitude": "122-35-41.26 W",
		"state": "WASHINGTON",
		"artcc": "ZSE",
		"type": "CN",
		"updated": "11/12/2015"
	},
	{
		"name": "CFFVP",
		"latitude": "48-53-42.65 N",
		"longitude": "122-35-19.29 W",
		"state": "WASHINGTON",
		"artcc": "ZSE",
		"type": "CN",
		"updated": "11/12/2015"
	},
	{
		"name": "CFFVS",
		"latitude": "45-36-26.79 N",
		"longitude": "122-46-32.57 W",
		"state": "OREGON",
		"artcc": "ZSE",
		"type": "CN",
		"updated": "08/08/2012"
	},
	{
		"name": "CFFVT",
		"latitude": "45-41-3.5 N",
		"longitude": "122-42-54.6 W",
		"state": "WASHINGTON",
		"artcc": "ZSE",
		"type": "CN",
		"updated": "08/15/2012"
	},
	{
		"name": "CFFWG",
		"latitude": "45-41-16.915 N",
		"longitude": "122-42-44.013 W",
		"state": "WASHINGTON",
		"artcc": "ZSE",
		"type": "CN",
		"updated": "12/31/2013"
	},
	{
		"name": "CFFWH",
		"latitude": "45-36-53.61 N",
		"longitude": "122-46-11.49 W",
		"state": "OREGON",
		"artcc": "ZSE",
		"type": "CN",
		"updated": "08/08/2012"
	},
	{
		"name": "CFFWM",
		"latitude": "47-40-9.98 N",
		"longitude": "122-35-38 W",
		"state": "WASHINGTON",
		"artcc": "ZSE",
		"type": "CN",
		"updated": "06/25/2013"
	},
	{
		"name": "CFFZK",
		"latitude": "47-18-43.48 N",
		"longitude": "119-58-45.14 W",
		"state": "WASHINGTON",
		"artcc": "ZSE",
		"type": "CN",
		"updated": "10/04/2016"
	},
	{
		"name": "CFGBD",
		"latitude": "47-31-45.86 N",
		"longitude": "120-12-40.57 W",
		"state": "WASHINGTON",
		"artcc": "ZSE",
		"type": "CN",
		"updated": "10/04/2016"
	},
	{
		"name": "CFGBT",
		"latitude": "47-29-38.14 N",
		"longitude": "120-14-10 W",
		"state": "WASHINGTON",
		"artcc": "ZSE",
		"type": "CN",
		"updated": "10/04/2016"
	},
	{
		"name": "CFGBZ",
		"latitude": "42-30-46.94 N",
		"longitude": "123-23-50.82 W",
		"state": "OREGON",
		"artcc": "ZSE",
		"type": "CN",
		"updated": "12/08/2017"
	},
	{
		"name": "CFGHB",
		"latitude": "46-53-49.39 N",
		"longitude": "122-28-29.8 W",
		"state": "WASHINGTON",
		"artcc": "ZSE",
		"type": "CN",
		"updated": "02/24/2016"
	},
	{
		"name": "CFHKW",
		"latitude": "46-43-19.36 N",
		"longitude": "116-59-25.44 W",
		"state": "IDAHO",
		"artcc": "ZSE",
		"type": "CN",
		"updated": "08/12/2015"
	},
	{
		"name": "CFIDJ",
		"latitude": "45-45-24.1 N",
		"longitude": "119-4-58.71 W",
		"state": "OREGON",
		"artcc": "ZSE",
		"type": "CN",
		"updated": "12/04/2014"
	},
	{
		"name": "CFIHP",
		"latitude": "47-32-23.83 N",
		"longitude": "120-8-17.71 W",
		"state": "WASHINGTON",
		"artcc": "ZSE",
		"type": "CN",
		"updated": "10/04/2016"
	},
	{
		"name": "CFJOA",
		"latitude": "43-58-20.41 N",
		"longitude": "123-11-38.11 W",
		"state": "OREGON",
		"artcc": "ZSE",
		"type": "CN",
		"updated": "12/04/2014"
	},
	{
		"name": "CFKTV",
		"latitude": "46-52-16.03 N",
		"longitude": "122-28-29.21 W",
		"state": "WASHINGTON",
		"artcc": "ZSE",
		"type": "CN",
		"updated": "02/24/2016"
	},
	{
		"name": "CFLBG",
		"latitude": "47-18-10.47 N",
		"longitude": "119-57-22.15 W",
		"state": "WASHINGTON",
		"artcc": "ZSE",
		"type": "CN",
		"updated": "10/04/2016"
	},
	{
		"name": "CFLCD",
		"latitude": "46-7-13.78 N",
		"longitude": "123-19-23.87 W",
		"state": "OREGON",
		"artcc": "ZSE",
		"type": "CN",
		"updated": "09/12/2014"
	},
	{
		"name": "CFLFG",
		"latitude": "44-2-36.58 N",
		"longitude": "123-5-47.76 W",
		"state": "OREGON",
		"artcc": "ZSE",
		"type": "CN",
		"updated": "11/01/2017"
	},
	{
		"name": "CFLSK",
		"latitude": "46-20-33.14 N",
		"longitude": "116-44-22.05 W",
		"state": "IDAHO",
		"artcc": "ZSE",
		"type": "CN",
		"updated": "10/29/2012"
	},
	{
		"name": "CFLSZ",
		"latitude": "44-11-2.59 N",
		"longitude": "123-15-35.64 W",
		"state": "OREGON",
		"artcc": "ZSE",
		"type": "CN",
		"updated": "11/01/2017"
	},
	{
		"name": "CFLTZ",
		"latitude": "43-19-19.54 N",
		"longitude": "124-20-47.23 W",
		"state": "OREGON",
		"artcc": "ZSE",
		"type": "CN",
		"updated": "04/28/2015"
	},
	{
		"name": "CFMFT",
		"latitude": "47-33-46.43 N",
		"longitude": "122-23-9.55 W",
		"state": "WASHINGTON",
		"artcc": "ZSE",
		"type": "CN",
		"updated": "10/08/2014"
	},
	{
		"name": "CFPGB",
		"latitude": "44-17-42.25 N",
		"longitude": "120-54-50.68 W",
		"state": "OREGON",
		"artcc": "ZSE",
		"type": "CN",
		"updated": "12/14/2017"
	},
	{
		"name": "CFPGT",
		"latitude": "44-2-29.74 N",
		"longitude": "123-19-20.51 W",
		"state": "OREGON",
		"artcc": "ZSE",
		"type": "CN",
		"updated": "11/01/2017"
	},
	{
		"name": "CFPKB",
		"latitude": "44-2-31.39 N",
		"longitude": "123-5-56.01 W",
		"state": "OREGON",
		"artcc": "ZSE",
		"type": "CN",
		"updated": "11/01/2017"
	},
	{
		"name": "CFPKL",
		"latitude": "46-28-31.3 N",
		"longitude": "120-26-2.42 W",
		"state": "WASHINGTON",
		"artcc": "ZSE",
		"type": "CN",
		"updated": "01/12/2018"
	},
	{
		"name": "CFPKQ",
		"latitude": "44-11-15.4 N",
		"longitude": "123-9-51.7 W",
		"state": "OREGON",
		"artcc": "ZSE",
		"type": "CN",
		"updated": "11/01/2017"
	},
	{
		"name": "CFPTD",
		"latitude": "43-24-27.94 N",
		"longitude": "124-24-45.63 W",
		"state": "OREGON",
		"artcc": "ZSE",
		"type": "CN",
		"updated": "04/28/2015"
	},
	{
		"name": "CFRDK",
		"latitude": "46-34-54.33 N",
		"longitude": "120-22-39.46 W",
		"state": "WASHINGTON",
		"artcc": "ZSE",
		"type": "CN",
		"updated": "01/11/2018"
	},
	{
		"name": "CFRFB",
		"latitude": "48-42-13.57 N",
		"longitude": "122-54-50.12 W",
		"state": "WASHINGTON",
		"artcc": "ZSE",
		"type": "CN",
		"updated": "12/10/2015"
	},
	{
		"name": "CFRPS",
		"latitude": "48-42-54.78 N",
		"longitude": "122-55-7.68 W",
		"state": "WASHINGTON",
		"artcc": "ZSE",
		"type": "CN",
		"updated": "12/10/2015"
	},
	{
		"name": "CFRRP",
		"latitude": "44-11-5.65 N",
		"longitude": "123-8-58.55 W",
		"state": "OREGON",
		"artcc": "ZSE",
		"type": "CN",
		"updated": "11/01/2017"
	},
	{
		"name": "CFRVG",
		"latitude": "44-11-0.05 N",
		"longitude": "123-8-55.62 W",
		"state": "OREGON",
		"artcc": "ZSE",
		"type": "CN",
		"updated": "11/01/2017"
	},
	{
		"name": "CFTGH",
		"latitude": "46-52-48.44 N",
		"longitude": "122-29-8.86 W",
		"state": "WASHINGTON",
		"artcc": "ZSE",
		"type": "CN",
		"updated": "02/24/2016"
	},
	{
		"name": "CFVBB",
		"latitude": "47-29-20.9 N",
		"longitude": "120-16-4.74 W",
		"state": "WASHINGTON",
		"artcc": "ZSE",
		"type": "CN",
		"updated": "10/04/2016"
	},
	{
		"name": "CFVBS",
		"latitude": "47-32-14.26 N",
		"longitude": "120-8-25.24 W",
		"state": "WASHINGTON",
		"artcc": "ZSE",
		"type": "CN",
		"updated": "10/04/2016"
	},
	{
		"name": "CFVDJ",
		"latitude": "44-2-25.15 N",
		"longitude": "123-19-13.33 W",
		"state": "OREGON",
		"artcc": "ZSE",
		"type": "CN",
		"updated": "11/02/2017"
	},
	{
		"name": "CFVFF",
		"latitude": "44-9-49.61 N",
		"longitude": "122-59-7.78 W",
		"state": "OREGON",
		"artcc": "ZSE",
		"type": "CN",
		"updated": "11/01/2017"
	},
	{
		"name": "CFVFW",
		"latitude": "47-23-12.62 N",
		"longitude": "120-8-33.6 W",
		"state": "WASHINGTON",
		"artcc": "ZSE",
		"type": "CN",
		"updated": "10/04/2016"
	},
	{
		"name": "CFVGZ",
		"latitude": "46-29-1.03 N",
		"longitude": "120-39-4.79 W",
		"state": "WASHINGTON",
		"artcc": "ZSE",
		"type": "CN",
		"updated": "01/11/2018"
	},
	{
		"name": "CFVHN",
		"latitude": "44-11-2.35 N",
		"longitude": "123-15-30.46 W",
		"state": "OREGON",
		"artcc": "ZSE",
		"type": "CN",
		"updated": "11/01/2017"
	},
	{
		"name": "CFVHV",
		"latitude": "44-2-24.4 N",
		"longitude": "123-4-48.19 W",
		"state": "OREGON",
		"artcc": "ZSE",
		"type": "CN",
		"updated": "11/01/2017"
	},
	{
		"name": "CFVKD",
		"latitude": "44-11-12.18 N",
		"longitude": "123-16-31.9 W",
		"state": "OREGON",
		"artcc": "ZSE",
		"type": "CN",
		"updated": "11/02/2017"
	},
	{
		"name": "CFVMN",
		"latitude": "46-28-10.65 N",
		"longitude": "120-38-38.12 W",
		"state": "WASHINGTON",
		"artcc": "ZSE",
		"type": "CN",
		"updated": "01/11/2018"
	},
	{
		"name": "CFVNF",
		"latitude": "46-30-43.87 N",
		"longitude": "120-40-20.65 W",
		"state": "WASHINGTON",
		"artcc": "ZSE",
		"type": "CN",
		"updated": "01/12/2018"
	},
	{
		"name": "CFVNT",
		"latitude": "45-32-59.44 N",
		"longitude": "122-57-32.62 W",
		"state": "OREGON",
		"artcc": "ZSE",
		"type": "CN",
		"updated": "03/23/2015"
	},
	{
		"name": "CFVPG",
		"latitude": "44-2-34.21 N",
		"longitude": "123-5-45.44 W",
		"state": "OREGON",
		"artcc": "ZSE",
		"type": "CN",
		"updated": "11/01/2017"
	},
	{
		"name": "CFVRW",
		"latitude": "46-29-0.79 N",
		"longitude": "120-26-10.26 W",
		"state": "WASHINGTON",
		"artcc": "ZSE",
		"type": "CN",
		"updated": "01/12/2018"
	},
	{
		"name": "CFXPL",
		"latitude": "46-53-36.98 N",
		"longitude": "122-29-6.92 W",
		"state": "WASHINGTON",
		"artcc": "ZSE",
		"type": "CN",
		"updated": "02/24/2016"
	},
	{
		"name": "CHAMM",
		"latitude": "46-22-2.46 N",
		"longitude": "117-11-27.57 W",
		"state": "WASHINGTON",
		"artcc": "ZSE",
		"type": "RP",
		"updated": "MQG*VOR/DME*246.46/13.38"
	},
	{
		"name": "CHASS",
		"latitude": "45-45-22.61 N",
		"longitude": "117-44-56.73 W",
		"state": "OREGON",
		"artcc": "ZSE",
		"type": "RP",
		"updated": "PDT*VORTAC*065.60/50.12"
	},
	{
		"name": "CHAZZ",
		"latitude": "46-19-59.07 N",
		"longitude": "119-27-1.41 W",
		"state": "WASHINGTON",
		"artcc": "ZSE",
		"type": "RP",
		"updated": "PSC*VOR/DME*270.34/14.36"
	},
	{
		"name": "CHECO",
		"latitude": "47-34-19.26 N",
		"longitude": "122-41-13.02 W",
		"state": "WASHINGTON",
		"artcc": "ZSE",
		"type": "RP",
		"updated": "SEA*VORTAC*279.26"
	},
	{
		"name": "CHEEZ",
		"latitude": "43-45-29.71 N",
		"longitude": "122-56-19.54 W",
		"state": "OREGON",
		"artcc": "ZSE",
		"type": "RP",
		"updated": "EUG*VORTAC*130.39/25.00"
	},
	{
		"name": "CHENY",
		"latitude": "47-12-42.16 N",
		"longitude": "122-28-37.02 W",
		"state": "WASHINGTON",
		"artcc": "ZSE",
		"type": "MR",
		"updated": "TCM*VORTAC*/3.85"
	},
	{
		"name": "CHEPO",
		"latitude": "44-36-9.32 N",
		"longitude": "123-15-18.05 W",
		"state": "OREGON",
		"artcc": "ZSE",
		"type": "RP",
		"updated": "CVO*VOR/DME*357.00/6.40"
	},
	{
		"name": "CHIDE",
		"latitude": "41-35-48.31 N",
		"longitude": "124-14-23.24 W",
		"state": "CALIFORNIA",
		"artcc": "ZSE",
		"type": "RP",
		"updated": "CEC*VORTAC*165.75/11.00"
	},
	{
		"name": "CHINS",
		"latitude": "46-48-41.42 N",
		"longitude": "120-57-7.77 W",
		"state": "WASHINGTON",
		"artcc": "ZSE",
		"type": "RP",
		"updated": "ELN*VOR/DME*217.00"
	},
	{
		"name": "CHISM",
		"latitude": "45-3-43.82 N",
		"longitude": "122-9-8.87 W",
		"state": "OREGON",
		"artcc": "ZSE",
		"type": "RNAV",
		"updated": "07/27/2010"
	},
	{
		"name": "CHITS",
		"latitude": "47-25-59.39 N",
		"longitude": "121-34-4.35 W",
		"state": "WASHINGTON",
		"artcc": "ZSE",
		"type": "RP",
		"updated": "SEA*VORTAC*070.98/30.21"
	},
	{
		"name": "CHOIR",
		"latitude": "41-31-30.95 N",
		"longitude": "120-13-13.2 W",
		"state": "CALIFORNIA",
		"artcc": "ZSE",
		"type": "RP",
		"updated": "LKV*VORTAC*148.44/59.43"
	},
	{
		"name": "CICRO",
		"latitude": "40-41-20.7 N",
		"longitude": "124-9-53.04 W",
		"state": "CALIFORNIA",
		"artcc": "ZSE",
		"type": "RNAV",
		"updated": "04/24/2017"
	},
	{
		"name": "CIDBO",
		"latitude": "46-40-25.59 N",
		"longitude": "117-10-43.11 W",
		"state": "WASHINGTON",
		"artcc": "ZSE",
		"type": "RNAV",
		"updated": "08/12/2015"
	},
	{
		"name": "CIDEM",
		"latitude": "44-14-2.58 N",
		"longitude": "123-7-15.74 W",
		"state": "OREGON",
		"artcc": "ZSE",
		"type": "RNAV",
		"updated": "07/01/2011"
	},
	{
		"name": "CIDOG",
		"latitude": "46-47-12.39 N",
		"longitude": "120-27-4.26 W",
		"state": "WASHINGTON",
		"artcc": "ZSE",
		"type": "RP",
		"updated": "YKM*VORTAC*337.81/13.00"
	},
	{
		"name": "CIDUG",
		"latitude": "47-0-28.09 N",
		"longitude": "122-22-57.83 W",
		"state": "WASHINGTON",
		"artcc": "ZSE",
		"type": "RP",
		"updated": "SEA*VORTAC*167.67/25.84"
	},
	{
		"name": "CIGCA",
		"latitude": "41-36-39.6 N",
		"longitude": "124-17-27.58 W",
		"state": "CALIFORNIA",
		"artcc": "ZSE",
		"type": "RNAV",
		"updated": "04/24/2017"
	},
	{
		"name": "CIGOP",
		"latitude": "45-24-34.54 N",
		"longitude": "122-58-12.11 W",
		"state": "OREGON",
		"artcc": "ZSE",
		"type": "RP",
		"updated": "UBG*VOR/DME*344.80/3.40"
	},
	{
		"name": "CIGRU",
		"latitude": "45-9-51.53 N",
		"longitude": "122-47-4.97 W",
		"state": "OREGON",
		"artcc": "ZSE",
		"type": "RNAV",
		"updated": "02/22/2017"
	},
	{
		"name": "CIGUM",
		"latitude": "47-22-37.55 N",
		"longitude": "119-25-30.16 W",
		"state": "WASHINGTON",
		"artcc": "ZSE",
		"type": "RNAV",
		"updated": "04/01/2009"
	},
	{
		"name": "CIKLA",
		"latitude": "47-13-51.53 N",
		"longitude": "119-37-23.7 W",
		"state": "WASHINGTON",
		"artcc": "ZSE",
		"type": "RP",
		"updated": "EPH*VORTAC*201.76/12.00"
	},
	{
		"name": "CIKRI",
		"latitude": "47-14-55.33 N",
		"longitude": "122-38-16.52 W",
		"state": "WASHINGTON",
		"artcc": "ZSE",
		"type": "RNAV",
		"updated": "03/06/2013"
	},
	{
		"name": "CILIL",
		"latitude": "46-38-36.44 N",
		"longitude": "117-7-28.6 W",
		"state": "WASHINGTON",
		"artcc": "ZSE",
		"type": "RNAV",
		"updated": "03/21/2013"
	},
	{
		"name": "CILON",
		"latitude": "45-55-3.42 N",
		"longitude": "118-28-2.22 W",
		"state": "OREGON",
		"artcc": "ZSE",
		"type": "RNAV",
		"updated": "10/30/2007"
	},
	{
		"name": "CILUP",
		"latitude": "47-35-34.05 N",
		"longitude": "122-15-29.79 W",
		"state": "WASHINGTON",
		"artcc": "ZSE",
		"type": "RNAV",
		"updated": "05/13/2016"
	},
	{
		"name": "CIMAG",
		"latitude": "45-41-41.96 N",
		"longitude": "118-59-23.82 W",
		"state": "OREGON",
		"artcc": "ZSE",
		"type": "RNAV",
		"updated": "05/08/2009"
	},
	{
		"name": "CIMAL",
		"latitude": "47-47-38.53 N",
		"longitude": "116-44-47.27 W",
		"state": "IDAHO",
		"artcc": "ZSE",
		"type": "RNAV",
		"updated": "11/04/2008"
	},
	{
		"name": "CIMEL",
		"latitude": "42-0-42.08 N",
		"longitude": "124-21-24.08 W",
		"state": "OREGON",
		"artcc": "ZSE",
		"type": "RNAV",
		"updated": "08/01/2012"
	},
	{
		"name": "CIPUT",
		"latitude": "47-44-1.81 N",
		"longitude": "116-59-31.65 W",
		"state": "IDAHO",
		"artcc": "ZSE",
		"type": "RP",
		"updated": "COE*VOR/DME*232.05/7.35"
	},
	{
		"name": "CIRTO",
		"latitude": "40-43-15.1 N",
		"longitude": "124-11-20.09 W",
		"state": "CALIFORNIA",
		"artcc": "ZSE",
		"type": "RNAV",
		"updated": "07/06/2009"
	},
	{
		"name": "CIRZI",
		"latitude": "47-30-19.69 N",
		"longitude": "120-18-47.07 W",
		"state": "WASHINGTON",
		"artcc": "ZSE",
		"type": "RNAV",
		"updated": "10/04/2016"
	},
	{
		"name": "CISOK",
		"latitude": "44-11-23.74 N",
		"longitude": "123-18-50.9 W",
		"state": "OREGON",
		"artcc": "ZSE",
		"type": "RNAV",
		"updated": "11/01/2017"
	},
	{
		"name": "CISOV",
		"latitude": "46-50-32.4 N",
		"longitude": "117-17-54.66 W",
		"state": "WASHINGTON",
		"artcc": "ZSE",
		"type": "RP",
		"updated": "PUW*VOR/DME*322.97/10.55"
	},
	{
		"name": "CITAV",
		"latitude": "45-40-9.28 N",
		"longitude": "120-55-28.73 W",
		"state": "WASHINGTON",
		"artcc": "ZSE",
		"type": "RP",
		"updated": "DLS*LD*058.03/10.47"
	},
	{
		"name": "CITOG",
		"latitude": "48-48-28.13 N",
		"longitude": "122-59-1.28 W",
		"state": "WASHINGTON",
		"artcc": "ZSE",
		"type": "RNAV",
		"updated": "08/17/2015"
	},
	{
		"name": "CITYS",
		"latitude": "46-11-59.67 N",
		"longitude": "118-47-48.53 W",
		"state": "WASHINGTON",
		"artcc": "ZSE",
		"type": "RP",
		"updated": "PSC*VOR/DME*092.44/14.00"
	},
	{
		"name": "CITYY",
		"latitude": "44-25-45.06 N",
		"longitude": "122-52-58.88 W",
		"state": "OREGON",
		"artcc": "ZSE",
		"type": "RNAV",
		"updated": "08/28/2013"
	},
	{
		"name": "CIXUX",
		"latitude": "47-14-20.32 N",
		"longitude": "119-51-43.72 W",
		"state": "WASHINGTON",
		"artcc": "ZSE",
		"type": "CN",
		"updated": "11/03/2009"
	},
	{
		"name": "CIYTY",
		"latitude": "43-24-59.98 N",
		"longitude": "124-12-51.23 W",
		"state": "OREGON",
		"artcc": "ZSE",
		"type": "RP",
		"updated": "OTH*VOR/DME*257.00/2.00"
	},
	{
		"name": "CIZZL",
		"latitude": "45-41-32.02 N",
		"longitude": "122-36-0.67 W",
		"state": "WASHINGTON",
		"artcc": "ZSE",
		"type": "RNAV",
		"updated": "01/10/2013"
	},
	{
		"name": "CKAPE",
		"latitude": "48-23-34.66 N",
		"longitude": "124-58-29.45 W",
		"state": "WASHINGTON",
		"artcc": "ZSE",
		"type": "RP",
		"updated": "TOU*VORTAC*270.00/15.00"
	},
	{
		"name": "CLASS",
		"latitude": "47-51-28.63 N",
		"longitude": "116-8-50.85 W",
		"state": "IDAHO",
		"artcc": "ZSE",
		"type": "RP",
		"updated": "COE*VOR/DME*060.22/27.69"
	},
	{
		"name": "CLEET",
		"latitude": "42-13-3.19 N",
		"longitude": "121-46-29.1 W",
		"state": "OREGON",
		"artcc": "ZSE",
		"type": "RP",
		"updated": "LMT*VORTAC*314.41/4.40"
	},
	{
		"name": "CLOVA",
		"latitude": "46-17-32.75 N",
		"longitude": "117-18-38.7 W",
		"state": "WASHINGTON",
		"artcc": "ZSE",
		"type": "RP",
		"updated": "MQG*VOR/DME*234.00"
	},
	{
		"name": "CLYMN",
		"latitude": "46-25-25.36 N",
		"longitude": "116-37-50.25 W",
		"state": "IDAHO",
		"artcc": "ZSE",
		"type": "CN",
		"updated": "04/15/2010"
	},
	{
		"name": "CLYNK",
		"latitude": "47-33-29.32 N",
		"longitude": "122-27-18.34 W",
		"state": "WASHINGTON",
		"artcc": "ZSE",
		"type": "RNAV",
		"updated": "05/13/2016"
	},
	{
		"name": "CMFRT",
		"latitude": "47-50-11.9 N",
		"longitude": "122-19-13.35 W",
		"state": "WASHINGTON",
		"artcc": "ZSE",
		"type": "RNAV",
		"updated": "06/25/2013"
	},
	{
		"name": "CMGAP",
		"latitude": "46-15-21.7 N",
		"longitude": "116-37-3.53 W",
		"state": "IDAHO",
		"artcc": "ZSE",
		"type": "CN",
		"updated": "04/15/2010"
	},
	{
		"name": "CNFLU",
		"latitude": "45-39-30 N",
		"longitude": "122-46-21 W",
		"state": "OREGON",
		"artcc": "ZSE",
		"type": "RNAV",
		"updated": "03/04/2013"
	},
	{
		"name": "CNNTI",
		"latitude": "47-23-40.29 N",
		"longitude": "122-18-30.09 W",
		"state": "WASHINGTON",
		"artcc": "ZSE",
		"type": "RP",
		"updated": "SEA*LD*164.34/2.39"
	},
	{
		"name": "COBDI",
		"latitude": "47-7-11.03 N",
		"longitude": "120-39-44.68 W",
		"state": "WASHINGTON",
		"artcc": "ZSE",
		"type": "RNAV",
		"updated": "03/06/2013"
	},
	{
		"name": "COBIL",
		"latitude": "44-38-41.4 N",
		"longitude": "124-3-10.5 W",
		"state": "OREGON",
		"artcc": "ZSE",
		"type": "RP",
		"updated": "ONP*VORTAC*349.51/4.00"
	},
	{
		"name": "COBUR",
		"latitude": "44-10-7.23 N",
		"longitude": "123-2-57.87 W",
		"state": "OREGON",
		"artcc": "ZSE",
		"type": "RP",
		"updated": "EUG*VORTAC*049.00/8.02"
	},
	{
		"name": "COBUX",
		"latitude": "48-4-52.68 N",
		"longitude": "123-7-59.91 W",
		"state": "WASHINGTON",
		"artcc": "ZSE",
		"type": "RNAV",
		"updated": "09/08/2009"
	},
	{
		"name": "CODAY",
		"latitude": "43-55-34.34 N",
		"longitude": "121-8-37.25 W",
		"state": "OREGON",
		"artcc": "ZSE",
		"type": "RNAV",
		"updated": "12/05/2007"
	},
	{
		"name": "CODGU",
		"latitude": "47-11-55.77 N",
		"longitude": "122-39-35.35 W",
		"state": "WASHINGTON",
		"artcc": "ZSE",
		"type": "MW",
		"updated": "03/28/2013"
	},
	{
		"name": "CODON",
		"latitude": "46-46-45.58 N",
		"longitude": "123-8-5.12 W",
		"state": "WASHINGTON",
		"artcc": "ZSE",
		"type": "RNAV",
		"updated": "08/17/2015"
	},
	{
		"name": "CODSA",
		"latitude": "48-4-51.9 N",
		"longitude": "116-47-18.62 W",
		"state": "IDAHO",
		"artcc": "ZSE",
		"type": "RNAV",
		"updated": "11/12/2008"
	},
	{
		"name": "CODUT",
		"latitude": "46-24-3.61 N",
		"longitude": "116-51-20.07 W",
		"state": "IDAHO",
		"artcc": "ZSE",
		"type": "CN",
		"updated": "04/15/2010"
	},
	{
		"name": "COFAY",
		"latitude": "47-4-43.83 N",
		"longitude": "122-30-1.57 W",
		"state": "WASHINGTON",
		"artcc": "ZSE",
		"type": "RNAV",
		"updated": "01/10/2013"
	},
	{
		"name": "COFMO",
		"latitude": "44-19-54.32 N",
		"longitude": "120-57-35.88 W",
		"state": "OREGON",
		"artcc": "ZSE",
		"type": "RNAV",
		"updated": "07/20/2009"
	},
	{
		"name": "COGOK",
		"latitude": "45-4-54.32 N",
		"longitude": "123-21-39.51 W",
		"state": "OREGON",
		"artcc": "ZSE",
		"type": "RP",
		"updated": "UBG*VOR/DME*204.04/23.00"
	},
	{
		"name": "COKAM",
		"latitude": "46-29-53 N",
		"longitude": "122-42-9.72 W",
		"state": "WASHINGTON",
		"artcc": "ZSE",
		"type": "RNAV",
		"updated": "09/27/2010"
	},
	{
		"name": "COKAY",
		"latitude": "44-4-35.57 N",
		"longitude": "121-22-25.58 W",
		"state": "OREGON",
		"artcc": "ZSE",
		"type": "RP",
		"updated": "DSD*VORTAC*178.03/11.00"
	},
	{
		"name": "COKEB",
		"latitude": "46-31-28.71 N",
		"longitude": "117-15-24.71 W",
		"state": "WASHINGTON",
		"artcc": "ZSE",
		"type": "RNAV",
		"updated": "09/12/2012"
	},
	{
		"name": "COKLA",
		"latitude": "44-50-28.26 N",
		"longitude": "124-1-51.99 W",
		"state": "OREGON",
		"artcc": "ZSE",
		"type": "RP",
		"updated": "ONP*VORTAC*349.51/16.00"
	},
	{
		"name": "COKMU",
		"latitude": "48-25-58.22 N",
		"longitude": "122-57-42.13 W",
		"state": "WASHINGTON",
		"artcc": "ZSE",
		"type": "RNAV",
		"updated": "04/17/2007"
	},
	{
		"name": "COLOX",
		"latitude": "44-1-40.71 N",
		"longitude": "123-12-4.25 W",
		"state": "OREGON",
		"artcc": "ZSE",
		"type": "RNAV",
		"updated": "07/01/2011"
	},
	{
		"name": "COLTA",
		"latitude": "44-11-9.59 N",
		"longitude": "120-59-54.62 W",
		"state": "OREGON",
		"artcc": "ZSE",
		"type": "RNAV",
		"updated": "06/25/2015"
	},
	{
		"name": "COMEB",
		"latitude": "47-12-58.42 N",
		"longitude": "119-17-35.81 W",
		"state": "WASHINGTON",
		"artcc": "ZSE",
		"type": "RNAV",
		"updated": "08/13/2008"
	},
	{
		"name": "COMEK",
		"latitude": "44-10-22.43 N",
		"longitude": "121-13-11.45 W",
		"state": "OREGON",
		"artcc": "ZSE",
		"type": "RNAV",
		"updated": "09/06/2007"
	},
	{
		"name": "COMLU",
		"latitude": "48-7-56.15 N",
		"longitude": "122-32-44.46 W",
		"state": "WASHINGTON",
		"artcc": "ZSE",
		"type": "RNAV",
		"updated": "08/17/2015"
	},
	{
		"name": "COMMB",
		"latitude": "47-36-31.03 N",
		"longitude": "122-23-4.98 W",
		"state": "WASHINGTON",
		"artcc": "ZSE",
		"type": "RNAV",
		"updated": "08/03/2017"
	},
	{
		"name": "CONIT",
		"latitude": "47-41-45.4 N",
		"longitude": "122-23-22.74 W",
		"state": "WASHINGTON",
		"artcc": "ZSE",
		"type": "RNAV",
		"updated": "08/17/2015"
	},
	{
		"name": "CONLI",
		"latitude": "42-13-16.33 N",
		"longitude": "123-24-35.77 W",
		"state": "OREGON",
		"artcc": "ZSE",
		"type": "RP",
		"updated": "OED*VORTAC*216.14/27.00"
	},
	{
		"name": "COOSE",
		"latitude": "43-24-34.05 N",
		"longitude": "123-56-24.04 W",
		"state": "OREGON",
		"artcc": "ZSE",
		"type": "RP",
		"updated": "OTH*VOR/DME*077.00/10.00"
	},
	{
		"name": "COPLS",
		"latitude": "47-6-46.78 N",
		"longitude": "124-7-40.8 W",
		"state": "WASHINGTON",
		"artcc": "ZSE",
		"type": "RNAV",
		"updated": "04/27/2017"
	},
	{
		"name": "COPPO",
		"latitude": "42-13-46.26 N",
		"longitude": "122-54-36.83 W",
		"state": "OREGON",
		"artcc": "ZSE",
		"type": "RP",
		"updated": "OED*VORTAC*160.54/15.00"
	},
	{
		"name": "COPPR",
		"latitude": "43-58-34.86 N",
		"longitude": "121-33-43.63 W",
		"state": "OREGON",
		"artcc": "ZSE",
		"type": "RP",
		"updated": "DSD*VORTAC*196.07/20.00"
	},
	{
		"name": "CORDO",
		"latitude": "45-50-26.98 N",
		"longitude": "119-10-44.96 W",
		"state": "OREGON",
		"artcc": "ZSE",
		"type": "RP",
		"updated": "PSC*VOR/DME*170.75"
	},
	{
		"name": "CORDU",
		"latitude": "48-10-46.41 N",
		"longitude": "116-40-21.84 W",
		"state": "IDAHO",
		"artcc": "ZSE",
		"type": "RP",
		"updated": "RPO*LE*198.16/9.05"
	},
	{
		"name": "CORER",
		"latitude": "46-53-17.93 N",
		"longitude": "122-55-41.02 W",
		"state": "WASHINGTON",
		"artcc": "ZSE",
		"type": "RNAV",
		"updated": "11/08/2006"
	},
	{
		"name": "COROK",
		"latitude": "47-44-22.15 N",
		"longitude": "122-18-19.17 W",
		"state": "WASHINGTON",
		"artcc": "ZSE",
		"type": "RP",
		"updated": "PAE*VOR/DME*165.87/10.88"
	},
	{
		"name": "CORTH",
		"latitude": "47-16-2.83 N",
		"longitude": "119-52-1.89 W",
		"state": "WASHINGTON",
		"artcc": "ZSE",
		"type": "RNAV",
		"updated": "04/19/2010"
	},
	{
		"name": "CORUR",
		"latitude": "45-47-1.92 N",
		"longitude": "122-59-47.75 W",
		"state": "OREGON",
		"artcc": "ZSE",
		"type": "MR",
		"updated": "CBU*TACAN*286.00/20.00"
	},
	{
		"name": "COSFU",
		"latitude": "46-26-12.7 N",
		"longitude": "116-30-41.97 W",
		"state": "IDAHO",
		"artcc": "ZSE",
		"type": "RNAV",
		"updated": "04/15/2010"
	},
	{
		"name": "COSRA",
		"latitude": "46-13-23.39 N",
		"longitude": "123-3-16.8 W",
		"state": "WASHINGTON",
		"artcc": "ZSE",
		"type": "RNAV",
		"updated": "03/03/2010"
	},
	{
		"name": "COSTO",
		"latitude": "47-35-43.5 N",
		"longitude": "122-31-3.82 W",
		"state": "WASHINGTON",
		"artcc": "ZSE",
		"type": "RNAV",
		"updated": "04/17/2007"
	},
	{
		"name": "COSUG",
		"latitude": "45-32-27.71 N",
		"longitude": "122-19-30.64 W",
		"state": "OREGON",
		"artcc": "ZSE",
		"type": "RNAV",
		"updated": "06/09/2008"
	},
	{
		"name": "COSUV",
		"latitude": "46-10-56.33 N",
		"longitude": "118-11-22.23 W",
		"state": "WASHINGTON",
		"artcc": "ZSE",
		"type": "RP",
		"updated": "ALW*VOR/DME*/7.16"
	},
	{
		"name": "COTKA",
		"latitude": "47-6-37.71 N",
		"longitude": "122-59-26.35 W",
		"state": "WASHINGTON",
		"artcc": "ZSE",
		"type": "RNAV",
		"updated": "08/17/2015"
	},
	{
		"name": "COTNY",
		"latitude": "47-8-2.09 N",
		"longitude": "122-17-11.25 W",
		"state": "WASHINGTON",
		"artcc": "ZSE",
		"type": "RP",
		"updated": "SEA*VORTAC*158.00/18.12"
	},
	{
		"name": "COUGA",
		"latitude": "46-5-31.23 N",
		"longitude": "122-40-38.59 W",
		"state": "WASHINGTON",
		"artcc": "ZSE",
		"type": "RP",
		"updated": "BTG*VORTAC*329.16/20.97"
	},
	{
		"name": "COUVE",
		"latitude": "45-42-15.95 N",
		"longitude": "123-7-21.78 W",
		"state": "OREGON",
		"artcc": "ZSE",
		"type": "RP",
		"updated": "UBG*VOR/DME*/21.94"
	},
	{
		"name": "COVBO",
		"latitude": "44-51-9.52 N",
		"longitude": "120-36-24.41 W",
		"state": "OREGON",
		"artcc": "ZSE",
		"type": "RP",
		"updated": "IMB*VOR/DME*268.07/40.19"
	},
	{
		"name": "COVDU",
		"latitude": "45-42-48.32 N",
		"longitude": "122-25-46.04 W",
		"state": "WASHINGTON",
		"artcc": "ZSE",
		"type": "RP",
		"updated": "GPO*LE*029.02/11.30"
	},
	{
		"name": "COVED",
		"latitude": "48-46-47.58 N",
		"longitude": "122-29-10.16 W",
		"state": "WASHINGTON",
		"artcc": "ZSE",
		"type": "RNAV",
		"updated": "08/17/2015"
	},
	{
		"name": "COVHO",
		"latitude": "45-58-26.1 N",
		"longitude": "122-55-12.82 W",
		"state": "OREGON",
		"artcc": "ZSE",
		"type": "RNAV",
		"updated": "03/25/2011"
	},
	{
		"name": "COXER",
		"latitude": "46-31-55.92 N",
		"longitude": "122-31-54.87 W",
		"state": "WASHINGTON",
		"artcc": "ZSE",
		"type": "RNAV",
		"updated": "09/27/2010"
	},
	{
		"name": "COXOD",
		"latitude": "47-1-9.95 N",
		"longitude": "123-32-15.41 W",
		"state": "WASHINGTON",
		"artcc": "ZSE",
		"type": "CN",
		"updated": "07/23/2007"
	},
	{
		"name": "COXOS",
		"latitude": "48-51-15.26 N",
		"longitude": "122-37-5.87 W",
		"state": "WASHINGTON",
		"artcc": "ZSE",
		"type": "RNAV",
		"updated": "08/17/2015"
	},
	{
		"name": "COYAS",
		"latitude": "46-57-41.1 N",
		"longitude": "122-54-21 W",
		"state": "WASHINGTON",
		"artcc": "ZSE",
		"type": "RP",
		"updated": "OLM*VORTAC*176.00/0.64"
	},
	{
		"name": "COYLA",
		"latitude": "47-30-48.39 N",
		"longitude": "122-18-34.35 W",
		"state": "WASHINGTON",
		"artcc": "ZSE",
		"type": "RP",
		"updated": "SEA*VORTAC*341.04/4.69"
	},
	{
		"name": "COYYA",
		"latitude": "47-14-41.15 N",
		"longitude": "119-49-6.58 W",
		"state": "WASHINGTON",
		"artcc": "ZSE",
		"type": "RP",
		"updated": "EAT*VOR/DME*105.00/18.52"
	},
	{
		"name": "CRAAF",
		"latitude": "44-45-37.17 N",
		"longitude": "123-21-5.9 W",
		"state": "OREGON",
		"artcc": "ZSE",
		"type": "RP",
		"updated": "UBG*VOR/DME*183.19/38.96"
	},
	{
		"name": "CREAK",
		"latitude": "45-48-1.1 N",
		"longitude": "122-18-16.07 W",
		"state": "WASHINGTON",
		"artcc": "ZSE",
		"type": "RP",
		"updated": "BTG*VORTAC*054.25"
	},
	{
		"name": "CREEB",
		"latitude": "48-13-0 N",
		"longitude": "121-20-24 W",
		"state": "WASHINGTON",
		"artcc": "ZSE",
		"type": "RP",
		"updated": "YVR*VOR/DME*103.99/88.61"
	},
	{
		"name": "CRIVR",
		"latitude": "44-23-35 N",
		"longitude": "121-11-35 W",
		"state": "OREGON",
		"artcc": "ZSE",
		"type": "RNAV",
		"updated": "08/16/2016"
	},
	{
		"name": "CRUMM",
		"latitude": "47-16-49.72 N",
		"longitude": "119-57-6.26 W",
		"state": "WASHINGTON",
		"artcc": "ZSE",
		"type": "RP",
		"updated": "EAT*VOR/DME*109.00/12.77"
	},
	{
		"name": "CRUST",
		"latitude": "42-39-53.68 N",
		"longitude": "122-6-21.16 W",
		"state": "OREGON",
		"artcc": "ZSE",
		"type": "MR",
		"updated": "LMT*VORTAC*314.41/35.00"
	},
	{
		"name": "CUBIT",
		"latitude": "47-11-19.9 N",
		"longitude": "122-45-42.72 W",
		"state": "WASHINGTON",
		"artcc": "ZSE",
		"type": "RP",
		"updated": "TCM*VORTAC*267.00/12.00"
	},
	{
		"name": "CUBLU",
		"latitude": "46-21-21.05 N",
		"longitude": "116-51-41.05 W",
		"state": "IDAHO",
		"artcc": "ZSE",
		"type": "RNAV",
		"updated": "04/15/2010"
	},
	{
		"name": "CUCAB",
		"latitude": "45-58-40.74 N",
		"longitude": "118-24-9.75 W",
		"state": "WASHINGTON",
		"artcc": "ZSE",
		"type": "RP",
		"updated": "ALW*VOR/DME*195.19/8.00"
	},
	{
		"name": "CUDUB",
		"latitude": "42-14-39.82 N",
		"longitude": "122-45-18.48 W",
		"state": "OREGON",
		"artcc": "ZSE",
		"type": "RNAV",
		"updated": "09/24/2010"
	},
	{
		"name": "CUFYE",
		"latitude": "47-35-38.83 N",
		"longitude": "117-13-59.76 W",
		"state": "WASHINGTON",
		"artcc": "ZSE",
		"type": "RNAV",
		"updated": "11/10/2011"
	},
	{
		"name": "CUGAG",
		"latitude": "46-6-4.2 N",
		"longitude": "122-57-0.6 W",
		"state": "OREGON",
		"artcc": "ZSE",
		"type": "RNAV",
		"updated": "01/30/2013"
	},
	{
		"name": "CUGEM",
		"latitude": "46-32-24.86 N",
		"longitude": "117-7-32.95 W",
		"state": "WASHINGTON",
		"artcc": "ZSE",
		"type": "CN",
		"updated": "04/22/2010"
	},
	{
		"name": "CUGEV",
		"latitude": "47-36-50.76 N",
		"longitude": "117-10-18.72 W",
		"state": "WASHINGTON",
		"artcc": "ZSE",
		"type": "RNAV",
		"updated": "02/12/2014"
	},
	{
		"name": "CUGLU",
		"latitude": "46-18-33.42 N",
		"longitude": "118-58-44.46 W",
		"state": "WASHINGTON",
		"artcc": "ZSE",
		"type": "RNAV",
		"updated": "09/12/2014"
	},
	{
		"name": "CUGOK",
		"latitude": "46-54-17.58 N",
		"longitude": "124-3-10.09 W",
		"state": "WASHINGTON",
		"artcc": "ZSE",
		"type": "RNAV",
		"updated": "04/17/2007"
	},
	{
		"name": "CUKEV",
		"latitude": "44-51-34.98 N",
		"longitude": "122-57-39.67 W",
		"state": "OREGON",
		"artcc": "ZSE",
		"type": "RNAV",
		"updated": "03/23/2015"
	},
	{
		"name": "CUKIS",
		"latitude": "45-20-59.59 N",
		"longitude": "122-21-49.41 W",
		"state": "OREGON",
		"artcc": "ZSE",
		"type": "RNAV",
		"updated": "03/23/2015"
	},
	{
		"name": "CUKSI",
		"latitude": "47-21-51.77 N",
		"longitude": "120-8-27.58 W",
		"state": "WASHINGTON",
		"artcc": "ZSE",
		"type": "RNAV",
		"updated": "10/04/2016"
	},
	{
		"name": "CULDU",
		"latitude": "41-10-2.29 N",
		"longitude": "124-14-14.21 W",
		"state": "CALIFORNIA",
		"artcc": "ZSE",
		"type": "RP",
		"updated": "FOT*VORTAC*340.76/29.74"
	},
	{
		"name": "CULRI",
		"latitude": "46-25-55.89 N",
		"longitude": "119-7-6.68 W",
		"state": "WASHINGTON",
		"artcc": "ZSE",
		"type": "RNAV",
		"updated": "03/16/2011"
	},
	{
		"name": "CUMOG",
		"latitude": "47-29-59.85 N",
		"longitude": "117-28-18.47 W",
		"state": "WASHINGTON",
		"artcc": "ZSE",
		"type": "RNAV",
		"updated": "01/24/2011"
	},
	{
		"name": "CUMUR",
		"latitude": "47-36-53.71 N",
		"longitude": "117-16-18.29 W",
		"state": "WASHINGTON",
		"artcc": "ZSE",
		"type": "RNAV",
		"updated": "11/10/2011"
	},
	{
		"name": "CUNBA",
		"latitude": "42-18-18.1 N",
		"longitude": "122-50-12.05 W",
		"state": "OREGON",
		"artcc": "ZSE",
		"type": "RNAV",
		"updated": "09/24/2010"
	},
	{
		"name": "CUNUR",
		"latitude": "47-24-31.43 N",
		"longitude": "120-34-43.19 W",
		"state": "WASHINGTON",
		"artcc": "ZSE",
		"type": "RP",
		"updated": "EAT*VOR/DME*257.21/15.00"
	},
	{
		"name": "CUPEV",
		"latitude": "46-21-10.44 N",
		"longitude": "116-50-3.42 W",
		"state": "IDAHO",
		"artcc": "ZSE",
		"type": "RP",
		"updated": "MQG*VOR/DME*119.82/2.26"
	},
	{
		"name": "CUPOK",
		"latitude": "45-35-16.29 N",
		"longitude": "118-39-9.83 W",
		"state": "OREGON",
		"artcc": "ZSE",
		"type": "RNAV",
		"updated": "05/27/2009"
	},
	{
		"name": "CUPRI",
		"latitude": "44-37-3.76 N",
		"longitude": "121-15-13.89 W",
		"state": "OREGON",
		"artcc": "ZSE",
		"type": "RP",
		"updated": "DSD*VORTAC*347.55/22.00"
	},
	{
		"name": "CURAV",
		"latitude": "46-39-48.69 N",
		"longitude": "123-58-23.27 W",
		"state": "WASHINGTON",
		"artcc": "ZSE",
		"type": "RNAV",
		"updated": "04/06/2007"
	},
	{
		"name": "CURKA",
		"latitude": "46-31-18.49 N",
		"longitude": "120-21-28.88 W",
		"state": "WASHINGTON",
		"artcc": "ZSE",
		"type": "RNAV",
		"updated": "07/01/2011"
	},
	{
		"name": "CURTI",
		"latitude": "43-41-29.98 N",
		"longitude": "123-8-24.51 W",
		"state": "OREGON",
		"artcc": "ZSE",
		"type": "RP",
		"updated": "EUG*VORTAC*152.04/26.00"
	},
	{
		"name": "CURVN",
		"latitude": "41-52-45.52 N",
		"longitude": "121-37-45.68 W",
		"state": "CALIFORNIA",
		"artcc": "ZSE",
		"type": "RP",
		"updated": "LMT*VORTAC*148.00/17.00"
	},
	{
		"name": "CUSBU",
		"latitude": "47-29-54.68 N",
		"longitude": "122-19-3.23 W",
		"state": "WASHINGTON",
		"artcc": "ZSE",
		"type": "RNAV",
		"updated": "05/16/2017"
	},
	{
		"name": "CUSEL",
		"latitude": "48-54-0.75 N",
		"longitude": "122-38-19.97 W",
		"state": "WASHINGTON",
		"artcc": "ZSE",
		"type": "RNAV",
		"updated": "11/12/2015"
	},
	{
		"name": "CUSOM",
		"latitude": "46-24-17.4 N",
		"longitude": "120-27-52.54 W",
		"state": "WASHINGTON",
		"artcc": "ZSE",
		"type": "RNAV",
		"updated": "07/01/2011"
	},
	{
		"name": "CUSPI",
		"latitude": "47-1-58.32 N",
		"longitude": "119-24-48.97 W",
		"state": "WASHINGTON",
		"artcc": "ZSE",
		"type": "RNAV",
		"updated": "01/24/2011"
	},
	{
		"name": "CUSSO",
		"latitude": "43-17-48.95 N",
		"longitude": "123-20-55.15 W",
		"state": "OREGON",
		"artcc": "ZSE",
		"type": "RNAV",
		"updated": "12/13/2017"
	},
	{
		"name": "CUSVA",
		"latitude": "44-16-9.18 N",
		"longitude": "120-51-17.53 W",
		"state": "OREGON",
		"artcc": "ZSE",
		"type": "RNAV",
		"updated": "12/14/2017"
	},
	{
		"name": "CUTAS",
		"latitude": "46-17-13.14 N",
		"longitude": "119-0-56.03 W",
		"state": "WASHINGTON",
		"artcc": "ZSE",
		"type": "RNAV",
		"updated": "04/12/2006"
	},
	{
		"name": "CUTEL",
		"latitude": "44-54-27.5 N",
		"longitude": "124-1-25.3 W",
		"state": "OREGON",
		"artcc": "ZSE",
		"type": "RP",
		"updated": "ONP*VORTAC*349.51/20.00"
	},
	{
		"name": "CUTOK",
		"latitude": "42-18-17.53 N",
		"longitude": "121-48-48.4 W",
		"state": "OREGON",
		"artcc": "ZSE",
		"type": "RNAV",
		"updated": "06/08/2010"
	},
	{
		"name": "CUTTR",
		"latitude": "42-41-21.39 N",
		"longitude": "122-43-42.67 W",
		"state": "OREGON",
		"artcc": "ZSE",
		"type": "RP",
		"updated": "OED*VORTAC*013.96/15.00"
	},
	{
		"name": "CUVAC",
		"latitude": "46-41-58.79 N",
		"longitude": "120-23-37.3 W",
		"state": "WASHINGTON",
		"artcc": "ZSE",
		"type": "RNAV",
		"updated": "08/10/2006"
	},
	{
		"name": "CUVES",
		"latitude": "47-37-2.38 N",
		"longitude": "117-37-6.84 W",
		"state": "WASHINGTON",
		"artcc": "ZSE",
		"type": "RNAV",
		"updated": "02/12/2014"
	},
	{
		"name": "CUXEP",
		"latitude": "44-14-34.28 N",
		"longitude": "120-53-36.71 W",
		"state": "OREGON",
		"artcc": "ZSE",
		"type": "RNAV",
		"updated": "07/01/2011"
	},
	{
		"name": "CUYAD",
		"latitude": "44-33-17.31 N",
		"longitude": "121-9-12.29 W",
		"state": "OREGON",
		"artcc": "ZSE",
		"type": "RNAV",
		"updated": "04/23/2012"
	},
	{
		"name": "CYANO",
		"latitude": "46-40-25.36 N",
		"longitude": "116-59-25.89 W",
		"state": "IDAHO",
		"artcc": "ZSE",
		"type": "RNAV",
		"updated": "08/12/2015"
	}
]
