	{
		"name": "DACPE",
		"latitude": "47-5-59.32 N",
		"longitude": "120-14-27.87 W",
		"state": "WASHINGTON",
		"artcc": "ZSE",
		"type": "RP",
		"updated": "ELN*VOR/DME*042.00/10.00",
	},
	{
		"name": "DAFFI",
		"latitude": "45-50-4.58 N",
		"longitude": "123-2-18.26 W",
		"state": "OREGON",
		"artcc": "ZSE",
		"type": "RP",
		"updated": "UBG*VOR/DME*334.00/29.00",
	},
	{
		"name": "DAMAR",
		"latitude": "47-22-39.01 N",
		"longitude": "119-10-24.06 W",
		"state": "WASHINGTON",
		"artcc": "ZSE",
		"type": "WP",
		"updated": "EPH*VORTAC*069.00/10.20",
	},
	{
		"name": "DAMSE",
		"latitude": "46-14-43.73 N",
		"longitude": "119-25-30.53 W",
		"state": "WASHINGTON",
		"artcc": "ZSE",
		"type": "RNAV",
		"updated": "09/12/2014",
	},
	{
		"name": "DANES",
		"latitude": "45-4-25.53 N",
		"longitude": "124-0-18.26 W",
		"state": "OREGON",
		"artcc": "ZSE",
		"type": "RP",
		"updated": "ONP*VORTAC*349.51/30.00",
	},
	{
		"name": "DARIN",
		"latitude": "48-19-55.35 N",
		"longitude": "121-48-46.92 W",
		"state": "WASHINGTON",
		"artcc": "ZSE",
		"type": "MR",
		"updated": "SEA*VORTAC*001.25/57.45",
	},
	{
		"name": "DATES",
		"latitude": "46-19-9.54 N",
		"longitude": "118-11-25.36 W",
		"state": "WASHINGTON",
		"artcc": "ZSE",
		"type": "RP",
		"updated": "PSC*VOR/DME*070.30",
	},
	{
		"name": "DATVE",
		"latitude": "46-49-4 N",
		"longitude": "120-38-40.71 W",
		"state": "WASHINGTON",
		"artcc": "ZSE",
		"type": "RP",
		"updated": "YKM*VORTAC*310.00/17.00",
	},
	{
		"name": "DAVEN",
		"latitude": "47-43-10.22 N",
		"longitude": "118-11-56.65 W",
		"state": "WASHINGTON",
		"artcc": "ZSE",
		"type": "RP",
		"updated": "GEG*VORTAC*271.00/25.00",
	},
	{
		"name": "DAYSS",
		"latitude": "45-43-28.67 N",
		"longitude": "122-40-59.23 W",
		"state": "WASHINGTON",
		"artcc": "ZSE",
		"type": "RNAV",
		"updated": "08/15/2012",
	},
	{
		"name": "DBLUS",
		"latitude": "48-19-0 N",
		"longitude": "117-24-0 W",
		"state": "WASHINGTON",
		"artcc": "ZSE",
		"type": "RNAV",
		"updated": "03/14/2008",
	},
	{
		"name": "DEDBE",
		"latitude": "47-49-17.14 N",
		"longitude": "122-4-9.06 W",
		"state": "WASHINGTON",
		"artcc": "ZSE",
		"type": "RNAV",
		"updated": "04/01/2009",
	},
	{
		"name": "DEPDE",
		"latitude": "46-58-54.96 N",
		"longitude": "120-18-58.57 W",
		"state": "WASHINGTON",
		"artcc": "ZSE",
		"type": "RNAV",
		"updated": "04/13/2004",
	},
	{
		"name": "DERAY",
		"latitude": "44-18-17.66 N",
		"longitude": "123-19-29.4 W",
		"state": "OREGON",
		"artcc": "ZSE",
		"type": "RNAV",
		"updated": "08/16/2010",
	},
	{
		"name": "DEROY",
		"latitude": "43-16-26.12 N",
		"longitude": "123-58-29.64 W",
		"state": "OREGON",
		"artcc": "ZSE",
		"type": "RP",
		"updated": "OTH*VOR/DME*119.99/12.00",
	},
	{
		"name": "DEVYN",
		"latitude": "47-58-6 N",
		"longitude": "121-49-55.59 W",
		"state": "WASHINGTON",
		"artcc": "ZSE",
		"type": "RNAV",
		"updated": "11/04/2016",
	},
	{
		"name": "DFUCA",
		"latitude": "48-25-31.65 N",
		"longitude": "123-1-0.83 W",
		"state": "WASHINGTON",
		"artcc": "ZSE",
		"type": "RNAV",
		"updated": "06/04/2012",
	},
	{
		"name": "DGLAS",
		"latitude": "47-32-15.57 N",
		"longitude": "122-18-25.57 W",
		"state": "WASHINGTON",
		"artcc": "ZSE",
		"type": "RP",
		"updated": "SNQ*LD*344.34/6.20",
	},
	{
		"name": "DIABO",
		"latitude": "48-50-1.54 N",
		"longitude": "120-56-13.49 W",
		"state": "WASHINGTON",
		"artcc": "ZSE",
		"type": "RP",
		"updated": "SEA*VORTAC*013.80/100.45",
	},
	{
		"name": "DIANN",
		"latitude": "48-9-51.41 N",
		"longitude": "117-10-39.51 W",
		"state": "WASHINGTON",
		"artcc": "ZSE",
		"type": "RP",
		"updated": "COE*VOR/DME*309.59",
	},
	{
		"name": "DIBPE",
		"latitude": "46-59-29.72 N",
		"longitude": "120-24-11.95 W",
		"state": "WASHINGTON",
		"artcc": "ZSE",
		"type": "RP",
		"updated": "ELN*VOR/DME*110.00/3.00",
	},
	{
		"name": "DIGGN",
		"latitude": "47-56-49.83 N",
		"longitude": "122-46-0.08 W",
		"state": "WASHINGTON",
		"artcc": "ZSE",
		"type": "RP",
		"updated": "SEA*VORTAC*310.08/35.88",
	},
	{
		"name": "DIKKE",
		"latitude": "45-33-54.31 N",
		"longitude": "122-28-11.24 W",
		"state": "OREGON",
		"artcc": "ZSE",
		"type": "RNAV",
		"updated": "08/08/2012",
	},
	{
		"name": "DILAC",
		"latitude": "45-25-52.93 N",
		"longitude": "119-43-28.24 W",
		"state": "OREGON",
		"artcc": "ZSE",
		"type": "RNAV",
		"updated": "12/02/2004",
	},
	{
		"name": "DIMGE",
		"latitude": "41-36-46.75 N",
		"longitude": "122-28-37.05 W",
		"state": "CALIFORNIA",
		"artcc": "ZSE",
		"type": "RNAV",
		"updated": "12/27/2016",
	},
	{
		"name": "DINSE",
		"latitude": "40-30-40.47 N",
		"longitude": "123-39-37.06 W",
		"state": "CALIFORNIA",
		"artcc": "ZSE",
		"type": "RP",
		"updated": "FOT*VORTAC*090.89/27.95",
	},
	{
		"name": "DIPBA",
		"latitude": "46-19-2.33 N",
		"longitude": "116-55-7.84 W",
		"state": "IDAHO",
		"artcc": "ZSE",
		"type": "RNAV",
		"updated": "09/12/2012",
	},
	{
		"name": "DIYAT",
		"latitude": "44-38-58.29 N",
		"longitude": "123-3-40.01 W",
		"state": "OREGON",
		"artcc": "ZSE",
		"type": "RNAV",
		"updated": "10/03/2003",
	},
	{
		"name": "DIYSA",
		"latitude": "47-46-51.97 N",
		"longitude": "117-5-56.46 W",
		"state": "WASHINGTON",
		"artcc": "ZSE",
		"type": "RP",
		"updated": "FLZ*LD*041.18/11.04",
	},
	{
		"name": "DJINN",
		"latitude": "46-44-9.36 N",
		"longitude": "116-55-23.07 W",
		"state": "IDAHO",
		"artcc": "ZSE",
		"type": "RNAV",
		"updated": "08/12/2015",
	},
	{
		"name": "DLILE",
		"latitude": "45-32-58.86 N",
		"longitude": "122-10-13.37 W",
		"state": "OREGON",
		"artcc": "ZSE",
		"type": "RNAV",
		"updated": "12/31/2013",
	},
	{
		"name": "DLITZ",
		"latitude": "46-46-3.07 N",
		"longitude": "117-0-51.22 W",
		"state": "IDAHO",
		"artcc": "ZSE",
		"type": "RNAV",
		"updated": "08/12/2015",
	},
	{
		"name": "DMAGY",
		"latitude": "46-24-50.8 N",
		"longitude": "118-51-7.8 W",
		"state": "WASHINGTON",
		"artcc": "ZSE",
		"type": "RP",
		"updated": "PSC*VOR/DME*036.83/14.00",
	},
	{
		"name": "DMAZH",
		"latitude": "45-49-48.1 N",
		"longitude": "122-23-3.74 W",
		"state": "WASHINGTON",
		"artcc": "ZSE",
		"type": "RP",
		"updated": "BTG*VORTAC*039.36/10.00",
	},
	{
		"name": "DMBOR",
		"latitude": "45-47-26.54 N",
		"longitude": "122-21-41.28 W",
		"state": "WASHINGTON",
		"artcc": "ZSE",
		"type": "RP",
		"updated": "BTG*VORTAC*054.00/10.00",
	},
	{
		"name": "DMBZK",
		"latitude": "45-18-6.53 N",
		"longitude": "122-54-29.37 W",
		"state": "OREGON",
		"artcc": "ZSE",
		"type": "CN",
		"updated": "12/04/2014",
	},
	{
		"name": "DMELL",
		"latitude": "46-26-20.74 N",
		"longitude": "120-2-2.31 W",
		"state": "WASHINGTON",
		"artcc": "ZSE",
		"type": "CN",
		"updated": "11/01/2007",
	},
	{
		"name": "DMFBW",
		"latitude": "43-53-23.34 N",
		"longitude": "123-10-40.52 W",
		"state": "OREGON",
		"artcc": "ZSE",
		"type": "CN",
		"updated": "12/04/2014",
	},
	{
		"name": "DMJSP",
		"latitude": "45-5-1.98 N",
		"longitude": "118-7-43.39 W",
		"state": "OREGON",
		"artcc": "ZSE",
		"type": "CN",
		"updated": "12/04/2014",
	},
	{
		"name": "DMMLR",
		"latitude": "47-15-51.04 N",
		"longitude": "119-54-59.5 W",
		"state": "WASHINGTON",
		"artcc": "ZSE",
		"type": "CN",
		"updated": "11/03/2009",
	},
	{
		"name": "DMYXI",
		"latitude": "46-25-47.75 N",
		"longitude": "120-0-44.57 W",
		"state": "WASHINGTON",
		"artcc": "ZSE",
		"type": "CN",
		"updated": "11/04/2009",
	},
	{
		"name": "DMYYD",
		"latitude": "46-24-46.11 N",
		"longitude": "119-57-36.49 W",
		"state": "WASHINGTON",
		"artcc": "ZSE",
		"type": "CN",
		"updated": "11/04/2009",
	},
	{
		"name": "DNTAY",
		"latitude": "41-5-16.2 N",
		"longitude": "119-34-29.83 W",
		"state": "NEVADA",
		"artcc": "ZSE",
		"type": "RNAV",
		"updated": "01/10/2018",
	},
	{
		"name": "DOAME",
		"latitude": "48-4-30 N",
		"longitude": "120-29-0 W",
		"state": "WASHINGTON",
		"artcc": "ZSE",
		"type": "RNAV",
		"updated": "03/14/2008",
	},
	{
		"name": "DOCAS",
		"latitude": "43-53-0.5 N",
		"longitude": "121-27-0.83 W",
		"state": "OREGON",
		"artcc": "ZSE",
		"type": "RP",
		"updated": "DSD*VORTAC*178.03/23.05",
	},
	{
		"name": "DOCRA",
		"latitude": "46-58-1.61 N",
		"longitude": "123-11-37.67 W",
		"state": "WASHINGTON",
		"artcc": "ZSE",
		"type": "RP",
		"updated": "OLM*VORTAC*249.81/12.00",
	},
	{
		"name": "DODVE",
		"latitude": "47-29-55.59 N",
		"longitude": "122-18-26.8 W",
		"state": "WASHINGTON",
		"artcc": "ZSE",
		"type": "RNAV",
		"updated": "09/25/2008",
	},
	{
		"name": "DOFDO",
		"latitude": "47-6-46.38 N",
		"longitude": "119-55-34.84 W",
		"state": "WASHINGTON",
		"artcc": "ZSE",
		"type": "RP",
		"updated": "ELN*VOR/DME*055.12/22.46",
	},
	{
		"name": "DOLFF",
		"latitude": "48-20-0 N",
		"longitude": "128-0-0 W",
		"state": "",
		"artcc": "ZSE",
		"type": "RP",
		"updated": "05/19/2017",
	},
	{
		"name": "DOLLA",
		"latitude": "45-39-40.98 N",
		"longitude": "123-4-37.99 W",
		"state": "OREGON",
		"artcc": "ZSE",
		"type": "RP",
		"updated": "BTG*VORTAC*234.92",
	},
	{
		"name": "DOOGI",
		"latitude": "47-21-8.28 N",
		"longitude": "120-6-35.99 W",
		"state": "WASHINGTON",
		"artcc": "ZSE",
		"type": "RNAV",
		"updated": "10/03/2016",
	},
	{
		"name": "DORSE",
		"latitude": "48-59-41.66 N",
		"longitude": "114-45-39.95 W",
		"state": "MONTANA",
		"artcc": "ZSE",
		"type": "RP",
		"updated": "YXC*VOR/DME*106.33/62.03",
	},
	{
		"name": "DOSEE",
		"latitude": "44-8-9.5 N",
		"longitude": "123-1-31.57 W",
		"state": "OREGON",
		"artcc": "ZSE",
		"type": "RP",
		"updated": "EUG*VORTAC*063.88/8.58",
	},
	{
		"name": "DOUHH",
		"latitude": "45-44-43.96 N",
		"longitude": "122-44-15.32 W",
		"state": "WASHINGTON",
		"artcc": "ZSE",
		"type": "RNAV",
		"updated": "01/10/2013",
	},
	{
		"name": "DOVME",
		"latitude": "47-22-23.03 N",
		"longitude": "120-9-27.27 W",
		"state": "WASHINGTON",
		"artcc": "ZSE",
		"type": "RNAV",
		"updated": "10/31/2016",
	},
	{
		"name": "DOWCY",
		"latitude": "44-28-45.33 N",
		"longitude": "119-35-17.81 W",
		"state": "OREGON",
		"artcc": "ZSE",
		"type": "RP",
		"updated": "IMB*VOR/DME*132.42/11.44",
	},
	{
		"name": "DOXIE",
		"latitude": "45-50-20.23 N",
		"longitude": "115-10-16.9 W",
		"state": "IDAHO",
		"artcc": "ZSE",
		"type": "RP",
		"updated": "LKT*VOR/DME*304.28/67.21",
	},
	{
		"name": "DOYEL",
		"latitude": "45-9-3.22 N",
		"longitude": "118-11-58.81 W",
		"state": "OREGON",
		"artcc": "ZSE",
		"type": "RP",
		"updated": "BKE*VOR/DME*298.28/25.00",
	},
	{
		"name": "DOYEP",
		"latitude": "44-11-36.81 N",
		"longitude": "121-15-51.88 W",
		"state": "OREGON",
		"artcc": "ZSE",
		"type": "RNAV",
		"updated": "05/15/2014",
	},
	{
		"name": "DOYER",
		"latitude": "44-50-54.99 N",
		"longitude": "123-53-20.36 W",
		"state": "OREGON",
		"artcc": "ZSE",
		"type": "RNAV",
		"updated": "06/16/2016",
	},
	{
		"name": "DOYON",
		"latitude": "44-10-57.54 N",
		"longitude": "123-5-33.3 W",
		"state": "OREGON",
		"artcc": "ZSE",
		"type": "RNAV",
		"updated": "11/01/2017",
	},
	{
		"name": "DRACK",
		"latitude": "44-6-52.71 N",
		"longitude": "121-25-59.27 W",
		"state": "OREGON",
		"artcc": "ZSE",
		"type": "RP",
		"updated": "DSD*VORTAC*196.07/10.00",
	},
	{
		"name": "DRAIN",
		"latitude": "43-39-27.48 N",
		"longitude": "123-18-4.23 W",
		"state": "OREGON",
		"artcc": "ZSE",
		"type": "RP",
		"updated": "EUG*VORTAC*167.00/28.00",
	},
	{
		"name": "DREWS",
		"latitude": "42-43-44.7 N",
		"longitude": "122-53-22.72 W",
		"state": "OREGON",
		"artcc": "ZSE",
		"type": "RP",
		"updated": "OED*VORTAC*344.94/15.00",
	},
	{
		"name": "DROGA",
		"latitude": "47-57-0 N",
		"longitude": "120-30-0 W",
		"state": "WASHINGTON",
		"artcc": "ZSE",
		"type": "RNAV",
		"updated": "11/04/2016",
	},
	{
		"name": "DRUMR",
		"latitude": "47-30-31.92 N",
		"longitude": "122-38-16.44 W",
		"state": "WASHINGTON",
		"artcc": "ZSE",
		"type": "RP",
		"updated": "05/04/2017",
	},
	{
		"name": "DRVIG",
		"latitude": "45-45-18.32 N",
		"longitude": "118-57-22.99 W",
		"state": "OREGON",
		"artcc": "ZSE",
		"type": "RNAV",
		"updated": "05/27/2009",
	},
	{
		"name": "DSHUT",
		"latitude": "45-28-36.47 N",
		"longitude": "122-26-19.81 W",
		"state": "OREGON",
		"artcc": "ZSE",
		"type": "RNAV",
		"updated": "08/08/2012",
	},
	{
		"name": "DUANE",
		"latitude": "47-26-46.94 N",
		"longitude": "122-13-54.91 W",
		"state": "WASHINGTON",
		"artcc": "ZSE",
		"type": "RP",
		"updated": "SEA*VORTAC*059.18",
	},
	{
		"name": "DUBMY",
		"latitude": "45-1-58.66 N",
		"longitude": "122-48-28.39 W",
		"state": "OREGON",
		"artcc": "ZSE",
		"type": "RNAV",
		"updated": "07/12/2005",
	},
	{
		"name": "DUCKA",
		"latitude": "45-48-12.75 N",
		"longitude": "123-13-40.09 W",
		"state": "OREGON",
		"artcc": "ZSE",
		"type": "RP",
		"updated": "UBG*VOR/DME*317.82/29.00",
	},
	{
		"name": "DUCKK",
		"latitude": "44-2-31.6 N",
		"longitude": "124-7-49.09 W",
		"state": "OREGON",
		"artcc": "ZSE",
		"type": "RNAV",
		"updated": "03/15/2011",
	},
	{
		"name": "DUDRE",
		"latitude": "45-39-6.1 N",
		"longitude": "122-55-7.29 W",
		"state": "OREGON",
		"artcc": "ZSE",
		"type": "RNAV",
		"updated": "06/09/2008",
	},
	{
		"name": "DUFUR",
		"latitude": "45-25-43.22 N",
		"longitude": "121-12-13.48 W",
		"state": "OREGON",
		"artcc": "ZSE",
		"type": "RNAV",
		"updated": "04/20/2015",
	},
	{
		"name": "DUHJY",
		"latitude": "41-14-3.11 N",
		"longitude": "124-26-3.78 W",
		"state": "CALIFORNIA",
		"artcc": "ZSE",
		"type": "CN",
		"updated": "03/19/2018",
	},
	{
		"name": "DUKKS",
		"latitude": "44-2-18.11 N",
		"longitude": "123-12-24.6 W",
		"state": "OREGON",
		"artcc": "ZSE",
		"type": "RP",
		"updated": "EUG*VORTAC*152.04/5.00",
	},
	{
		"name": "DUMBS",
		"latitude": "46-55-53.4 N",
		"longitude": "123-5-39.71 W",
		"state": "WASHINGTON",
		"artcc": "ZSE",
		"type": "RNAV",
		"updated": "07/29/2016",
	},
	{
		"name": "DUMMP",
		"latitude": "44-21-47.63 N",
		"longitude": "121-7-46.95 W",
		"state": "OREGON",
		"artcc": "ZSE",
		"type": "RP",
		"updated": "DSD*VORTAC*030.43/10.00",
	},
	{
		"name": "DUNTU",
		"latitude": "48-58-0.67 N",
		"longitude": "117-36-15.47 W",
		"state": "WASHINGTON",
		"artcc": "ZSE",
		"type": "RNAV",
		"updated": "04/15/2008",
	},
