	{
		"name": "IBALL",
		"latitude": "42-51-2.23 N",
		"longitude": "122-39-47.89 W",
		"state": "OREGON",
		"artcc": "ZSE",
		"type": "RNAV",
		"updated": "08/28/2013",
	},
	{
		"name": "IBEAM",
		"latitude": "45-23-46.93 N",
		"longitude": "118-1-16.44 W",
		"state": "OREGON",
		"artcc": "ZSE",
		"type": "RP",
		"updated": "PDT*VORTAC*094.78/42.72",
	},
	{
		"name": "IBIVE",
		"latitude": "44-4-49.89 N",
		"longitude": "123-2-29.22 W",
		"state": "OREGON",
		"artcc": "ZSE",
		"type": "RNAV",
		"updated": "03/16/2011",
	},
	{
		"name": "ICACA",
		"latitude": "43-56-36.52 N",
		"longitude": "123-12-58.43 W",
		"state": "OREGON",
		"artcc": "ZSE",
		"type": "RNAV",
		"updated": "02/17/2006",
	},
	{
		"name": "ICAVA",
		"latitude": "44-2-21.28 N",
		"longitude": "123-12-4.84 W",
		"state": "OREGON",
		"artcc": "ZSE",
		"type": "RNAV",
		"updated": "07/01/2011",
	},
	{
		"name": "ICEAX",
		"latitude": "45-24-39.05 N",
		"longitude": "122-22-53.46 W",
		"state": "OREGON",
		"artcc": "ZSE",
		"type": "RNAV",
		"updated": "08/28/2013",
	},
	{
		"name": "ICEBE",
		"latitude": "47-4-38.04 N",
		"longitude": "120-18-22.8 W",
		"state": "WASHINGTON",
		"artcc": "ZSE",
		"type": "RP",
		"updated": "ELN*VOR/DME*041.99/7.00",
	},
	{
		"name": "ICILA",
		"latitude": "48-26-19.72 N",
		"longitude": "122-55-42.13 W",
		"state": "WASHINGTON",
		"artcc": "ZSE",
		"type": "RNAV",
		"updated": "02/17/2006",
	},
	{
		"name": "IDAGY",
		"latitude": "45-56-37.68 N",
		"longitude": "116-17-35.01 W",
		"state": "IDAHO",
		"artcc": "ZSE",
		"type": "RNAV",
		"updated": "09/30/2016",
	},
	{
		"name": "IDILY",
		"latitude": "47-10-45.65 N",
		"longitude": "119-43-9.32 W",
		"state": "WASHINGTON",
		"artcc": "ZSE",
		"type": "CN",
		"updated": "12/04/2014",
	},
	{
		"name": "IDISY",
		"latitude": "43-4-14.17 N",
		"longitude": "123-21-20.2 W",
		"state": "OREGON",
		"artcc": "ZSE",
		"type": "RNAV",
		"updated": "01/30/2007",
	},
	{
		"name": "IDUHE",
		"latitude": "46-42-38.12 N",
		"longitude": "117-14-34.87 W",
		"state": "WASHINGTON",
		"artcc": "ZSE",
		"type": "RNAV",
		"updated": "08/15/2012",
	},
	{
		"name": "IDUSY",
		"latitude": "46-17-59.23 N",
		"longitude": "118-51-13.41 W",
		"state": "WASHINGTON",
		"artcc": "ZSE",
		"type": "RNAV",
		"updated": "09/15/2014",
	},
	{
		"name": "IGIGE",
		"latitude": "44-31-40.35 N",
		"longitude": "124-2-40.56 W",
		"state": "OREGON",
		"artcc": "ZSE",
		"type": "RP",
		"updated": "ONP*VORTAC*151.45/2.93",
	},
	{
		"name": "IGISE",
		"latitude": "44-12-29.12 N",
		"longitude": "120-50-54.78 W",
		"state": "OREGON",
		"artcc": "ZSE",
		"type": "RNAV",
		"updated": "06/24/2015",
	},
	{
		"name": "IHAPT",
		"latitude": "47-0-47.51 N",
		"longitude": "120-24-8.27 W",
		"state": "WASHINGTON",
		"artcc": "ZSE",
		"type": "RNAV",
		"updated": "04/13/2004",
	},
	{
		"name": "IHAYO",
		"latitude": "46-7-17.56 N",
		"longitude": "118-54-55.3 W",
		"state": "WASHINGTON",
		"artcc": "ZSE",
		"type": "RNAV",
		"updated": "09/15/2014",
	},
	{
		"name": "IJNIJ",
		"latitude": "45-42-21.34 N",
		"longitude": "122-50-31.7 W",
		"state": "OREGON",
		"artcc": "ZSE",
		"type": "MR",
		"updated": "CBU*TACAN*286.00/12.00",
	},
	{
		"name": "IJOZI",
		"latitude": "43-29-45.67 N",
		"longitude": "123-21-22.39 W",
		"state": "OREGON",
		"artcc": "ZSE",
		"type": "RNAV",
		"updated": "01/30/2007",
	},
	{
		"name": "IJQOQ",
		"latitude": "47-31-20.74 N",
		"longitude": "117-36-10.71 W",
		"state": "WASHINGTON",
		"artcc": "ZSE",
		"type": "CN",
		"updated": "01/24/2011",
	},
	{
		"name": "IJXEF",
		"latitude": "42-29-13.75 N",
		"longitude": "122-51-52.28 W",
		"state": "OREGON",
		"artcc": "ZSE",
		"type": "CN",
		"updated": "09/27/2010",
	},
	{
		"name": "IJYUW",
		"latitude": "42-20-53.51 N",
		"longitude": "122-41-47.64 W",
		"state": "OREGON",
		"artcc": "ZSE",
		"type": "CN",
		"updated": "09/27/2010",
	},
	{
		"name": "IKISE",
		"latitude": "47-17-2.51 N",
		"longitude": "122-36-55.61 W",
		"state": "WASHINGTON",
		"artcc": "ZSE",
		"type": "MR",
		"updated": "TCM*VORTAC*303.00/10.00",
	},
	{
		"name": "IKMIQ",
		"latitude": "47-23-35.06 N",
		"longitude": "120-11-47.03 W",
		"state": "WASHINGTON",
		"artcc": "ZSE",
		"type": "RP",
		"updated": "EAT*VOR/DME*105.00/0.71",
	},
	{
		"name": "IKZIV",
		"latitude": "44-9-59 N",
		"longitude": "120-36-4.31 W",
		"state": "OREGON",
		"artcc": "ZSE",
		"type": "RNAV",
		"updated": "12/23/2013",
	},
	{
		"name": "ILARE",
		"latitude": "47-18-51.26 N",
		"longitude": "119-22-6.71 W",
		"state": "WASHINGTON",
		"artcc": "ZSE",
		"type": "RNAV",
		"updated": "06/04/2012",
	},
	{
		"name": "ILSAA",
		"latitude": "48-23-59.79 N",
		"longitude": "121-42-52.5 W",
		"state": "WASHINGTON",
		"artcc": "ZSE",
		"type": "RP",
		"updated": "YVR*VOR/DME*103.98/70.00",
	},
	{
		"name": "ILVEC",
		"latitude": "46-19-58.14 N",
		"longitude": "116-56-38.41 W",
		"state": "IDAHO",
		"artcc": "ZSE",
		"type": "RNAV",
		"updated": "04/15/2010",
	},
	{
		"name": "ILWAC",
		"latitude": "46-19-46.62 N",
		"longitude": "124-10-49.49 W",
		"state": "WASHINGTON",
		"artcc": "ZSE",
		"type": "RP",
		"updated": "AST*VOR/DME*290.00/16.05",
	},
	{
		"name": "IMINE",
		"latitude": "47-11-50.75 N",
		"longitude": "123-16-40.3 W",
		"state": "WASHINGTON",
		"artcc": "ZSE",
		"type": "RNAV",
		"updated": "11/04/2015",
	},
	{
		"name": "IMJUS",
		"latitude": "46-1-52.36 N",
		"longitude": "122-48-9.61 W",
		"state": "WASHINGTON",
		"artcc": "ZSE",
		"type": "RNAV",
		"updated": "03/25/2011",
	},
	{
		"name": "IMPOR",
		"latitude": "48-37-41.0702 N",
		"longitude": "123-7-12.6961 W",
		"state": "WASHINGTON",
		"artcc": "ZSE",
		"type": "RP",
		"updated": "YVR*VOR/DME*157.00/27.00",
	},
	{
		"name": "INAXE",
		"latitude": "48-17-13.08 N",
		"longitude": "122-53-23.18 W",
		"state": "WASHINGTON",
		"artcc": "ZSE",
		"type": "RP",
		"updated": "NUW*TACAN*228.00/10.00",
	},
	{
		"name": "INITY",
		"latitude": "42-8-42.8 N",
		"longitude": "122-32-44.25 W",
		"state": "OREGON",
		"artcc": "ZSE",
		"type": "RNAV",
		"updated": "09/27/2010",
	},
	{
		"name": "INNOP",
		"latitude": "44-42-39.81 N",
		"longitude": "123-15-19.71 W",
		"state": "OREGON",
		"artcc": "ZSE",
		"type": "RNAV",
		"updated": "02/04/2009",
	},
	{
		"name": "INOBE",
		"latitude": "48-4-54.58 N",
		"longitude": "116-45-47.03 W",
		"state": "IDAHO",
		"artcc": "ZSE",
		"type": "RP",
		"updated": "RPO*LE*198.16/15.95",
	},
	{
		"name": "INSAJ",
		"latitude": "45-31-50.25 N",
		"longitude": "123-53-13.51 W",
		"state": "OREGON",
		"artcc": "ZSE",
		"type": "RNAV",
		"updated": "08/14/2000",
	},
	{
		"name": "INTLL",
		"latitude": "45-27-44.73 N",
		"longitude": "122-52-5.16 W",
		"state": "OREGON",
		"artcc": "ZSE",
		"type": "RNAV",
		"updated": "05/02/2010",
	},
	{
		"name": "INUDE",
		"latitude": "46-5-34.32 N",
		"longitude": "119-22-24.61 W",
		"state": "WASHINGTON",
		"artcc": "ZSE",
		"type": "RNAV",
		"updated": "02/05/2008",
	},
	{
		"name": "INVUW",
		"latitude": "47-38-8.54 N",
		"longitude": "117-18-36.93 W",
		"state": "WASHINGTON",
		"artcc": "ZSE",
		"type": "RNAV",
		"updated": "11/10/2011",
	},
	{
		"name": "IPAGY",
		"latitude": "42-7-34.73 N",
		"longitude": "122-36-10.02 W",
		"state": "OREGON",
		"artcc": "ZSE",
		"type": "RNAV",
		"updated": "09/27/2010",
	},
	{
		"name": "IPANE",
		"latitude": "47-36-10.71 N",
		"longitude": "117-54-40.36 W",
		"state": "WASHINGTON",
		"artcc": "ZSE",
		"type": "RNAV",
		"updated": "09/27/2010",
	},
	{
		"name": "IPOVY",
		"latitude": "43-17-33.73 N",
		"longitude": "124-17-27.78 W",
		"state": "OREGON",
		"artcc": "ZSE",
		"type": "RNAV",
		"updated": "04/28/2015",
	},
	{
		"name": "IPROF",
		"latitude": "47-15-41.69 N",
		"longitude": "119-12-2.9 W",
		"state": "WASHINGTON",
		"artcc": "ZSE",
		"type": "RNAV",
		"updated": "01/24/2011",
	},
	{
		"name": "IPUPE",
		"latitude": "46-9-2.79 N",
		"longitude": "123-45-18.74 W",
		"state": "OREGON",
		"artcc": "ZSE",
		"type": "RNAV",
		"updated": "03/26/2009",
	},
	{
		"name": "IPVAL",
		"latitude": "48-42-13.41 N",
		"longitude": "117-33-43.03 W",
		"state": "WASHINGTON",
		"artcc": "ZSE",
		"type": "RNAV",
		"updated": "10/27/2016",
	},
	{
		"name": "IQHEJ",
		"latitude": "42-18-56.53 N",
		"longitude": "122-38-59 W",
		"state": "OREGON",
		"artcc": "ZSE",
		"type": "CN",
		"updated": "09/27/2010",
	},
	{
		"name": "IQITO",
		"latitude": "47-44-11.8 N",
		"longitude": "117-22-14.27 W",
		"state": "WASHINGTON",
		"artcc": "ZSE",
		"type": "RNAV",
		"updated": "01/24/2011",
	},
	{
		"name": "IQIYO",
		"latitude": "46-29-53.48 N",
		"longitude": "120-33-36.96 W",
		"state": "WASHINGTON",
		"artcc": "ZSE",
		"type": "CN",
		"updated": "07/01/2011",
	},
	{
		"name": "IRLUC",
		"latitude": "47-28-30.26 N",
		"longitude": "117-37-47.98 W",
		"state": "WASHINGTON",
		"artcc": "ZSE",
		"type": "RNAV",
		"updated": "01/24/2011",
	},
	{
		"name": "IRUHO",
		"latitude": "47-30-51.66 N",
		"longitude": "117-41-37.2 W",
		"state": "WASHINGTON",
		"artcc": "ZSE",
		"type": "RNAV",
		"updated": "01/24/2011",
	},
	{
		"name": "ISAVE",
		"latitude": "41-53-47.48 N",
		"longitude": "122-25-30.49 W",
		"state": "CALIFORNIA",
		"artcc": "ZSE",
		"type": "RNAV",
		"updated": "12/27/2016",
	},
	{
		"name": "ISCIV",
		"latitude": "46-37-56.03 N",
		"longitude": "120-37-40.89 W",
		"state": "WASHINGTON",
		"artcc": "ZSE",
		"type": "CN",
		"updated": "07/01/2011",
	},
	{
		"name": "ISEKE",
		"latitude": "46-15-0.59 N",
		"longitude": "117-0-2.66 W",
		"state": "WASHINGTON",
		"artcc": "ZSE",
		"type": "RNAV",
		"updated": "04/20/2010",
	},
	{
		"name": "ISLND",
		"latitude": "48-25-2.29 N",
		"longitude": "122-41-20.5 W",
		"state": "WASHINGTON",
		"artcc": "ZSE",
		"type": "RP",
		"updated": "HUH*VORTAC*167.88/32.00",
	},
	{
		"name": "ISNEJ",
		"latitude": "42-31-26.69 N",
		"longitude": "123-24-10.79 W",
		"state": "OREGON",
		"artcc": "ZSE",
		"type": "RNAV",
		"updated": "12/01/2017",
	},
	{
		"name": "ISOGE",
		"latitude": "47-38-44.05 N",
		"longitude": "122-24-1.34 W",
		"state": "WASHINGTON",
		"artcc": "ZSE",
		"type": "RP",
		"updated": "BFI*LD*315.20/9.00",
	},
	{
		"name": "ISRIY",
		"latitude": "45-53-32.08 N",
		"longitude": "122-53-47.99 W",
		"state": "OREGON",
		"artcc": "ZSE",
		"type": "RNAV",
		"updated": "03/25/2011",
	},
	{
		"name": "ISUWU",
		"latitude": "48-41-45.91 N",
		"longitude": "122-37-42.69 W",
		"state": "WASHINGTON",
		"artcc": "ZSE",
		"type": "RNAV",
		"updated": "11/12/2015",
	},
	{
		"name": "ITGAR",
		"latitude": "48-55-0.93 N",
		"longitude": "117-36-5.55 W",
		"state": "WASHINGTON",
		"artcc": "ZSE",
		"type": "RNAV",
		"updated": "04/15/2008",
	},
	{
		"name": "ITGIL",
		"latitude": "48-56-3.4 N",
		"longitude": "122-25-40.72 W",
		"state": "WASHINGTON",
		"artcc": "ZSE",
		"type": "RNAV",
		"updated": "08/21/2017",
	},
	{
		"name": "ITIPE",
		"latitude": "47-59-36.74 N",
		"longitude": "122-17-14.81 W",
		"state": "WASHINGTON",
		"artcc": "ZSE",
		"type": "RP",
		"updated": "PAE*VOR/DME*/4.44",
	},
	{
		"name": "ITODE",
		"latitude": "47-37-28.97 N",
		"longitude": "117-37-4 W",
		"state": "WASHINGTON",
		"artcc": "ZSE",
		"type": "MR",
		"updated": "SKA*TACAN*048.00/2.00",
	},
	{
		"name": "ITVIW",
		"latitude": "47-4-0.73 N",
		"longitude": "119-20-18.19 W",
		"state": "WASHINGTON",
		"artcc": "ZSE",
		"type": "CN",
		"updated": "01/24/2011",
	},
	{
		"name": "ITXOJ",
		"latitude": "47-3-43.42 N",
		"longitude": "119-20-11.01 W",
		"state": "WASHINGTON",
		"artcc": "ZSE",
		"type": "CN",
		"updated": "01/24/2011",
	},
	{
		"name": "IVAZU",
		"latitude": "46-47-57.16 N",
		"longitude": "116-46-17.42 W",
		"state": "IDAHO",
		"artcc": "ZSE",
		"type": "RNAV",
		"updated": "03/21/2013",
	},
	{
		"name": "IVVIB",
		"latitude": "44-21-39.45 N",
		"longitude": "121-13-9.19 W",
		"state": "OREGON",
		"artcc": "ZSE",
		"type": "RNAV",
		"updated": "12/23/2013",
	},
	{
		"name": "IWACK",
		"latitude": "48-55-55.71 N",
		"longitude": "120-50-13.43 W",
		"state": "WASHINGTON",
		"artcc": "ZSE",
		"type": "RP",
		"updated": "YDC*VORTAC*193.24/32.58",
	},
	{
		"name": "IWANY",
		"latitude": "48-27-18.19 N",
		"longitude": "122-26-1.02 W",
		"state": "WASHINGTON",
		"artcc": "ZSE",
		"type": "RP",
		"updated": "HUH*VORTAC*148.82/30.00",
	},
	{
		"name": "IWKID",
		"latitude": "46-59-30.75 N",
		"longitude": "119-12-58.85 W",
		"state": "WASHINGTON",
		"artcc": "ZSE",
		"type": "RNAV",
		"updated": "11/01/2001",
	},
	{
		"name": "IWMOJ",
		"latitude": "47-16-46.57 N",
		"longitude": "119-16-48.24 W",
		"state": "WASHINGTON",
		"artcc": "ZSE",
		"type": "CN",
		"updated": "01/24/2011",
	},
	{
		"name": "IXEQU",
		"latitude": "42-0-49.22 N",
		"longitude": "122-53-5.31 W",
		"state": "OREGON",
		"artcc": "ZSE",
		"type": "CN",
		"updated": "09/27/2010",
	},
	{
		"name": "IXJUP",
		"latitude": "46-28-33.08 N",
		"longitude": "120-28-41.41 W",
		"state": "WASHINGTON",
		"artcc": "ZSE",
		"type": "CN",
		"updated": "07/01/2011",
	},
	{
		"name": "IYEBU",
		"latitude": "46-37-43.83 N",
		"longitude": "120-35-49.1 W",
		"state": "WASHINGTON",
		"artcc": "ZSE",
		"type": "CN",
		"updated": "07/01/2011",
	},
	{
		"name": "IYIVA",
		"latitude": "44-31-17.92 N",
		"longitude": "121-28-28.13 W",
		"state": "OREGON",
		"artcc": "ZSE",
		"type": "RNAV",
		"updated": "05/15/2014",
	},
	{
		"name": "IYOVY",
		"latitude": "47-41-45.44 N",
		"longitude": "117-24-9.54 W",
		"state": "WASHINGTON",
		"artcc": "ZSE",
		"type": "CN",
		"updated": "01/25/2011",
	},
	{
		"name": "IYTAM",
		"latitude": "46-24-34 N",
		"longitude": "117-4-6.79 W",
		"state": "WASHINGTON",
		"artcc": "ZSE",
		"type": "RNAV",
		"updated": "04/20/2010",
	},
	{
		"name": "IYWUH",
		"latitude": "47-10-17.55 N",
		"longitude": "119-31-2.37 W",
		"state": "WASHINGTON",
		"artcc": "ZSE",
		"type": "CN",
		"updated": "01/26/2011",
	},
	{
		"name": "IZCED",
		"latitude": "46-8-4.91 N",
		"longitude": "119-5-9.88 W",
		"state": "WASHINGTON",
		"artcc": "ZSE",
		"type": "RNAV",
		"updated": "03/25/2011",
	},
	{
		"name": "IZCIW",
		"latitude": "42-27-14.01 N",
		"longitude": "122-58-47.81 W",
		"state": "OREGON",
		"artcc": "ZSE",
		"type": "CN",
		"updated": "09/27/2010",
	},
	{
		"name": "IZELY",
		"latitude": "47-41-16.59 N",
		"longitude": "117-18-49.98 W",
		"state": "WASHINGTON",
		"artcc": "ZSE",
		"type": "RP",
		"updated": "FLZ*LD*041.18/0.70",
	},
	{
		"name": "IZFEV",
		"latitude": "46-21-28.73 N",
		"longitude": "119-9-34.39 W",
		"state": "WASHINGTON",
		"artcc": "ZSE",
		"type": "CN",
		"updated": "03/25/2011",
	},
	{
		"name": "IZOSY",
		"latitude": "47-5-48.24 N",
		"longitude": "119-10-42.68 W",
		"state": "WASHINGTON",
		"artcc": "ZSE",
		"type": "CN",
		"updated": "01/26/2011",
	},
	{
		"name": "IZPUH",
		"latitude": "40-32-44.07 N",
		"longitude": "124-7-6.16 W",
		"state": "CALIFORNIA",
		"artcc": "ZSE",
		"type": "WP",
		"updated": "11/25/1998",
	},
	{
		"name": "IZROM",
		"latitude": "47-29-17.84 N",
		"longitude": "120-26-50.26 W",
		"state": "WASHINGTON",
		"artcc": "ZSE",
		"type": "RP",
		"updated": "EAT*VOR/DME*284.00/11.00",
	},
