[
	{
		"name": "JABOT",
		"latitude": "44-19-11.52 N",
		"longitude": "121-2-28.44 W",
		"state": "OREGON",
		"artcc": "ZSE",
		"type": "RP",
		"updated": "DSD*VORTAC*052.31/12.00"
	},
	{
		"name": "JADNU",
		"latitude": "45-36-54.64 N",
		"longitude": "122-40-22.69 W",
		"state": "OREGON",
		"artcc": "ZSE",
		"type": "RP",
		"updated": "PDX*LD*283.01/4.49"
	},
	{
		"name": "JADUN",
		"latitude": "42-14-57.49 N",
		"longitude": "122-46-53.18 W",
		"state": "OREGON",
		"artcc": "ZSE",
		"type": "RP",
		"updated": "OED*VORTAC*138.00/15.00"
	},
	{
		"name": "JAGEN",
		"latitude": "42-23-10.38 N",
		"longitude": "122-52-45.05 W",
		"state": "OREGON",
		"artcc": "ZSE",
		"type": "RP",
		"updated": "OED*VORTAC*145.98/5.80"
	},
	{
		"name": "JAGMO",
		"latitude": "44-15-34.67 N",
		"longitude": "121-7-47.5 W",
		"state": "OREGON",
		"artcc": "ZSE",
		"type": "RP",
		"updated": "DSD*VORTAC*068.79/7.50"
	},
	{
		"name": "JAIME",
		"latitude": "44-25-7.17 N",
		"longitude": "122-36-28.01 W",
		"state": "OREGON",
		"artcc": "ZSE",
		"type": "RP",
		"updated": "CVO*VOR/DME*081.11/29.87"
	},
	{
		"name": "JAKLU",
		"latitude": "46-51-1.01 N",
		"longitude": "116-40-13.22 W",
		"state": "IDAHO",
		"artcc": "ZSE",
		"type": "RNAV",
		"updated": "08/13/2012"
	},
	{
		"name": "JAKSN",
		"latitude": "47-53-11.21 N",
		"longitude": "121-42-13.38 W",
		"state": "WASHINGTON",
		"artcc": "ZSE",
		"type": "RP",
		"updated": "SEA*VORTAC*023.00/36.57"
	},
	{
		"name": "JALAG",
		"latitude": "45-37-13.31 N",
		"longitude": "122-39-40.67 W",
		"state": "OREGON",
		"artcc": "ZSE",
		"type": "RP",
		"updated": "BTG*VORTAC*180.01"
	},
	{
		"name": "JALBU",
		"latitude": "44-8-22.1 N",
		"longitude": "122-59-54.78 W",
		"state": "OREGON",
		"artcc": "ZSE",
		"type": "RNAV",
		"updated": "07/05/2011"
	},
	{
		"name": "JALEL",
		"latitude": "45-36-40.31 N",
		"longitude": "121-9-56.04 W",
		"state": "OREGON",
		"artcc": "ZSE",
		"type": "RNAV",
		"updated": "10/21/2005"
	},
	{
		"name": "JALON",
		"latitude": "47-20-11.42 N",
		"longitude": "122-19-8.18 W",
		"state": "WASHINGTON",
		"artcc": "ZSE",
		"type": "RP",
		"updated": "BEJ*LD*164.33/6.07"
	},
	{
		"name": "JALUP",
		"latitude": "44-55-30.31 N",
		"longitude": "123-1-22.51 W",
		"state": "OREGON",
		"artcc": "ZSE",
		"type": "RNAV",
		"updated": "03/16/2011"
	},
	{
		"name": "JAMDA",
		"latitude": "46-34-19.14 N",
		"longitude": "120-31-51.03 W",
		"state": "WASHINGTON",
		"artcc": "ZSE",
		"type": "RP",
		"updated": "YKM*VORTAC*250.71/3.57"
	},
	{
		"name": "JAMEG",
		"latitude": "43-15-24.4 N",
		"longitude": "123-21-15.95 W",
		"state": "OREGON",
		"artcc": "ZSE",
		"type": "RNAV",
		"updated": "11/27/2017"
	},
	{
		"name": "JAMRO",
		"latitude": "47-37-42.63 N",
		"longitude": "122-26-11.44 W",
		"state": "WASHINGTON",
		"artcc": "ZSE",
		"type": "RNAV",
		"updated": "08/09/2017"
	},
	{
		"name": "JANAS",
		"latitude": "44-17-33.63 N",
		"longitude": "124-5-14.25 W",
		"state": "OREGON",
		"artcc": "ZSE",
		"type": "RP",
		"updated": "ONP*VORTAC*168.88/17.00"
	},
	{
		"name": "JANIG",
		"latitude": "46-20-44.58 N",
		"longitude": "116-46-6.44 W",
		"state": "IDAHO",
		"artcc": "ZSE",
		"type": "RNAV",
		"updated": "07/09/2009"
	},
	{
		"name": "JAPUV",
		"latitude": "44-11-27.59 N",
		"longitude": "121-0-52.54 W",
		"state": "OREGON",
		"artcc": "ZSE",
		"type": "RNAV",
		"updated": "06/25/2015"
	},
	{
		"name": "JARUV",
		"latitude": "46-43-30.37 N",
		"longitude": "117-11-5.66 W",
		"state": "WASHINGTON",
		"artcc": "ZSE",
		"type": "RNAV",
		"updated": "08/15/2012"
	},
	{
		"name": "JATLI",
		"latitude": "48-35-16.25 N",
		"longitude": "116-23-39 W",
		"state": "IDAHO",
		"artcc": "ZSE",
		"type": "RNAV",
		"updated": "06/19/2010"
	},
	{
		"name": "JAVTO",
		"latitude": "48-23-56.21 N",
		"longitude": "122-23-41.42 W",
		"state": "WASHINGTON",
		"artcc": "ZSE",
		"type": "RP",
		"updated": "NUW*TACAN*058.00/11.00"
	},
	{
		"name": "JAWBN",
		"latitude": "48-1-54.26 N",
		"longitude": "122-50-35.66 W",
		"state": "WASHINGTON",
		"artcc": "ZSE",
		"type": "RP",
		"updated": "SEA*VORTAC*310.08/41.83"
	},
	{
		"name": "JAXAG",
		"latitude": "45-37-43.52 N",
		"longitude": "122-33-2.52 W",
		"state": "WASHINGTON",
		"artcc": "ZSE",
		"type": "RP",
		"updated": "GPO*LE*029.02/4.10"
	},
	{
		"name": "JAYEF",
		"latitude": "40-36-32.45 N",
		"longitude": "124-13-36.96 W",
		"state": "CALIFORNIA",
		"artcc": "ZSE",
		"type": "WP",
		"updated": "11/25/1998"
	},
	{
		"name": "JBBDT",
		"latitude": "49-0-0 N",
		"longitude": "122-34-22.3 W",
		"state": "WASHINGTON",
		"artcc": "ZSE",
		"type": "CN",
		"updated": "04/02/2004"
	},
	{
		"name": "JEBGA",
		"latitude": "40-45-15.79 N",
		"longitude": "123-57-24.39 W",
		"state": "CALIFORNIA",
		"artcc": "ZSE",
		"type": "RP",
		"updated": "FOT*VORTAC*049.44"
	},
	{
		"name": "JEGDU",
		"latitude": "47-26-41.26 N",
		"longitude": "117-47-50.2 W",
		"state": "WASHINGTON",
		"artcc": "ZSE",
		"type": "RP",
		"updated": "OLJ*LD*209.49/13.96"
	},
	{
		"name": "JEKMO",
		"latitude": "44-12-32.79 N",
		"longitude": "121-2-59.84 W",
		"state": "OREGON",
		"artcc": "ZSE",
		"type": "RNAV",
		"updated": "06/25/2015"
	},
	{
		"name": "JEKPO",
		"latitude": "48-15-6.53 N",
		"longitude": "122-46-49.64 W",
		"state": "WASHINGTON",
		"artcc": "ZSE",
		"type": "RNAV",
		"updated": "09/21/2014"
	},
	{
		"name": "JELTI",
		"latitude": "44-59-37.25 N",
		"longitude": "118-21-11.55 W",
		"state": "OREGON",
		"artcc": "ZSE",
		"type": "RP",
		"updated": "BKE*VOR/DME*271.75/25.00"
	},
	{
		"name": "JELVO",
		"latitude": "48-16-43.8 N",
		"longitude": "118-5-10.2 W",
		"state": "WASHINGTON",
		"artcc": "ZSE",
		"type": "RNAV",
		"updated": "08/23/2016"
	},
	{
		"name": "JENAS",
		"latitude": "46-29-48.75 N",
		"longitude": "117-12-50.84 W",
		"state": "WASHINGTON",
		"artcc": "ZSE",
		"type": "RNAV",
		"updated": "04/20/2010"
	},
	{
		"name": "JEPIT",
		"latitude": "40-22-50.68 N",
		"longitude": "123-42-25.84 W",
		"state": "CALIFORNIA",
		"artcc": "ZSE",
		"type": "RP",
		"updated": "ACV*VOR/DME*135.92/40.41"
	},
	{
		"name": "JEQEF",
		"latitude": "45-39-57.47 N",
		"longitude": "123-47-30.23 W",
		"state": "OREGON",
		"artcc": "ZSE",
		"type": "RNAV",
		"updated": "08/14/2000"
	},
	{
		"name": "JERMM",
		"latitude": "44-46-5.02 N",
		"longitude": "121-27-5.84 W",
		"state": "OREGON",
		"artcc": "ZSE",
		"type": "RNAV",
		"updated": "04/15/2013"
	},
	{
		"name": "JEROG",
		"latitude": "46-17-59.25 N",
		"longitude": "119-4-6.96 W",
		"state": "WASHINGTON",
		"artcc": "ZSE",
		"type": "RP",
		"updated": "PSC*LD*030.74/3.94"
	},
	{
		"name": "JERPU",
		"latitude": "47-36-57.61 N",
		"longitude": "117-24-13.02 W",
		"state": "WASHINGTON",
		"artcc": "ZSE",
		"type": "RNAV",
		"updated": "01/26/2011"
	},
	{
		"name": "JERUX",
		"latitude": "45-20-5 N",
		"longitude": "123-1-22 W",
		"state": "OREGON",
		"artcc": "ZSE",
		"type": "RNAV",
		"updated": "07/27/2010"
	},
	{
		"name": "JESAV",
		"latitude": "44-12-28.48 N",
		"longitude": "121-16-22.05 W",
		"state": "OREGON",
		"artcc": "ZSE",
		"type": "RP",
		"updated": "DSD*VORTAC*135.76/3.00"
	},
	{
		"name": "JESCA",
		"latitude": "47-35-22.65 N",
		"longitude": "117-46-59.51 W",
		"state": "WASHINGTON",
		"artcc": "ZSE",
		"type": "MR",
		"updated": "SKA*TACAN*240.00/5.07"
	},
	{
		"name": "JESGI",
		"latitude": "48-48-22.88 N",
		"longitude": "122-54-29.1 W",
		"state": "WASHINGTON",
		"artcc": "ZSE",
		"type": "RNAV",
		"updated": "08/18/2015"
	},
	{
		"name": "JESOL",
		"latitude": "48-23-5.74 N",
		"longitude": "124-28-34.96 W",
		"state": "WASHINGTON",
		"artcc": "ZSE",
		"type": "RNAV",
		"updated": "08/18/2015"
	},
	{
		"name": "JESOR",
		"latitude": "48-41-46.1 N",
		"longitude": "122-54-38.37 W",
		"state": "WASHINGTON",
		"artcc": "ZSE",
		"type": "RNAV",
		"updated": "12/10/2015"
	},
	{
		"name": "JESPA",
		"latitude": "46-48-12.68 N",
		"longitude": "123-2-38.73 W",
		"state": "WASHINGTON",
		"artcc": "ZSE",
		"type": "RNAV",
		"updated": "08/18/2015"
	},
	{
		"name": "JESSP",
		"latitude": "47-44-12.8 N",
		"longitude": "122-4-35.04 W",
		"state": "WASHINGTON",
		"artcc": "ZSE",
		"type": "RNAV",
		"updated": "05/04/2017"
	},
	{
		"name": "JETEM",
		"latitude": "46-56-51.91 N",
		"longitude": "122-28-30.96 W",
		"state": "WASHINGTON",
		"artcc": "ZSE",
		"type": "MR",
		"updated": "TCM*VORTAC*165.05/12.00"
	},
	{
		"name": "JETNU",
		"latitude": "47-34-43.76 N",
		"longitude": "119-58-43.81 W",
		"state": "WASHINGTON",
		"artcc": "ZSE",
		"type": "RNAV",
		"updated": "06/07/2010"
	},
	{
		"name": "JETTS",
		"latitude": "46-58-13.78 N",
		"longitude": "116-38-13.28 W",
		"state": "IDAHO",
		"artcc": "ZSE",
		"type": "RP",
		"updated": "PUW*VOR/DME*033.44/30.00"
	},
	{
		"name": "JEVGY",
		"latitude": "40-24-12.53 N",
		"longitude": "123-47-16.94 W",
		"state": "CALIFORNIA",
		"artcc": "ZSE",
		"type": "CN",
		"updated": "07/10/2002"
	},
	{
		"name": "JEVPI",
		"latitude": "47-35-53.66 N",
		"longitude": "117-43-41.92 W",
		"state": "WASHINGTON",
		"artcc": "ZSE",
		"type": "RNAV",
		"updated": "01/26/2011"
	},
	{
		"name": "JEVSY",
		"latitude": "40-29-4.17 N",
		"longitude": "123-56-18.01 W",
		"state": "CALIFORNIA",
		"artcc": "ZSE",
		"type": "CN",
		"updated": "07/10/2002"
	},
	{
		"name": "JEVUN",
		"latitude": "47-25-30.03 N",
		"longitude": "122-18-29.13 W",
		"state": "WASHINGTON",
		"artcc": "ZSE",
		"type": "RP",
		"updated": "SEA*LD*164.34/0.56"
	},
	{
		"name": "JEWPE",
		"latitude": "40-29-5.38 N",
		"longitude": "123-45-57.52 W",
		"state": "CALIFORNIA",
		"artcc": "ZSE",
		"type": "CN",
		"updated": "07/10/2002"
	},
	{
		"name": "JEXAM",
		"latitude": "42-17-48.85 N",
		"longitude": "122-25-57.67 W",
		"state": "OREGON",
		"artcc": "ZSE",
		"type": "RP",
		"updated": "OED*VORTAC*098.00/24.00"
	},
	{
		"name": "JEXIT",
		"latitude": "47-20-41.74 N",
		"longitude": "120-6-9.15 W",
		"state": "WASHINGTON",
		"artcc": "ZSE",
		"type": "RNAV",
		"updated": "10/05/2016"
	},
	{
		"name": "JFRYA",
		"latitude": "47-18-53.11 N",
		"longitude": "119-12-48.42 W",
		"state": "WASHINGTON",
		"artcc": "ZSE",
		"type": "CN",
		"updated": "01/24/2011"
	},
	{
		"name": "JIBOD",
		"latitude": "46-57-44.88 N",
		"longitude": "119-32-54.58 W",
		"state": "WASHINGTON",
		"artcc": "ZSE",
		"type": "RNAV",
		"updated": "01/24/2011"
	},
	{
		"name": "JIDAG",
		"latitude": "47-6-52.81 N",
		"longitude": "119-16-26.63 W",
		"state": "WASHINGTON",
		"artcc": "ZSE",
		"type": "RNAV",
		"updated": "01/24/2011"
	},
	{
		"name": "JIDAL",
		"latitude": "42-2-25.45 N",
		"longitude": "121-41-13.19 W",
		"state": "OREGON",
		"artcc": "ZSE",
		"type": "RP",
		"updated": "LMT*VORTAC*148.00/7.00"
	},
	{
		"name": "JIDES",
		"latitude": "46-59-38.72 N",
		"longitude": "120-17-37.74 W",
		"state": "WASHINGTON",
		"artcc": "ZSE",
		"type": "RP",
		"updated": "ELN*VOR/DME*084.00/7.00"
	},
	{
		"name": "JIDUT",
		"latitude": "44-22-5.69 N",
		"longitude": "121-4-11.27 W",
		"state": "OREGON",
		"artcc": "ZSE",
		"type": "RNAV",
		"updated": "07/17/2015"
	},
	{
		"name": "JIGEB",
		"latitude": "48-13-54.19 N",
		"longitude": "123-1-31.69 W",
		"state": "WASHINGTON",
		"artcc": "ZSE",
		"type": "RP",
		"updated": "CL*NDB*063.05"
	},
	{
		"name": "JIGPI",
		"latitude": "46-12-16.52 N",
		"longitude": "119-1-52.87 W",
		"state": "WASHINGTON",
		"artcc": "ZSE",
		"type": "RNAV",
		"updated": "03/25/2011"
	},
	{
		"name": "JIKIM",
		"latitude": "45-36-35.72 N",
		"longitude": "123-1-22.62 W",
		"state": "OREGON",
		"artcc": "ZSE",
		"type": "RP",
		"updated": "BTG*VORTAC*224.64"
	},
	{
		"name": "JIKSU",
		"latitude": "46-15-35.4 N",
		"longitude": "119-6-19.23 W",
		"state": "WASHINGTON",
		"artcc": "ZSE",
		"type": "RP",
		"updated": "PSC*VOR/DME*126.52/0.80"
	},
	{
		"name": "JILEB",
		"latitude": "47-32-31.48 N",
		"longitude": "117-37-39.28 W",
		"state": "WASHINGTON",
		"artcc": "ZSE",
		"type": "RNAV",
		"updated": "01/24/2011"
	},
	{
		"name": "JILOK",
		"latitude": "42-20-10.97 N",
		"longitude": "122-51-11.09 W",
		"state": "OREGON",
		"artcc": "ZSE",
		"type": "RP",
		"updated": "MFR*LD*142.77/1.61"
	},
	{
		"name": "JILPU",
		"latitude": "46-18-10.19 N",
		"longitude": "119-15-0.02 W",
		"state": "WASHINGTON",
		"artcc": "ZSE",
		"type": "RNAV",
		"updated": "10/07/2014"
	},
	{
		"name": "JIMDU",
		"latitude": "47-35-57.2 N",
		"longitude": "117-43-35.72 W",
		"state": "WASHINGTON",
		"artcc": "ZSE",
		"type": "MR",
		"updated": "SKA*TACAN*240.00/2.70"
	},
	{
		"name": "JINMO",
		"latitude": "46-22-17 N",
		"longitude": "122-7-31 W",
		"state": "WASHINGTON",
		"artcc": "ZSE",
		"type": "RNAV",
		"updated": "04/10/2014"
	},
	{
		"name": "JIPOT",
		"latitude": "48-52-13.34 N",
		"longitude": "122-31-13.22 W",
		"state": "WASHINGTON",
		"artcc": "ZSE",
		"type": "RNAV",
		"updated": "08/19/2015"
	},
	{
		"name": "JIPTO",
		"latitude": "42-21-12.54 N",
		"longitude": "122-51-43.32 W",
		"state": "OREGON",
		"artcc": "ZSE",
		"type": "RNAV",
		"updated": "MFR*LD*142.77/0.51"
	},
	{
		"name": "JIREN",
		"latitude": "45-27-53.52 N",
		"longitude": "121-8-10.01 W",
		"state": "OREGON",
		"artcc": "ZSE",
		"type": "RP",
		"updated": "LTJ*VOR/DME*164.70/15.00"
	},
	{
		"name": "JIRGU",
		"latitude": "48-23-15.82 N",
		"longitude": "122-54-41.22 W",
		"state": "WASHINGTON",
		"artcc": "ZSE",
		"type": "RNAV",
		"updated": "08/19/2015"
	},
	{
		"name": "JIROV",
		"latitude": "46-22-17.03 N",
		"longitude": "117-6-5.06 W",
		"state": "WASHINGTON",
		"artcc": "ZSE",
		"type": "RP",
		"updated": "MQG*VOR/DME*246.46/9.65"
	},
	{
		"name": "JISDI",
		"latitude": "43-16-10.67 N",
		"longitude": "124-14-3.58 W",
		"state": "OREGON",
		"artcc": "ZSE",
		"type": "RNAV",
		"updated": "06/15/2010"
	},
	{
		"name": "JISOS",
		"latitude": "48-32-16.39 N",
		"longitude": "122-38-50.45 W",
		"state": "WASHINGTON",
		"artcc": "ZSE",
		"type": "MR",
		"updated": "NUW*TACAN*345.00/11.00"
	},
	{
		"name": "JISTA",
		"latitude": "47-14-47.92 N",
		"longitude": "122-12-18.1 W",
		"state": "WASHINGTON",
		"artcc": "ZSE",
		"type": "RNAV",
		"updated": "07/13/2017"
	},
	{
		"name": "JITRI",
		"latitude": "42-41-19.75 N",
		"longitude": "123-29-9.61 W",
		"state": "OREGON",
		"artcc": "ZSE",
		"type": "RNAV",
		"updated": "12/01/2017"
	},
	{
		"name": "JIVBO",
		"latitude": "47-44-12.71 N",
		"longitude": "117-32-21.84 W",
		"state": "WASHINGTON",
		"artcc": "ZSE",
		"type": "RNAV",
		"updated": "11/10/2011"
	},
	{
		"name": "JIVDO",
		"latitude": "46-20-25.8 N",
		"longitude": "119-0-29.49 W",
		"state": "WASHINGTON",
		"artcc": "ZSE",
		"type": "RP",
		"updated": "PSC*VOR/DME*032.07/6.19"
	},
	{
		"name": "JIVER",
		"latitude": "48-6-59.76 N",
		"longitude": "122-38-33.57 W",
		"state": "WASHINGTON",
		"artcc": "ZSE",
		"type": "RNAV",
		"updated": "08/19/2015"
	},
	{
		"name": "JIVKA",
		"latitude": "47-37-3.46 N",
		"longitude": "117-40-48.57 W",
		"state": "WASHINGTON",
		"artcc": "ZSE",
		"type": "RNAV",
		"updated": "09/27/2010"
	},
	{
		"name": "JIVTI",
		"latitude": "42-23-26.15 N",
		"longitude": "123-4-30.52 W",
		"state": "OREGON",
		"artcc": "ZSE",
		"type": "RNAV",
		"updated": "09/27/2010"
	},
	{
		"name": "JIXEG",
		"latitude": "47-41-34.55 N",
		"longitude": "117-25-30.59 W",
		"state": "WASHINGTON",
		"artcc": "ZSE",
		"type": "RNAV",
		"updated": "01/24/2011"
	},
	{
		"name": "JJACE",
		"latitude": "45-9-51.65 N",
		"longitude": "122-3-2.77 W",
		"state": "OREGON",
		"artcc": "ZSE",
		"type": "RNAV",
		"updated": "04/15/2013"
	},
	{
		"name": "JJETT",
		"latitude": "44-56-35.43 N",
		"longitude": "121-40-56.36 W",
		"state": "OREGON",
		"artcc": "ZSE",
		"type": "RNAV",
		"updated": "05/15/2014"
	},
	{
		"name": "JKNOX",
		"latitude": "45-31-2.65 N",
		"longitude": "120-24-40.73 W",
		"state": "OREGON",
		"artcc": "ZSE",
		"type": "RNAV",
		"updated": "08/26/2013"
	},
	{
		"name": "JOBIN",
		"latitude": "48-7-37.74 N",
		"longitude": "122-43-4.64 W",
		"state": "WASHINGTON",
		"artcc": "ZSE",
		"type": "RNAV",
		"updated": "05/15/2007"
	},
	{
		"name": "JOBSO",
		"latitude": "47-32-13.41 N",
		"longitude": "122-18-37.25 W",
		"state": "WASHINGTON",
		"artcc": "ZSE",
		"type": "RNAV",
		"updated": "06/20/2001"
	},
	{
		"name": "JODNA",
		"latitude": "47-12-53.41 N",
		"longitude": "122-28-37.11 W",
		"state": "WASHINGTON",
		"artcc": "ZSE",
		"type": "RNAV",
		"updated": "01/12/2012"
	},
	{
		"name": "JODOR",
		"latitude": "47-4-5.67 N",
		"longitude": "122-28-33.72 W",
		"state": "WASHINGTON",
		"artcc": "ZSE",
		"type": "MW",
		"updated": "08/12/2015"
	},
	{
		"name": "JODVI",
		"latitude": "45-8-39.2 N",
		"longitude": "123-15-8.14 W",
		"state": "OREGON",
		"artcc": "ZSE",
		"type": "RNAV",
		"updated": "08/06/2008"
	},
	{
		"name": "JOGEK",
		"latitude": "47-42-38.95 N",
		"longitude": "116-49-31.68 W",
		"state": "IDAHO",
		"artcc": "ZSE",
		"type": "RP",
		"updated": "COE*VOR/DME*164.00/3.78"
	},
	{
		"name": "JOGEN",
		"latitude": "44-19-44 N",
		"longitude": "121-39-4 W",
		"state": "OREGON",
		"artcc": "ZSE",
		"type": "RNAV",
		"updated": "06/30/2009"
	},
	{
		"name": "JOGIP",
		"latitude": "48-20-58.9 N",
		"longitude": "122-41-35.9 W",
		"state": "WASHINGTON",
		"artcc": "ZSE",
		"type": "MR",
		"updated": "NUW*TACAN*238.00/1.30"
	},
	{
		"name": "JOGLU",
		"latitude": "46-43-32.4 N",
		"longitude": "122-59-51.59 W",
		"state": "WASHINGTON",
		"artcc": "ZSE",
		"type": "RP",
		"updated": "OLM*VORTAC*176.00/15.28"
	},
	{
		"name": "JOGON",
		"latitude": "44-0-6.07 N",
		"longitude": "121-12-1.12 W",
		"state": "OREGON",
		"artcc": "ZSE",
		"type": "RNAV",
		"updated": "12/05/2007"
	},
	{
		"name": "JOKRU",
		"latitude": "47-19-14.45 N",
		"longitude": "120-5-32.45 W",
		"state": "WASHINGTON",
		"artcc": "ZSE",
		"type": "RNAV",
		"updated": "06/07/2010"
	},
	{
		"name": "JOKSI",
		"latitude": "47-38-46.01 N",
		"longitude": "122-23-2.76 W",
		"state": "WASHINGTON",
		"artcc": "ZSE",
		"type": "RNAV",
		"updated": "04/13/2007"
	},
	{
		"name": "JOLEX",
		"latitude": "45-30-48.34 N",
		"longitude": "119-36-3.22 W",
		"state": "OREGON",
		"artcc": "ZSE",
		"type": "RNAV",
		"updated": "12/02/2004"
	},
	{
		"name": "JOLOV",
		"latitude": "47-38-25.62 N",
		"longitude": "122-29-8.48 W",
		"state": "WASHINGTON",
		"artcc": "ZSE",
		"type": "RNAV",
		"updated": "05/25/2007"
	},
	{
		"name": "JOLPI",
		"latitude": "47-7-38.06 N",
		"longitude": "122-55-49.16 W",
		"state": "WASHINGTON",
		"artcc": "ZSE",
		"type": "RNAV",
		"updated": "04/13/2007"
	},
	{
		"name": "JOMIS",
		"latitude": "47-31-27.37 N",
		"longitude": "117-49-44.19 W",
		"state": "WASHINGTON",
		"artcc": "ZSE",
		"type": "RNAV",
		"updated": "01/25/2016"
	},
	{
		"name": "JOMPU",
		"latitude": "47-18-39.12 N",
		"longitude": "119-19-51.41 W",
		"state": "WASHINGTON",
		"artcc": "ZSE",
		"type": "RNAV",
		"updated": "01/24/2011"
	},
	{
		"name": "JOMRU",
		"latitude": "47-57-6.56 N",
		"longitude": "117-20-17.66 W",
		"state": "WASHINGTON",
		"artcc": "ZSE",
		"type": "RP",
		"updated": "GEG*VORTAC*005.60/26.00"
	},
	{
		"name": "JONEL",
		"latitude": "42-32-27.29 N",
		"longitude": "122-57-56.42 W",
		"state": "OREGON",
		"artcc": "ZSE",
		"type": "RNAV",
		"updated": "12/20/2001"
	},
	{
		"name": "JONLA",
		"latitude": "44-29-25.51 N",
		"longitude": "124-1-55.78 W",
		"state": "OREGON",
		"artcc": "ZSE",
		"type": "RNAV",
		"updated": "06/16/2016"
	},
	{
		"name": "JONWE",
		"latitude": "44-40-57.78 N",
		"longitude": "119-23-39.47 W",
		"state": "OREGON",
		"artcc": "ZSE",
		"type": "RP",
		"updated": "IMB*VOR/DME*061.27/13.74"
	},
	{
		"name": "JOPDI",
		"latitude": "46-35-8.13 N",
		"longitude": "120-39-42.64 W",
		"state": "WASHINGTON",
		"artcc": "ZSE",
		"type": "RNAV",
		"updated": "07/12/2011"
	},
	{
		"name": "JORAD",
		"latitude": "45-49-19 N",
		"longitude": "120-39-41 W",
		"state": "WASHINGTON",
		"artcc": "ZSE",
		"type": "RNAV",
		"updated": "04/23/2015"
	},
	{
		"name": "JORAN",
		"latitude": "43-24-42.96 N",
		"longitude": "124-1-53.08 W",
		"state": "OREGON",
		"artcc": "ZSE",
		"type": "RP",
		"updated": "OTH*VOR/DME*077.00/6.00"
	},
	{
		"name": "JOREM",
		"latitude": "44-32-55.68 N",
		"longitude": "120-56-53.95 W",
		"state": "OREGON",
		"artcc": "ZSE",
		"type": "RNAV",
		"updated": "04/23/2012"
	},
	{
		"name": "JORER",
		"latitude": "46-45-6.82 N",
		"longitude": "117-2-23.6 W",
		"state": "WASHINGTON",
		"artcc": "ZSE",
		"type": "RNAV",
		"updated": "08/13/2012"
	},
	{
		"name": "JOROR",
		"latitude": "43-24-19.87 N",
		"longitude": "123-19-58.74 W",
		"state": "OREGON",
		"artcc": "ZSE",
		"type": "RNAV",
		"updated": "11/27/2017"
	},
	{
		"name": "JOSBO",
		"latitude": "46-8-24.65 N",
		"longitude": "118-14-5.37 W",
		"state": "WASHINGTON",
		"artcc": "ZSE",
		"type": "RP",
		"updated": "ALW*VOR/DME*017.01/4.00"
	},
	{
		"name": "JOSTA",
		"latitude": "47-15-10.15 N",
		"longitude": "122-19-10.73 W",
		"state": "WASHINGTON",
		"artcc": "ZSE",
		"type": "RP",
		"updated": "BEJ*LD*S CRS/11.10"
	},
	{
		"name": "JOTBA",
		"latitude": "45-10-0.7 N",
		"longitude": "120-31-12.27 W",
		"state": "OREGON",
		"artcc": "ZSE",
		"type": "RNAV",
		"updated": "08/26/2013"
	},
	{
		"name": "JOVPO",
		"latitude": "48-22-2.55 N",
		"longitude": "122-40-8.23 W",
		"state": "WASHINGTON",
		"artcc": "ZSE",
		"type": "MR",
		"updated": "NUW*TACAN*321.00/0.80"
	},
	{
		"name": "JOVSO",
		"latitude": "47-0-10.78 N",
		"longitude": "124-4-50.36 W",
		"state": "WASHINGTON",
		"artcc": "ZSE",
		"type": "RNAV",
		"updated": "05/25/2007"
	},
	{
		"name": "JOYXE",
		"latitude": "44-14-29.13 N",
		"longitude": "120-47-9.9 W",
		"state": "OREGON",
		"artcc": "ZSE",
		"type": "RNAV",
		"updated": "12/08/2017"
	},
	{
		"name": "JSTEN",
		"latitude": "48-57-50.34 N",
		"longitude": "119-26-15.47 W",
		"state": "WASHINGTON",
		"artcc": "ZSE",
		"type": "RNAV",
		"updated": "04/24/2017"
	},
	{
		"name": "JUDIV",
		"latitude": "46-8-37.27 N",
		"longitude": "119-6-46.66 W",
		"state": "WASHINGTON",
		"artcc": "ZSE",
		"type": "RNAV",
		"updated": "03/25/2011"
	},
	{
		"name": "JUDIX",
		"latitude": "46-42-48.26 N",
		"longitude": "123-58-6.41 W",
		"state": "WASHINGTON",
		"artcc": "ZSE",
		"type": "RNAV",
		"updated": "04/06/2007"
	},
	{
		"name": "JUDON",
		"latitude": "47-30-16.29 N",
		"longitude": "117-39-10.69 W",
		"state": "WASHINGTON",
		"artcc": "ZSE",
		"type": "RNAV",
		"updated": "01/24/2011"
	},
	{
		"name": "JUDSA",
		"latitude": "46-57-21.52 N",
		"longitude": "124-3-36.07 W",
		"state": "WASHINGTON",
		"artcc": "ZSE",
		"type": "RNAV",
		"updated": "09/08/2009"
	},
	{
		"name": "JUDUB",
		"latitude": "46-18-51.63 N",
		"longitude": "119-17-54.64 W",
		"state": "WASHINGTON",
		"artcc": "ZSE",
		"type": "RP",
		"updated": "RLD*LE*008.60/1.02"
	},
	{
		"name": "JUGBA",
		"latitude": "48-2-45 N",
		"longitude": "122-17-18.98 W",
		"state": "WASHINGTON",
		"artcc": "ZSE",
		"type": "RP",
		"updated": "PAE*VOR/DME*/7.58"
	},
	{
		"name": "JUGIX",
		"latitude": "44-4-44.48 N",
		"longitude": "123-12-6.95 W",
		"state": "OREGON",
		"artcc": "ZSE",
		"type": "RNAV",
		"updated": "11/01/2017"
	},
	{
		"name": "JUGMI",
		"latitude": "43-39-45.75 N",
		"longitude": "124-18-21.92 W",
		"state": "OREGON",
		"artcc": "ZSE",
		"type": "RP",
		"updated": "OTH*VOR/DME*323.01/16.00"
	},
	{
		"name": "JUGOK",
		"latitude": "47-39-28.37 N",
		"longitude": "122-29-36.72 W",
		"state": "WASHINGTON",
		"artcc": "ZSE",
		"type": "RNAV",
		"updated": "02/17/2009"
	},
	{
		"name": "JUGON",
		"latitude": "46-27-3.79 N",
		"longitude": "117-8-11.1 W",
		"state": "WASHINGTON",
		"artcc": "ZSE",
		"type": "RNAV",
		"updated": "09/12/2012"
	},
	{
		"name": "JUGVU",
		"latitude": "44-12-53.28 N",
		"longitude": "121-18-0.42 W",
		"state": "OREGON",
		"artcc": "ZSE",
		"type": "RNAV",
		"updated": "05/15/2014"
	},
	{
		"name": "JUKDO",
		"latitude": "47-33-49.73 N",
		"longitude": "117-40-40.99 W",
		"state": "WASHINGTON",
		"artcc": "ZSE",
		"type": "RNAV",
		"updated": "01/24/2011"
	},
	{
		"name": "JUKRI",
		"latitude": "47-24-57.12 N",
		"longitude": "119-25-0.94 W",
		"state": "WASHINGTON",
		"artcc": "ZSE",
		"type": "RNAV",
		"updated": "08/13/2008"
	},
	{
		"name": "JUKSI",
		"latitude": "45-24-39.22 N",
		"longitude": "122-35-37.53 W",
		"state": "OREGON",
		"artcc": "ZSE",
		"type": "RNAV",
		"updated": "03/16/2011"
	},
	{
		"name": "JULEN",
		"latitude": "47-35-26.43 N",
		"longitude": "122-20-34.59 W",
		"state": "WASHINGTON",
		"artcc": "ZSE",
		"type": "RNAV",
		"updated": "02/16/2006"
	},
	{
		"name": "JUMAT",
		"latitude": "46-23-35.24 N",
		"longitude": "119-11-47.11 W",
		"state": "WASHINGTON",
		"artcc": "ZSE",
		"type": "RNAV",
		"updated": "09/15/2014"
	},
	{
		"name": "JUNSA",
		"latitude": "46-8-18.27 N",
		"longitude": "123-34-30.85 W",
		"state": "OREGON",
		"artcc": "ZSE",
		"type": "RP",
		"updated": "AST*VOR/DME*/12.81"
	},
	{
		"name": "JURDY",
		"latitude": "44-21-51.33 N",
		"longitude": "121-23-51.71 W",
		"state": "OREGON",
		"artcc": "ZSE",
		"type": "RNAV",
		"updated": "07/20/2009"
	},
	{
		"name": "JURET",
		"latitude": "46-25-20.63 N",
		"longitude": "120-11-0.26 W",
		"state": "WASHINGTON",
		"artcc": "ZSE",
		"type": "RNAV",
		"updated": "07/12/2011"
	},
	{
		"name": "JURLO",
		"latitude": "43-57-58.1 N",
		"longitude": "123-18-36.21 W",
		"state": "OREGON",
		"artcc": "ZSE",
		"type": "RNAV",
		"updated": "07/05/2011"
	},
	{
		"name": "JUROD",
		"latitude": "42-23-58.26 N",
		"longitude": "122-53-10.18 W",
		"state": "OREGON",
		"artcc": "ZSE",
		"type": "RNAV",
		"updated": "12/20/2001"
	},
	{
		"name": "JURSY",
		"latitude": "47-40-57.62 N",
		"longitude": "117-2-45.33 W",
		"state": "WASHINGTON",
		"artcc": "ZSE",
		"type": "RP",
		"updated": "GEG*VORTAC*052.10/24.62"
	},
	{
		"name": "JURUL",
		"latitude": "45-35-39.46 N",
		"longitude": "122-37-20.48 W",
		"state": "OREGON",
		"artcc": "ZSE",
		"type": "RP",
		"updated": "CBU*TACAN*286.00/0.58"
	},
	{
		"name": "JUSLU",
		"latitude": "44-23-48.02 N",
		"longitude": "121-10-6.93 W",
		"state": "OREGON",
		"artcc": "ZSE",
		"type": "RNAV",
		"updated": "05/15/2014"
	},
	{
		"name": "JUTAM",
		"latitude": "46-9-36.31 N",
		"longitude": "119-14-43.56 W",
		"state": "WASHINGTON",
		"artcc": "ZSE",
		"type": "RNAV",
		"updated": "09/15/2014"
	},
	{
		"name": "JUVET",
		"latitude": "44-35-6.27 N",
		"longitude": "121-9-12.27 W",
		"state": "OREGON",
		"artcc": "ZSE",
		"type": "RNAV",
		"updated": "04/23/2012"
	},
	{
		"name": "JUVGA",
		"latitude": "47-24-40.22 N",
		"longitude": "122-50-29.54 W",
		"state": "WASHINGTON",
		"artcc": "ZSE",
		"type": "RP",
		"updated": "OLM*VORTAC*346.32/26.50"
	},
	{
		"name": "JUVIS",
		"latitude": "45-23-10.7 N",
		"longitude": "123-52-20.68 W",
		"state": "OREGON",
		"artcc": "ZSE",
		"type": "RNAV",
		"updated": "03/16/2011"
	},
	{
		"name": "JUVOK",
		"latitude": "47-6-29.75 N",
		"longitude": "119-47-18.42 W",
		"state": "WASHINGTON",
		"artcc": "ZSE",
		"type": "RP",
		"updated": "EPH*VORTAC*201.76/22.00"
	},
	{
		"name": "JUVRO",
		"latitude": "44-56-37.54 N",
		"longitude": "123-1-44.56 W",
		"state": "OREGON",
		"artcc": "ZSE",
		"type": "RP",
		"updated": "SLE*LD*313.08/1.70"
	},
	{
		"name": "JUVUL",
		"latitude": "44-26-25.4 N",
		"longitude": "119-8-13.12 W",
		"state": "OREGON",
		"artcc": "ZSE",
		"type": "RNAV",
		"updated": "08/04/2009"
	},
	{
		"name": "JUXAS",
		"latitude": "44-15-26.83 N",
		"longitude": "123-2-3.1 W",
		"state": "OREGON",
		"artcc": "ZSE",
		"type": "RNAV",
		"updated": "07/05/2011"
	},
	{
		"name": "JUXIB",
		"latitude": "43-55-4.49 N",
		"longitude": "123-3-47.98 W",
		"state": "OREGON",
		"artcc": "ZSE",
		"type": "RP",
		"updated": "EUG*VORTAC*130.39/14.00"
	},
	{
		"name": "JUXOM",
		"latitude": "46-39-34.66 N",
		"longitude": "120-31-9.95 W",
		"state": "WASHINGTON",
		"artcc": "ZSE",
		"type": "RNAV",
		"updated": "07/12/2011"
	},
	{
		"name": "JUYCU",
		"latitude": "47-28-18 N",
		"longitude": "122-39-53.72 W",
		"state": "WASHINGTON",
		"artcc": "ZSE",
		"type": "RNAV",
		"updated": "07/21/2008"
	},
	{
		"name": "JVOLK",
		"latitude": "48-18-47.61 N",
		"longitude": "123-0-29.67 W",
		"state": "WASHINGTON",
		"artcc": "ZSE",
		"type": "RNAV",
		"updated": "06/04/2012"
	}
]
