	{
		"name": "KAATH",
		"latitude": "42-12-14.75 N",
		"longitude": "120-53-33.93 W",
		"state": "OREGON",
		"artcc": "ZSE",
		"type": "RNAV",
		"updated": "05/11/2015",
	},
	{
		"name": "KACNE",
		"latitude": "48-7-57.23 N",
		"longitude": "123-12-29.97 W",
		"state": "WASHINGTON",
		"artcc": "ZSE",
		"type": "RNAV",
		"updated": "12/20/2011",
	},
	{
		"name": "KADDE",
		"latitude": "46-9-38.22 N",
		"longitude": "119-16-26.61 W",
		"state": "WASHINGTON",
		"artcc": "ZSE",
		"type": "RNAV",
		"updated": "02/05/2008",
	},
	{
		"name": "KADSE",
		"latitude": "46-54-35.64 N",
		"longitude": "120-29-27.18 W",
		"state": "WASHINGTON",
		"artcc": "ZSE",
		"type": "RP",
		"updated": "ELN*VOR/DME*170.00/7.00",
	},
	{
		"name": "KAGYE",
		"latitude": "41-28-57.03 N",
		"longitude": "121-44-35.14 W",
		"state": "CALIFORNIA",
		"artcc": "ZSE",
		"type": "CN",
		"updated": "12/04/2014",
	},
	{
		"name": "KAMLE",
		"latitude": "48-18-37.1 N",
		"longitude": "122-55-41.78 W",
		"state": "WASHINGTON",
		"artcc": "ZSE",
		"type": "MR",
		"updated": "NUW*TACAN*238.00/11.00",
	},
	{
		"name": "KANUA",
		"latitude": "47-41-30 N",
		"longitude": "129-46-6 W",
		"state": "OFFSHORE PACIFIC",
		"artcc": "ZSE",
		"type": "RP",
		"updated": "05/06/2002",
	},
	{
		"name": "KARFO",
		"latitude": "47-36-21.51 N",
		"longitude": "122-18-23.42 W",
		"state": "WASHINGTON",
		"artcc": "ZSE",
		"type": "RP",
		"updated": "SNQ*LD*N CRS/10.30",
	},
	{
		"name": "KARPS",
		"latitude": "47-44-26.78 N",
		"longitude": "116-45-9.9 W",
		"state": "IDAHO",
		"artcc": "ZSE",
		"type": "RP",
		"updated": "COE*VOR/DME*106.72",
	},
	{
		"name": "KARTE",
		"latitude": "46-12-9.05 N",
		"longitude": "119-12-44.64 W",
		"state": "WASHINGTON",
		"artcc": "ZSE",
		"type": "RNAV",
		"updated": "03/25/2011",
	},
	{
		"name": "KASEY",
		"latitude": "48-10-21.81 N",
		"longitude": "122-41-25.5 W",
		"state": "WASHINGTON",
		"artcc": "ZSE",
		"type": "MR",
		"updated": "SEA*VORTAC*321.96/46.87",
	},
	{
		"name": "KAVSA",
		"latitude": "48-39-41.89 N",
		"longitude": "123-7-45.44 W",
		"state": "WASHINGTON",
		"artcc": "ZSE",
		"type": "RP",
		"updated": "YYJ*VOR/DME*088.00/15.00",
	},
	{
		"name": "KAWIS",
		"latitude": "41-41-50.31 N",
		"longitude": "124-15-50.67 W",
		"state": "CALIFORNIA",
		"artcc": "ZSE",
		"type": "RNAV",
		"updated": "06/01/2012",
	},
	{
		"name": "KAXYU",
		"latitude": "47-36-56.92 N",
		"longitude": "117-22-43.26 W",
		"state": "WASHINGTON",
		"artcc": "ZSE",
		"type": "RNAV",
		"updated": "01/26/2011",
	},
	{
		"name": "KEBRE",
		"latitude": "43-59-28.15 N",
		"longitude": "123-14-37.08 W",
		"state": "OREGON",
		"artcc": "ZSE",
		"type": "RNAV",
		"updated": "07/05/2011",
	},
	{
		"name": "KECCE",
		"latitude": "47-46-20.46 N",
		"longitude": "117-25-48.53 W",
		"state": "WASHINGTON",
		"artcc": "ZSE",
		"type": "RNAV",
		"updated": "02/28/2008",
	},
	{
		"name": "KEDGY",
		"latitude": "46-30-57.08 N",
		"longitude": "117-6-41.67 W",
		"state": "WASHINGTON",
		"artcc": "ZSE",
		"type": "CN",
		"updated": "04/22/2010",
	},
	{
		"name": "KEFPU",
		"latitude": "47-10-35.12 N",
		"longitude": "122-35-40.6 W",
		"state": "WASHINGTON",
		"artcc": "ZSE",
		"type": "RNAV",
		"updated": "04/01/2009",
	},
	{
		"name": "KEIKO",
		"latitude": "45-56-41.07 N",
		"longitude": "123-11-48.24 W",
		"state": "OREGON",
		"artcc": "ZSE",
		"type": "RP",
		"updated": "BTG*VORTAC*274.18/28.00",
	},
	{
		"name": "KELNA",
		"latitude": "48-11-1.3362 N",
		"longitude": "123-49-44.5905 W",
		"state": "WASHINGTON",
		"artcc": "ZSE",
		"type": "RP",
		"updated": "YYJ*VOR/DME*186.00/35.40",
	},
	{
		"name": "KELYY",
		"latitude": "45-40-27.55 N",
		"longitude": "122-48-45.5 W",
		"state": "OREGON",
		"artcc": "ZSE",
		"type": "RNAV",
		"updated": "06/09/2008",
	},
	{
		"name": "KENLI",
		"latitude": "48-51-1.28 N",
		"longitude": "117-35-52.35 W",
		"state": "WASHINGTON",
		"artcc": "ZSE",
		"type": "RNAV",
		"updated": "04/15/2008",
	},
	{
		"name": "KENMO",
		"latitude": "47-41-59.57 N",
		"longitude": "122-18-20.43 W",
		"state": "WASHINGTON",
		"artcc": "ZSE",
		"type": "RP",
		"updated": "SNQ*LD*N CRS/15.94",
	},
	{
		"name": "KEVZU",
		"latitude": "41-59-10.8 N",
		"longitude": "124-13-54.87 W",
		"state": "CALIFORNIA",
		"artcc": "ZSE",
		"type": "RP",
		"updated": "CEC*VORTAC*347.85/12.41",
	},
	{
		"name": "KIBKE",
		"latitude": "44-12-52.99 N",
		"longitude": "123-12-14.07 W",
		"state": "OREGON",
		"artcc": "ZSE",
		"type": "RNAV",
		"updated": "08/16/2010",
	},
	{
		"name": "KICBY",
		"latitude": "44-12-3.23 N",
		"longitude": "121-16-49.43 W",
		"state": "OREGON",
		"artcc": "ZSE",
		"type": "RNAV",
		"updated": "05/15/2014",
	},
	{
		"name": "KIENO",
		"latitude": "48-39-43.79 N",
		"longitude": "122-34-45.2 W",
		"state": "WASHINGTON",
		"artcc": "ZSE",
		"type": "RP",
		"updated": "YVR*VOR/DME*120.62/33.63",
	},
	{
		"name": "KIGKE",
		"latitude": "45-13-30.26 N",
		"longitude": "123-4-30.04 W",
		"state": "OREGON",
		"artcc": "ZSE",
		"type": "RNAV",
		"updated": "08/06/2008",
	},
	{
		"name": "KIGVE",
		"latitude": "48-21-14.17 N",
		"longitude": "122-37-9.6 W",
		"state": "WASHINGTON",
		"artcc": "ZSE",
		"type": "MR",
		"updated": "NUW*TACAN*074.00/1.70",
	},
	{
		"name": "KIKCE",
		"latitude": "44-45-12.11 N",
		"longitude": "121-9-12.12 W",
		"state": "OREGON",
		"artcc": "ZSE",
		"type": "RNAV",
		"updated": "04/23/2012",
	},
	{
		"name": "KIMIW",
		"latitude": "46-15-42.02 N",
		"longitude": "118-6-20.07 W",
		"state": "WASHINGTON",
		"artcc": "ZSE",
		"type": "RNAV",
		"updated": "12/15/2005",
	},
	{
		"name": "KIMSH",
		"latitude": "47-38-4.7 N",
		"longitude": "122-44-24.63 W",
		"state": "WASHINGTON",
		"artcc": "ZSE",
		"type": "RNAV",
		"updated": "05/04/2017",
	},
	{
		"name": "KIREC",
		"latitude": "48-19-17.56 N",
		"longitude": "122-9-42.7 W",
		"state": "WASHINGTON",
		"artcc": "ZSE",
		"type": "RNAV",
		"updated": "02/01/2013",
	},
	{
		"name": "KIRKL",
		"latitude": "47-44-47.51 N",
		"longitude": "122-7-10.18 W",
		"state": "WASHINGTON",
		"artcc": "ZSE",
		"type": "RNAV",
		"updated": "11/04/2016",
	},
	{
		"name": "KIRRE",
		"latitude": "47-48-20.29 N",
		"longitude": "117-4-14.73 W",
		"state": "WASHINGTON",
		"artcc": "ZSE",
		"type": "RNAV",
		"updated": "04/04/2005",
	},
	{
		"name": "KISEY",
		"latitude": "43-28-48.49 N",
		"longitude": "124-22-17.37 W",
		"state": "OREGON",
		"artcc": "ZSE",
		"type": "RNAV",
		"updated": "06/15/2010",
	},
	{
		"name": "KITSE",
		"latitude": "46-59-41.99 N",
		"longitude": "120-27-59.04 W",
		"state": "WASHINGTON",
		"artcc": "ZSE",
		"type": "RNAV",
		"updated": "08/05/2009",
	},
	{
		"name": "KIYSO",
		"latitude": "46-56-5.78 N",
		"longitude": "120-11-14.77 W",
		"state": "WASHINGTON",
		"artcc": "ZSE",
		"type": "RNAV",
		"updated": "08/05/2009",
	},
	{
		"name": "KLAMA",
		"latitude": "42-11-17.98 N",
		"longitude": "122-44-48.37 W",
		"state": "OREGON",
		"artcc": "ZSE",
		"type": "RP",
		"updated": "OED*VORTAC*138.00/18.97",
	},
	{
		"name": "KLEWS",
		"latitude": "47-13-33.93 N",
		"longitude": "122-18-35.37 W",
		"state": "WASHINGTON",
		"artcc": "ZSE",
		"type": "RP",
		"updated": "SEA*LD*S CRS/12.50",
	},
	{
		"name": "KLSEY",
		"latitude": "48-0-48.36 N",
		"longitude": "119-33-35.71 W",
		"state": "WASHINGTON",
		"artcc": "ZSE",
		"type": "RNAV",
		"updated": "04/24/2017",
	},
	{
		"name": "KNEES",
		"latitude": "40-45-8.66 N",
		"longitude": "123-57-19.53 W",
		"state": "CALIFORNIA",
		"artcc": "ZSE",
		"type": "RP",
		"updated": "ACV*VOR/DME*136.08/15.40",
	},
	{
		"name": "KNOCK",
		"latitude": "47-49-23.05 N",
		"longitude": "117-48-10.46 W",
		"state": "WASHINGTON",
		"artcc": "ZSE",
		"type": "MR",
		"updated": "SKA*TACAN*320.00/14.00",
	},
	{
		"name": "KNZIE",
		"latitude": "41-33-0 N",
		"longitude": "121-58-0 W",
		"state": "CALIFORNIA",
		"artcc": "ZSE",
		"type": "RNAV",
		"updated": "10/20/2014",
	},
	{
		"name": "KOAAR",
		"latitude": "44-5-4.51 N",
		"longitude": "123-12-56.83 W",
		"state": "OREGON",
		"artcc": "ZSE",
		"type": "RP",
		"updated": "EUG*VORTAC*152.04/2.20",
	},
	{
		"name": "KOLER",
		"latitude": "42-46-4.96 N",
		"longitude": "123-17-38.13 W",
		"state": "OREGON",
		"artcc": "ZSE",
		"type": "RP",
		"updated": "OED*VORTAC*296.84/24.17",
	},
	{
		"name": "KORKS",
		"latitude": "40-32-50.06 N",
		"longitude": "124-22-51 W",
		"state": "CALIFORNIA",
		"artcc": "ZSE",
		"type": "RP",
		"updated": "FOT*VORTAC*203.00/10.00",
	},
	{
		"name": "KOTAA",
		"latitude": "45-43-14.13 N",
		"longitude": "119-48-0.03 W",
		"state": "OREGON",
		"artcc": "ZSE",
		"type": "RP",
		"updated": "PDT*VORTAC*252.41/36.24",
	},
	{
		"name": "KOTTA",
		"latitude": "42-20-57.76 N",
		"longitude": "121-52-18.34 W",
		"state": "OREGON",
		"artcc": "ZSE",
		"type": "RP",
		"updated": "LMT*VORTAC*314.41/13.41",
	},
	{
		"name": "KOYED",
		"latitude": "48-19-50.4 N",
		"longitude": "122-48-25.92 W",
		"state": "WASHINGTON",
		"artcc": "ZSE",
		"type": "MR",
		"updated": "NUW*TACAN*238.00/6.00",
	},
	{
		"name": "KPOWW",
		"latitude": "46-58-33.07 N",
		"longitude": "122-12-43.77 W",
		"state": "WASHINGTON",
		"artcc": "ZSE",
		"type": "RNAV",
		"updated": "03/12/2014",
	},
	{
		"name": "KRATR",
		"latitude": "46-5-23.57 N",
		"longitude": "122-24-9.9 W",
		"state": "WASHINGTON",
		"artcc": "ZSE",
		"type": "RP",
		"updated": "BTG*VORTAC*360.00/22.00",
	},
	{
		"name": "KRIEG",
		"latitude": "46-19-12.75 N",
		"longitude": "122-43-19.94 W",
		"state": "WASHINGTON",
		"artcc": "ZSE",
		"type": "RNAV",
		"updated": "01/11/2013",
	},
	{
		"name": "KRIST",
		"latitude": "47-19-9.51 N",
		"longitude": "119-48-36.5 W",
		"state": "WASHINGTON",
		"artcc": "ZSE",
		"type": "RNAV",
		"updated": "08/04/2014",
	},
	{
		"name": "KRUZR",
		"latitude": "48-4-38.9 N",
		"longitude": "120-34-40.72 W",
		"state": "WASHINGTON",
		"artcc": "ZSE",
		"type": "RP",
		"updated": "SEA*VORTAC*041.56/80.00",
	},
	{
		"name": "KS03A",
		"latitude": "45-30-0 N",
		"longitude": "126-0-0 W",
		"state": "OFFSHORE PACIFIC",
		"artcc": "ZSE",
		"type": "NRS",
		"updated": "03/05/2005",
	},
	{
		"name": "KS03C",
		"latitude": "45-30-0 N",
		"longitude": "124-0-0 W",
		"state": "OREGON",
		"artcc": "ZSE",
		"type": "NRS",
		"updated": "04/06/2004",
	},
	{
		"name": "KS03E",
		"latitude": "45-30-0 N",
		"longitude": "122-0-0 W",
		"state": "OREGON",
		"artcc": "ZSE",
		"type": "NRS",
		"updated": "04/06/2004",
	},
	{
		"name": "KS03G",
		"latitude": "45-30-0 N",
		"longitude": "120-0-0 W",
		"state": "OREGON",
		"artcc": "ZSE",
		"type": "NRS",
		"updated": "04/06/2004",
	},
	{
		"name": "KS03I",
		"latitude": "45-30-0 N",
		"longitude": "118-0-0 W",
		"state": "OREGON",
		"artcc": "ZSE",
		"type": "NRS",
		"updated": "04/06/2004",
	},
	{
		"name": "KS03K",
		"latitude": "45-30-0 N",
		"longitude": "116-0-0 W",
		"state": "IDAHO",
		"artcc": "ZSE",
		"type": "NRS",
		"updated": "04/06/2004",
	},
	{
		"name": "KS06A",
		"latitude": "46-0-0 N",
		"longitude": "126-0-0 W",
		"state": "OFFSHORE PACIFIC",
		"artcc": "ZSE",
		"type": "NRS",
		"updated": "03/05/2005",
	},
	{
		"name": "KS06C",
		"latitude": "46-0-0 N",
		"longitude": "124-0-0 W",
		"state": "OREGON",
		"artcc": "ZSE",
		"type": "NRS",
		"updated": "04/06/2004",
	},
	{
		"name": "KS06E",
		"latitude": "46-0-0 N",
		"longitude": "122-0-0 W",
		"state": "WASHINGTON",
		"artcc": "ZSE",
		"type": "NRS",
		"updated": "04/06/2004",
	},
	{
		"name": "KS06G",
		"latitude": "46-0-0 N",
		"longitude": "120-0-0 W",
		"state": "WASHINGTON",
		"artcc": "ZSE",
		"type": "NRS",
		"updated": "04/06/2004",
	},
	{
		"name": "KS06I",
		"latitude": "46-0-0 N",
		"longitude": "118-0-0 W",
		"state": "OREGON",
		"artcc": "ZSE",
		"type": "NRS",
		"updated": "04/06/2004",
	},
	{
		"name": "KS06K",
		"latitude": "46-0-0 N",
		"longitude": "116-0-0 W",
		"state": "IDAHO",
		"artcc": "ZSE",
		"type": "NRS",
		"updated": "04/06/2004",
	},
	{
		"name": "KS09A",
		"latitude": "46-30-0 N",
		"longitude": "126-0-0 W",
		"state": "OFFSHORE PACIFIC",
		"artcc": "ZSE",
		"type": "NRS",
		"updated": "03/05/2005",
	},
	{
		"name": "KS09C",
		"latitude": "46-30-0 N",
		"longitude": "124-0-0 W",
		"state": "WASHINGTON",
		"artcc": "ZSE",
		"type": "NRS",
		"updated": "04/06/2004",
	},
	{
		"name": "KS09E",
		"latitude": "46-30-0 N",
		"longitude": "122-0-0 W",
		"state": "WASHINGTON",
		"artcc": "ZSE",
		"type": "NRS",
		"updated": "04/06/2004",
	},
	{
		"name": "KS09G",
		"latitude": "46-30-0 N",
		"longitude": "120-0-0 W",
		"state": "WASHINGTON",
		"artcc": "ZSE",
		"type": "NRS",
		"updated": "04/06/2004",
	},
	{
		"name": "KS09I",
		"latitude": "46-30-0 N",
		"longitude": "118-0-0 W",
		"state": "WASHINGTON",
		"artcc": "ZSE",
		"type": "NRS",
		"updated": "04/06/2004",
	},
	{
		"name": "KS09K",
		"latitude": "46-30-0 N",
		"longitude": "116-0-0 W",
		"state": "IDAHO",
		"artcc": "ZSE",
		"type": "NRS",
		"updated": "04/06/2004",
	},
	{
		"name": "KS12A",
		"latitude": "47-0-0 N",
		"longitude": "126-0-0 W",
		"state": "OFFSHORE PACIFIC",
		"artcc": "ZSE",
		"type": "NRS",
		"updated": "03/05/2005",
	},
	{
		"name": "KS12C",
		"latitude": "47-0-0 N",
		"longitude": "124-0-0 W",
		"state": "WASHINGTON",
		"artcc": "ZSE",
		"type": "NRS",
		"updated": "04/06/2004",
	},
	{
		"name": "KS12E",
		"latitude": "47-0-0 N",
		"longitude": "122-0-0 W",
		"state": "WASHINGTON",
		"artcc": "ZSE",
		"type": "NRS",
		"updated": "04/06/2004",
	},
	{
		"name": "KS12G",
		"latitude": "47-0-0 N",
		"longitude": "120-0-0 W",
		"state": "WASHINGTON",
		"artcc": "ZSE",
		"type": "NRS",
		"updated": "04/06/2004",
	},
	{
		"name": "KS12I",
		"latitude": "47-0-0 N",
		"longitude": "118-0-0 W",
		"state": "WASHINGTON",
		"artcc": "ZSE",
		"type": "NRS",
		"updated": "04/06/2004",
	},
	{
		"name": "KS12K",
		"latitude": "47-0-0 N",
		"longitude": "116-0-0 W",
		"state": "IDAHO",
		"artcc": "ZSE",
		"type": "NRS",
		"updated": "04/06/2004",
	},
	{
		"name": "KS15A",
		"latitude": "47-30-0 N",
		"longitude": "126-0-0 W",
		"state": "OFFSHORE PACIFIC",
		"artcc": "ZSE",
		"type": "NRS",
		"updated": "03/05/2005",
	},
	{
		"name": "KS15C",
		"latitude": "47-30-0 N",
		"longitude": "124-0-0 W",
		"state": "WASHINGTON",
		"artcc": "ZSE",
		"type": "NRS",
		"updated": "04/06/2004",
	},
	{
		"name": "KS15E",
		"latitude": "47-30-0 N",
		"longitude": "122-0-0 W",
		"state": "WASHINGTON",
		"artcc": "ZSE",
		"type": "NRS",
		"updated": "04/06/2004",
	},
	{
		"name": "KS15G",
		"latitude": "47-30-0 N",
		"longitude": "120-0-0 W",
		"state": "WASHINGTON",
		"artcc": "ZSE",
		"type": "NRS",
		"updated": "04/06/2004",
	},
	{
		"name": "KS15I",
		"latitude": "47-30-0 N",
		"longitude": "118-0-0 W",
		"state": "WASHINGTON",
		"artcc": "ZSE",
		"type": "NRS",
		"updated": "04/06/2004",
	},
	{
		"name": "KS15K",
		"latitude": "47-30-0 N",
		"longitude": "116-0-0 W",
		"state": "IDAHO",
		"artcc": "ZSE",
		"type": "NRS",
		"updated": "04/06/2004",
	},
	{
		"name": "KS18A",
		"latitude": "48-0-0 N",
		"longitude": "126-0-0 W",
		"state": "OFFSHORE PACIFIC",
		"artcc": "ZSE",
		"type": "NRS",
		"updated": "03/05/2005",
	},
	{
		"name": "KS18C",
		"latitude": "48-0-0 N",
		"longitude": "124-0-0 W",
		"state": "WASHINGTON",
		"artcc": "ZSE",
		"type": "NRS",
		"updated": "04/06/2004",
	},
	{
		"name": "KS18E",
		"latitude": "48-0-0 N",
		"longitude": "122-0-0 W",
		"state": "WASHINGTON",
		"artcc": "ZSE",
		"type": "NRS",
		"updated": "04/06/2004",
	},
	{
		"name": "KS18G",
		"latitude": "48-0-0 N",
		"longitude": "120-0-0 W",
		"state": "WASHINGTON",
		"artcc": "ZSE",
		"type": "NRS",
		"updated": "04/06/2004",
	},
	{
		"name": "KS18I",
		"latitude": "48-0-0 N",
		"longitude": "118-0-0 W",
		"state": "WASHINGTON",
		"artcc": "ZSE",
		"type": "NRS",
		"updated": "04/06/2004",
	},
	{
		"name": "KS18K",
		"latitude": "48-0-0 N",
		"longitude": "116-0-0 W",
		"state": "MONTANA",
		"artcc": "ZSE",
		"type": "NRS",
		"updated": "04/06/2004",
	},
	{
		"name": "KS21E",
		"latitude": "48-30-0 N",
		"longitude": "122-0-0 W",
		"state": "WASHINGTON",
		"artcc": "ZSE",
		"type": "NRS",
		"updated": "04/06/2004",
	},
	{
		"name": "KS21G",
		"latitude": "48-30-0 N",
		"longitude": "120-0-0 W",
		"state": "WASHINGTON",
		"artcc": "ZSE",
		"type": "NRS",
		"updated": "04/06/2004",
	},
	{
		"name": "KS21I",
		"latitude": "48-30-0 N",
		"longitude": "118-0-0 W",
		"state": "WASHINGTON",
		"artcc": "ZSE",
		"type": "NRS",
		"updated": "04/06/2004",
	},
	{
		"name": "KS21K",
		"latitude": "48-30-0 N",
		"longitude": "116-0-0 W",
		"state": "MONTANA",
		"artcc": "ZSE",
		"type": "NRS",
		"updated": "04/06/2004",
	},
	{
		"name": "KS63C",
		"latitude": "40-30-0 N",
		"longitude": "124-0-0 W",
		"state": "CALIFORNIA",
		"artcc": "ZSE",
		"type": "NRS",
		"updated": "04/06/2004",
	},
	{
		"name": "KS66A",
		"latitude": "41-0-0 N",
		"longitude": "126-0-0 W",
		"state": "OFFSHORE PACIFIC",
		"artcc": "ZSE",
		"type": "NRS",
		"updated": "03/05/2005",
	},
	{
		"name": "KS66C",
		"latitude": "41-0-0 N",
		"longitude": "124-0-0 W",
		"state": "CALIFORNIA",
		"artcc": "ZSE",
		"type": "NRS",
		"updated": "04/06/2004",
	},
	{
		"name": "KS69A",
		"latitude": "41-30-0 N",
		"longitude": "126-0-0 W",
		"state": "OFFSHORE PACIFIC",
		"artcc": "ZSE",
		"type": "NRS",
		"updated": "03/05/2005",
	},
	{
		"name": "KS69C",
		"latitude": "41-30-0 N",
		"longitude": "124-0-0 W",
		"state": "CALIFORNIA",
		"artcc": "ZSE",
		"type": "NRS",
		"updated": "04/06/2004",
	},
	{
		"name": "KS69E",
		"latitude": "41-30-0 N",
		"longitude": "122-0-0 W",
		"state": "CALIFORNIA",
		"artcc": "ZSE",
		"type": "NRS",
		"updated": "04/06/2004",
	},
	{
		"name": "KS69G",
		"latitude": "41-30-0 N",
		"longitude": "120-0-0 W",
		"state": "NEVADA",
		"artcc": "ZSE",
		"type": "NRS",
		"updated": "04/06/2004",
	},
	{
		"name": "KS72A",
		"latitude": "42-0-0 N",
		"longitude": "126-0-0 W",
		"state": "OFFSHORE PACIFIC",
		"artcc": "ZSE",
		"type": "NRS",
		"updated": "03/05/2005",
	},
	{
		"name": "KS72C",
		"latitude": "42-0-0 N",
		"longitude": "124-0-0 W",
		"state": "OREGON",
		"artcc": "ZSE",
		"type": "NRS",
		"updated": "04/06/2004",
	},
	{
		"name": "KS72E",
		"latitude": "42-0-0 N",
		"longitude": "122-0-0 W",
		"state": "CALIFORNIA",
		"artcc": "ZSE",
		"type": "NRS",
		"updated": "04/06/2004",
	},
	{
		"name": "KS72G",
		"latitude": "42-0-0 N",
		"longitude": "120-0-0 W",
		"state": "OREGON",
		"artcc": "ZSE",
		"type": "NRS",
		"updated": "04/06/2004",
	},
	{
		"name": "KS75A",
		"latitude": "42-30-0 N",
		"longitude": "126-0-0 W",
		"state": "OFFSHORE PACIFIC",
		"artcc": "ZSE",
		"type": "NRS",
		"updated": "03/05/2005",
	},
	{
		"name": "KS75C",
		"latitude": "42-30-0 N",
		"longitude": "124-0-0 W",
		"state": "OREGON",
		"artcc": "ZSE",
		"type": "NRS",
		"updated": "04/06/2004",
	},
	{
		"name": "KS75E",
		"latitude": "42-30-0 N",
		"longitude": "122-0-0 W",
		"state": "OREGON",
		"artcc": "ZSE",
		"type": "NRS",
		"updated": "04/06/2004",
	},
	{
		"name": "KS75G",
		"latitude": "42-30-0 N",
		"longitude": "120-0-0 W",
		"state": "OREGON",
		"artcc": "ZSE",
		"type": "NRS",
		"updated": "04/06/2004",
	},
	{
		"name": "KS78A",
		"latitude": "43-0-0 N",
		"longitude": "126-0-0 W",
		"state": "OFFSHORE PACIFIC",
		"artcc": "ZSE",
		"type": "NRS",
		"updated": "03/05/2005",
	},
	{
		"name": "KS78C",
		"latitude": "43-0-0 N",
		"longitude": "124-0-0 W",
		"state": "OREGON",
		"artcc": "ZSE",
		"type": "NRS",
		"updated": "04/06/2004",
	},
	{
		"name": "KS78E",
		"latitude": "43-0-0 N",
		"longitude": "122-0-0 W",
		"state": "OREGON",
		"artcc": "ZSE",
		"type": "NRS",
		"updated": "04/06/2004",
	},
	{
		"name": "KS78G",
		"latitude": "43-0-0 N",
		"longitude": "120-0-0 W",
		"state": "OREGON",
		"artcc": "ZSE",
		"type": "NRS",
		"updated": "04/06/2004",
	},
	{
		"name": "KS81A",
		"latitude": "43-30-0 N",
		"longitude": "126-0-0 W",
		"state": "OFFSHORE PACIFIC",
		"artcc": "ZSE",
		"type": "NRS",
		"updated": "03/05/2005",
	},
	{
		"name": "KS81C",
		"latitude": "43-30-0 N",
		"longitude": "124-0-0 W",
		"state": "OREGON",
		"artcc": "ZSE",
		"type": "NRS",
		"updated": "04/06/2004",
	},
	{
		"name": "KS81E",
		"latitude": "43-30-0 N",
		"longitude": "122-0-0 W",
		"state": "OREGON",
		"artcc": "ZSE",
		"type": "NRS",
		"updated": "04/06/2004",
	},
	{
		"name": "KS81G",
		"latitude": "43-30-0 N",
		"longitude": "120-0-0 W",
		"state": "OREGON",
		"artcc": "ZSE",
		"type": "NRS",
		"updated": "04/06/2004",
	},
	{
		"name": "KS84A",
		"latitude": "44-0-0 N",
		"longitude": "126-0-0 W",
		"state": "OFFSHORE PACIFIC",
		"artcc": "ZSE",
		"type": "NRS",
		"updated": "03/05/2005",
	},
	{
		"name": "KS84C",
		"latitude": "44-0-0 N",
		"longitude": "124-0-0 W",
		"state": "OREGON",
		"artcc": "ZSE",
		"type": "NRS",
		"updated": "04/06/2004",
	},
	{
		"name": "KS84E",
		"latitude": "44-0-0 N",
		"longitude": "122-0-0 W",
		"state": "OREGON",
		"artcc": "ZSE",
		"type": "NRS",
		"updated": "04/06/2004",
	},
	{
		"name": "KS84G",
		"latitude": "44-0-0 N",
		"longitude": "120-0-0 W",
		"state": "OREGON",
		"artcc": "ZSE",
		"type": "NRS",
		"updated": "04/06/2004",
	},
	{
		"name": "KS87A",
		"latitude": "44-30-0 N",
		"longitude": "126-0-0 W",
		"state": "OFFSHORE PACIFIC",
		"artcc": "ZSE",
		"type": "NRS",
		"updated": "03/05/2005",
	},
	{
		"name": "KS87C",
		"latitude": "44-30-0 N",
		"longitude": "124-0-0 W",
		"state": "OREGON",
		"artcc": "ZSE",
		"type": "NRS",
		"updated": "04/06/2004",
	},
	{
		"name": "KS87E",
		"latitude": "44-30-0 N",
		"longitude": "122-0-0 W",
		"state": "OREGON",
		"artcc": "ZSE",
		"type": "NRS",
		"updated": "04/06/2004",
	},
	{
		"name": "KS87G",
		"latitude": "44-30-0 N",
		"longitude": "120-0-0 W",
		"state": "OREGON",
		"artcc": "ZSE",
		"type": "NRS",
		"updated": "04/06/2004",
	},
	{
		"name": "KS90A",
		"latitude": "45-0-0 N",
		"longitude": "126-0-0 W",
		"state": "OFFSHORE PACIFIC",
		"artcc": "ZSE",
		"type": "NRS",
		"updated": "03/05/2005",
	},
	{
		"name": "KS90C",
		"latitude": "45-0-0 N",
		"longitude": "124-0-0 W",
		"state": "OREGON",
		"artcc": "ZSE",
		"type": "NRS",
		"updated": "04/06/2004",
	},
	{
		"name": "KS90E",
		"latitude": "45-0-0 N",
		"longitude": "122-0-0 W",
		"state": "OREGON",
		"artcc": "ZSE",
		"type": "NRS",
		"updated": "04/06/2004",
	},
	{
		"name": "KS90G",
		"latitude": "45-0-0 N",
		"longitude": "120-0-0 W",
		"state": "OREGON",
		"artcc": "ZSE",
		"type": "NRS",
		"updated": "04/06/2004",
	},
	{
		"name": "KTSAP",
		"latitude": "47-45-6.58 N",
		"longitude": "122-27-45.08 W",
		"state": "WASHINGTON",
		"artcc": "ZSE",
		"type": "RNAV",
		"updated": "05/16/2017",
	},
	{
		"name": "KUKTE",
		"latitude": "45-19-55.95 N",
		"longitude": "121-9-17.29 W",
		"state": "OREGON",
		"artcc": "ZSE",
		"type": "RP",
		"updated": "LTJ*VOR/DME*164.70/23.00",
	},
	{
		"name": "KULOA",
		"latitude": "45-59-0.61 N",
		"longitude": "123-54-4.1 W",
		"state": "OREGON",
		"artcc": "ZSE",
		"type": "RP",
		"updated": "AST*VOR/DME*165.64/10.73",
	},
	{
		"name": "KULOC",
		"latitude": "47-27-22.4 N",
		"longitude": "120-17-30.08 W",
		"state": "WASHINGTON",
		"artcc": "ZSE",
		"type": "RNAV",
		"updated": "10/11/2016",
	},
	{
		"name": "KUMKE",
		"latitude": "46-11-31.75 N",
		"longitude": "119-13-39.53 W",
		"state": "WASHINGTON",
		"artcc": "ZSE",
		"type": "RNAV",
		"updated": "09/15/2014",
	},
	{
		"name": "KURRT",
		"latitude": "47-35-28.05 N",
		"longitude": "122-21-17.7 W",
		"state": "WASHINGTON",
		"artcc": "ZSE",
		"type": "RNAV",
		"updated": "08/24/2017",
	},
	{
		"name": "KUSCE",
		"latitude": "46-51-45.5 N",
		"longitude": "122-43-1.5 W",
		"state": "WASHINGTON",
		"artcc": "ZSE",
		"type": "RNAV",
		"updated": "04/08/2014",
	},
	{
		"name": "KUSHI",
		"latitude": "42-35-10.17 N",
		"longitude": "123-28-11.41 W",
		"state": "OREGON",
		"artcc": "ZSE",
		"type": "RNAV",
		"updated": "06/11/2012",
	},
	{
		"name": "KUSNE",
		"latitude": "42-9-41.66 N",
		"longitude": "122-27-38.78 W",
		"state": "OREGON",
		"artcc": "ZSE",
		"type": "RNAV",
		"updated": "09/27/2010",
	},
	{
		"name": "KWEST",
		"latitude": "47-25-14.5 N",
		"longitude": "122-27-19.17 W",
		"state": "WASHINGTON",
		"artcc": "ZSE",
		"type": "RNAV",
		"updated": "01/11/2013",
	},
	{
		"name": "KYCKR",
		"latitude": "47-59-39.03 N",
		"longitude": "121-39-49.3 W",
		"state": "WASHINGTON",
		"artcc": "ZSE",
		"type": "RNAV",
		"updated": "11/04/2016",
	},
	{
		"name": "KYLLE",
		"latitude": "43-26-24 N",
		"longitude": "126-39-24 W",
		"state": "OFFSHORE PACIFIC",
		"artcc": "ZSE",
		"type": "RP",
		"updated": "07/26/2001",
	},
