[
	{
		"name": "NACIY",
		"latitude": "45-29-0.82 N",
		"longitude": "122-18-41.32 W",
		"state": "OREGON",
		"artcc": "ZSE",
		"type": "RP",
		"updated": "UBG*VOR/DME*053.25/29.24"
	},
	{
		"name": "NAKHU",
		"latitude": "48-37-52.53 N",
		"longitude": "122-54-39.99 W",
		"state": "WASHINGTON",
		"artcc": "ZSE",
		"type": "RNAV",
		"updated": "08/11/2009"
	},
	{
		"name": "NALOE",
		"latitude": "43-53-19.08 N",
		"longitude": "121-6-49.71 W",
		"state": "OREGON",
		"artcc": "ZSE",
		"type": "RNAV",
		"updated": "12/05/2007"
	},
	{
		"name": "NARIC",
		"latitude": "41-30-32.91 N",
		"longitude": "120-31-44.23 W",
		"state": "CALIFORNIA",
		"artcc": "ZSE",
		"type": "RNAV",
		"updated": "07/29/2004"
	},
	{
		"name": "NAVOE",
		"latitude": "48-19-45.25 N",
		"longitude": "122-38-19.08 W",
		"state": "WASHINGTON",
		"artcc": "ZSE",
		"type": "MR",
		"updated": "NUW*TACAN*131.00/1.80"
	},
	{
		"name": "NAXAF",
		"latitude": "47-36-54.89 N",
		"longitude": "117-18-17.79 W",
		"state": "WASHINGTON",
		"artcc": "ZSE",
		"type": "RNAV",
		"updated": "02/12/2014"
	},
	{
		"name": "NAXZY",
		"latitude": "44-2-48.2 N",
		"longitude": "120-32-43.92 W",
		"state": "OREGON",
		"artcc": "ZSE",
		"type": "RP",
		"updated": "DSD*VORTAC*092.42/35.00"
	},
	{
		"name": "NECIE",
		"latitude": "42-24-2.02 N",
		"longitude": "122-1-42.83 W",
		"state": "OREGON",
		"artcc": "ZSE",
		"type": "RP",
		"updated": "LMT*VORTAC*301.00/20.00"
	},
	{
		"name": "NECIP",
		"latitude": "44-43-57.2 N",
		"longitude": "122-51-30.74 W",
		"state": "OREGON",
		"artcc": "ZSE",
		"type": "RNAV",
		"updated": "10/03/2003"
	},
	{
		"name": "NEDIY",
		"latitude": "44-4-24.52 N",
		"longitude": "123-13-5.54 W",
		"state": "OREGON",
		"artcc": "ZSE",
		"type": "RNAV",
		"updated": "08/05/2010"
	},
	{
		"name": "NEDOE",
		"latitude": "48-21-39.6 N",
		"longitude": "122-56-11.52 W",
		"state": "WASHINGTON",
		"artcc": "ZSE",
		"type": "MR",
		"updated": "NUW*TACAN*254.00/11.00"
	},
	{
		"name": "NEEAL",
		"latitude": "47-10-8.51 N",
		"longitude": "122-18-37.15 W",
		"state": "WASHINGTON",
		"artcc": "ZSE",
		"type": "RP",
		"updated": "SEA*LD*164.34/15.93"
	},
	{
		"name": "NEECE",
		"latitude": "47-14-31.02 N",
		"longitude": "122-38-11.71 W",
		"state": "WASHINGTON",
		"artcc": "ZSE",
		"type": "RNAV",
		"updated": "04/08/2014"
	},
	{
		"name": "NEHOS",
		"latitude": "47-55-25.82 N",
		"longitude": "122-28-14.21 W",
		"state": "WASHINGTON",
		"artcc": "ZSE",
		"type": "RNAV",
		"updated": "09/21/2014"
	},
	{
		"name": "NEKTE",
		"latitude": "46-16-17.68 N",
		"longitude": "116-35-26.03 W",
		"state": "IDAHO",
		"artcc": "ZSE",
		"type": "RNAV",
		"updated": "04/15/2010"
	},
	{
		"name": "NELUE",
		"latitude": "46-58-25.56 N",
		"longitude": "120-25-59.45 W",
		"state": "WASHINGTON",
		"artcc": "ZSE",
		"type": "RNAV",
		"updated": "08/05/2009"
	},
	{
		"name": "NEPDE",
		"latitude": "48-19-7.69 N",
		"longitude": "122-50-30.84 W",
		"state": "WASHINGTON",
		"artcc": "ZSE",
		"type": "RNAV",
		"updated": "06/04/2012"
	},
	{
		"name": "NESOE",
		"latitude": "47-29-55.64 N",
		"longitude": "122-18-38.45 W",
		"state": "WASHINGTON",
		"artcc": "ZSE",
		"type": "RNAV",
		"updated": "05/16/2017"
	},
	{
		"name": "NETTZ",
		"latitude": "47-21-9 N",
		"longitude": "122-27-19 W",
		"state": "WASHINGTON",
		"artcc": "ZSE",
		"type": "RNAV",
		"updated": "01/14/2013"
	},
	{
		"name": "NEVJO",
		"latitude": "47-15-7.8 N",
		"longitude": "122-18-34.8 W",
		"state": "WASHINGTON",
		"artcc": "ZSE",
		"type": "RP",
		"updated": "SEA*VORTAC*161.01/11.00"
	},
	{
		"name": "NEWPI",
		"latitude": "42-0-16.39 N",
		"longitude": "120-21-40.54 W",
		"state": "OREGON",
		"artcc": "ZSE",
		"type": "RP",
		"updated": "LKV*VORTAC*148.44/30.00"
	},
	{
		"name": "NEWRI",
		"latitude": "43-24-51.6 N",
		"longitude": "124-7-22.14 W",
		"state": "OREGON",
		"artcc": "ZSE",
		"type": "RP",
		"updated": "OTH*VOR/DME*077.00/2.00"
	},
	{
		"name": "NEXZI",
		"latitude": "46-34-47.57 N",
		"longitude": "120-39-45.71 W",
		"state": "WASHINGTON",
		"artcc": "ZSE",
		"type": "RNAV",
		"updated": "11/05/2009"
	},
	{
		"name": "NEYDI",
		"latitude": "46-59-18.18 N",
		"longitude": "123-47-44.89 W",
		"state": "WASHINGTON",
		"artcc": "ZSE",
		"type": "RP",
		"updated": "HQM*LD*060.84/6.37"
	},
	{
		"name": "NEZUG",
		"latitude": "47-34-7.2 N",
		"longitude": "122-18-34.8 W",
		"state": "WASHINGTON",
		"artcc": "ZSE",
		"type": "RP",
		"updated": "SEA*VORTAC*340.99/8.00"
	},
	{
		"name": "NIALS",
		"latitude": "46-35-7.32 N",
		"longitude": "119-29-29.09 W",
		"state": "WASHINGTON",
		"artcc": "ZSE",
		"type": "RP",
		"updated": "PSC*VOR/DME*305.75/24.47"
	},
	{
		"name": "NIBPI",
		"latitude": "43-49-54.66 N",
		"longitude": "123-11-53.76 W",
		"state": "OREGON",
		"artcc": "ZSE",
		"type": "RNAV",
		"updated": "02/17/2006"
	},
	{
		"name": "NICHY",
		"latitude": "47-21-7.8 N",
		"longitude": "122-18-34.8 W",
		"state": "WASHINGTON",
		"artcc": "ZSE",
		"type": "RP",
		"updated": "SEA*VORTAC*161.02/5.00"
	},
	{
		"name": "NICIT",
		"latitude": "48-1-49.05 N",
		"longitude": "122-25-43.54 W",
		"state": "WASHINGTON",
		"artcc": "ZSE",
		"type": "RP",
		"updated": "PAE*VOR/DME*297.51/9.00"
	},
	{
		"name": "NIFLI",
		"latitude": "44-17-23.59 N",
		"longitude": "120-44-3.32 W",
		"state": "OREGON",
		"artcc": "ZSE",
		"type": "RNAV",
		"updated": "06/24/2015"
	},
	{
		"name": "NIGEE",
		"latitude": "42-0-40.74 N",
		"longitude": "122-38-26.13 W",
		"state": "OREGON",
		"artcc": "ZSE",
		"type": "RNAV",
		"updated": "09/27/2010"
	},
	{
		"name": "NILDE",
		"latitude": "46-27-12.19 N",
		"longitude": "117-10-1.58 W",
		"state": "WASHINGTON",
		"artcc": "ZSE",
		"type": "RNAV",
		"updated": "04/20/2010"
	},
	{
		"name": "NILIY",
		"latitude": "41-34-41.78 N",
		"longitude": "120-25-57.66 W",
		"state": "CALIFORNIA",
		"artcc": "ZSE",
		"type": "RNAV",
		"updated": "07/29/2004"
	},
	{
		"name": "NIPPS",
		"latitude": "45-27-16.86 N",
		"longitude": "119-2-55.32 W",
		"state": "OREGON",
		"artcc": "ZSE",
		"type": "RNAV",
		"updated": "08/16/2016"
	},
	{
		"name": "NISQA",
		"latitude": "46-57-17.26 N",
		"longitude": "122-48-46.84 W",
		"state": "WASHINGTON",
		"artcc": "ZSE",
		"type": "RNAV",
		"updated": "04/10/2014"
	},
	{
		"name": "NISRE",
		"latitude": "48-23-34.37 N",
		"longitude": "124-33-2.49 W",
		"state": "WASHINGTON",
		"artcc": "ZSE",
		"type": "RNAV",
		"updated": "08/19/2015"
	},
	{
		"name": "NISVE",
		"latitude": "44-8-35.87 N",
		"longitude": "121-17-7.77 W",
		"state": "OREGON",
		"artcc": "ZSE",
		"type": "RNAV",
		"updated": "06/25/2015"
	},
	{
		"name": "NNIKE",
		"latitude": "45-22-35.44 N",
		"longitude": "122-46-42.15 W",
		"state": "OREGON",
		"artcc": "ZSE",
		"type": "RNAV",
		"updated": "05/02/2010"
	},
	{
		"name": "NNUTT",
		"latitude": "45-46-4.32 N",
		"longitude": "122-48-34.49 W",
		"state": "OREGON",
		"artcc": "ZSE",
		"type": "RNAV",
		"updated": "01/10/2013"
	},
	{
		"name": "NOLGE",
		"latitude": "45-30-44.69 N",
		"longitude": "122-26-4.08 W",
		"state": "OREGON",
		"artcc": "ZSE",
		"type": "RNAV",
		"updated": "08/09/2012"
	},
	{
		"name": "NONIY",
		"latitude": "41-15-11.78 N",
		"longitude": "120-33-35.67 W",
		"state": "CALIFORNIA",
		"artcc": "ZSE",
		"type": "RNAV",
		"updated": "07/29/2004"
	},
	{
		"name": "NOONS",
		"latitude": "45-32-54.8 N",
		"longitude": "123-0-8.94 W",
		"state": "OREGON",
		"artcc": "ZSE",
		"type": "RP",
		"updated": "UBG*VOR/DME*334.00/11.77"
	},
	{
		"name": "NORMY",
		"latitude": "47-25-46.39 N",
		"longitude": "121-43-16.41 W",
		"state": "WASHINGTON",
		"artcc": "ZSE",
		"type": "RP",
		"updated": "SEA*VORTAC*071.62/23.97"
	},
	{
		"name": "NOSOM",
		"latitude": "48-55-2 N",
		"longitude": "120-2-33 W",
		"state": "WASHINGTON",
		"artcc": "ZSE",
		"type": "RNAV",
		"updated": "10/27/2009"
	},
	{
		"name": "NOTTI",
		"latitude": "44-3-23.13 N",
		"longitude": "123-27-29.76 W",
		"state": "OREGON",
		"artcc": "ZSE",
		"type": "RP",
		"updated": "EUG*VORTAC*229.28"
	},
	{
		"name": "NOYID",
		"latitude": "46-46-39.56 N",
		"longitude": "122-59-18.23 W",
		"state": "WASHINGTON",
		"artcc": "ZSE",
		"type": "RNAV",
		"updated": "06/04/2012"
	},
	{
		"name": "NRVNA",
		"latitude": "47-22-19.52 N",
		"longitude": "122-10-10.21 W",
		"state": "WASHINGTON",
		"artcc": "ZSE",
		"type": "RNAV",
		"updated": "08/24/2017"
	},
	{
		"name": "NUBUV",
		"latitude": "48-53-1.428 N",
		"longitude": "122-28-38.8552 W",
		"state": "WASHINGTON",
		"artcc": "ZSE",
		"type": "RNAV",
		"updated": "08/17/2017"
	},
	{
		"name": "NUCLA",
		"latitude": "43-58-47.51 N",
		"longitude": "120-55-19.37 W",
		"state": "OREGON",
		"artcc": "ZSE",
		"type": "RNAV",
		"updated": "07/20/2009"
	},
	{
		"name": "NUJNI",
		"latitude": "43-11-21.08 N",
		"longitude": "124-17-46.46 W",
		"state": "OREGON",
		"artcc": "ZSE",
		"type": "RNAV",
		"updated": "06/09/2010"
	},
	{
		"name": "NULRE",
		"latitude": "45-47-1.97 N",
		"longitude": "122-19-41.3 W",
		"state": "WASHINGTON",
		"artcc": "ZSE",
		"type": "RP",
		"updated": "GPO*LE*029.02/17.30"
	},
	{
		"name": "NULVE",
		"latitude": "46-40-44.08 N",
		"longitude": "117-15-42.03 W",
		"state": "WASHINGTON",
		"artcc": "ZSE",
		"type": "RNAV",
		"updated": "03/21/2013"
	},
	{
		"name": "NUNIY",
		"latitude": "46-10-51.42 N",
		"longitude": "119-16-25.06 W",
		"state": "WASHINGTON",
		"artcc": "ZSE",
		"type": "RNAV",
		"updated": "09/15/2014"
	},
	{
		"name": "NUSME",
		"latitude": "41-53-43.18 N",
		"longitude": "120-20-35.71 W",
		"state": "CALIFORNIA",
		"artcc": "ZSE",
		"type": "RNAV",
		"updated": "01/10/2013"
	}
]
