	{
		"name": "PAAGE",
		"latitude": "46-25-22 N",
		"longitude": "121-44-44 W",
		"state": "WASHINGTON",
		"artcc": "ZSE",
		"type": "RNAV",
		"updated": "04/10/2014",
	},
	{
		"name": "PAAPR",
		"latitude": "45-34-20 N",
		"longitude": "122-23-40 W",
		"state": "OREGON",
		"artcc": "ZSE",
		"type": "RNAV",
		"updated": "03/04/2013",
	},
	{
		"name": "PACCE",
		"latitude": "48-27-5.47 N",
		"longitude": "115-33-23.72 W",
		"state": "MONTANA",
		"artcc": "ZSE",
		"type": "WP",
		"updated": "11/02/1998",
	},
	{
		"name": "PAIDS",
		"latitude": "46-20-53.31 N",
		"longitude": "119-27-35.92 W",
		"state": "WASHINGTON",
		"artcc": "ZSE",
		"type": "RP",
		"updated": "PSC*VOR/DME*273.28/15.00",
	},
	{
		"name": "PAIGE",
		"latitude": "47-34-36.46 N",
		"longitude": "117-47-11.9 W",
		"state": "WASHINGTON",
		"artcc": "ZSE",
		"type": "MR",
		"updated": "SKA*TACAN*/5.44",
	},
	{
		"name": "PAJUM",
		"latitude": "47-50-37.07 N",
		"longitude": "121-59-37.88 W",
		"state": "WASHINGTON",
		"artcc": "ZSE",
		"type": "RNAV",
		"updated": "11/04/2016",
	},
	{
		"name": "PANGL",
		"latitude": "48-9-0.97 N",
		"longitude": "123-40-12.86 W",
		"state": "WASHINGTON",
		"artcc": "ZSE",
		"type": "RNAV",
		"updated": "02/16/2006",
	},
	{
		"name": "PANOC",
		"latitude": "45-26-37.86 N",
		"longitude": "122-12-38.69 W",
		"state": "OREGON",
		"artcc": "ZSE",
		"type": "RP",
		"updated": "CBU*TACAN*097.07/19.00",
	},
	{
		"name": "PAPLE",
		"latitude": "42-19-1.67 N",
		"longitude": "123-13-34.8 W",
		"state": "OREGON",
		"artcc": "ZSE",
		"type": "RP",
		"updated": "OED*VORTAC*216.14/17.00",
	},
	{
		"name": "PAPPS",
		"latitude": "46-26-15.81 N",
		"longitude": "119-51-40.78 W",
		"state": "WASHINGTON",
		"artcc": "ZSE",
		"type": "RP",
		"updated": "PSC*VOR/DME*268.28/32.51",
	},
	{
		"name": "PARNO",
		"latitude": "47-55-59.34 N",
		"longitude": "122-29-4.52 W",
		"state": "WASHINGTON",
		"artcc": "ZSE",
		"type": "RP",
		"updated": "SEA*VORTAC*327.71/30.71",
	},
	{
		"name": "PASBE",
		"latitude": "46-13-22.51 N",
		"longitude": "119-3-25.29 W",
		"state": "WASHINGTON",
		"artcc": "ZSE",
		"type": "RNAV",
		"updated": "12/28/2007",
	},
	{
		"name": "PASST",
		"latitude": "43-21-40 N",
		"longitude": "120-38-49 W",
		"state": "OREGON",
		"artcc": "ZSE",
		"type": "RNAV",
		"updated": "02/20/2002",
	},
	{
		"name": "PAWLI",
		"latitude": "43-10-48 N",
		"longitude": "120-55-50 W",
		"state": "OREGON",
		"artcc": "ZSE",
		"type": "RNAV",
		"updated": "06/30/2009",
	},
	{
		"name": "PAWYO",
		"latitude": "48-10-4.08 N",
		"longitude": "119-29-30 W",
		"state": "WASHINGTON",
		"artcc": "ZSE",
		"type": "RNAV",
		"updated": "04/28/2017",
	},
	{
		"name": "PEBIC",
		"latitude": "43-47-35.36 N",
		"longitude": "123-5-14.1 W",
		"state": "OREGON",
		"artcc": "ZSE",
		"type": "RNAV",
		"updated": "07/05/2011",
	},
	{
		"name": "PEDME",
		"latitude": "43-58-49.44 N",
		"longitude": "121-24-42.88 W",
		"state": "OREGON",
		"artcc": "ZSE",
		"type": "RP",
		"updated": "DSD*VORTAC*178.03/17.00",
	},
	{
		"name": "PEGTY",
		"latitude": "45-37-1.71 N",
		"longitude": "122-40-17.66 W",
		"state": "OREGON",
		"artcc": "ZSE",
		"type": "RNAV",
		"updated": "06/09/2008",
	},
	{
		"name": "PEKAA",
		"latitude": "48-26-22.8 N",
		"longitude": "126-15-36 W",
		"state": "OFFSHORE PACIFIC",
		"artcc": "ZSE",
		"type": "RP",
		"updated": "07/24/2000",
	},
	{
		"name": "PELLY",
		"latitude": "47-6-55.74 N",
		"longitude": "119-16-28.05 W",
		"state": "WASHINGTON",
		"artcc": "ZSE",
		"type": "RP",
		"updated": "MWH*VOR/DME*145.14/5.98",
	},
	{
		"name": "PEMRE",
		"latitude": "48-21-43.62 N",
		"longitude": "122-21-18.8 W",
		"state": "WASHINGTON",
		"artcc": "ZSE",
		"type": "MW",
		"updated": "06/22/2010",
	},
	{
		"name": "PENAE",
		"latitude": "46-55-57.34 N",
		"longitude": "116-42-46.12 W",
		"state": "IDAHO",
		"artcc": "ZSE",
		"type": "RP",
		"updated": "PUW*VOR/DME*033.44/26.14",
	},
	{
		"name": "PEREZ",
		"latitude": "41-36-30.03 N",
		"longitude": "121-26-51.31 W",
		"state": "CALIFORNIA",
		"artcc": "ZSE",
		"type": "MR",
		"updated": "LMT*VORTAC*141.90/35.00",
	},
	{
		"name": "PERTT",
		"latitude": "46-54-41.95 N",
		"longitude": "120-43-15.66 W",
		"state": "WASHINGTON",
		"artcc": "ZSE",
		"type": "RP",
		"updated": "ELN*VOR/DME*217.01",
	},
	{
		"name": "PETEZ",
		"latitude": "46-26-8.23 N",
		"longitude": "116-36-5.16 W",
		"state": "IDAHO",
		"artcc": "ZSE",
		"type": "RP",
		"updated": "MQG*VOR/DME*053.65/11.59",
	},
	{
		"name": "PEWYE",
		"latitude": "46-57-5.47 N",
		"longitude": "119-23-57.67 W",
		"state": "WASHINGTON",
		"artcc": "ZSE",
		"type": "RNAV",
		"updated": "05/11/2012",
	},
	{
		"name": "PIANO",
		"latitude": "45-29-26.98 N",
		"longitude": "118-39-37.92 W",
		"state": "OREGON",
		"artcc": "ZSE",
		"type": "RP",
		"updated": "ALW*VOR/DME*183.49",
	},
	{
		"name": "PIBME",
		"latitude": "44-13-23.21 N",
		"longitude": "121-13-34.5 W",
		"state": "OREGON",
		"artcc": "ZSE",
		"type": "RNAV",
		"updated": "05/15/2014",
	},
	{
		"name": "PICON",
		"latitude": "41-41-48.75 N",
		"longitude": "124-14-25.32 W",
		"state": "CALIFORNIA",
		"artcc": "ZSE",
		"type": "RP",
		"updated": "CEC*VORTAC*165.75/5.00",
	},
	{
		"name": "PIGME",
		"latitude": "48-2-42.99 N",
		"longitude": "122-28-52.57 W",
		"state": "WASHINGTON",
		"artcc": "ZSE",
		"type": "RNAV",
		"updated": "06/25/2013",
	},
	{
		"name": "PIGMO",
		"latitude": "48-49-1.79 N",
		"longitude": "117-35-44.51 W",
		"state": "WASHINGTON",
		"artcc": "ZSE",
		"type": "RNAV",
		"updated": "10/25/2016",
	},
	{
		"name": "PIGVE",
		"latitude": "47-7-50.85 N",
		"longitude": "120-23-19.01 W",
		"state": "WASHINGTON",
		"artcc": "ZSE",
		"type": "RP",
		"updated": "ELN*VOR/DME*003.11/7.00",
	},
	{
		"name": "PIIKZ",
		"latitude": "42-55-9.27 N",
		"longitude": "121-50-24.83 W",
		"state": "OREGON",
		"artcc": "ZSE",
		"type": "RNAV",
		"updated": "04/24/2017",
	},
	{
		"name": "PIKEZ",
		"latitude": "46-56-15.94 N",
		"longitude": "122-33-43.27 W",
		"state": "WASHINGTON",
		"artcc": "ZSE",
		"type": "RNAV",
		"updated": "01/14/2013",
	},
	{
		"name": "PIKYI",
		"latitude": "42-23-52.14 N",
		"longitude": "121-51-49.25 W",
		"state": "OREGON",
		"artcc": "ZSE",
		"type": "RNAV",
		"updated": "06/08/2006",
	},
	{
		"name": "PINTR",
		"latitude": "47-36-10.7 N",
		"longitude": "122-21-1.62 W",
		"state": "WASHINGTON",
		"artcc": "ZSE",
		"type": "RNAV",
		"updated": "02/28/2013",
	},
	{
		"name": "PIQRI",
		"latitude": "45-44-37.2 N",
		"longitude": "122-21-13.02 W",
		"state": "WASHINGTON",
		"artcc": "ZSE",
		"type": "RP",
		"updated": "BTG*VORTAC*070.34/10.00",
	},
	{
		"name": "PITER",
		"latitude": "45-53-46.17 N",
		"longitude": "123-2-46.31 W",
		"state": "OREGON",
		"artcc": "ZSE",
		"type": "RP",
		"updated": "UBG*VOR/DME*334.00/32.71",
	},
	{
		"name": "PITOE",
		"latitude": "46-43-51.36 N",
		"longitude": "122-59-45.74 W",
		"state": "WASHINGTON",
		"artcc": "ZSE",
		"type": "RNAV",
		"updated": "08/19/2015",
	},
	{
		"name": "PITON",
		"latitude": "42-36-57.74 N",
		"longitude": "122-59-50.58 W",
		"state": "OREGON",
		"artcc": "ZSE",
		"type": "RP",
		"updated": "OED*VORTAC*316.00/9.00",
	},
	{
		"name": "PITVE",
		"latitude": "41-0-14 N",
		"longitude": "120-24-57 W",
		"state": "CALIFORNIA",
		"artcc": "ZSE",
		"type": "RNAV",
		"updated": "11/15/2002",
	},
	{
		"name": "PIVLY",
		"latitude": "43-17-31.85 N",
		"longitude": "124-24-4.79 W",
		"state": "OREGON",
		"artcc": "ZSE",
		"type": "RNAV",
		"updated": "04/23/2015",
	},
	{
		"name": "PIYOL",
		"latitude": "46-10-25.2 N",
		"longitude": "116-46-54.65 W",
		"state": "IDAHO",
		"artcc": "ZSE",
		"type": "RP",
		"updated": "MQG*VOR/DME*143.67/13.00",
	},
	{
		"name": "PIZZE",
		"latitude": "48-35-42.38 N",
		"longitude": "122-7-14.63 W",
		"state": "WASHINGTON",
		"artcc": "ZSE",
		"type": "RP",
		"updated": "YVR*VOR/DME*104.00/50.00",
	},
	{
		"name": "PLUSS",
		"latitude": "47-10-25.55 N",
		"longitude": "119-33-0.93 W",
		"state": "WASHINGTON",
		"artcc": "ZSE",
		"type": "RP",
		"updated": "MWH*VOR/DME*238.96/9.81",
	},
	{
		"name": "PLYAT",
		"latitude": "40-20-20.9 N",
		"longitude": "123-41-35.88 W",
		"state": "CALIFORNIA",
		"artcc": "ZSE",
		"type": "RP",
		"updated": "ENI*VORTAC*330.00/79.50",
	},
	{
		"name": "PNELA",
		"latitude": "47-55-29.99 N",
		"longitude": "122-44-48.58 W",
		"state": "WASHINGTON",
		"artcc": "ZSE",
		"type": "RNAV",
		"updated": "09/21/2014",
	},
	{
		"name": "POBIY",
		"latitude": "47-41-38.83 N",
		"longitude": "117-9-9.57 W",
		"state": "WASHINGTON",
		"artcc": "ZSE",
		"type": "RP",
		"updated": "COE*VOR/DME*231.57/14.27",
	},
	{
		"name": "POCIC",
		"latitude": "46-26-48.83 N",
		"longitude": "118-50-58.72 W",
		"state": "WASHINGTON",
		"artcc": "ZSE",
		"type": "CN",
		"updated": "09/27/2010",
	},
	{
		"name": "POCIT",
		"latitude": "43-41-57.75 N",
		"longitude": "121-2-52.24 W",
		"state": "OREGON",
		"artcc": "ZSE",
		"type": "RP",
		"updated": "DSD*VORTAC*143.46/35.00",
	},
	{
		"name": "PORIE",
		"latitude": "44-3-43.04 N",
		"longitude": "123-5-43.92 W",
		"state": "OREGON",
		"artcc": "ZSE",
		"type": "RNAV",
		"updated": "07/05/2011",
	},
	{
		"name": "PORSY",
		"latitude": "47-16-8.01 N",
		"longitude": "123-1-9.93 W",
		"state": "WASHINGTON",
		"artcc": "ZSE",
		"type": "RNAV",
		"updated": "03/17/2014",
	},
	{
		"name": "PORTL",
		"latitude": "44-35-3.57 N",
		"longitude": "122-42-36.81 W",
		"state": "OREGON",
		"artcc": "ZSE",
		"type": "RP",
		"updated": "CVO*VOR/DME*060.31",
	},
	{
		"name": "POTEE",
		"latitude": "46-57-22.07 N",
		"longitude": "119-22-42.66 W",
		"state": "WASHINGTON",
		"artcc": "ZSE",
		"type": "RNAV",
		"updated": "03/11/2013",
	},
	{
		"name": "POTOR",
		"latitude": "46-21-45.19 N",
		"longitude": "117-17-41.37 W",
		"state": "WASHINGTON",
		"artcc": "ZSE",
		"type": "RP",
		"updated": "MQG*VOR/DME*246.00/17.71",
	},
	{
		"name": "POWEL",
		"latitude": "44-10-43.37 N",
		"longitude": "121-5-11.28 W",
		"state": "OREGON",
		"artcc": "ZSE",
		"type": "RP",
		"updated": "IMB*VOR/DME*225.00",
	},
	{
		"name": "POWLZ",
		"latitude": "45-38-38.07 N",
		"longitude": "122-44-49.24 W",
		"state": "OREGON",
		"artcc": "ZSE",
		"type": "RP",
		"updated": "BTG*VORTAC*205.41/9.04",
	},
	{
		"name": "PPAUL",
		"latitude": "47-44-28.54 N",
		"longitude": "122-30-17.63 W",
		"state": "WASHINGTON",
		"artcc": "ZSE",
		"type": "RNAV",
		"updated": "10/08/2014",
	},
	{
		"name": "PREBE",
		"latitude": "47-28-3.98 N",
		"longitude": "120-18-32.28 W",
		"state": "WASHINGTON",
		"artcc": "ZSE",
		"type": "RNAV",
		"updated": "08/04/2014",
	},
	{
		"name": "PRUCE",
		"latitude": "45-50-13.78 N",
		"longitude": "119-6-23.97 W",
		"state": "OREGON",
		"artcc": "ZSE",
		"type": "RNAV",
		"updated": "05/27/2009",
	},
	{
		"name": "PSARO",
		"latitude": "43-29-57.28 N",
		"longitude": "122-14-13.3 W",
		"state": "OREGON",
		"artcc": "ZSE",
		"type": "RNAV",
		"updated": "08/28/2013",
	},
	{
		"name": "PTERA",
		"latitude": "46-5-39.52 N",
		"longitude": "122-40-38.89 W",
		"state": "WASHINGTON",
		"artcc": "ZSE",
		"type": "RNAV",
		"updated": "01/14/2013",
	},
	{
		"name": "PUBBB",
		"latitude": "45-37-24.82 N",
		"longitude": "122-55-42.5 W",
		"state": "OREGON",
		"artcc": "ZSE",
		"type": "RNAV",
		"updated": "08/28/2013",
	},
	{
		"name": "PUBBO",
		"latitude": "46-35-25.68 N",
		"longitude": "120-37-52 W",
		"state": "WASHINGTON",
		"artcc": "ZSE",
		"type": "RNAV",
		"updated": "07/01/2011",
	},
	{
		"name": "PUBSE",
		"latitude": "45-27-10.17 N",
		"longitude": "122-37-56.69 W",
		"state": "OREGON",
		"artcc": "ZSE",
		"type": "RNAV",
		"updated": "03/16/2011",
	},
	{
		"name": "PUCIV",
		"latitude": "45-3-12.86 N",
		"longitude": "123-26-58.9 W",
		"state": "OREGON",
		"artcc": "ZSE",
		"type": "RNAV",
		"updated": "08/06/2008",
	},
	{
		"name": "PUGIC",
		"latitude": "46-36-23.9 N",
		"longitude": "124-1-54.16 W",
		"state": "WASHINGTON",
		"artcc": "ZSE",
		"type": "RP",
		"updated": "HQM*VORTAC*147.61/21.00",
	},
	{
		"name": "PUKAJ",
		"latitude": "44-1-27.45 N",
		"longitude": "121-14-24.21 W",
		"state": "OREGON",
		"artcc": "ZSE",
		"type": "RNAV",
		"updated": "05/15/2014",
	},
	{
		"name": "PULLI",
		"latitude": "47-2-56.2 N",
		"longitude": "122-17-17.06 W",
		"state": "WASHINGTON",
		"artcc": "ZSE",
		"type": "RNAV",
		"updated": "08/19/2015",
	},
	{
		"name": "PULOE",
		"latitude": "45-33-48.99 N",
		"longitude": "122-32-25.98 W",
		"state": "OREGON",
		"artcc": "ZSE",
		"type": "RNAV",
		"updated": "08/13/2012",
	},
	{
		"name": "PULYI",
		"latitude": "46-28-11.42 N",
		"longitude": "123-59-5.68 W",
		"state": "WASHINGTON",
		"artcc": "ZSE",
		"type": "RP",
		"updated": "AST*VOR/DME*327.81/19.00",
	},
	{
		"name": "PUMIE",
		"latitude": "42-27-3.69 N",
		"longitude": "122-54-47.53 W",
		"state": "OREGON",
		"artcc": "ZSE",
		"type": "RP",
		"updated": "MFR*LD*NW CRS/5.77",
	},
	{
		"name": "PUNRE",
		"latitude": "42-12-38.43 N",
		"longitude": "122-39-6.31 W",
		"state": "OREGON",
		"artcc": "ZSE",
		"type": "RNAV",
		"updated": "09/23/2010",
	},
	{
		"name": "PUPIE",
		"latitude": "46-30-34.05 N",
		"longitude": "117-20-54.95 W",
		"state": "WASHINGTON",
		"artcc": "ZSE",
		"type": "RNAV",
		"updated": "08/15/2012",
	},
	{
		"name": "PUTZZ",
		"latitude": "45-6-14.38 N",
		"longitude": "122-7-18.7 W",
		"state": "OREGON",
		"artcc": "ZSE",
		"type": "RNAV",
		"updated": "04/15/2013",
	},
	{
		"name": "PUYNO",
		"latitude": "42-49-31.75 N",
		"longitude": "123-33-18.81 W",
		"state": "OREGON",
		"artcc": "ZSE",
		"type": "RNAV",
		"updated": "12/01/2017",
	},
