	{
		"name": "QAARY",
		"latitude": "46-7-56.92 N",
		"longitude": "123-29-25.62 W",
		"state": "OREGON",
		"artcc": "ZSE",
		"type": "RNAV",
		"updated": "03/30/2009",
	},
	{
		"name": "QEHBY",
		"latitude": "45-37-16.11 N",
		"longitude": "122-39-47.86 W",
		"state": "WASHINGTON",
		"artcc": "ZSE",
		"type": "RP",
		"updated": "VDG*LD*283.03/2.91",
	},
	{
		"name": "QIJYE",
		"latitude": "42-29-31.48 N",
		"longitude": "122-46-18.88 W",
		"state": "OREGON",
		"artcc": "ZSE",
		"type": "CN",
		"updated": "09/23/2010",
	},
	{
		"name": "QIVGU",
		"latitude": "46-29-37.07 N",
		"longitude": "120-34-18.91 W",
		"state": "WASHINGTON",
		"artcc": "ZSE",
		"type": "CN",
		"updated": "07/01/2011",
	},
	{
		"name": "QOBGE",
		"latitude": "47-1-12.96 N",
		"longitude": "119-13-46.83 W",
		"state": "WASHINGTON",
		"artcc": "ZSE",
		"type": "CN",
		"updated": "08/15/2011",
	},
	{
		"name": "QUCYO",
		"latitude": "45-25-54.81 N",
		"longitude": "123-49-25.63 W",
		"state": "OREGON",
		"artcc": "ZSE",
		"type": "RNAV",
		"updated": "08/14/2000",
	},
	{
		"name": "QUIIN",
		"latitude": "47-30-53.89 N",
		"longitude": "123-28-18.41 W",
		"state": "WASHINGTON",
		"artcc": "ZSE",
		"type": "RNAV",
		"updated": "04/28/2017",
	},
	{
		"name": "QUINT",
		"latitude": "47-12-50.29 N",
		"longitude": "119-54-31.59 W",
		"state": "WASHINGTON",
		"artcc": "ZSE",
		"type": "RP",
		"updated": "EAT*VOR/DME*117.00/16.63",
	},
	{
		"name": "QUJRI",
		"latitude": "47-19-15.18 N",
		"longitude": "119-15-2.45 W",
		"state": "WASHINGTON",
		"artcc": "ZSE",
		"type": "CN",
		"updated": "01/31/2011",
	},
	{
		"name": "QUZRU",
		"latitude": "47-20-1.12 N",
		"longitude": "119-13-1.54 W",
		"state": "WASHINGTON",
		"artcc": "ZSE",
		"type": "CN",
		"updated": "01/31/2011",
	},
	{
		"name": "QWIET",
		"latitude": "47-51-56 N",
		"longitude": "122-22-25.43 W",
		"state": "WASHINGTON",
		"artcc": "ZSE",
		"type": "RNAV",
		"updated": "06/25/2013",
	},
