	{
		"name": "TABSE",
		"latitude": "44-16-58.47 N",
		"longitude": "121-31-53.94 W",
		"state": "OREGON",
		"artcc": "ZSE",
		"type": "RP",
		"updated": "DSD*VORTAC*262.50/10.00",
	},
	{
		"name": "TACUP",
		"latitude": "46-3-42.86 N",
		"longitude": "118-41-27.75 W",
		"state": "WASHINGTON",
		"artcc": "ZSE",
		"type": "RP",
		"updated": "ALW*VOR/DME*244.98/16.71",
	},
	{
		"name": "TAGOR",
		"latitude": "47-25-53.84 N",
		"longitude": "121-55-0.72 W",
		"state": "WASHINGTON",
		"artcc": "ZSE",
		"type": "RP",
		"updated": "SEA*VORTAC*071.66/16.00",
	},
	{
		"name": "TAHNE",
		"latitude": "41-53-19.51 N",
		"longitude": "121-35-25.77 W",
		"state": "CALIFORNIA",
		"artcc": "ZSE",
		"type": "RP",
		"updated": "LMT*VORTAC*/17.00",
	},
	{
		"name": "TALCS",
		"latitude": "48-43-28.73 N",
		"longitude": "122-54-37.83 W",
		"state": "WASHINGTON",
		"artcc": "ZSE",
		"type": "RNAV",
		"updated": "12/10/2015",
	},
	{
		"name": "TALEM",
		"latitude": "42-8-49.7 N",
		"longitude": "122-52-41.5 W",
		"state": "OREGON",
		"artcc": "ZSE",
		"type": "RP",
		"updated": "OED*VORTAC*156.55/20.00",
	},
	{
		"name": "TAMPO",
		"latitude": "46-34-28.39 N",
		"longitude": "120-51-55.34 W",
		"state": "WASHINGTON",
		"artcc": "ZSE",
		"type": "RP",
		"updated": "ELN*VOR/DME*191.00",
	},
	{
		"name": "TAOMA",
		"latitude": "46-55-14.42 N",
		"longitude": "122-6-22.11 W",
		"state": "WASHINGTON",
		"artcc": "ZSE",
		"type": "RP",
		"updated": "SEA*VORTAC*145.84/32.00",
	},
	{
		"name": "TAPUE",
		"latitude": "41-57-4.46 N",
		"longitude": "124-19-44.87 W",
		"state": "CALIFORNIA",
		"artcc": "ZSE",
		"type": "RP",
		"updated": "CEC*VORTAC*325.00/11.00",
	},
	{
		"name": "TAUNT",
		"latitude": "47-8-28.45 N",
		"longitude": "119-24-42.8 W",
		"state": "WASHINGTON",
		"artcc": "ZSE",
		"type": "RP",
		"updated": "MWH*VOR/DME*204.99/5.71",
	},
	{
		"name": "TAYLN",
		"latitude": "45-41-47.26 N",
		"longitude": "122-52-59.95 W",
		"state": "OREGON",
		"artcc": "ZSE",
		"type": "MR",
		"updated": "BTG*VORTAC*235.00",
	},
	{
		"name": "TAYON",
		"latitude": "46-12-50.62 N",
		"longitude": "119-11-43.26 W",
		"state": "WASHINGTON",
		"artcc": "ZSE",
		"type": "RNAV",
		"updated": "09/27/2010",
	},
	{
		"name": "TAYUT",
		"latitude": "46-21-50.47 N",
		"longitude": "117-15-47.55 W",
		"state": "WASHINGTON",
		"artcc": "ZSE",
		"type": "RP",
		"updated": "MQG*VOR/DME*246.46/16.39",
	},
	{
		"name": "TAZZE",
		"latitude": "45-12-26.1 N",
		"longitude": "122-46-37.61 W",
		"state": "OREGON",
		"artcc": "ZSE",
		"type": "RNAV",
		"updated": "02/24/2017",
	},
	{
		"name": "TEBNE",
		"latitude": "47-23-43.44 N",
		"longitude": "122-18-33.38 W",
		"state": "WASHINGTON",
		"artcc": "ZSE",
		"type": "RP",
		"updated": "SEA*VORTAC*160.66/2.40",
	},
	{
		"name": "TECEE",
		"latitude": "47-24-9.26 N",
		"longitude": "122-21-54.6 W",
		"state": "WASHINGTON",
		"artcc": "ZSE",
		"type": "RP",
		"updated": "SEA*VORTAC*210.00/3.00",
	},
	{
		"name": "TECUV",
		"latitude": "48-51-10.03 N",
		"longitude": "122-58-3.19 W",
		"state": "WASHINGTON",
		"artcc": "ZSE",
		"type": "RP",
		"updated": "YVR*VOR/DME*134.90/15.27",
	},
	{
		"name": "TEFAN",
		"latitude": "41-23-37.97 N",
		"longitude": "120-29-34.5 W",
		"state": "CALIFORNIA",
		"artcc": "ZSE",
		"type": "RNAV",
		"updated": "11/16/2017",
	},
	{
		"name": "TEFXY",
		"latitude": "47-37-3.91 N",
		"longitude": "117-42-17.24 W",
		"state": "WASHINGTON",
		"artcc": "ZSE",
		"type": "RNAV",
		"updated": "02/12/2014",
	},
	{
		"name": "TEMPL",
		"latitude": "47-43-47.62 N",
		"longitude": "119-29-3.79 W",
		"state": "WASHINGTON",
		"artcc": "ZSE",
		"type": "RP",
		"updated": "GEG*VORTAC*257.17/76.00",
	},
	{
		"name": "TERJE",
		"latitude": "44-24-24.34 N",
		"longitude": "118-59-28.74 W",
		"state": "OREGON",
		"artcc": "ZSE",
		"type": "RNAV",
		"updated": "12/02/2008",
	},
	{
		"name": "TETGE",
		"latitude": "47-21-34.39 N",
		"longitude": "122-33-41.51 W",
		"state": "WASHINGTON",
		"artcc": "ZSE",
		"type": "RNAV",
		"updated": "07/21/2008",
	},
	{
		"name": "TETME",
		"latitude": "43-28-33.76 N",
		"longitude": "123-31-20.17 W",
		"state": "OREGON",
		"artcc": "ZSE",
		"type": "RNAV",
		"updated": "11/27/2017",
	},
	{
		"name": "TEYKU",
		"latitude": "46-57-34.65 N",
		"longitude": "124-2-18.17 W",
		"state": "WASHINGTON",
		"artcc": "ZSE",
		"type": "RP",
		"updated": "HQM*VORTAC*061.55/4.62",
	},
	{
		"name": "THEID",
		"latitude": "45-37-23.35 N",
		"longitude": "122-21-58.96 W",
		"state": "WASHINGTON",
		"artcc": "ZSE",
		"type": "RNAV",
		"updated": "01/14/2013",
	},
	{
		"name": "THICK",
		"latitude": "47-2-29.04 N",
		"longitude": "120-49-37.78 W",
		"state": "WASHINGTON",
		"artcc": "ZSE",
		"type": "RP",
		"updated": "ELN*VOR/DME*253.00/15.17",
	},
	{
		"name": "TICKY",
		"latitude": "44-20-5.89 N",
		"longitude": "123-36-51.94 W",
		"state": "OREGON",
		"artcc": "ZSE",
		"type": "RP",
		"updated": "EUG*VORTAC*287.38/21.22",
	},
	{
		"name": "TICYU",
		"latitude": "47-27-5.1 N",
		"longitude": "119-19-24.95 W",
		"state": "WASHINGTON",
		"artcc": "ZSE",
		"type": "RNAV",
		"updated": "04/01/2009",
	},
	{
		"name": "TIFYS",
		"latitude": "47-20-3.6 N",
		"longitude": "122-18-43.62 W",
		"state": "WASHINGTON",
		"artcc": "ZSE",
		"type": "RP",
		"updated": "TUC*LD*S CRS/6.05",
	},
	{
		"name": "TIKNE",
		"latitude": "44-12-12.95 N",
		"longitude": "121-16-25.62 W",
		"state": "OREGON",
		"artcc": "ZSE",
		"type": "RNAV",
		"updated": "07/05/2011",
	},
	{
		"name": "TIMBR",
		"latitude": "45-45-15.5 N",
		"longitude": "123-18-19.89 W",
		"state": "OREGON",
		"artcc": "ZSE",
		"type": "MR",
		"updated": "BTG*VORTAC*250.00/30.00",
	},
	{
		"name": "TIMEE",
		"latitude": "45-5-17.46 N",
		"longitude": "121-41-49.49 W",
		"state": "OREGON",
		"artcc": "ZSE",
		"type": "RP",
		"updated": "IMB*VOR/DME*268.00/88.73",
	},
	{
		"name": "TIPIE",
		"latitude": "44-2-7.61 N",
		"longitude": "123-13-3.45 W",
		"state": "OREGON",
		"artcc": "ZSE",
		"type": "RNAV",
		"updated": "08/11/2010",
	},
	{
		"name": "TISAE",
		"latitude": "48-45-23.04 N",
		"longitude": "122-54-33.85 W",
		"state": "WASHINGTON",
		"artcc": "ZSE",
		"type": "RNAV",
		"updated": "08/18/2015",
	},
	{
		"name": "TISTE",
		"latitude": "44-10-35.18 N",
		"longitude": "120-58-38.12 W",
		"state": "OREGON",
		"artcc": "ZSE",
		"type": "RNAV",
		"updated": "06/25/2015",
	},
	{
		"name": "TITON",
		"latitude": "46-42-43.42 N",
		"longitude": "120-44-30.72 W",
		"state": "WASHINGTON",
		"artcc": "ZSE",
		"type": "RP",
		"updated": "ELN*VOR/DME*191.00",
	},
	{
		"name": "TIWEP",
		"latitude": "44-47-38.45 N",
		"longitude": "121-9-12.08 W",
		"state": "OREGON",
		"artcc": "ZSE",
		"type": "RNAV",
		"updated": "04/22/2010",
	},
	{
		"name": "TIYOS",
		"latitude": "47-46-18.87 N",
		"longitude": "116-50-13.5 W",
		"state": "IDAHO",
		"artcc": "ZSE",
		"type": "RP",
		"updated": "COE*VOR/DME*/0.68",
	},
	{
		"name": "TIYOT",
		"latitude": "44-59-29.08 N",
		"longitude": "123-29-13.81 W",
		"state": "OREGON",
		"artcc": "ZSE",
		"type": "RP",
		"updated": "UBG*VOR/DME*204.04/30.63",
	},
	{
		"name": "TIZHO",
		"latitude": "46-35-42.32 N",
		"longitude": "117-12-59.62 W",
		"state": "WASHINGTON",
		"artcc": "ZSE",
		"type": "RNAV",
		"updated": "04/19/2010",
	},
	{
		"name": "TMBRS",
		"latitude": "44-48-1.33 N",
		"longitude": "122-41-18.63 W",
		"state": "OREGON",
		"artcc": "ZSE",
		"type": "RNAV",
		"updated": "08/28/2013",
	},
	{
		"name": "TOCBU",
		"latitude": "45-22-38.53 N",
		"longitude": "122-51-0.73 W",
		"state": "OREGON",
		"artcc": "ZSE",
		"type": "RP",
		"updated": "UBG*VOR/DME*053.97/5.60",
	},
	{
		"name": "TOCUY",
		"latitude": "48-20-52.74 N",
		"longitude": "122-45-53.21 W",
		"state": "WASHINGTON",
		"artcc": "ZSE",
		"type": "MW",
		"updated": "09/05/2014",
	},
	{
		"name": "TODAE",
		"latitude": "48-22-52.6 N",
		"longitude": "124-35-52.21 W",
		"state": "WASHINGTON",
		"artcc": "ZSE",
		"type": "RNAV",
		"updated": "08/18/2015",
	},
	{
		"name": "TOGAE",
		"latitude": "47-36-38.1 N",
		"longitude": "122-22-14.47 W",
		"state": "WASHINGTON",
		"artcc": "ZSE",
		"type": "RP",
		"updated": "SEA*VORTAC*327.74/10.81",
	},
	{
		"name": "TOKSE",
		"latitude": "48-23-54.89 N",
		"longitude": "122-16-11.73 W",
		"state": "WASHINGTON",
		"artcc": "ZSE",
		"type": "RNAV",
		"updated": "09/26/2008",
	},
	{
		"name": "TOLGA",
		"latitude": "45-52-52.02 N",
		"longitude": "118-12-39.27 W",
		"state": "OREGON",
		"artcc": "ZSE",
		"type": "RP",
		"updated": "ALW*VOR/DME*144.52",
	},
	{
		"name": "TOLOC",
		"latitude": "45-32-7.59 N",
		"longitude": "122-26-37.09 W",
		"state": "OREGON",
		"artcc": "ZSE",
		"type": "RP",
		"updated": "IAP*LD*103.04/7.68",
	},
	{
		"name": "TOMRE",
		"latitude": "47-20-7.64 N",
		"longitude": "122-31-0.82 W",
		"state": "WASHINGTON",
		"artcc": "ZSE",
		"type": "RNAV",
		"updated": "02/16/2006",
	},
	{
		"name": "TONNO",
		"latitude": "46-41-46.95 N",
		"longitude": "122-49-50.85 W",
		"state": "WASHINGTON",
		"artcc": "ZSE",
		"type": "RP",
		"updated": "OLM*VORTAC*150.93/16.78",
	},
	{
		"name": "TOSEH",
		"latitude": "45-32-29.75 N",
		"longitude": "122-53-35.44 W",
		"state": "OREGON",
		"artcc": "ZSE",
		"type": "RNAV",
		"updated": "06/30/2009",
	},
	{
		"name": "TOTEE",
		"latitude": "48-43-23.15 N",
		"longitude": "122-54-37.01 W",
		"state": "WASHINGTON",
		"artcc": "ZSE",
		"type": "RNAV",
		"updated": "08/18/2015",
	},
	{
		"name": "TOTKE",
		"latitude": "48-21-25.75 N",
		"longitude": "122-30-15.73 W",
		"state": "WASHINGTON",
		"artcc": "ZSE",
		"type": "MW",
		"updated": "03/31/2017",
	},
	{
		"name": "TOUTL",
		"latitude": "46-1-24.01 N",
		"longitude": "122-32-48.14 W",
		"state": "WASHINGTON",
		"artcc": "ZSE",
		"type": "RP",
		"updated": "AST*VOR/DME*079.00",
	},
	{
		"name": "TOWWN",
		"latitude": "45-35-33.12 N",
		"longitude": "122-49-52.06 W",
		"state": "OREGON",
		"artcc": "ZSE",
		"type": "RNAV",
		"updated": "08/13/2012",
	},
	{
		"name": "TOYEE",
		"latitude": "40-37-32.73 N",
		"longitude": "124-4-11.52 W",
		"state": "CALIFORNIA",
		"artcc": "ZSE",
		"type": "RP",
		"updated": "FOT*VORTAC*090.89/8.00",
	},
	{
		"name": "TOYOL",
		"latitude": "47-30-19.6 N",
		"longitude": "122-13-3.38 W",
		"state": "WASHINGTON",
		"artcc": "ZSE",
		"type": "RNAV",
		"updated": "02/15/2006",
	},
	{
		"name": "TRAYL",
		"latitude": "45-40-3.67 N",
		"longitude": "122-46-59.88 W",
		"state": "OREGON",
		"artcc": "ZSE",
		"type": "RP",
		"updated": "BTG*VORTAC*218.26",
	},
	{
		"name": "TRIAL",
		"latitude": "41-3-46.53 N",
		"longitude": "124-14-12.28 W",
		"state": "CALIFORNIA",
		"artcc": "ZSE",
		"type": "RP",
		"updated": "ACV*VOR/DME*293.00",
	},
	{
		"name": "TRINA",
		"latitude": "46-10-32.36 N",
		"longitude": "118-11-47.5 W",
		"state": "WASHINGTON",
		"artcc": "ZSE",
		"type": "RP",
		"updated": "ALW*VOR/DME*017.01/6.66",
	},
	{
		"name": "TROTS",
		"latitude": "45-56-18.62 N",
		"longitude": "121-32-45.66 W",
		"state": "WASHINGTON",
		"artcc": "ZSE",
		"type": "RP",
		"updated": "BTG*VORTAC*054.00/45.32",
	},
	{
		"name": "TTIDE",
		"latitude": "45-39-4.88 N",
		"longitude": "122-44-28.13 W",
		"state": "WASHINGTON",
		"artcc": "ZSE",
		"type": "RNAV",
		"updated": "08/15/2012",
	},
	{
		"name": "TUBTY",
		"latitude": "48-34-12.18 N",
		"longitude": "122-32-11.9 W",
		"state": "WASHINGTON",
		"artcc": "ZSE",
		"type": "RNAV",
		"updated": "06/01/2012",
	},
	{
		"name": "TUDGY",
		"latitude": "46-34-28.09 N",
		"longitude": "120-51-19.02 W",
		"state": "WASHINGTON",
		"artcc": "ZSE",
		"type": "RP",
		"updated": "YKM*VORTAC*250.00/17.00",
	},
	{
		"name": "TUDTO",
		"latitude": "44-42-6.25 N",
		"longitude": "121-9-12.16 W",
		"state": "OREGON",
		"artcc": "ZSE",
		"type": "RNAV",
		"updated": "04/23/2012",
	},
	{
		"name": "TULBE",
		"latitude": "44-17-59.6 N",
		"longitude": "123-58-5.19 W",
		"state": "OREGON",
		"artcc": "ZSE",
		"type": "RP",
		"updated": "ONP*VORTAC*151.45/17.00",
	},
	{
		"name": "TULIP",
		"latitude": "41-54-41.99 N",
		"longitude": "121-31-42.32 W",
		"state": "CALIFORNIA",
		"artcc": "ZSE",
		"type": "RP",
		"updated": "LKV*VORTAC*213.92/57.35",
	},
	{
		"name": "TULNE",
		"latitude": "42-34-8.98 N",
		"longitude": "122-52-56.85 W",
		"state": "OREGON",
		"artcc": "ZSE",
		"type": "RNAV",
		"updated": "09/27/2010",
	},
	{
		"name": "TUNGS",
		"latitude": "40-36-38.7 N",
		"longitude": "124-11-51.72 W",
		"state": "CALIFORNIA",
		"artcc": "ZSE",
		"type": "RP",
		"updated": "FOT*VORTAC*136.11/4.00",
	},
	{
		"name": "TUNNA",
		"latitude": "46-4-25.46 N",
		"longitude": "124-8-18.83 W",
		"state": "OREGON",
		"artcc": "ZSE",
		"type": "WP",
		"updated": "AST*VOR/DME*225.00/12.00",
	},
	{
		"name": "TUNNL",
		"latitude": "47-59-27 N",
		"longitude": "121-10-22 W",
		"state": "WASHINGTON",
		"artcc": "ZSE",
		"type": "RNAV",
		"updated": "11/08/2016",
	},
	{
		"name": "TUNNR",
		"latitude": "46-53-46.15 N",
		"longitude": "122-26-2.9 W",
		"state": "WASHINGTON",
		"artcc": "ZSE",
		"type": "RNAV",
		"updated": "03/12/2014",
	},
	{
		"name": "TUNVE",
		"latitude": "48-26-5.21 N",
		"longitude": "122-56-14.75 W",
		"state": "WASHINGTON",
		"artcc": "ZSE",
		"type": "RNAV",
		"updated": "08/18/2015",
	},
	{
		"name": "TUPSE",
		"latitude": "44-7-16.71 N",
		"longitude": "121-21-21.97 W",
		"state": "OREGON",
		"artcc": "ZSE",
		"type": "RNAV",
		"updated": "05/01/2017",
	},
	{
		"name": "TURNO",
		"latitude": "44-50-50.76 N",
		"longitude": "122-57-3.68 W",
		"state": "OREGON",
		"artcc": "ZSE",
		"type": "RP",
		"updated": "EUG*VORTAC*354.90/45.13",
	},
	{
		"name": "TWIGY",
		"latitude": "48-57-42.13 N",
		"longitude": "115-57-33.8 W",
		"state": "MONTANA",
		"artcc": "ZSE",
		"type": "RP",
		"updated": "MLP*VOR/DME*332.19/91.22",
	},
	{
		"name": "TWISP",
		"latitude": "48-16-8.82 N",
		"longitude": "120-2-17.69 W",
		"state": "WASHINGTON",
		"artcc": "ZSE",
		"type": "RP",
		"updated": "GEG*VORTAC*273.37/106.10",
	},
