	{
		"name": "VAMPS",
		"latitude": "47-21-53.62 N",
		"longitude": "121-58-48.99 W",
		"state": "WASHINGTON",
		"artcc": "ZSE",
		"type": "RP",
		"updated": "SEA*VORTAC*088.37/14.07",
	},
	{
		"name": "VANTZ",
		"latitude": "44-57-59.96 N",
		"longitude": "122-40-18.33 W",
		"state": "OREGON",
		"artcc": "ZSE",
		"type": "RP",
		"updated": "UBG*VOR/DME*129.61/26.60",
	},
	{
		"name": "VASHN",
		"latitude": "47-30-41.41 N",
		"longitude": "122-27-19.32 W",
		"state": "WASHINGTON",
		"artcc": "ZSE",
		"type": "RNAV",
		"updated": "01/14/2013",
	},
	{
		"name": "VAUGN",
		"latitude": "43-57-15.22 N",
		"longitude": "123-26-57.26 W",
		"state": "OREGON",
		"artcc": "ZSE",
		"type": "RP",
		"updated": "EUG*VORTAC*204.50/14.00",
	},
	{
		"name": "VECCU",
		"latitude": "45-40-53.27 N",
		"longitude": "120-52-0.64 W",
		"state": "WASHINGTON",
		"artcc": "ZSE",
		"type": "RP",
		"updated": "LTJ*VOR/DME*080.00/10.03",
	},
	{
		"name": "VECUC",
		"latitude": "44-28-15.69 N",
		"longitude": "119-16-22.61 W",
		"state": "OREGON",
		"artcc": "ZSE",
		"type": "RNAV",
		"updated": "08/04/2009",
	},
	{
		"name": "VECUS",
		"latitude": "47-33-59.87 N",
		"longitude": "120-27-19.18 W",
		"state": "WASHINGTON",
		"artcc": "ZSE",
		"type": "RNAV",
		"updated": "10/06/2016",
	},
	{
		"name": "VEDUC",
		"latitude": "47-24-1.41 N",
		"longitude": "119-58-46.53 W",
		"state": "WASHINGTON",
		"artcc": "ZSE",
		"type": "RNAV",
		"updated": "10/03/2016",
	},
	{
		"name": "VEGGN",
		"latitude": "47-43-17.78 N",
		"longitude": "122-33-51.33 W",
		"state": "WASHINGTON",
		"artcc": "ZSE",
		"type": "RNAV",
		"updated": "09/21/2014",
	},
	{
		"name": "VENJU",
		"latitude": "47-33-27.38 N",
		"longitude": "120-0-54.97 W",
		"state": "WASHINGTON",
		"artcc": "ZSE",
		"type": "RNAV",
		"updated": "10/06/2016",
	},
	{
		"name": "VERNN",
		"latitude": "44-18-38.56 N",
		"longitude": "121-0-42.41 W",
		"state": "OREGON",
		"artcc": "ZSE",
		"type": "RP",
		"updated": "RDM*LD*046.67/7.60",
	},
	{
		"name": "VESYU",
		"latitude": "45-11-14.27 N",
		"longitude": "123-9-28.65 W",
		"state": "OREGON",
		"artcc": "ZSE",
		"type": "RNAV",
		"updated": "08/06/2008",
	},
	{
		"name": "VESZY",
		"latitude": "46-24-24.97 N",
		"longitude": "117-6-54.94 W",
		"state": "WASHINGTON",
		"artcc": "ZSE",
		"type": "RNAV",
		"updated": "04/19/2010",
	},
	{
		"name": "VEZAM",
		"latitude": "45-58-21.39 N",
		"longitude": "115-55-55.51 W",
		"state": "IDAHO",
		"artcc": "ZSE",
		"type": "RNAV",
		"updated": "10/13/2016",
	},
	{
		"name": "VIBSU",
		"latitude": "48-50-11.15 N",
		"longitude": "117-34-47.52 W",
		"state": "WASHINGTON",
		"artcc": "ZSE",
		"type": "RNAV",
		"updated": "10/25/2016",
	},
	{
		"name": "VIDAS",
		"latitude": "44-9-50 N",
		"longitude": "122-38-50.19 W",
		"state": "OREGON",
		"artcc": "ZSE",
		"type": "RP",
		"updated": "EUG*VORTAC*063.88/25.00",
	},
	{
		"name": "VIMFY",
		"latitude": "47-15-15.1 N",
		"longitude": "119-20-24.11 W",
		"state": "WASHINGTON",
		"artcc": "ZSE",
		"type": "RNAV",
		"updated": "01/31/2011",
	},
	{
		"name": "VIPRE",
		"latitude": "45-37-29.2 N",
		"longitude": "123-16-58.14 W",
		"state": "OREGON",
		"artcc": "ZSE",
		"type": "RP",
		"updated": "UBG*VOR/DME*300.83",
	},
	{
		"name": "VIRTU",
		"latitude": "46-12-16.32 N",
		"longitude": "119-21-36.63 W",
		"state": "WASHINGTON",
		"artcc": "ZSE",
		"type": "RP",
		"updated": "PSC*VOR/DME*233.78/10.86",
	},
	{
		"name": "VOKUB",
		"latitude": "48-54-22.64 N",
		"longitude": "122-27-46.8 W",
		"state": "WASHINGTON",
		"artcc": "ZSE",
		"type": "RNAV",
		"updated": "08/21/2017",
	},
	{
		"name": "VOLEW",
		"latitude": "40-50-4.26 N",
		"longitude": "124-0-39.15 W",
		"state": "CALIFORNIA",
		"artcc": "ZSE",
		"type": "RP",
		"updated": "ACV*LD*135.75/10.26",
	},
	{
		"name": "VOLON",
		"latitude": "48-55-8.4857 N",
		"longitude": "122-32-45.8554 W",
		"state": "WASHINGTON",
		"artcc": "ZSE",
		"type": "RNAV",
		"updated": "08/17/2017",
	},
	{
		"name": "VOMAC",
		"latitude": "40-42-12.74 N",
		"longitude": "123-55-21.03 W",
		"state": "CALIFORNIA",
		"artcc": "ZSE",
		"type": "RP",
		"updated": "FOT*VORTAC*063.16/14.37",
	},
	{
		"name": "VOODU",
		"latitude": "45-46-42.84 N",
		"longitude": "122-40-50.82 W",
		"state": "WASHINGTON",
		"artcc": "ZSE",
		"type": "RNAV",
		"updated": "08/28/2013",
	},
	{
		"name": "VOPUY",
		"latitude": "47-10-15.14 N",
		"longitude": "122-37-59.14 W",
		"state": "WASHINGTON",
		"artcc": "ZSE",
		"type": "MW",
		"updated": "03/11/2013",
	},
	{
		"name": "VOSKY",
		"latitude": "46-19-57.06 N",
		"longitude": "116-56-36.68 W",
		"state": "IDAHO",
		"artcc": "ZSE",
		"type": "RNAV",
		"updated": "04/15/2010",
	},
	{
		"name": "VPBKD",
		"latitude": "47-27-16.07 N",
		"longitude": "122-28-32.92 W",
		"state": "WASHINGTON",
		"artcc": "ZSE",
		"type": "VFR",
		"updated": "03/02/2017",
	},
	{
		"name": "VPBPL",
		"latitude": "47-18-21.25 N",
		"longitude": "122-26-39.36 W",
		"state": "WASHINGTON",
		"artcc": "ZSE",
		"type": "VFR",
		"updated": "02/21/2017",
	},
	{
		"name": "VPBRI",
		"latitude": "47-22-53.65 N",
		"longitude": "122-38-4.86 W",
		"state": "WASHINGTON",
		"artcc": "ZSE",
		"type": "VFR",
		"updated": "02/21/2017",
	},
	{
		"name": "VPBSH",
		"latitude": "48-1-52 N",
		"longitude": "122-36-25 W",
		"state": "WASHINGTON",
		"artcc": "ZSE",
		"type": "VFR",
		"updated": "02/21/2017",
	},
	{
		"name": "VPCAM",
		"latitude": "48-3-23.82 N",
		"longitude": "122-21-34 W",
		"state": "WASHINGTON",
		"artcc": "ZSE",
		"type": "VFR",
		"updated": "02/21/2017",
	},
	{
		"name": "VPDOM",
		"latitude": "47-14-11.99 N",
		"longitude": "122-25-37.53 W",
		"state": "WASHINGTON",
		"artcc": "ZSE",
		"type": "VFR",
		"updated": "02/21/2017",
	},
	{
		"name": "VPEFD",
		"latitude": "47-48-48 N",
		"longitude": "122-23-8 W",
		"state": "WASHINGTON",
		"artcc": "ZSE",
		"type": "VFR",
		"updated": "02/21/2017",
	},
	{
		"name": "VPFOX",
		"latitude": "47-13-5 N",
		"longitude": "122-36-18.44 W",
		"state": "WASHINGTON",
		"artcc": "ZSE",
		"type": "VFR",
		"updated": "02/21/2017",
	},
	{
		"name": "VPGIG",
		"latitude": "47-20-3.66 N",
		"longitude": "122-34-52.11 W",
		"state": "WASHINGTON",
		"artcc": "ZSE",
		"type": "VFR",
		"updated": "02/21/2017",
	},
	{
		"name": "VPGMD",
		"latitude": "46-48-9.24 N",
		"longitude": "123-0-28.69 W",
		"state": "WASHINGTON",
		"artcc": "ZSE",
		"type": "VFR",
		"updated": "02/21/2017",
	},
	{
		"name": "VPHCB",
		"latitude": "47-51-33.11 N",
		"longitude": "122-37-23.71 W",
		"state": "WASHINGTON",
		"artcc": "ZSE",
		"type": "VFR",
		"updated": "02/21/2017",
	},
	{
		"name": "VPJPT",
		"latitude": "47-10-40.91 N",
		"longitude": "122-48-53.17 W",
		"state": "WASHINGTON",
		"artcc": "ZSE",
		"type": "VFR",
		"updated": "02/21/2017",
	},
	{
		"name": "VPKNT",
		"latitude": "47-22-58 N",
		"longitude": "122-13-37 W",
		"state": "WASHINGTON",
		"artcc": "ZSE",
		"type": "VFR",
		"updated": "03/02/2017",
	},
	{
		"name": "VPLSH",
		"latitude": "47-38-18 N",
		"longitude": "122-5-16 W",
		"state": "WASHINGTON",
		"artcc": "ZSE",
		"type": "VFR",
		"updated": "02/21/2017",
	},
	{
		"name": "VPLSN",
		"latitude": "48-0-10.58 N",
		"longitude": "122-4-54.9 W",
		"state": "WASHINGTON",
		"artcc": "ZSE",
		"type": "VFR",
		"updated": "02/21/2017",
	},
	{
		"name": "VPLTP",
		"latitude": "47-13-2 N",
		"longitude": "122-10-25 W",
		"state": "WASHINGTON",
		"artcc": "ZSE",
		"type": "VFR",
		"updated": "02/21/2017",
	},
	{
		"name": "VPMBY",
		"latitude": "47-2-45.48 N",
		"longitude": "122-59-22.49 W",
		"state": "WASHINGTON",
		"artcc": "ZSE",
		"type": "VFR",
		"updated": "02/21/2017",
	},
	{
		"name": "VPMCN",
		"latitude": "47-12-26.69 N",
		"longitude": "122-41-33.41 W",
		"state": "WASHINGTON",
		"artcc": "ZSE",
		"type": "VFR",
		"updated": "02/21/2017",
	},
	{
		"name": "VPMLB",
		"latitude": "47-48-4.55 N",
		"longitude": "122-6-59.85 W",
		"state": "WASHINGTON",
		"artcc": "ZSE",
		"type": "VFR",
		"updated": "02/21/2017",
	},
	{
		"name": "VPNBD",
		"latitude": "47-29-43.89 N",
		"longitude": "121-47-12.48 W",
		"state": "WASHINGTON",
		"artcc": "ZSE",
		"type": "VFR",
		"updated": "02/21/2017",
	},
	{
		"name": "VPORO",
		"latitude": "43-57-22.86 N",
		"longitude": "123-2-13 W",
		"state": "OREGON",
		"artcc": "ZSE",
		"type": "VFR",
		"updated": "06/13/2013",
	},
	{
		"name": "VPPMR",
		"latitude": "47-18-50.67 N",
		"longitude": "121-53-32.4 W",
		"state": "WASHINGTON",
		"artcc": "ZSE",
		"type": "VFR",
		"updated": "02/21/2017",
	},
	{
		"name": "VPSNO",
		"latitude": "47-54-57.05 N",
		"longitude": "122-5-53.9 W",
		"state": "WASHINGTON",
		"artcc": "ZSE",
		"type": "VFR",
		"updated": "02/21/2017",
	},
	{
		"name": "VPSUM",
		"latitude": "47-3-15.79 N",
		"longitude": "123-6-17.09 W",
		"state": "WASHINGTON",
		"artcc": "ZSE",
		"type": "VFR",
		"updated": "02/21/2017",
	},
	{
		"name": "VPTRS",
		"latitude": "47-14-16.92 N",
		"longitude": "122-29-51.16 W",
		"state": "WASHINGTON",
		"artcc": "ZSE",
		"type": "VFR",
		"updated": "10/17/2017",
	},
	{
		"name": "VPVMC",
		"latitude": "47-26-33 N",
		"longitude": "122-12-50 W",
		"state": "WASHINGTON",
		"artcc": "ZSE",
		"type": "VFR",
		"updated": "02/21/2017",
	},
	{
		"name": "VPWIN",
		"latitude": "47-37-34 N",
		"longitude": "122-31-16 W",
		"state": "WASHINGTON",
		"artcc": "ZSE",
		"type": "VFR",
		"updated": "02/21/2017",
	},
	{
		"name": "VPWSC",
		"latitude": "47-2-8.54 N",
		"longitude": "122-54-17.23 W",
		"state": "WASHINGTON",
		"artcc": "ZSE",
		"type": "VFR",
		"updated": "02/21/2017",
	},
	{
		"name": "VPWSF",
		"latitude": "47-10-55.96 N",
		"longitude": "122-17-44.62 W",
		"state": "WASHINGTON",
		"artcc": "ZSE",
		"type": "VFR",
		"updated": "02/21/2017",
	},
	{
		"name": "VUCUS",
		"latitude": "48-15-5.56 N",
		"longitude": "122-40-49.35 W",
		"state": "WASHINGTON",
		"artcc": "ZSE",
		"type": "RNAV",
		"updated": "01/29/2007",
	},
	{
		"name": "VUCUV",
		"latitude": "44-18-58.41 N",
		"longitude": "121-16-42.14 W",
		"state": "OREGON",
		"artcc": "ZSE",
		"type": "RNAV",
		"updated": "06/25/2015",
	},
	{
		"name": "VUHZE",
		"latitude": "47-23-26.75 N",
		"longitude": "119-20-13.32 W",
		"state": "WASHINGTON",
		"artcc": "ZSE",
		"type": "CN",
		"updated": "01/31/2011",
	},
	{
		"name": "VUNUC",
		"latitude": "47-36-58.19 N",
		"longitude": "117-8-38.92 W",
		"state": "WASHINGTON",
		"artcc": "ZSE",
		"type": "RNAV",
		"updated": "11/14/2008",
	},
