	{
		"name": "ZABAT",
		"latitude": "45-26-15.32 N",
		"longitude": "122-32-1.45 W",
		"state": "OREGON",
		"artcc": "ZSE",
		"type": "RNAV",
		"updated": "03/15/2011",
	},
	{
		"name": "ZABAX",
		"latitude": "45-30-29.6 N",
		"longitude": "122-54-57.86 W",
		"state": "OREGON",
		"artcc": "ZSE",
		"type": "RNAV",
		"updated": "05/02/2010",
	},
	{
		"name": "ZABDI",
		"latitude": "44-31-24.96 N",
		"longitude": "124-1-47.43 W",
		"state": "OREGON",
		"artcc": "ZSE",
		"type": "RNAV",
		"updated": "03/15/2011",
	},
	{
		"name": "ZABMU",
		"latitude": "44-24-51.94 N",
		"longitude": "119-3-11.44 W",
		"state": "OREGON",
		"artcc": "ZSE",
		"type": "RNAV",
		"updated": "12/02/2008",
	},
	{
		"name": "ZADON",
		"latitude": "47-33-44 N",
		"longitude": "121-44-19 W",
		"state": "WASHINGTON",
		"artcc": "ZSE",
		"type": "RNAV",
		"updated": "05/04/2017",
	},
	{
		"name": "ZAGIM",
		"latitude": "46-17-22.82 N",
		"longitude": "116-35-10.84 W",
		"state": "IDAHO",
		"artcc": "ZSE",
		"type": "RP",
		"updated": "MQG*VOR/DME*095.00/13.00",
	},
	{
		"name": "ZAGRO",
		"latitude": "47-35-22.84 N",
		"longitude": "122-21-10.71 W",
		"state": "WASHINGTON",
		"artcc": "ZSE",
		"type": "RNAV",
		"updated": "09/24/2004",
	},
	{
		"name": "ZAKDA",
		"latitude": "43-13-48.58 N",
		"longitude": "123-21-29.73 W",
		"state": "OREGON",
		"artcc": "ZSE",
		"type": "RNAV",
		"updated": "11/27/2017",
	},
	{
		"name": "ZAKNI",
		"latitude": "48-40-56.94 N",
		"longitude": "116-20-49.61 W",
		"state": "IDAHO",
		"artcc": "ZSE",
		"type": "RNAV",
		"updated": "06/03/2010",
	},
	{
		"name": "ZALBI",
		"latitude": "46-12-11.72 N",
		"longitude": "118-10-2.6 W",
		"state": "WASHINGTON",
		"artcc": "ZSE",
		"type": "RP",
		"updated": "ALW*VOR/DME*/8.72",
	},
	{
		"name": "ZALUX",
		"latitude": "46-25-51.68 N",
		"longitude": "118-52-23.59 W",
		"state": "WASHINGTON",
		"artcc": "ZSE",
		"type": "RP",
		"updated": "PSC*VOR/DME*031.35/14.00",
	},
	{
		"name": "ZAPLO",
		"latitude": "45-34-47.79 N",
		"longitude": "122-35-3.39 W",
		"state": "OREGON",
		"artcc": "ZSE",
		"type": "MR",
		"updated": "CBU*TACAN*094.63/1.25",
	},
	{
		"name": "ZAPOV",
		"latitude": "46-17-54.7 N",
		"longitude": "119-9-47.51 W",
		"state": "WASHINGTON",
		"artcc": "ZSE",
		"type": "RNAV",
		"updated": "09/27/2010",
	},
	{
		"name": "ZAPUL",
		"latitude": "42-14-1.15 N",
		"longitude": "121-47-11.66 W",
		"state": "OREGON",
		"artcc": "ZSE",
		"type": "RP",
		"updated": "LMT*VORTAC*314.41/5.50",
	},
	{
		"name": "ZARFE",
		"latitude": "47-32-4.19 N",
		"longitude": "117-22-42.23 W",
		"state": "WASHINGTON",
		"artcc": "ZSE",
		"type": "RNAV",
		"updated": "02/12/2014",
	},
	{
		"name": "ZARLO",
		"latitude": "47-37-26.19 N",
		"longitude": "120-32-26.38 W",
		"state": "WASHINGTON",
		"artcc": "ZSE",
		"type": "RP",
		"updated": "EAT*VOR/DME*300.22/19.01",
	},
	{
		"name": "ZARSO",
		"latitude": "44-11-10.82 N",
		"longitude": "123-19-52.02 W",
		"state": "OREGON",
		"artcc": "ZSE",
		"type": "RNAV",
		"updated": "11/02/2017",
	},
	{
		"name": "ZASUK",
		"latitude": "44-4-1.74 N",
		"longitude": "122-49-39.25 W",
		"state": "OREGON",
		"artcc": "ZSE",
		"type": "RNAV",
		"updated": "07/05/2011",
	},
	{
		"name": "ZATAX",
		"latitude": "48-20-47.32 N",
		"longitude": "122-48-23.43 W",
		"state": "WASHINGTON",
		"artcc": "ZSE",
		"type": "MW",
		"updated": "03/31/2017",
	},
	{
		"name": "ZATIP",
		"latitude": "46-13-17.48 N",
		"longitude": "116-31-37.57 W",
		"state": "IDAHO",
		"artcc": "ZSE",
		"type": "RP",
		"updated": "MQG*VOR/DME*103.87/17.18",
	},
	{
		"name": "ZAVIT",
		"latitude": "47-5-36.05 N",
		"longitude": "122-51-14.51 W",
		"state": "WASHINGTON",
		"artcc": "ZSE",
		"type": "RP",
		"updated": "OLM*VORTAC*356.01/7.56",
	},
	{
		"name": "ZAVLA",
		"latitude": "48-36-24.49 N",
		"longitude": "122-55-21.14 W",
		"state": "WASHINGTON",
		"artcc": "ZSE",
		"type": "RNAV",
		"updated": "08/17/2015",
	},
	{
		"name": "ZAVYO",
		"latitude": "47-6-42.65 N",
		"longitude": "119-16-21.91 W",
		"state": "WASHINGTON",
		"artcc": "ZSE",
		"type": "RNAV",
		"updated": "02/04/2011",
	},
	{
		"name": "ZAXUL",
		"latitude": "47-10-2.58 N",
		"longitude": "120-2-41.75 W",
		"state": "WASHINGTON",
		"artcc": "ZSE",
		"type": "RP",
		"updated": "ELN*VOR/DME*041.99/19.00",
	},
	{
		"name": "ZEBEL",
		"latitude": "46-19-13.66 N",
		"longitude": "116-53-16.96 W",
		"state": "IDAHO",
		"artcc": "ZSE",
		"type": "RNAV",
		"updated": "04/15/2010",
	},
	{
		"name": "ZEBKU",
		"latitude": "47-23-40.47 N",
		"longitude": "122-7-5.93 W",
		"state": "WASHINGTON",
		"artcc": "ZSE",
		"type": "RNAV",
		"updated": "04/03/2018",
	},
	{
		"name": "ZEDAD",
		"latitude": "45-28-34.55 N",
		"longitude": "123-51-53.17 W",
		"state": "OREGON",
		"artcc": "ZSE",
		"type": "RNAV",
		"updated": "03/15/2011",
	},
	{
		"name": "ZEDAT",
		"latitude": "46-35-50.64 N",
		"longitude": "124-10-1.14 W",
		"state": "WASHINGTON",
		"artcc": "ZSE",
		"type": "RP",
		"updated": "AST*VOR/DME*316.63/28.73",
	},
	{
		"name": "ZEDKO",
		"latitude": "46-1-7.96 N",
		"longitude": "118-17-38.66 W",
		"state": "WASHINGTON",
		"artcc": "ZSE",
		"type": "RNAV",
		"updated": "10/09/2014",
	},
	{
		"name": "ZEGET",
		"latitude": "48-11-21 N",
		"longitude": "123-34-30 W",
		"state": "WASHINGTON",
		"artcc": "ZSE",
		"type": "RNAV",
		"updated": "08/17/2015",
	},
	{
		"name": "ZEGNA",
		"latitude": "44-52-21.7 N",
		"longitude": "122-58-17.44 W",
		"state": "OREGON",
		"artcc": "ZSE",
		"type": "RP",
		"updated": "SLE*LD*133.09/3.22",
	},
	{
		"name": "ZEGRO",
		"latitude": "47-27-19.84 N",
		"longitude": "117-48-44.07 W",
		"state": "WASHINGTON",
		"artcc": "ZSE",
		"type": "RP",
		"updated": "GEG*VORTAC*208.00/10.00",
	},
	{
		"name": "ZEGRU",
		"latitude": "46-10-58.97 N",
		"longitude": "118-56-7.38 W",
		"state": "WASHINGTON",
		"artcc": "ZSE",
		"type": "RNAV",
		"updated": "09/16/2014",
	},
	{
		"name": "ZEJYA",
		"latitude": "48-45-40.56 N",
		"longitude": "122-45-53.77 W",
		"state": "WASHINGTON",
		"artcc": "ZSE",
		"type": "RNAV",
		"updated": "06/04/2012",
	},
	{
		"name": "ZELAK",
		"latitude": "47-33-35 N",
		"longitude": "121-32-29 W",
		"state": "WASHINGTON",
		"artcc": "ZSE",
		"type": "RNAV",
		"updated": "05/10/2004",
	},
	{
		"name": "ZELAM",
		"latitude": "46-37-39.95 N",
		"longitude": "122-56-29.44 W",
		"state": "WASHINGTON",
		"artcc": "ZSE",
		"type": "RNAV",
		"updated": "08/17/2015",
	},
	{
		"name": "ZELIG",
		"latitude": "47-58-11.29 N",
		"longitude": "122-16-40.08 W",
		"state": "WASHINGTON",
		"artcc": "ZSE",
		"type": "RP",
		"updated": "PAE*VOR/DME*340.00/3.00",
	},
	{
		"name": "ZEMAB",
		"latitude": "44-42-53.58 N",
		"longitude": "120-34-8.74 W",
		"state": "OREGON",
		"artcc": "ZSE",
		"type": "RP",
		"updated": "DSD*VORTAC*030.43/42.00",
	},
	{
		"name": "ZEMIP",
		"latitude": "45-46-19 N",
		"longitude": "124-4-29 W",
		"state": "OREGON",
		"artcc": "ZSE",
		"type": "RNAV",
		"updated": "01/30/2013",
	},
	{
		"name": "ZEMSO",
		"latitude": "47-38-12.96 N",
		"longitude": "122-7-2.91 W",
		"state": "WASHINGTON",
		"artcc": "ZSE",
		"type": "RNAV",
		"updated": "05/13/2016",
	},
	{
		"name": "ZEMUN",
		"latitude": "46-34-44.92 N",
		"longitude": "120-42-7.19 W",
		"state": "WASHINGTON",
		"artcc": "ZSE",
		"type": "RNAV",
		"updated": "07/01/2011",
	},
	{
		"name": "ZEREN",
		"latitude": "47-52-5.97 N",
		"longitude": "122-17-4.84 W",
		"state": "WASHINGTON",
		"artcc": "ZSE",
		"type": "RNAV",
		"updated": "10/31/2017",
	},
	{
		"name": "ZERLI",
		"latitude": "47-16-15.99 N",
		"longitude": "122-35-12.06 W",
		"state": "WASHINGTON",
		"artcc": "ZSE",
		"type": "RP",
		"updated": "SEA*VORTAC*210.00/15.00",
	},
	{
		"name": "ZETBU",
		"latitude": "44-17-24.21 N",
		"longitude": "121-3-44.96 W",
		"state": "OREGON",
		"artcc": "ZSE",
		"type": "RNAV",
		"updated": "06/25/2015",
	},
	{
		"name": "ZETEK",
		"latitude": "47-4-45.93 N",
		"longitude": "119-15-26.94 W",
		"state": "WASHINGTON",
		"artcc": "ZSE",
		"type": "RNAV",
		"updated": "01/31/2011",
	},
	{
		"name": "ZETEP",
		"latitude": "48-35-15.84 N",
		"longitude": "122-50-26.84 W",
		"state": "WASHINGTON",
		"artcc": "ZSE",
		"type": "RNAV",
		"updated": "05/25/2007",
	},
	{
		"name": "ZETIG",
		"latitude": "45-54-13.34 N",
		"longitude": "118-22-8.51 W",
		"state": "OREGON",
		"artcc": "ZSE",
		"type": "RNAV",
		"updated": "09/12/2014",
	},
	{
		"name": "ZETLI",
		"latitude": "44-16-20.95 N",
		"longitude": "121-6-20.02 W",
		"state": "OREGON",
		"artcc": "ZSE",
		"type": "RP",
		"updated": "RDM*LD*046.37/2.96",
	},
	{
		"name": "ZEVAD",
		"latitude": "44-18-11.8 N",
		"longitude": "121-15-37.89 W",
		"state": "OREGON",
		"artcc": "ZSE",
		"type": "RNAV",
		"updated": "06/25/2015",
	},
	{
		"name": "ZEZJI",
		"latitude": "45-38-8.18 N",
		"longitude": "122-42-1.93 W",
		"state": "WASHINGTON",
		"artcc": "ZSE",
		"type": "RP",
		"updated": "BTG*VORTAC*193.29",
	},
	{
		"name": "ZIBAP",
		"latitude": "48-9-35.92 N",
		"longitude": "122-54-17.14 W",
		"state": "WASHINGTON",
		"artcc": "ZSE",
		"type": "RNAV",
		"updated": "05/25/2007",
	},
	{
		"name": "ZIBID",
		"latitude": "44-9-45.67 N",
		"longitude": "121-23-15.63 W",
		"state": "OREGON",
		"artcc": "ZSE",
		"type": "RNAV",
		"updated": "05/15/2014",
	},
	{
		"name": "ZIBUM",
		"latitude": "44-49-9.22 N",
		"longitude": "124-8-52.1 W",
		"state": "OREGON",
		"artcc": "ZSE",
		"type": "RNAV",
		"updated": "03/15/2011",
	},
	{
		"name": "ZIDAX",
		"latitude": "42-14-49.16 N",
		"longitude": "122-32-33.86 W",
		"state": "OREGON",
		"artcc": "ZSE",
		"type": "RNAV",
		"updated": "09/27/2010",
	},
	{
		"name": "ZIGED",
		"latitude": "47-19-41.26 N",
		"longitude": "122-7-49.56 W",
		"state": "WASHINGTON",
		"artcc": "ZSE",
		"type": "RP",
		"updated": "SEA*VORTAC*112.32",
	},
	{
		"name": "ZIGIK",
		"latitude": "42-40-9.45 N",
		"longitude": "123-28-34.1 W",
		"state": "OREGON",
		"artcc": "ZSE",
		"type": "RNAV",
		"updated": "12/01/2017",
	},
	{
		"name": "ZIGLO",
		"latitude": "46-34-42.28 N",
		"longitude": "120-42-59.59 W",
		"state": "WASHINGTON",
		"artcc": "ZSE",
		"type": "RNAV",
		"updated": "07/01/2011",
	},
	{
		"name": "ZIGOG",
		"latitude": "48-15-54.15 N",
		"longitude": "122-36-12.16 W",
		"state": "WASHINGTON",
		"artcc": "ZSE",
		"type": "RNAV",
		"updated": "05/15/2007",
	},
	{
		"name": "ZIGPI",
		"latitude": "45-50-46.22 N",
		"longitude": "123-55-1.27 W",
		"state": "OREGON",
		"artcc": "ZSE",
		"type": "RP",
		"updated": "AST*VOR/DME*165.64/19.00",
	},
	{
		"name": "ZIGVO",
		"latitude": "43-24-24.89 N",
		"longitude": "124-29-18.32 W",
		"state": "OREGON",
		"artcc": "ZSE",
		"type": "RP",
		"updated": "OTH*VOR/DME*253.00/14.00",
	},
	{
		"name": "ZIKDO",
		"latitude": "44-38-1.97 N",
		"longitude": "123-16-7.46 W",
		"state": "OREGON",
		"artcc": "ZSE",
		"type": "RP",
		"updated": "CVO*VOR/DME*/8.13",
	},
	{
		"name": "ZIKEX",
		"latitude": "42-18-56.93 N",
		"longitude": "120-23-53.28 W",
		"state": "OREGON",
		"artcc": "ZSE",
		"type": "RNAV",
		"updated": "01/30/2013",
	},
	{
		"name": "ZIKNO",
		"latitude": "41-31-46.05 N",
		"longitude": "124-14-21.85 W",
		"state": "CALIFORNIA",
		"artcc": "ZSE",
		"type": "RP",
		"updated": "CEC*VORTAC*165.75/15.04",
	},
	{
		"name": "ZIKUK",
		"latitude": "47-36-15.1 N",
		"longitude": "122-37-7.47 W",
		"state": "WASHINGTON",
		"artcc": "ZSE",
		"type": "RNAV",
		"updated": "04/13/2007",
	},
	{
		"name": "ZILRA",
		"latitude": "46-10-47.15 N",
		"longitude": "116-0-9.73 W",
		"state": "IDAHO",
		"artcc": "ZSE",
		"type": "RNAV",
		"updated": "06/30/2013",
	},
	{
		"name": "ZIMBU",
		"latitude": "46-53-33.84 N",
		"longitude": "122-55-22.75 W",
		"state": "WASHINGTON",
		"artcc": "ZSE",
		"type": "RP",
		"updated": "OLM*VORTAC*171.43/4.82",
	},
	{
		"name": "ZIMKE",
		"latitude": "44-2-28.24 N",
		"longitude": "123-13-3.78 W",
		"state": "OREGON",
		"artcc": "ZSE",
		"type": "RNAV",
		"updated": "07/22/2011",
	},
	{
		"name": "ZINAG",
		"latitude": "47-40-41.51 N",
		"longitude": "117-40-10.8 W",
		"state": "WASHINGTON",
		"artcc": "ZSE",
		"type": "RNAV",
		"updated": "01/31/2011",
	},
	{
		"name": "ZINKY",
		"latitude": "46-7-40.62 N",
		"longitude": "123-25-39.21 W",
		"state": "OREGON",
		"artcc": "ZSE",
		"type": "RP",
		"updated": "AST*VOR/DME*/19.00",
	},
	{
		"name": "ZINUB",
		"latitude": "47-18-27.91 N",
		"longitude": "122-18-44.45 W",
		"state": "WASHINGTON",
		"artcc": "ZSE",
		"type": "RNAV",
		"updated": "10/08/2014",
	},
	{
		"name": "ZIRAN",
		"latitude": "47-32-20 N",
		"longitude": "120-25-5 W",
		"state": "WASHINGTON",
		"artcc": "ZSE",
		"type": "RNAV",
		"updated": "12/26/2017",
	},
	{
		"name": "ZIRBA",
		"latitude": "45-50-0.37 N",
		"longitude": "122-52-47.07 W",
		"state": "OREGON",
		"artcc": "ZSE",
		"type": "RNAV",
		"updated": "03/25/2011",
	},
	{
		"name": "ZIREX",
		"latitude": "45-33-6.01 N",
		"longitude": "122-12-26.74 W",
		"state": "OREGON",
		"artcc": "ZSE",
		"type": "RNAV",
		"updated": "02/08/2005",
	},
	{
		"name": "ZIRVO",
		"latitude": "47-7-6.38 N",
		"longitude": "119-31-26.97 W",
		"state": "WASHINGTON",
		"artcc": "ZSE",
		"type": "RP",
		"updated": "01/31/2011",
	},
	{
		"name": "ZISAK",
		"latitude": "46-43-46.78 N",
		"longitude": "117-19-38.97 W",
		"state": "WASHINGTON",
		"artcc": "ZSE",
		"type": "RNAV",
		"updated": "03/21/2013",
	},
	{
		"name": "ZITAK",
		"latitude": "44-27-27 N",
		"longitude": "123-4-50 W",
		"state": "OREGON",
		"artcc": "ZSE",
		"type": "RNAV",
		"updated": "01/30/2013",
	},
	{
		"name": "ZITNI",
		"latitude": "47-21-9.99 N",
		"longitude": "119-16-30.71 W",
		"state": "WASHINGTON",
		"artcc": "ZSE",
		"type": "RNAV",
		"updated": "01/31/2011",
	},
	{
		"name": "ZIVDI",
		"latitude": "47-22-1.89 N",
		"longitude": "122-18-42.59 W",
		"state": "WASHINGTON",
		"artcc": "ZSE",
		"type": "RNAV",
		"updated": "01/28/2013",
	},
	{
		"name": "ZIVIT",
		"latitude": "46-53-44.26 N",
		"longitude": "123-55-2.91 W",
		"state": "WASHINGTON",
		"artcc": "ZSE",
		"type": "RNAV",
		"updated": "05/25/2007",
	},
	{
		"name": "ZIVLI",
		"latitude": "43-58-17.91 N",
		"longitude": "123-1-35.13 W",
		"state": "OREGON",
		"artcc": "ZSE",
		"type": "RNAV",
		"updated": "07/05/2011",
	},
	{
		"name": "ZIVOM",
		"latitude": "46-37-46.03 N",
		"longitude": "120-19-47.59 W",
		"state": "WASHINGTON",
		"artcc": "ZSE",
		"type": "RNAV",
		"updated": "07/01/2011",
	},
	{
		"name": "ZIXIB",
		"latitude": "41-29-52.57 N",
		"longitude": "122-27-49.58 W",
		"state": "CALIFORNIA",
		"artcc": "ZSE",
		"type": "RNAV",
		"updated": "12/23/2016",
	},
	{
		"name": "ZOBEM",
		"latitude": "47-10-59.07 N",
		"longitude": "119-21-38.37 W",
		"state": "WASHINGTON",
		"artcc": "ZSE",
		"type": "RNAV",
		"updated": "01/31/2011",
	},
	{
		"name": "ZOBIM",
		"latitude": "47-9-28.54 N",
		"longitude": "120-44-53.95 W",
		"state": "WASHINGTON",
		"artcc": "ZSE",
		"type": "RNAV",
		"updated": "03/11/2013",
	},
	{
		"name": "ZOBLI",
		"latitude": "47-3-48.83 N",
		"longitude": "119-15-0.08 W",
		"state": "WASHINGTON",
		"artcc": "ZSE",
		"type": "RNAV",
		"updated": "01/31/2011",
	},
	{
		"name": "ZOBRO",
		"latitude": "46-37-39.08 N",
		"longitude": "117-16-24.45 W",
		"state": "WASHINGTON",
		"artcc": "ZSE",
		"type": "RNAV",
		"updated": "03/21/2013",
	},
	{
		"name": "ZODKU",
		"latitude": "48-43-59.12 N",
		"longitude": "122-54-36.06 W",
		"state": "WASHINGTON",
		"artcc": "ZSE",
		"type": "RNAV",
		"updated": "08/17/2015",
	},
	{
		"name": "ZOGEN",
		"latitude": "46-19-33.42 N",
		"longitude": "119-1-47.34 W",
		"state": "WASHINGTON",
		"artcc": "ZSE",
		"type": "RNAV",
		"updated": "09/16/2014",
	},
	{
		"name": "ZOGOL",
		"latitude": "46-7-14.63 N",
		"longitude": "119-9-48.9 W",
		"state": "WASHINGTON",
		"artcc": "ZSE",
		"type": "RNAV",
		"updated": "09/16/2014",
	},
	{
		"name": "ZOLGI",
		"latitude": "47-16-22.73 N",
		"longitude": "122-56-15.63 W",
		"state": "WASHINGTON",
		"artcc": "ZSE",
		"type": "RP",
		"updated": "SEA*VORTAC*230.40/27.41",
	},
	{
		"name": "ZOLIL",
		"latitude": "45-38-52.34 N",
		"longitude": "122-35-43.86 W",
		"state": "WASHINGTON",
		"artcc": "ZSE",
		"type": "RP",
		"updated": "BTG*VORTAC*160.60/6.00",
	},
	{
		"name": "ZONGU",
		"latitude": "48-26-28.52 N",
		"longitude": "122-43-9.23 W",
		"state": "WASHINGTON",
		"artcc": "ZSE",
		"type": "MR",
		"updated": "NUW*TACAN*",
	},
	{
		"name": "ZONOK",
		"latitude": "47-0-27.02 N",
		"longitude": "119-18-50.84 W",
		"state": "WASHINGTON",
		"artcc": "ZSE",
		"type": "RNAV",
		"updated": "01/31/2011",
	},
	{
		"name": "ZONOM",
		"latitude": "47-34-51.16 N",
		"longitude": "117-35-38.3 W",
		"state": "WASHINGTON",
		"artcc": "ZSE",
		"type": "RP",
		"updated": "OLJ*LD*209.49/2.33",
	},
	{
		"name": "ZONOP",
		"latitude": "46-25-38.81 N",
		"longitude": "119-10-47.91 W",
		"state": "WASHINGTON",
		"artcc": "ZSE",
		"type": "RNAV",
		"updated": "03/17/2011",
	},
	{
		"name": "ZONUV",
		"latitude": "48-34-10.29 N",
		"longitude": "122-44-14.63 W",
		"state": "WASHINGTON",
		"artcc": "ZSE",
		"type": "RNAV",
		"updated": "06/04/2012",
	},
	{
		"name": "ZOOMI",
		"latitude": "41-55-11.16 N",
		"longitude": "121-36-25.2 W",
		"state": "CALIFORNIA",
		"artcc": "ZSE",
		"type": "RP",
		"updated": "LMT*VORTAC*/15.00",
	},
	{
		"name": "ZOOMR",
		"latitude": "47-25-31.89 N",
		"longitude": "118-18-33.62 W",
		"state": "WASHINGTON",
		"artcc": "ZSE",
		"type": "RP",
		"updated": "GEG*VORTAC*232.48/29.00",
	},
	{
		"name": "ZOPEL",
		"latitude": "47-42-13.64 N",
		"longitude": "117-46-14.26 W",
		"state": "WASHINGTON",
		"artcc": "ZSE",
		"type": "RNAV",
		"updated": "07/15/2013",
	},
	{
		"name": "ZOPNO",
		"latitude": "43-59-34.38 N",
		"longitude": "123-12-2.39 W",
		"state": "OREGON",
		"artcc": "ZSE",
		"type": "RNAV",
		"updated": "07/05/2011",
	},
	{
		"name": "ZOPRA",
		"latitude": "42-28-12.84 N",
		"longitude": "122-55-23.88 W",
		"state": "OREGON",
		"artcc": "ZSE",
		"type": "RNAV",
		"updated": "09/27/2010",
	},
	{
		"name": "ZORIL",
		"latitude": "47-34-17.58 N",
		"longitude": "117-36-28.72 W",
		"state": "WASHINGTON",
		"artcc": "ZSE",
		"type": "RNAV",
		"updated": "09/27/2010",
	},
	{
		"name": "ZORNN",
		"latitude": "46-44-1.17 N",
		"longitude": "122-43-43.82 W",
		"state": "WASHINGTON",
		"artcc": "ZSE",
		"type": "RNAV",
		"updated": "03/29/2012",
	},
	{
		"name": "ZORNS",
		"latitude": "44-23-7.03 N",
		"longitude": "121-5-41.51 W",
		"state": "OREGON",
		"artcc": "ZSE",
		"type": "RP",
		"updated": "DSD*VORTAC*030.43/12.00",
	},
	{
		"name": "ZOSAV",
		"latitude": "47-12-25.61 N",
		"longitude": "122-28-36.91 W",
		"state": "WASHINGTON",
		"artcc": "ZSE",
		"type": "MW",
		"updated": "01/12/2012",
	},
	{
		"name": "ZOSNO",
		"latitude": "45-48-36.91 N",
		"longitude": "116-37-48.92 W",
		"state": "IDAHO",
		"artcc": "ZSE",
		"type": "RP",
		"updated": "MQG*VOR/DME*143.67/35.71",
	},
	{
		"name": "ZOTAN",
		"latitude": "46-53-44.99 N",
		"longitude": "122-27-19.86 W",
		"state": "WASHINGTON",
		"artcc": "ZSE",
		"type": "RNAV",
		"updated": "03/10/2014",
	},
	{
		"name": "ZOTAV",
		"latitude": "47-32-1.01 N",
		"longitude": "117-39-26.2 W",
		"state": "WASHINGTON",
		"artcc": "ZSE",
		"type": "RNAV",
		"updated": "01/31/2011",
	},
	{
		"name": "ZOTOG",
		"latitude": "46-28-50.83 N",
		"longitude": "120-32-14.65 W",
		"state": "WASHINGTON",
		"artcc": "ZSE",
		"type": "RNAV",
		"updated": "07/01/2011",
	},
	{
		"name": "ZOVIN",
		"latitude": "42-9-33.78 N",
		"longitude": "122-45-38.62 W",
		"state": "OREGON",
		"artcc": "ZSE",
		"type": "RP",
		"updated": "MFR*LD*142.77/13.00",
	},
	{
		"name": "ZOWFE",
		"latitude": "46-41-58.68 N",
		"longitude": "117-12-46.41 W",
		"state": "WASHINGTON",
		"artcc": "ZSE",
		"type": "RNAV",
		"updated": "03/21/2013",
	},
	{
		"name": "ZUBEX",
		"latitude": "47-23-38.84 N",
		"longitude": "120-13-35.52 W",
		"state": "WASHINGTON",
		"artcc": "ZSE",
		"type": "RNAV",
		"updated": "10/06/2016",
	},
	{
		"name": "ZUBOL",
		"latitude": "44-3-31.56 N",
		"longitude": "122-57-41.48 W",
		"state": "OREGON",
		"artcc": "ZSE",
		"type": "RNAV",
		"updated": "11/02/2017",
	},
	{
		"name": "ZUBOR",
		"latitude": "43-37-46.83 N",
		"longitude": "124-2-28.08 W",
		"state": "OREGON",
		"artcc": "ZSE",
		"type": "RP",
		"updated": "OTH*VOR/DME*008.36/14.00",
	},
	{
		"name": "ZUBVI",
		"latitude": "40-57-54.76 N",
		"longitude": "124-7-6.17 W",
		"state": "CALIFORNIA",
		"artcc": "ZSE",
		"type": "RP",
		"updated": "ACV*VOR/DME*188.17/1.08",
	},
	{
		"name": "ZUDAV",
		"latitude": "46-15-37.62 N",
		"longitude": "118-57-56.65 W",
		"state": "WASHINGTON",
		"artcc": "ZSE",
		"type": "RNAV",
		"updated": "09/16/2014",
	},
	{
		"name": "ZUDAX",
		"latitude": "46-29-27.49 N",
		"longitude": "120-14-11.23 W",
		"state": "WASHINGTON",
		"artcc": "ZSE",
		"type": "RNAV",
		"updated": "07/01/2011",
	},
	{
		"name": "ZUDMI",
		"latitude": "44-19-59.29 N",
		"longitude": "120-28-10.92 W",
		"state": "OREGON",
		"artcc": "ZSE",
		"type": "RNAV",
		"updated": "12/06/2013",
	},
	{
		"name": "ZUDSI",
		"latitude": "47-37-7.07 N",
		"longitude": "117-21-33.95 W",
		"state": "WASHINGTON",
		"artcc": "ZSE",
		"type": "RNAV",
		"updated": "11/10/2011",
	},
	{
		"name": "ZUKAK",
		"latitude": "47-22-16.54 N",
		"longitude": "117-54-24.72 W",
		"state": "WASHINGTON",
		"artcc": "ZSE",
		"type": "CN",
		"updated": "09/27/2010",
	},
	{
		"name": "ZULAV",
		"latitude": "47-32-37.28 N",
		"longitude": "122-13-24.24 W",
		"state": "WASHINGTON",
		"artcc": "ZSE",
		"type": "RNAV",
		"updated": "06/28/2017",
	},
	{
		"name": "ZUMAG",
		"latitude": "43-54-5.91 N",
		"longitude": "123-11-9.16 W",
		"state": "OREGON",
		"artcc": "ZSE",
		"type": "RNAV",
		"updated": "07/05/2011",
	},
	{
		"name": "ZUMBI",
		"latitude": "47-37-40.68 N",
		"longitude": "122-37-2.5 W",
		"state": "WASHINGTON",
		"artcc": "ZSE",
		"type": "RNAV",
		"updated": "05/04/2017",
	},
	{
		"name": "ZUMDO",
		"latitude": "43-24-14.27 N",
		"longitude": "123-34-25.99 W",
		"state": "OREGON",
		"artcc": "ZSE",
		"type": "RNAV",
		"updated": "01/30/2007",
	},
	{
		"name": "ZUMET",
		"latitude": "46-54-53.58 N",
		"longitude": "122-48-14.6 W",
		"state": "WASHINGTON",
		"artcc": "ZSE",
		"type": "RNAV",
		"updated": "06/04/2012",
	},
	{
		"name": "ZUMPU",
		"latitude": "45-58-47.98 N",
		"longitude": "118-37-21.05 W",
		"state": "OREGON",
		"artcc": "ZSE",
		"type": "RNAV",
		"updated": "09/16/2014",
	},
	{
		"name": "ZUNAB",
		"latitude": "46-9-2.4 N",
		"longitude": "123-16-12 W",
		"state": "OREGON",
		"artcc": "ZSE",
		"type": "RP",
		"updated": "AST*VOR/DME*072.27/25.47",
	},
	{
		"name": "ZUNAD",
		"latitude": "46-56-16.1 N",
		"longitude": "124-12-21.35 W",
		"state": "WASHINGTON",
		"artcc": "ZSE",
		"type": "RNAV",
		"updated": "09/08/2009",
	},
	{
		"name": "ZUNAS",
		"latitude": "41-51-34.17 N",
		"longitude": "122-50-54.37 W",
		"state": "CALIFORNIA",
		"artcc": "ZSE",
		"type": "RP",
		"updated": "FJS*VOR/DME*336.62/24.65",
	},
	{
		"name": "ZUNAX",
		"latitude": "44-12-57.25 N",
		"longitude": "123-12-14.24 W",
		"state": "OREGON",
		"artcc": "ZSE",
		"type": "RP",
		"updated": "ADE*LD*N CRS/6.12",
	},
	{
		"name": "ZUNPA",
		"latitude": "42-6-59.69 N",
		"longitude": "123-36-9.44 W",
		"state": "OREGON",
		"artcc": "ZSE",
		"type": "RNAV",
		"updated": "12/01/2017",
	},
	{
		"name": "ZUPON",
		"latitude": "44-4-3.51 N",
		"longitude": "122-50-13.45 W",
		"state": "OREGON",
		"artcc": "ZSE",
		"type": "RNAV",
		"updated": "07/05/2011",
	},
	{
		"name": "ZUTED",
		"latitude": "45-54-58.87 N",
		"longitude": "118-34-41.55 W",
		"state": "OREGON",
		"artcc": "ZSE",
		"type": "RP",
		"updated": "PDT*VORTAC*029.03/20.00",
	},
	{
		"name": "ZUTUR",
		"latitude": "44-13-5.89 N",
		"longitude": "123-13-46.62 W",
		"state": "OREGON",
		"artcc": "ZSE",
		"type": "RNAV",
		"updated": "07/05/2011",
	},
	{
		"name": "ZUVEN",
		"latitude": "47-47-58.88 N",
		"longitude": "122-25-9.26 W",
		"state": "WASHINGTON",
		"artcc": "ZSE",
		"type": "RNAV",
		"updated": "09/06/2017",
	},
	{
		"name": "ZUVGO",
		"latitude": "44-9-24.78 N",
		"longitude": "120-59-12.4 W",
		"state": "OREGON",
		"artcc": "ZSE",
		"type": "RNAV",
		"updated": "05/15/2014",
	},
	{
		"name": "ZUVKU",
		"latitude": "40-52-34.01 N",
		"longitude": "124-2-20.53 W",
		"state": "CALIFORNIA",
		"artcc": "ZSE",
		"type": "RP",
		"updated": "ACV*LD*135.75/7.46",
	},
