[
	{
		"name": "AAALL",
		"latitude": "42-7-12.68 N",
		"longitude": "71-8-30.34 W",
		"state": "MASSACHUSETTS",
		"artcc": "ZBW",
		"type": "RNAV",
		"updated": "03/23/2017"
	},
	{
		"name": "AADMS",
		"latitude": "42-35-7.53 N",
		"longitude": "71-19-8.13 W",
		"state": "MASSACHUSETTS",
		"artcc": "ZBW",
		"type": "RNAV",
		"updated": "04/04/2016"
	},
	{
		"name": "ACAFO",
		"latitude": "42-45-3.49 N",
		"longitude": "75-30-44.93 W",
		"state": "NEW YORK",
		"artcc": "ZBW",
		"type": "RNAV",
		"updated": "06/22/2010"
	},
	{
		"name": "ACCOW",
		"latitude": "44-42-26.62 N",
		"longitude": "71-12-2.9 W",
		"state": "NEW HAMPSHIRE",
		"artcc": "ZBW",
		"type": "RNAV",
		"updated": "11/20/2003"
	},
	{
		"name": "ACIDY",
		"latitude": "43-3-0.78 N",
		"longitude": "75-57-13.31 W",
		"state": "NEW YORK",
		"artcc": "ZBW",
		"type": "RNAV",
		"updated": "05/02/2013"
	},
	{
		"name": "ACOVE",
		"latitude": "42-14-5.22 N",
		"longitude": "74-1-54.59 W",
		"state": "NEW YORK",
		"artcc": "ZBW",
		"type": "RP",
		"updated": "DNY*VOR/DME*095.99/41.39"
	},
	{
		"name": "ACRAM",
		"latitude": "42-2-39.52 N",
		"longitude": "73-43-18.55 W",
		"state": "NEW YORK",
		"artcc": "ZBW",
		"type": "CF",
		"updated": "PWL*VOR/DME*354.00"
	},
	{
		"name": "ACROR",
		"latitude": "44-52-46.99 N",
		"longitude": "71-38-6.62 W",
		"state": "VERMONT",
		"artcc": "ZBW",
		"type": "RNAV",
		"updated": "01/12/2011"
	},
	{
		"name": "ACYOG",
		"latitude": "44-32-48.8 N",
		"longitude": "69-12-54.88 W",
		"state": "MAINE",
		"artcc": "ZBW",
		"type": "RP",
		"updated": "BGR*VORTAC*238.66/22.95"
	},
	{
		"name": "ADDDA",
		"latitude": "42-36-20.25 N",
		"longitude": "70-46-55.46 W",
		"state": "MASSACHUSETTS",
		"artcc": "ZBW",
		"type": "RNAV",
		"updated": "09/26/2014"
	},
	{
		"name": "ADIFO",
		"latitude": "44-5-32.51 N",
		"longitude": "68-32-21.9 W",
		"state": "MAINE",
		"artcc": "ZBW",
		"type": "RNAV",
		"updated": "11/08/2007"
	},
	{
		"name": "ADJAX",
		"latitude": "41-37-23.13 N",
		"longitude": "73-40-49.06 W",
		"state": "NEW YORK",
		"artcc": "ZBW",
		"type": "RNAV",
		"updated": "08/14/2008"
	},
	{
		"name": "ADOLE",
		"latitude": "42-38-46.09 N",
		"longitude": "73-50-47.85 W",
		"state": "NEW YORK",
		"artcc": "ZBW",
		"type": "RNAV",
		"updated": "04/10/2002"
	},
	{
		"name": "ADUVE",
		"latitude": "44-40-10.97 N",
		"longitude": "71-34-50.32 W",
		"state": "NEW HAMPSHIRE",
		"artcc": "ZBW",
		"type": "RNAV",
		"updated": "01/12/2011"
	},
	{
		"name": "ADVIK",
		"latitude": "45-8-4 N",
		"longitude": "74-46-33 W",
		"state": "",
		"artcc": "ZBW",
		"type": "RNAV",
		"updated": "09/23/2014"
	},
	{
		"name": "AFHAS",
		"latitude": "41-11-36.26 N",
		"longitude": "70-20-45.71 W",
		"state": "MASSACHUSETTS",
		"artcc": "ZBW",
		"type": "RNAV",
		"updated": "08/08/2016"
	},
	{
		"name": "AFRED",
		"latitude": "43-39-5.02 N",
		"longitude": "73-24-21.77 W",
		"state": "VERMONT",
		"artcc": "ZBW",
		"type": "RNAV",
		"updated": "01/13/2011"
	},
	{
		"name": "AGACO",
		"latitude": "42-10-46.02 N",
		"longitude": "72-42-37.96 W",
		"state": "MASSACHUSETTS",
		"artcc": "ZBW",
		"type": "RP",
		"updated": "BAF*VORTAC*027.52/1.08"
	},
	{
		"name": "AGAWA",
		"latitude": "42-1-26.29 N",
		"longitude": "72-42-28.95 W",
		"state": "CONNECTICUT",
		"artcc": "ZBW",
		"type": "MR",
		"updated": "CEF*VORTAC*232.00/13.20"
	},
	{
		"name": "AGIXE",
		"latitude": "44-30-18.66 N",
		"longitude": "70-24-33.34 W",
		"state": "MAINE",
		"artcc": "ZBW",
		"type": "RNAV",
		"updated": "10/24/2008"
	},
	{
		"name": "AGNEZ",
		"latitude": "42-13-32.71 N",
		"longitude": "74-11-18.75 W",
		"state": "NEW YORK",
		"artcc": "ZBW",
		"type": "RP",
		"updated": "DNY*VOR/DME*095.99"
	},
	{
		"name": "AGUGE",
		"latitude": "43-29-51.31 N",
		"longitude": "72-32-52.32 W",
		"state": "VERMONT",
		"artcc": "ZBW",
		"type": "RNAV",
		"updated": "01/12/2011"
	},
	{
		"name": "AGZAF",
		"latitude": "47-19-24.27 N",
		"longitude": "68-25-46.39 W",
		"state": "",
		"artcc": "ZBW",
		"type": "RNAV",
		"updated": "07/07/2010"
	},
	{
		"name": "AHHOT",
		"latitude": "47-14-51.75 N",
		"longitude": "68-11-48.57 W",
		"state": "MAINE",
		"artcc": "ZBW",
		"type": "RNAV",
		"updated": "07/07/2010"
	},
	{
		"name": "AHIZI",
		"latitude": "46-21-8.78 N",
		"longitude": "68-2-55.03 W",
		"state": "MAINE",
		"artcc": "ZBW",
		"type": "RNAV",
		"updated": "05/19/2009"
	},
	{
		"name": "AHOLA",
		"latitude": "46-3-36.66 N",
		"longitude": "67-50-48.49 W",
		"state": "MAINE",
		"artcc": "ZBW",
		"type": "RNAV",
		"updated": "06/24/2011"
	},
	{
		"name": "AHRON",
		"latitude": "43-40-24.11 N",
		"longitude": "70-12-20.12 W",
		"state": "MAINE",
		"artcc": "ZBW",
		"type": "RNAV",
		"updated": "06/01/2012"
	},
	{
		"name": "AHTON",
		"latitude": "44-46-16.39 N",
		"longitude": "72-9-57.94 W",
		"state": "VERMONT",
		"artcc": "ZBW",
		"type": "RNAV",
		"updated": "08/10/2015"
	},
	{
		"name": "AIBUX",
		"latitude": "44-4-31.8 N",
		"longitude": "68-44-41.4 W",
		"state": "MAINE",
		"artcc": "ZBW",
		"type": "RNAV",
		"updated": "11/08/2007"
	},
	{
		"name": "AIDOT",
		"latitude": "44-10-44.56 N",
		"longitude": "68-47-54.6 W",
		"state": "MAINE",
		"artcc": "ZBW",
		"type": "RNAV",
		"updated": "11/08/2007"
	},
	{
		"name": "AIMME",
		"latitude": "43-40-5.92 N",
		"longitude": "70-40-1.36 W",
		"state": "MAINE",
		"artcc": "ZBW",
		"type": "RP",
		"updated": "ENE*VOR/DME*007.90"
	},
	{
		"name": "AITAR",
		"latitude": "44-11-35.18 N",
		"longitude": "68-57-13.63 W",
		"state": "MAINE",
		"artcc": "ZBW",
		"type": "RNAV",
		"updated": "10/04/2007"
	},
	{
		"name": "AJGUB",
		"latitude": "45-19-31.36 N",
		"longitude": "67-41-34.06 W",
		"state": "MAINE",
		"artcc": "ZBW",
		"type": "CN",
		"updated": "02/05/2018"
	},
	{
		"name": "AJJAY",
		"latitude": "43-43-40.55 N",
		"longitude": "69-36-8.22 W",
		"state": "MAINE",
		"artcc": "ZBW",
		"type": "RNAV",
		"updated": "09/22/2014"
	},
	{
		"name": "AKACO",
		"latitude": "43-56-53.52 N",
		"longitude": "69-0-3.49 W",
		"state": "MAINE",
		"artcc": "ZBW",
		"type": "RNAV",
		"updated": "06/21/2010"
	},
	{
		"name": "AKAVE",
		"latitude": "42-28-32.87 N",
		"longitude": "73-49-17 W",
		"state": "NEW YORK",
		"artcc": "ZBW",
		"type": "RNAV",
		"updated": "04/10/2002"
	},
	{
		"name": "AKAYU",
		"latitude": "43-58-48.27 N",
		"longitude": "73-24-25.37 W",
		"state": "VERMONT",
		"artcc": "ZBW",
		"type": "RNAV",
		"updated": "01/13/2011"
	},
	{
		"name": "AKHOM",
		"latitude": "43-33-21.56 N",
		"longitude": "72-24-35.44 W",
		"state": "VERMONT",
		"artcc": "ZBW",
		"type": "RNAV",
		"updated": "10/21/2008"
	},
	{
		"name": "AKIJE",
		"latitude": "41-18-15.93 N",
		"longitude": "72-28-9.24 W",
		"state": "CONNECTICUT",
		"artcc": "ZBW",
		"type": "RNAV",
		"updated": "07/07/2009"
	},
	{
		"name": "AKMUY",
		"latitude": "45-15-36.65 N",
		"longitude": "67-39-35.9 W",
		"state": "MAINE",
		"artcc": "ZBW",
		"type": "RNAV",
		"updated": "01/22/2015"
	},
	{
		"name": "AKOPE",
		"latitude": "41-52-17.43 N",
		"longitude": "70-39-50.2 W",
		"state": "MASSACHUSETTS",
		"artcc": "ZBW",
		"type": "RNAV",
		"updated": "06/04/2014"
	},
	{
		"name": "AKUGE",
		"latitude": "43-44-23.82 N",
		"longitude": "72-28-11.98 W",
		"state": "VERMONT",
		"artcc": "ZBW",
		"type": "RNAV",
		"updated": "11/04/2009"
	},
	{
		"name": "AKYAK",
		"latitude": "47-4-13.95 N",
		"longitude": "68-4-54.73 W",
		"state": "MAINE",
		"artcc": "ZBW",
		"type": "RNAV",
		"updated": "08/04/2004"
	},
	{
		"name": "ALACE",
		"latitude": "44-20-28.29 N",
		"longitude": "72-26-18.85 W",
		"state": "VERMONT",
		"artcc": "ZBW",
		"type": "RNAV",
		"updated": "01/11/2011"
	},
	{
		"name": "ALBOW",
		"latitude": "41-2-4.04 N",
		"longitude": "71-58-30.69 W",
		"state": "NEW YORK",
		"artcc": "ZBW",
		"type": "RNAV",
		"updated": "02/23/2017"
	},
	{
		"name": "ALCAR",
		"latitude": "41-21-4.05 N",
		"longitude": "72-35-35.63 W",
		"state": "CONNECTICUT",
		"artcc": "ZBW",
		"type": "RP",
		"updated": "MAD*VOR/DME*076.41/5.00"
	},
	{
		"name": "ALCEE",
		"latitude": "42-56-34.31 N",
		"longitude": "70-58-52.2 W",
		"state": "NEW HAMPSHIRE",
		"artcc": "ZBW",
		"type": "WP",
		"updated": "MHT*VOR/DME*090.00/17.70"
	},
	{
		"name": "ALCID",
		"latitude": "42-7-30.83 N",
		"longitude": "72-33-28.12 W",
		"state": "MASSACHUSETTS",
		"artcc": "ZBW",
		"type": "RNAV",
		"updated": "05/05/2016"
	},
	{
		"name": "ALDEN",
		"latitude": "43-5-55.17 N",
		"longitude": "73-35-59.34 W",
		"state": "NEW YORK",
		"artcc": "ZBW",
		"type": "RP",
		"updated": "CAM*VOR/DME*313.17/12.88"
	},
	{
		"name": "ALFED",
		"latitude": "40-40-44.58 N",
		"longitude": "73-20-28.92 W",
		"state": "NEW YORK",
		"artcc": "ZBW",
		"type": "RNAV",
		"updated": "02/26/2010"
	},
	{
		"name": "ALFFF",
		"latitude": "42-20-37.25 N",
		"longitude": "70-58-36.81 W",
		"state": "MASSACHUSETTS",
		"artcc": "ZBW",
		"type": "RP",
		"updated": "BOS*VOR/DME*161.72/1.00"
	},
	{
		"name": "ALIEH",
		"latitude": "43-43-22.89 N",
		"longitude": "70-48-22.88 W",
		"state": "MAINE",
		"artcc": "ZBW",
		"type": "RNAV",
		"updated": "06/26/2012"
	},
	{
		"name": "ALIRE",
		"latitude": "44-10-53.28 N",
		"longitude": "68-39-45.96 W",
		"state": "MAINE",
		"artcc": "ZBW",
		"type": "RNAV",
		"updated": "10/01/2009"
	},
	{
		"name": "ALIXX",
		"latitude": "41-10-52.85 N",
		"longitude": "73-23-34.89 W",
		"state": "CONNECTICUT",
		"artcc": "ZBW",
		"type": "RP",
		"updated": "DPK*VOR/DME*002.17"
	},
	{
		"name": "ALLEX",
		"latitude": "44-25-0 N",
		"longitude": "67-0-0 W",
		"state": "OFFSHORE ATLANTIC",
		"artcc": "ZBW",
		"type": "RP",
		"updated": "YQI*VOR/DME*332.15/53.22"
	},
	{
		"name": "ALLEY",
		"latitude": "41-41-56.33 N",
		"longitude": "71-23-51.33 W",
		"state": "RHODE ISLAND",
		"artcc": "ZBW",
		"type": "RP",
		"updated": "UNQ*LD*156.58/2.55"
	},
	{
		"name": "ALMEN",
		"latitude": "44-1-4.36 N",
		"longitude": "75-49-39.47 W",
		"state": "NEW YORK",
		"artcc": "ZBW",
		"type": "MR",
		"updated": "ART*VORTAC*080.87/11.00"
	},
	{
		"name": "ALOCO",
		"latitude": "44-22-39.98 N",
		"longitude": "71-16-32.62 W",
		"state": "NEW HAMPSHIRE",
		"artcc": "ZBW",
		"type": "RNAV",
		"updated": "10/18/2010"
	},
	{
		"name": "ALOKY",
		"latitude": "44-19-19.93 N",
		"longitude": "72-41-55.27 W",
		"state": "VERMONT",
		"artcc": "ZBW",
		"type": "RNAV",
		"updated": "03/11/2011"
	},
	{
		"name": "ALOTY",
		"latitude": "41-52-38.86 N",
		"longitude": "70-22-30.88 W",
		"state": "MASSACHUSETTS",
		"artcc": "ZBW",
		"type": "RNAV",
		"updated": "04/07/2009"
	},
	{
		"name": "AMORE",
		"latitude": "41-20-42.42 N",
		"longitude": "73-35-20.57 W",
		"state": "NEW YORK",
		"artcc": "ZBW",
		"type": "RP",
		"updated": "IGN*VOR/DME*163.24/21.90"
	},
	{
		"name": "AMUXE",
		"latitude": "44-23-36.6 N",
		"longitude": "68-59-48.6 W",
		"state": "MAINE",
		"artcc": "ZBW",
		"type": "RNAV",
		"updated": "06/20/2010"
	},
	{
		"name": "AMZIE",
		"latitude": "43-6-22.37 N",
		"longitude": "67-17-10.87 W",
		"state": "MAINE",
		"artcc": "ZBW",
		"type": "RP",
		"updated": "QI*NDB*251.00"
	},
	{
		"name": "ANACI",
		"latitude": "43-41-6.47 N",
		"longitude": "69-59-32.21 W",
		"state": "MAINE",
		"artcc": "ZBW",
		"type": "RNAV",
		"updated": "09/29/2009"
	},
	{
		"name": "ANCOR",
		"latitude": "43-59-51.9 N",
		"longitude": "69-7-3.1 W",
		"state": "MAINE",
		"artcc": "ZBW",
		"type": "RP",
		"updated": "AUG*VOR/DME*141.16/35.13"
	},
	{
		"name": "ANDRU",
		"latitude": "43-54-9.58 N",
		"longitude": "70-46-57.45 W",
		"state": "MAINE",
		"artcc": "ZBW",
		"type": "RNAV",
		"updated": "02/17/2009"
	},
	{
		"name": "ANDRW",
		"latitude": "41-43-9.94 N",
		"longitude": "73-44-46.47 W",
		"state": "NEW YORK",
		"artcc": "ZBW",
		"type": "WP",
		"updated": "11/02/1998"
	},
	{
		"name": "ANEES",
		"latitude": "44-38-56.7 N",
		"longitude": "71-59-54.83 W",
		"state": "VERMONT",
		"artcc": "ZBW",
		"type": "RNAV",
		"updated": "08/10/2015"
	},
	{
		"name": "ANGLR",
		"latitude": "41-35-26.14 N",
		"longitude": "73-6-18.19 W",
		"state": "CONNECTICUT",
		"artcc": "ZBW",
		"type": "WP",
		"updated": "09/27/1991"
	},
	{
		"name": "ANIER",
		"latitude": "43-35-34.68 N",
		"longitude": "71-39-16.63 W",
		"state": "NEW HAMPSHIRE",
		"artcc": "ZBW",
		"type": "RP",
		"updated": "LEB*VOR/DME*116.70/25.00"
	},
	{
		"name": "ANIJE",
		"latitude": "40-56-56.43 N",
		"longitude": "72-6-3.5 W",
		"state": "NEW YORK",
		"artcc": "ZBW",
		"type": "RNAV",
		"updated": "07/03/2012"
	},
	{
		"name": "ANIZI",
		"latitude": "44-16-39.63 N",
		"longitude": "69-54-6.27 W",
		"state": "MAINE",
		"artcc": "ZBW",
		"type": "RNAV",
		"updated": "05/17/2012"
	},
	{
		"name": "ANNEI",
		"latitude": "41-17-9.83 N",
		"longitude": "73-15-21.24 W",
		"state": "CONNECTICUT",
		"artcc": "ZBW",
		"type": "RP",
		"updated": "CMK*VOR/DME*100.49/14.73"
	},
	{
		"name": "ANOPE",
		"latitude": "42-7-41.26 N",
		"longitude": "73-52-10.62 W",
		"state": "NEW YORK",
		"artcc": "ZBW",
		"type": "RNAV",
		"updated": "10/23/2009"
	},
	{
		"name": "ANSLY",
		"latitude": "41-55-25.95 N",
		"longitude": "70-58-18.81 W",
		"state": "MASSACHUSETTS",
		"artcc": "ZBW",
		"type": "RNAV",
		"updated": "09/26/2014"
	},
	{
		"name": "ANSYN",
		"latitude": "44-44-46.04 N",
		"longitude": "70-0-9.03 W",
		"state": "MAINE",
		"artcc": "ZBW",
		"type": "RP",
		"updated": "AUG*VOR/DME*359.00"
	},
	{
		"name": "ANTHO",
		"latitude": "43-5-39.12 N",
		"longitude": "76-32-1.03 W",
		"state": "NEW YORK",
		"artcc": "ZBW",
		"type": "MR",
		"updated": "SYR*VORTAC*265.73/15.00"
	},
	{
		"name": "ANUDE",
		"latitude": "45-7-39.07 N",
		"longitude": "69-23-10.66 W",
		"state": "MAINE",
		"artcc": "ZBW",
		"type": "RNAV",
		"updated": "06/17/2011"
	},
	{
		"name": "APAVE",
		"latitude": "44-41-5.07 N",
		"longitude": "70-1-54.92 W",
		"state": "MAINE",
		"artcc": "ZBW",
		"type": "RNAV",
		"updated": "04/24/2007"
	},
	{
		"name": "APGUY",
		"latitude": "43-40-53.09 N",
		"longitude": "71-16-16.05 W",
		"state": "NEW HAMPSHIRE",
		"artcc": "ZBW",
		"type": "RNAV",
		"updated": "01/20/2011"
	},
	{
		"name": "APKAF",
		"latitude": "44-48-17.23 N",
		"longitude": "75-5-33.61 W",
		"state": "NEW YORK",
		"artcc": "ZBW",
		"type": "RNAV",
		"updated": "11/20/2009"
	},
	{
		"name": "APOCO",
		"latitude": "45-42-14.35 N",
		"longitude": "69-39-19.9 W",
		"state": "MAINE",
		"artcc": "ZBW",
		"type": "RNAV",
		"updated": "01/26/2009"
	},
	{
		"name": "APOFA",
		"latitude": "41-28-13.97 N",
		"longitude": "74-17-28.97 W",
		"state": "NEW YORK",
		"artcc": "ZBW",
		"type": "RNAV",
		"updated": "07/24/2012"
	},
	{
		"name": "ARARR",
		"latitude": "43-37-56.77 N",
		"longitude": "70-37-22.68 W",
		"state": "MAINE",
		"artcc": "ZBW",
		"type": "RNAV",
		"updated": "05/23/2014"
	},
	{
		"name": "ARCAV",
		"latitude": "40-57-57.78 N",
		"longitude": "71-47-55.62 W",
		"state": "NEW YORK",
		"artcc": "ZBW",
		"type": "RP",
		"updated": "SEY*VOR/DME*235.00"
	},
	{
		"name": "ARDIS",
		"latitude": "40-56-51.27 N",
		"longitude": "72-42-23.97 W",
		"state": "NEW YORK",
		"artcc": "ZBW",
		"type": "RNAV",
		"updated": "04/02/2007"
	},
	{
		"name": "ARENE",
		"latitude": "41-27-51.34 N",
		"longitude": "72-15-52.42 W",
		"state": "CONNECTICUT",
		"artcc": "ZBW",
		"type": "RP",
		"updated": "MAD*VOR/DME*077.82/21.31"
	},
	{
		"name": "ARIME",
		"latitude": "43-11-53.76 N",
		"longitude": "72-7-26.3 W",
		"state": "NEW HAMPSHIRE",
		"artcc": "ZBW",
		"type": "RNAV",
		"updated": "04/20/2016"
	},
	{
		"name": "ARKKK",
		"latitude": "42-3-48.52 N",
		"longitude": "75-19-0.41 W",
		"state": "NEW YORK",
		"artcc": "ZBW",
		"type": "RNAV",
		"updated": "09/20/2014"
	},
	{
		"name": "ARMIE",
		"latitude": "43-12-38.23 N",
		"longitude": "70-30-44.28 W",
		"state": "MAINE",
		"artcc": "ZBW",
		"type": "RP",
		"updated": "PSM*VOR/DME*077.57"
	},
	{
		"name": "ARMUN",
		"latitude": "42-23-33.22 N",
		"longitude": "70-4-43.06 W",
		"state": "OFFSHORE ATLANTIC",
		"artcc": "ZBW",
		"type": "RP",
		"updated": "LFV*VOR/DME*011.33/22.59"
	},
	{
		"name": "ARNII",
		"latitude": "43-14-59.92 N",
		"longitude": "74-20-0.14 W",
		"state": "NEW YORK",
		"artcc": "ZBW",
		"type": "RP",
		"updated": "CAM*VOR/DME*303.77/46.10"
	},
	{
		"name": "AROME",
		"latitude": "41-51-53.96 N",
		"longitude": "74-4-39.65 W",
		"state": "NEW YORK",
		"artcc": "ZBW",
		"type": "RNAV",
		"updated": "08/14/2008"
	},
	{
		"name": "ARQEB",
		"latitude": "41-33-33.39 N",
		"longitude": "73-9-9.68 W",
		"state": "CONNECTICUT",
		"artcc": "ZBW",
		"type": "RNAV",
		"updated": "11/30/2015"
	},
	{
		"name": "ARRIC",
		"latitude": "42-25-27.43 N",
		"longitude": "72-39-3.4 W",
		"state": "MASSACHUSETTS",
		"artcc": "ZBW",
		"type": "RP",
		"updated": "BAF*VORTAC*024.44/16.00"
	},
	{
		"name": "ARTHO",
		"latitude": "47-11-8.13 N",
		"longitude": "68-28-14.68 W",
		"state": "MAINE",
		"artcc": "ZBW",
		"type": "RNAV",
		"updated": "08/01/2007"
	},
	{
		"name": "ARVEN",
		"latitude": "46-11-30.19 N",
		"longitude": "67-50-37.09 W",
		"state": "MAINE",
		"artcc": "ZBW",
		"type": "RNAV",
		"updated": "06/24/2011"
	},
	{
		"name": "ASACU",
		"latitude": "42-58-47.83 N",
		"longitude": "71-27-3.18 W",
		"state": "NEW HAMPSHIRE",
		"artcc": "ZBW",
		"type": "RNAV",
		"updated": "01/15/2013"
	},
	{
		"name": "ASHIP",
		"latitude": "41-43-40.27 N",
		"longitude": "70-10-58.03 W",
		"state": "MASSACHUSETTS",
		"artcc": "ZBW",
		"type": "RNAV",
		"updated": "04/07/2009"
	},
	{
		"name": "ASHWY",
		"latitude": "41-24-19.33 N",
		"longitude": "71-47-4.25 W",
		"state": "RHODE ISLAND",
		"artcc": "ZBW",
		"type": "RP",
		"updated": "PVD*VOR/DME*234.00/24.93"
	},
	{
		"name": "ASINE",
		"latitude": "44-32-48.64 N",
		"longitude": "68-40-45.54 W",
		"state": "MAINE",
		"artcc": "ZBW",
		"type": "RNAV",
		"updated": "03/17/2017"
	},
	{
		"name": "ASKEW",
		"latitude": "41-35-32.01 N",
		"longitude": "70-22-19.13 W",
		"state": "MASSACHUSETTS",
		"artcc": "ZBW",
		"type": "RP",
		"updated": "MVY*VOR/DME*057.64/16.00"
	},
	{
		"name": "ASPEN",
		"latitude": "42-48-57.55 N",
		"longitude": "70-54-41.39 W",
		"state": "MASSACHUSETTS",
		"artcc": "ZBW",
		"type": "RP",
		"updated": "MHT*VOR/DME*113.70"
	},
	{
		"name": "ASQEV",
		"latitude": "42-59-46.96 N",
		"longitude": "74-36-45.04 W",
		"state": "NEW YORK",
		"artcc": "ZBW",
		"type": "RNAV",
		"updated": "08/02/2010"
	},
	{
		"name": "ASVAY",
		"latitude": "43-20-25 N",
		"longitude": "71-1-4.48 W",
		"state": "NEW HAMPSHIRE",
		"artcc": "ZBW",
		"type": "RNAV",
		"updated": "11/09/2009"
	},
	{
		"name": "ATAKY",
		"latitude": "42-54-57.55 N",
		"longitude": "74-0-26.85 W",
		"state": "NEW YORK",
		"artcc": "ZBW",
		"type": "WP",
		"updated": "11/02/1998"
	},
	{
		"name": "ATHOS",
		"latitude": "42-14-49.49 N",
		"longitude": "73-48-43.56 W",
		"state": "NEW YORK",
		"artcc": "ZBW",
		"type": "RP",
		"updated": "RKA*VOR/DME*112.22"
	},
	{
		"name": "ATIFU",
		"latitude": "43-51-31.68 N",
		"longitude": "69-23-5.76 W",
		"state": "MAINE",
		"artcc": "ZBW",
		"type": "RNAV",
		"updated": "06/21/2010"
	},
	{
		"name": "ATRLO",
		"latitude": "42-10-51.92 N",
		"longitude": "73-24-3.63 W",
		"state": "MASSACHUSETTS",
		"artcc": "ZBW",
		"type": "RNAV",
		"updated": "09/06/2012"
	},
	{
		"name": "ATVIW",
		"latitude": "42-26-9.7 N",
		"longitude": "73-16-5.3 W",
		"state": "MASSACHUSETTS",
		"artcc": "ZBW",
		"type": "RNAV",
		"updated": "02/26/2010"
	},
	{
		"name": "ATVUW",
		"latitude": "44-52-6.91 N",
		"longitude": "69-4-19.24 W",
		"state": "MAINE",
		"artcc": "ZBW",
		"type": "RNAV",
		"updated": "06/17/2011"
	},
	{
		"name": "ATWAN",
		"latitude": "41-44-15.03 N",
		"longitude": "73-49-14.27 W",
		"state": "NEW YORK",
		"artcc": "ZBW",
		"type": "RP",
		"updated": "IGN*VOR/DME*012.95/4.32"
	},
	{
		"name": "AUBIN",
		"latitude": "43-51-36.01 N",
		"longitude": "70-24-7.8 W",
		"state": "MAINE",
		"artcc": "ZBW",
		"type": "RNAV",
		"updated": "01/26/2005"
	},
	{
		"name": "AUDIL",
		"latitude": "42-52-18.74 N",
		"longitude": "76-26-35.07 W",
		"state": "NEW YORK",
		"artcc": "ZNY",
		"type": "RP",
		"updated": "RKA*VOR/DME*305.94"
	},
	{
		"name": "AUTUM",
		"latitude": "42-33-1.17 N",
		"longitude": "71-35-32.36 W",
		"state": "MASSACHUSETTS",
		"artcc": "ZBW",
		"type": "RNAV",
		"updated": "04/04/2016"
	},
	{
		"name": "AVJUB",
		"latitude": "41-39-19.75 N",
		"longitude": "74-44-54.7 W",
		"state": "NEW YORK",
		"artcc": "ZBW",
		"type": "RNAV",
		"updated": "07/10/2012"
	},
	{
		"name": "AVMAW",
		"latitude": "44-9-45.06 N",
		"longitude": "69-28-39.2 W",
		"state": "MAINE",
		"artcc": "ZBW",
		"type": "RP",
		"updated": "RMZ*LD*308.92/18.00"
	},
	{
		"name": "AVOIL",
		"latitude": "43-54-27.43 N",
		"longitude": "69-48-24.3 W",
		"state": "MAINE",
		"artcc": "ZBW",
		"type": "RNAV",
		"updated": "04/24/2010"
	},
	{
		"name": "AVONN",
		"latitude": "41-38-9.3 N",
		"longitude": "71-12-26.15 W",
		"state": "RHODE ISLAND",
		"artcc": "ZBW",
		"type": "RP",
		"updated": "SEY*VOR/DME*045.54/32.66"
	},
	{
		"name": "AWIPI",
		"latitude": "44-46-15.4 N",
		"longitude": "75-2-6.13 W",
		"state": "NEW YORK",
		"artcc": "ZBW",
		"type": "RNAV",
		"updated": "11/20/2009"
	},
	{
		"name": "AWLIN",
		"latitude": "41-33-22.48 N",
		"longitude": "71-59-56.97 W",
		"state": "CONNECTICUT",
		"artcc": "ZBW",
		"type": "RNAV",
		"updated": "09/26/2014"
	},
	{
		"name": "AWNUM",
		"latitude": "43-23-43.38 N",
		"longitude": "69-50-19.13 W",
		"state": "MAINE",
		"artcc": "ZBW",
		"type": "CN",
		"updated": "02/05/2018"
	},
	{
		"name": "AXITE",
		"latitude": "42-38-57.03 N",
		"longitude": "71-33-51.91 W",
		"state": "MASSACHUSETTS",
		"artcc": "ZBW",
		"type": "RNAV",
		"updated": "04/20/2010"
	},
	{
		"name": "AXTER",
		"latitude": "44-29-2 N",
		"longitude": "72-2-8.39 W",
		"state": "VERMONT",
		"artcc": "ZBW",
		"type": "RNAV",
		"updated": "12/18/2006"
	},
	{
		"name": "AXTIV",
		"latitude": "42-55-59.97 N",
		"longitude": "73-21-8.25 W",
		"state": "NEW YORK",
		"artcc": "ZBW",
		"type": "WP",
		"updated": "11/02/1998"
	},
	{
		"name": "AYBEE",
		"latitude": "42-26-26.01 N",
		"longitude": "70-31-40.48 W",
		"state": "MASSACHUSETTS",
		"artcc": "ZBW",
		"type": "RNAV",
		"updated": "09/26/2014"
	},
	{
		"name": "AYEDE",
		"latitude": "41-50-35.01 N",
		"longitude": "70-48-14.62 W",
		"state": "MASSACHUSETTS",
		"artcc": "ZBW",
		"type": "RP",
		"updated": "PYM*LD*235.55/5.67"
	},
	{
		"name": "AYUHH",
		"latitude": "44-12-8.17 N",
		"longitude": "70-3-35.58 W",
		"state": "MAINE",
		"artcc": "ZBW",
		"type": "RNAV",
		"updated": "06/21/2010"
	},
	{
		"name": "AYUYU",
		"latitude": "44-31-54.75 N",
		"longitude": "67-22-36.85 W",
		"state": "MAINE",
		"artcc": "ZBW",
		"type": "RNAV",
		"updated": "04/12/2004"
	},
	{
		"name": "AYZOO",
		"latitude": "44-25-21.58 N",
		"longitude": "71-40-43.19 W",
		"state": "NEW HAMPSHIRE",
		"artcc": "ZBW",
		"type": "RP",
		"updated": "BML*VOR/DME*256.29/24.63"
	},
	{
		"name": "AZBAF",
		"latitude": "42-31-6.08 N",
		"longitude": "73-2-11.13 W",
		"state": "MASSACHUSETTS",
		"artcc": "ZBW",
		"type": "RNAV",
		"updated": "02/26/2010"
	},
	{
		"name": "AZUFY",
		"latitude": "41-14-59.06 N",
		"longitude": "73-55-47.9 W",
		"state": "NEW YORK",
		"artcc": "ZBW",
		"type": "RNAV",
		"updated": "02/09/2018"
	}
]
