	{
		"name": "BABET",
		"latitude": "41-23-39.87 N",
		"longitude": "71-57-27.13 W",
		"state": "CONNECTICUT",
		"artcc": "ZBW",
		"type": "RP",
		"updated": "SEY*VOR/DME*323.39",
	},
	{
		"name": "BACAP",
		"latitude": "45-38-50.13 N",
		"longitude": "69-46-22.69 W",
		"state": "MAINE",
		"artcc": "ZBW",
		"type": "RNAV",
		"updated": "01/26/2009",
	},
	{
		"name": "BADCA",
		"latitude": "42-36-27.95 N",
		"longitude": "71-42-43.21 W",
		"state": "MASSACHUSETTS",
		"artcc": "ZBW",
		"type": "RNAV",
		"updated": "04/04/2016",
	},
	{
		"name": "BADTA",
		"latitude": "41-26-47.76 N",
		"longitude": "71-16-18.53 W",
		"state": "RHODE ISLAND",
		"artcc": "ZBW",
		"type": "RNAV",
		"updated": "09/06/2007",
	},
	{
		"name": "BAGTE",
		"latitude": "44-17-38.65 N",
		"longitude": "72-27-44.95 W",
		"state": "VERMONT",
		"artcc": "ZBW",
		"type": "RNAV",
		"updated": "01/11/2011",
	},
	{
		"name": "BAILI",
		"latitude": "43-41-14.84 N",
		"longitude": "69-54-43.21 W",
		"state": "MAINE",
		"artcc": "ZBW",
		"type": "RP",
		"updated": "ENE*VOR/DME*079.60",
	},
	{
		"name": "BAKNE",
		"latitude": "43-23-36.81 N",
		"longitude": "72-29-15.14 W",
		"state": "VERMONT",
		"artcc": "ZBW",
		"type": "RNAV",
		"updated": "01/12/2011",
	},
	{
		"name": "BAMPE",
		"latitude": "43-59-16.5 N",
		"longitude": "75-54-55.36 W",
		"state": "NEW YORK",
		"artcc": "ZBW",
		"type": "RNAV",
		"updated": "05/23/2011",
	},
	{
		"name": "BANFF",
		"latitude": "42-21-48.92 N",
		"longitude": "70-58-7.12 W",
		"state": "MASSACHUSETTS",
		"artcc": "ZBW",
		"type": "RP",
		"updated": "BOS*VOR/DME*084.42/1.00",
	},
	{
		"name": "BANKI",
		"latitude": "41-35-44.39 N",
		"longitude": "71-52-3.63 W",
		"state": "CONNECTICUT",
		"artcc": "ZBW",
		"type": "RNAV",
		"updated": "09/26/2014",
	},
	{
		"name": "BARBB",
		"latitude": "43-21-1.01 N",
		"longitude": "70-25-11.99 W",
		"state": "MAINE",
		"artcc": "ZBW",
		"type": "MR",
		"updated": "ENE*VOR/DME*135.05/9.60",
	},
	{
		"name": "BARHA",
		"latitude": "44-29-17.88 N",
		"longitude": "68-19-39.16 W",
		"state": "MAINE",
		"artcc": "ZBW",
		"type": "RNAV",
		"updated": "09/15/2014",
	},
	{
		"name": "BARTH",
		"latitude": "41-53-47.55 N",
		"longitude": "74-59-32.32 W",
		"state": "NEW YORK",
		"artcc": "ZBW",
		"type": "RP",
		"updated": "DNY*VOR/DME*196.36/16.97",
	},
	{
		"name": "BARYS",
		"latitude": "41-42-35.49 N",
		"longitude": "71-40-7.11 W",
		"state": "RHODE ISLAND",
		"artcc": "ZBW",
		"type": "RP",
		"updated": "PUT*VOR/DME*165.83",
	},
	{
		"name": "BASEZ",
		"latitude": "42-35-21.36 N",
		"longitude": "71-50-36.02 W",
		"state": "MASSACHUSETTS",
		"artcc": "ZBW",
		"type": "RNAV",
		"updated": "04/04/2016",
	},
	{
		"name": "BASKE",
		"latitude": "42-43-44.49 N",
		"longitude": "73-51-32.24 W",
		"state": "NEW YORK",
		"artcc": "ZBW",
		"type": "RNAV",
		"updated": "04/10/2002",
	},
	{
		"name": "BASUU",
		"latitude": "42-53-17.86 N",
		"longitude": "71-38-48.69 W",
		"state": "NEW HAMPSHIRE",
		"artcc": "ZBW",
		"type": "RP",
		"updated": "MHT*VOR/DME*290.63/12.29",
	},
	{
		"name": "BASYE",
		"latitude": "41-20-37.4 N",
		"longitude": "73-47-54.99 W",
		"state": "NEW YORK",
		"artcc": "ZBW",
		"type": "RP",
		"updated": "DPK*VOR/DME*338.00/40.00",
	},
	{
		"name": "BAUER",
		"latitude": "43-23-14.08 N",
		"longitude": "72-28-50.62 W",
		"state": "VERMONT",
		"artcc": "ZBW",
		"type": "RP",
		"updated": "LEB*VOR/DME*228.53/20.96",
	},
	{
		"name": "BAVDE",
		"latitude": "44-32-24.22 N",
		"longitude": "73-24-13.8 W",
		"state": "NEW YORK",
		"artcc": "ZBW",
		"type": "RP",
		"updated": "FQV*LD*172.48/8.36",
	},
	{
		"name": "BAVEY",
		"latitude": "44-18-6.98 N",
		"longitude": "72-2-25.58 W",
		"state": "VERMONT",
		"artcc": "ZBW",
		"type": "RNAV",
		"updated": "10/18/2010",
	},
	{
		"name": "BAVME",
		"latitude": "42-20-58.76 N",
		"longitude": "73-48-10.05 W",
		"state": "NEW YORK",
		"artcc": "ZBW",
		"type": "RNAV",
		"updated": "04/10/2002",
	},
	{
		"name": "BAWLL",
		"latitude": "41-13-31.18 N",
		"longitude": "72-53-42.27 W",
		"state": "CONNECTICUT",
		"artcc": "ZBW",
		"type": "RP",
		"updated": "JFK*VOR/DME*060.00/53.39",
	},
	{
		"name": "BAXIE",
		"latitude": "43-21-39.03 N",
		"longitude": "67-47-54.85 W",
		"state": "MAINE",
		"artcc": "ZBW",
		"type": "RP",
		"updated": "QI*NDB*270.00",
	},
	{
		"name": "BAYYS",
		"latitude": "41-17-21.27 N",
		"longitude": "72-58-16.73 W",
		"state": "CONNECTICUT",
		"artcc": "ZBW",
		"type": "RP",
		"updated": "BDR*VOR/DME*053.93/10.37",
	},
	{
		"name": "BAZQE",
		"latitude": "43-50-37.33 N",
		"longitude": "69-55-5.78 W",
		"state": "MAINE",
		"artcc": "ZBW",
		"type": "RNAV",
		"updated": "04/24/2010",
	},
	{
		"name": "BBOGG",
		"latitude": "42-5-56.98 N",
		"longitude": "70-41-9.06 W",
		"state": "MASSACHUSETTS",
		"artcc": "ZBW",
		"type": "RNAV",
		"updated": "10/24/2011",
	},
	{
		"name": "BBPVK",
		"latitude": "45-41-45.93 N",
		"longitude": "67-48-11.24 W",
		"state": "MAINE",
		"artcc": "ZBW",
		"type": "CN",
		"updated": "06/12/2002",
	},
	{
		"name": "BBYKC",
		"latitude": "45-51-15.9 N",
		"longitude": "70-19-45 W",
		"state": "MAINE",
		"artcc": "ZBW",
		"type": "CN",
		"updated": "06/12/2002",
	},
	{
		"name": "BCATS",
		"latitude": "42-29-45.89 N",
		"longitude": "71-50-33.89 W",
		"state": "MASSACHUSETTS",
		"artcc": "ZBW",
		"type": "RNAV",
		"updated": "09/23/2014",
	},
	{
		"name": "BEADS",
		"latitude": "40-44-4.51 N",
		"longitude": "72-32-34.21 W",
		"state": "NEW YORK",
		"artcc": "ZBW",
		"type": "RP",
		"updated": "CCC*VOR/DME*148.00/16.51",
	},
	{
		"name": "BECHH",
		"latitude": "42-20-12.83 N",
		"longitude": "70-50-16.49 W",
		"state": "MASSACHUSETTS",
		"artcc": "ZBW",
		"type": "RNAV",
		"updated": "09/27/2014",
	},
	{
		"name": "BECKS",
		"latitude": "43-32-56.63 N",
		"longitude": "74-48-3.47 W",
		"state": "NEW YORK",
		"artcc": "ZBW",
		"type": "RP",
		"updated": "UCA*VORTAC*038.82/35.16",
	},
	{
		"name": "BECRA",
		"latitude": "44-38-46.75 N",
		"longitude": "68-14-14.6 W",
		"state": "MAINE",
		"artcc": "ZBW",
		"type": "RP",
		"updated": "BGR*VORTAC*132.09",
	},
	{
		"name": "BEDDS",
		"latitude": "42-28-46.91 N",
		"longitude": "71-23-20.24 W",
		"state": "MASSACHUSETTS",
		"artcc": "ZBW",
		"type": "RP",
		"updated": "12/16/2015",
	},
	{
		"name": "BEDOW",
		"latitude": "41-18-26.65 N",
		"longitude": "70-41-42.62 W",
		"state": "MASSACHUSETTS",
		"artcc": "ZBW",
		"type": "RP",
		"updated": "MVY*VOR/DME*230.00/6.50",
	},
	{
		"name": "BEDYA",
		"latitude": "40-39-0.46 N",
		"longitude": "72-38-44.82 W",
		"state": "NEW YORK",
		"artcc": "ZBW",
		"type": "RP",
		"updated": "HTO*VORTAC*236.04/22.02",
	},
	{
		"name": "BEEJE",
		"latitude": "42-19-24.62 N",
		"longitude": "70-53-12.93 W",
		"state": "MASSACHUSETTS",
		"artcc": "ZBW",
		"type": "RP",
		"updated": "BOS*VOR/DME*130.00/5.00",
	},
	{
		"name": "BEEKN",
		"latitude": "43-20-51.95 N",
		"longitude": "70-44-50.28 W",
		"state": "MAINE",
		"artcc": "ZBW",
		"type": "RNAV",
		"updated": "02/23/2017",
	},
	{
		"name": "BEENN",
		"latitude": "44-21-2.99 N",
		"longitude": "75-48-13.77 W",
		"state": "NEW YORK",
		"artcc": "ZBW",
		"type": "RNAV",
		"updated": "01/09/2017",
	},
	{
		"name": "BEENS",
		"latitude": "42-22-18.79 N",
		"longitude": "72-22-10.85 W",
		"state": "MASSACHUSETTS",
		"artcc": "ZBW",
		"type": "MR",
		"updated": "CEF*VORTAC*047.66/12.57",
	},
	{
		"name": "BEJCU",
		"latitude": "44-47-54.42 N",
		"longitude": "70-0-15.17 W",
		"state": "MAINE",
		"artcc": "ZBW",
		"type": "RNAV",
		"updated": "03/10/2015",
	},
	{
		"name": "BELCH",
		"latitude": "42-17-21.5 N",
		"longitude": "72-26-44.12 W",
		"state": "MASSACHUSETTS",
		"artcc": "ZBW",
		"type": "MR",
		"updated": "CEF*VORTAC*047.14/6.58",
	},
	{
		"name": "BELTT",
		"latitude": "41-3-48.61 N",
		"longitude": "72-59-13.52 W",
		"state": "NEW YORK",
		"artcc": "ZBW",
		"type": "RP",
		"updated": "DPK*VOR/DME*053.36/21.74",
	},
	{
		"name": "BENNN",
		"latitude": "42-10-46.29 N",
		"longitude": "70-45-28.54 W",
		"state": "MASSACHUSETTS",
		"artcc": "ZBW",
		"type": "RP",
		"updated": "LIP*LD*150.17/14.95",
	},
	{
		"name": "BENNT",
		"latitude": "41-14-13.13 N",
		"longitude": "70-40-9.23 W",
		"state": "MASSACHUSETTS",
		"artcc": "ZBW",
		"type": "RP",
		"updated": "MVY*VOR/DME*210.00/9.88",
	},
	{
		"name": "BEPAY",
		"latitude": "41-27-11.61 N",
		"longitude": "70-32-36.45 W",
		"state": "MASSACHUSETTS",
		"artcc": "ZBW",
		"type": "RP",
		"updated": "ACK*VOR/DME*308.93",
	},
	{
		"name": "BEREI",
		"latitude": "42-0-32.09 N",
		"longitude": "70-48-20.74 W",
		"state": "MASSACHUSETTS",
		"artcc": "ZBW",
		"type": "RNAV",
		"updated": "01/15/2013",
	},
	{
		"name": "BERTE",
		"latitude": "41-39-2.03 N",
		"longitude": "74-23-23.25 W",
		"state": "NEW YORK",
		"artcc": "ZBW",
		"type": "RP",
		"updated": "HUO*VOR/DME*043.12/17.06",
	},
	{
		"name": "BERVE",
		"latitude": "44-13-35.46 N",
		"longitude": "70-35-23.83 W",
		"state": "MAINE",
		"artcc": "ZBW",
		"type": "RNAV",
		"updated": "08/08/2012",
	},
	{
		"name": "BETEY",
		"latitude": "43-2-5 N",
		"longitude": "71-29-40.68 W",
		"state": "NEW HAMPSHIRE",
		"artcc": "ZBW",
		"type": "RP",
		"updated": "MHT*VOR/DME*/11.39",
	},
	{
		"name": "BETHA",
		"latitude": "41-11-8.77 N",
		"longitude": "72-48-41.98 W",
		"state": "CONNECTICUT",
		"artcc": "ZBW",
		"type": "RP",
		"updated": "CMK*VOR/DME*110.96/35.30",
	},
	{
		"name": "BETTE",
		"latitude": "40-33-33.26 N",
		"longitude": "73-0-42.2 W",
		"state": "NEW YORK",
		"artcc": "ZBW",
		"type": "RP",
		"updated": "JFK*VOR/DME*109.00/35.00",
	},
	{
		"name": "BEVDE",
		"latitude": "43-44-5.65 N",
		"longitude": "71-57-17.6 W",
		"state": "NEW HAMPSHIRE",
		"artcc": "ZBW",
		"type": "RNAV",
		"updated": "12/19/2016",
	},
	{
		"name": "BEVIN",
		"latitude": "41-38-38.9 N",
		"longitude": "71-20-22.74 W",
		"state": "RHODE ISLAND",
		"artcc": "ZBW",
		"type": "RP",
		"updated": "UNQ*LD*156.58/6.75",
	},
	{
		"name": "BEYDA",
		"latitude": "43-36-34 N",
		"longitude": "70-17-19.07 W",
		"state": "MAINE",
		"artcc": "ZBW",
		"type": "RNAV",
		"updated": "03/13/2012",
	},
	{
		"name": "BEYEL",
		"latitude": "41-38-45.43 N",
		"longitude": "71-27-26.49 W",
		"state": "RHODE ISLAND",
		"artcc": "ZBW",
		"type": "RP",
		"updated": "PVD*VOR/DME*208.85",
	},
	{
		"name": "BFINE",
		"latitude": "41-53-30.62 N",
		"longitude": "73-51-35.81 W",
		"state": "NEW YORK",
		"artcc": "ZBW",
		"type": "RNAV",
		"updated": "05/13/2015",
	},
	{
		"name": "BGDIG",
		"latitude": "42-17-38.44 N",
		"longitude": "70-56-2.11 W",
		"state": "MASSACHUSETTS",
		"artcc": "ZBW",
		"type": "RNAV",
		"updated": "11/13/2006",
	},
	{
		"name": "BIBBA",
		"latitude": "44-5-29.93 N",
		"longitude": "73-24-1.53 W",
		"state": "VERMONT",
		"artcc": "ZBW",
		"type": "RNAV",
		"updated": "01/13/2011",
	},
	{
		"name": "BICMU",
		"latitude": "46-53-27.81 N",
		"longitude": "67-59-53.84 W",
		"state": "MAINE",
		"artcc": "ZBW",
		"type": "RNAV",
		"updated": "05/19/2009",
	},
	{
		"name": "BIDDE",
		"latitude": "43-21-8.17 N",
		"longitude": "70-21-11.46 W",
		"state": "MAINE",
		"artcc": "ZBW",
		"type": "RNAV",
		"updated": "06/01/2012",
	},
	{
		"name": "BIGEE",
		"latitude": "42-5-55.68 N",
		"longitude": "72-37-10.85 W",
		"state": "MASSACHUSETTS",
		"artcc": "ZBW",
		"type": "MR",
		"updated": "BAF*VORTAC*145.28",
	},
	{
		"name": "BIGGA",
		"latitude": "40-57-44 N",
		"longitude": "72-0-26.43 W",
		"state": "NEW YORK",
		"artcc": "ZBW",
		"type": "RNAV",
		"updated": "03/06/2009",
	},
	{
		"name": "BIGGO",
		"latitude": "41-57-20.91 N",
		"longitude": "73-4-4.59 W",
		"state": "CONNECTICUT",
		"artcc": "ZBW",
		"type": "RP",
		"updated": "BAF*VORTAC*245.93/20.00",
	},
	{
		"name": "BIISN",
		"latitude": "44-35-22.99 N",
		"longitude": "71-11-0.99 W",
		"state": "NEW HAMPSHIRE",
		"artcc": "ZBW",
		"type": "RNAV",
		"updated": "11/20/2003",
	},
	{
		"name": "BILJE",
		"latitude": "42-5-49.1 N",
		"longitude": "70-55-52.98 W",
		"state": "MASSACHUSETTS",
		"artcc": "ZBW",
		"type": "RNAV",
		"updated": "06/01/2012",
	},
	{
		"name": "BILLS",
		"latitude": "43-37-36.66 N",
		"longitude": "71-52-25.29 W",
		"state": "NEW HAMPSHIRE",
		"artcc": "ZBW",
		"type": "RP",
		"updated": "LEB*VOR/DME*116.70/15.24",
	},
	{
		"name": "BINGS",
		"latitude": "42-0-33.26 N",
		"longitude": "73-30-1.81 W",
		"state": "NEW YORK",
		"artcc": "ZBW",
		"type": "RNAV",
		"updated": "02/23/2017",
	},
	{
		"name": "BIPNE",
		"latitude": "45-8-45.07 N",
		"longitude": "70-0-13.49 W",
		"state": "MAINE",
		"artcc": "ZBW",
		"type": "RNAV",
		"updated": "10/23/2008",
	},
	{
		"name": "BIRDS",
		"latitude": "41-56-44.36 N",
		"longitude": "71-44-15.69 W",
		"state": "RHODE ISLAND",
		"artcc": "ZBW",
		"type": "RP",
		"updated": "PUT*VOR/DME*111.00/4.80",
	},
	{
		"name": "BIROW",
		"latitude": "47-12-14.82 N",
		"longitude": "68-3-49.65 W",
		"state": "MAINE",
		"artcc": "ZBW",
		"type": "RNAV",
		"updated": "07/07/2010",
	},
	{
		"name": "BISCO",
		"latitude": "41-40-26.19 N",
		"longitude": "73-2-34.19 W",
		"state": "CONNECTICUT",
		"artcc": "ZBW",
		"type": "RNAV",
		"updated": "11/30/2015",
	},
	{
		"name": "BIVME",
		"latitude": "42-17-21.76 N",
		"longitude": "75-43-44.14 W",
		"state": "NEW YORK",
		"artcc": "ZBW",
		"type": "RNAV",
		"updated": "08/31/2015",
	},
	{
		"name": "BIZEX",
		"latitude": "41-17-2.86 N",
		"longitude": "73-34-50.2 W",
		"state": "NEW YORK",
		"artcc": "ZBW",
		"type": "RNAV",
		"updated": "02/23/2017",
	},
	{
		"name": "BJACK",
		"latitude": "40-40-8.77 N",
		"longitude": "72-55-58.06 W",
		"state": "NEW YORK",
		"artcc": "ZBW",
		"type": "RNAV",
		"updated": "04/18/2011",
	},
	{
		"name": "BLAND",
		"latitude": "40-32-26.33 N",
		"longitude": "73-24-39.1 W",
		"state": "NEW YORK",
		"artcc": "ZBW",
		"type": "RNAV",
		"updated": "02/26/2010",
	},
	{
		"name": "BLATT",
		"latitude": "41-49-37.1 N",
		"longitude": "72-0-54.94 W",
		"state": "CONNECTICUT",
		"artcc": "ZBW",
		"type": "RP",
		"updated": "PVD*VOR/DME*297.37/27.00",
	},
	{
		"name": "BLEBS",
		"latitude": "41-41-26.37 N",
		"longitude": "70-56-39.93 W",
		"state": "MASSACHUSETTS",
		"artcc": "ZBW",
		"type": "RP",
		"updated": "EWB*LD*054.45/0.51",
	},
	{
		"name": "BLENO",
		"latitude": "42-54-55 N",
		"longitude": "71-4-43.37 W",
		"state": "NEW HAMPSHIRE",
		"artcc": "ZBW",
		"type": "WP",
		"updated": "MHT*VOR/DME*092.57/13.10",
	},
	{
		"name": "BLINZ",
		"latitude": "40-54-23.21 N",
		"longitude": "73-32-59.94 W",
		"state": "NEW YORK",
		"artcc": "ZBW",
		"type": "RNAV",
		"updated": "02/26/2010",
	},
	{
		"name": "BLNAP",
		"latitude": "43-32-13.46 N",
		"longitude": "71-32-14.19 W",
		"state": "NEW HAMPSHIRE",
		"artcc": "ZBW",
		"type": "RP",
		"updated": "LCI*LD*SW CRS/6.26",
	},
	{
		"name": "BLOKK",
		"latitude": "41-10-33.81 N",
		"longitude": "71-28-50.36 W",
		"state": "RHODE ISLAND",
		"artcc": "ZBW",
		"type": "RNAV",
		"updated": "03/27/2007",
	},
	{
		"name": "BLSSM",
		"latitude": "43-4-50.93 N",
		"longitude": "71-33-58.71 W",
		"state": "NEW HAMPSHIRE",
		"artcc": "ZBW",
		"type": "RNAV",
		"updated": "12/03/2014",
	},
	{
		"name": "BLUUM",
		"latitude": "43-3-2.76 N",
		"longitude": "71-30-14.91 W",
		"state": "NEW HAMPSHIRE",
		"artcc": "ZBW",
		"type": "RP",
		"updated": "MNA*LD*351.52/6.89",
	},
	{
		"name": "BLZZR",
		"latitude": "42-13-2.39 N",
		"longitude": "71-45-36.59 W",
		"state": "MASSACHUSETTS",
		"artcc": "ZBW",
		"type": "RP",
		"updated": "BOS*VOR/DME*272.50/35.33",
	},
	{
		"name": "BNTOW",
		"latitude": "40-29-3.76 N",
		"longitude": "72-41-31.1 W",
		"state": "OFFSHORE ATLANTIC",
		"artcc": "ZBW",
		"type": "RNAV",
		"updated": "05/11/2012",
	},
	{
		"name": "BOATE",
		"latitude": "41-23-3.45 N",
		"longitude": "68-3-57.85 W",
		"state": "MASSACHUSETTS",
		"artcc": "ZBW",
		"type": "WP",
		"updated": "05/01/1996",
	},
	{
		"name": "BOATT",
		"latitude": "42-20-31.61 N",
		"longitude": "70-45-13.67 W",
		"state": "MASSACHUSETTS",
		"artcc": "ZBW",
		"type": "RNAV",
		"updated": "01/15/2013",
	},
	{
		"name": "BOATZ",
		"latitude": "42-9-4.68 N",
		"longitude": "70-33-35.33 W",
		"state": "MASSACHUSETTS",
		"artcc": "ZBW",
		"type": "RNAV",
		"updated": "10/16/2006",
	},
	{
		"name": "BOBHO",
		"latitude": "41-54-59.72 N",
		"longitude": "72-11-9.88 W",
		"state": "CONNECTICUT",
		"artcc": "ZBW",
		"type": "RNAV",
		"updated": "01/21/2010",
	},
	{
		"name": "BOBYA",
		"latitude": "42-25-14.76 N",
		"longitude": "72-37-44.76 W",
		"state": "MASSACHUSETTS",
		"artcc": "ZBW",
		"type": "RP",
		"updated": "BAF*VORTAC*028.00/16.00",
	},
	{
		"name": "BOCKS",
		"latitude": "42-48-15.74 N",
		"longitude": "76-20-30.55 W",
		"state": "NEW YORK",
		"artcc": "ZNY",
		"type": "RP",
		"updated": "GGT*VORTAC*283.50/22.77",
	},
	{
		"name": "BODRE",
		"latitude": "41-13-46.68 N",
		"longitude": "73-49-53.31 W",
		"state": "NEW YORK",
		"artcc": "ZBW",
		"type": "RNAV",
		"updated": "08/17/2010",
	},
	{
		"name": "BOGEY",
		"latitude": "41-43-6.37 N",
		"longitude": "70-11-51.6 W",
		"state": "MASSACHUSETTS",
		"artcc": "ZBW",
		"type": "RP",
		"updated": "MVY*VOR/DME*058.92/26.89",
	},
	{
		"name": "BOGRT",
		"latitude": "42-13-56.08 N",
		"longitude": "71-31-7.37 W",
		"state": "MASSACHUSETTS",
		"artcc": "ZBW",
		"type": "RNAV",
		"updated": "02/23/2017",
	},
	{
		"name": "BOLTZ",
		"latitude": "43-4-38.66 N",
		"longitude": "75-11-12.67 W",
		"state": "NEW YORK",
		"artcc": "ZBW",
		"type": "RP",
		"updated": "UCA*VORTAC*354.17",
	},
	{
		"name": "BOMDE",
		"latitude": "41-43-56.13 N",
		"longitude": "70-26-29.21 W",
		"state": "MASSACHUSETTS",
		"artcc": "ZBW",
		"type": "RP",
		"updated": "FMH*LD*053.94/6.50",
	},
	{
		"name": "BOMLY",
		"latitude": "41-2-25.22 N",
		"longitude": "70-8-34.9 W",
		"state": "MASSACHUSETTS",
		"artcc": "ZBW",
		"type": "RNAV",
		"updated": "08/08/2016",
	},
	{
		"name": "BONNI",
		"latitude": "41-32-7.22 N",
		"longitude": "71-6-30.45 W",
		"state": "MASSACHUSETTS",
		"artcc": "ZBW",
		"type": "RP",
		"updated": "SEY*VOR/DME*058.61/30.55",
	},
	{
		"name": "BONSS",
		"latitude": "43-19-17.95 N",
		"longitude": "75-30-50.66 W",
		"state": "NEW YORK",
		"artcc": "ZBW",
		"type": "RP",
		"updated": "UCA*VORTAC*331.20/23.43",
	},
	{
		"name": "BOOGY",
		"latitude": "44-28-14.87 N",
		"longitude": "69-6-49.54 W",
		"state": "MAINE",
		"artcc": "ZBW",
		"type": "RP",
		"updated": "BST*NDB*327.00",
	},
	{
		"name": "BOPPS",
		"latitude": "41-9-18.64 N",
		"longitude": "73-17-56.31 W",
		"state": "CONNECTICUT",
		"artcc": "ZBW",
		"type": "WP",
		"updated": "CMK*VOR/DME*132.30/14.80",
	},
	{
		"name": "BOROS",
		"latitude": "41-9-24.45 N",
		"longitude": "72-9-50.96 W",
		"state": "NEW YORK",
		"artcc": "ZBW",
		"type": "RP",
		"updated": "SEY*VOR/DME*283.82/26.66",
	},
	{
		"name": "BORQE",
		"latitude": "40-59-31.75 N",
		"longitude": "69-36-7.76 W",
		"state": "OFFSHORE ATLANTIC",
		"artcc": "ZBW",
		"type": "RNAV",
		"updated": "02/28/2017",
	},
	{
		"name": "BOSOX",
		"latitude": "42-12-6.79 N",
		"longitude": "71-37-39.64 W",
		"state": "MASSACHUSETTS",
		"artcc": "ZBW",
		"type": "RP",
		"updated": "BOS*VOR/DME*268.04/29.91",
	},
	{
		"name": "BOVER",
		"latitude": "43-11-45.47 N",
		"longitude": "70-53-10.46 W",
		"state": "NEW HAMPSHIRE",
		"artcc": "ZBW",
		"type": "RP",
		"updated": "PSM*VOR/DME*356.41/7.10",
	},
	{
		"name": "BOWAN",
		"latitude": "42-6-23.14 N",
		"longitude": "73-31-28.95 W",
		"state": "NEW YORK",
		"artcc": "ZBW",
		"type": "RP",
		"updated": "CAM*VOR/DME*202.62/53.85",
	},
	{
		"name": "BOWLE",
		"latitude": "41-36-39.95 N",
		"longitude": "70-13-12.53 W",
		"state": "MASSACHUSETTS",
		"artcc": "ZBW",
		"type": "RNAV",
		"updated": "04/08/2009",
	},
	{
		"name": "BOXRS",
		"latitude": "42-6-16.24 N",
		"longitude": "71-4-17.45 W",
		"state": "MASSACHUSETTS",
		"artcc": "ZBW",
		"type": "RNAV",
		"updated": "04/04/2016",
	},
	{
		"name": "BOYCC",
		"latitude": "42-56-21.02 N",
		"longitude": "69-19-59.04 W",
		"state": "MAINE",
		"artcc": "ZBW",
		"type": "RP",
		"updated": "BOS*VOR/DME*080.00/81.22",
	},
	{
		"name": "BRADD",
		"latitude": "43-9-0 N",
		"longitude": "67-0-0 W",
		"state": "OFFSHORE ATLANTIC",
		"artcc": "ZBW",
		"type": "RNAV",
		"updated": "08/27/2015",
	},
	{
		"name": "BRADI",
		"latitude": "45-9-2.57 N",
		"longitude": "69-16-4.46 W",
		"state": "MAINE",
		"artcc": "ZBW",
		"type": "MR",
		"updated": "BGR*VORTAC*337.00/25.00",
	},
	{
		"name": "BRAGA",
		"latitude": "41-37-0.92 N",
		"longitude": "71-6-50.33 W",
		"state": "MASSACHUSETTS",
		"artcc": "ZBW",
		"type": "RNAV",
		"updated": "11/05/2015",
	},
	{
		"name": "BRATS",
		"latitude": "42-57-19.89 N",
		"longitude": "72-40-27.73 W",
		"state": "VERMONT",
		"artcc": "ZBW",
		"type": "RP",
		"updated": "CTR*VOR/DME*029.91",
	},
	{
		"name": "BRAZE",
		"latitude": "43-12-56.59 N",
		"longitude": "70-10-20.18 W",
		"state": "MAINE",
		"artcc": "ZBW",
		"type": "MR",
		"updated": "PSM*VOR/DME*090.00/30.00",
	},
	{
		"name": "BREEN",
		"latitude": "42-0-41.84 N",
		"longitude": "72-47-17.54 W",
		"state": "MASSACHUSETTS",
		"artcc": "ZBW",
		"type": "RNAV",
		"updated": "02/22/2018",
	},
	{
		"name": "BRGIT",
		"latitude": "42-33-25.12 N",
		"longitude": "70-41-52.3 W",
		"state": "MASSACHUSETTS",
		"artcc": "ZBW",
		"type": "RNAV",
		"updated": "09/27/2014",
	},
	{
		"name": "BRIGG",
		"latitude": "41-48-54 N",
		"longitude": "71-19-53.22 W",
		"state": "RHODE ISLAND",
		"artcc": "ZBW",
		"type": "RP",
		"updated": "PVD*VOR/DME*053.00/7.00",
	},
	{
		"name": "BRISS",
		"latitude": "41-42-9.36 N",
		"longitude": "73-1-0.15 W",
		"state": "CONNECTICUT",
		"artcc": "ZBW",
		"type": "RP",
		"updated": "CMK*VOR/DME*056.95/35.92",
	},
	{
		"name": "BRLTN",
		"latitude": "44-23-49.58 N",
		"longitude": "73-10-57.45 W",
		"state": "VERMONT",
		"artcc": "ZBW",
		"type": "WP",
		"updated": "11/02/1998",
	},
	{
		"name": "BRNNS",
		"latitude": "43-54-8.64 N",
		"longitude": "69-56-42.81 W",
		"state": "MAINE",
		"artcc": "ZBW",
		"type": "RP",
		"updated": "ENE*VOR/DME*062.27/40.81",
	},
	{
		"name": "BRNTY",
		"latitude": "42-41-2.9 N",
		"longitude": "73-41-52.66 W",
		"state": "NEW YORK",
		"artcc": "ZBW",
		"type": "RNAV",
		"updated": "06/27/2011",
	},
	{
		"name": "BRODI",
		"latitude": "42-23-12.97 N",
		"longitude": "70-55-18.28 W",
		"state": "MASSACHUSETTS",
		"artcc": "ZBW",
		"type": "RNAV",
		"updated": "09/27/2014",
	},
	{
		"name": "BRONC",
		"latitude": "42-30-53.93 N",
		"longitude": "71-43-21.61 W",
		"state": "MASSACHUSETTS",
		"artcc": "ZBW",
		"type": "RP",
		"updated": "MHT*VOR/DME*231.50/26.34",
	},
	{
		"name": "BROOD",
		"latitude": "42-46-6.76 N",
		"longitude": "75-19-35.1 W",
		"state": "NEW YORK",
		"artcc": "ZBW",
		"type": "RP",
		"updated": "RKA*VOR/DME*359.00",
	},
	{
		"name": "BRRET",
		"latitude": "41-21-50.64 N",
		"longitude": "72-0-47.2 W",
		"state": "CONNECTICUT",
		"artcc": "ZBW",
		"type": "RNAV",
		"updated": "07/02/2009",
	},
	{
		"name": "BRRRO",
		"latitude": "42-20-0.78 N",
		"longitude": "70-48-5.48 W",
		"state": "MASSACHUSETTS",
		"artcc": "ZBW",
		"type": "RNAV",
		"updated": "01/15/2013",
	},
	{
		"name": "BRUCE",
		"latitude": "41-30-24.43 N",
		"longitude": "71-23-24.92 W",
		"state": "RHODE ISLAND",
		"artcc": "ZBW",
		"type": "RP",
		"updated": "PVD*VOR/DME*186.25/13.17",
	},
	{
		"name": "BRUIN",
		"latitude": "43-39-59.04 N",
		"longitude": "76-6-55.97 W",
		"state": "NEW YORK",
		"artcc": "ZBW",
		"type": "RP",
		"updated": "UCA*VORTAC*325.00",
	},
	{
		"name": "BRUWN",
		"latitude": "41-36-9.68 N",
		"longitude": "70-13-45.81 W",
		"state": "MASSACHUSETTS",
		"artcc": "ZBW",
		"type": "RP",
		"updated": "BOS*VOR/DME*158.82/56.62",
	},
	{
		"name": "BRYCE",
		"latitude": "42-2-16.64 N",
		"longitude": "72-44-42.37 W",
		"state": "MASSACHUSETTS",
		"artcc": "ZBW",
		"type": "RNAV",
		"updated": "02/22/2018",
	},
	{
		"name": "BUBRE",
		"latitude": "43-58-44.77 N",
		"longitude": "68-52-9.47 W",
		"state": "MAINE",
		"artcc": "ZBW",
		"type": "RNAV",
		"updated": "06/21/2010",
	},
	{
		"name": "BUCKI",
		"latitude": "43-34-26.94 N",
		"longitude": "73-35-1.62 W",
		"state": "NEW YORK",
		"artcc": "ZBW",
		"type": "RP",
		"updated": "GFL*VORTAC*019.00/14.00",
	},
	{
		"name": "BUCYK",
		"latitude": "42-17-36.11 N",
		"longitude": "70-41-1.52 W",
		"state": "MASSACHUSETTS",
		"artcc": "ZBW",
		"type": "RNAV",
		"updated": "01/15/2013",
	},
	{
		"name": "BUDAC",
		"latitude": "42-45-54.01 N",
		"longitude": "72-0-41.75 W",
		"state": "NEW HAMPSHIRE",
		"artcc": "ZBW",
		"type": "RNAV",
		"updated": "04/17/2014",
	},
	{
		"name": "BUDDI",
		"latitude": "44-39-13.13 N",
		"longitude": "68-37-7.74 W",
		"state": "MAINE",
		"artcc": "ZBW",
		"type": "RP",
		"updated": "BGR*VORTAC*154.89/15.70",
	},
	{
		"name": "BUDLY",
		"latitude": "41-35-0.2 N",
		"longitude": "70-36-6.55 W",
		"state": "MASSACHUSETTS",
		"artcc": "ZBW",
		"type": "RNAV",
		"updated": "06/04/2014",
	},
	{
		"name": "BUGSY",
		"latitude": "44-43-21.55 N",
		"longitude": "74-8-29.08 W",
		"state": "NEW YORK",
		"artcc": "ZBW",
		"type": "RP",
		"updated": "BTV*VOR/DME*310.74/45.53",
	},
	{
		"name": "BUKER",
		"latitude": "44-26-36.12 N",
		"longitude": "71-5-41.29 W",
		"state": "NEW HAMPSHIRE",
		"artcc": "ZBW",
		"type": "RP",
		"updated": "BML*VOR/DME*178.00/12.06",
	},
	{
		"name": "BUKKA",
		"latitude": "43-16-8.16 N",
		"longitude": "70-36-48.7 W",
		"state": "MAINE",
		"artcc": "ZBW",
		"type": "RNAV",
		"updated": "11/09/2009",
	},
	{
		"name": "BUKRE",
		"latitude": "44-5-16.67 N",
		"longitude": "70-22-20.86 W",
		"state": "MAINE",
		"artcc": "ZBW",
		"type": "RNAV",
		"updated": "08/08/2012",
	},
	{
		"name": "BUMPS",
		"latitude": "42-43-6.83 N",
		"longitude": "74-1-7.05 W",
		"state": "NEW YORK",
		"artcc": "ZBW",
		"type": "RP",
		"updated": "HEU*NDB*218.85",
	},
	{
		"name": "BUNRE",
		"latitude": "41-34-45.54 N",
		"longitude": "74-2-47.23 W",
		"state": "NEW YORK",
		"artcc": "ZBW",
		"type": "RNAV",
		"updated": "02/03/2010",
	},
	{
		"name": "BUOYY",
		"latitude": "42-26-5.44 N",
		"longitude": "70-46-24.66 W",
		"state": "MASSACHUSETTS",
		"artcc": "ZBW",
		"type": "RNAV",
		"updated": "01/15/2013",
	},
	{
		"name": "BURAC",
		"latitude": "44-35-31.7 N",
		"longitude": "71-32-16.93 W",
		"state": "NEW HAMPSHIRE",
		"artcc": "ZBW",
		"type": "RNAV",
		"updated": "01/12/2011",
	},
	{
		"name": "BURDY",
		"latitude": "41-57-19.14 N",
		"longitude": "70-57-7.45 W",
		"state": "MASSACHUSETTS",
		"artcc": "ZBW",
		"type": "RP",
		"updated": "BOS*VOR/DME*192.02",
	},
	{
		"name": "BURGR",
		"latitude": "43-43-59.25 N",
		"longitude": "72-19-50.5 W",
		"state": "VERMONT",
		"artcc": "ZBW",
		"type": "RP",
		"updated": "LEB*VOR/DME*318.17",
	},
	{
		"name": "BURLL",
		"latitude": "41-35-58.19 N",
		"longitude": "74-33-34.92 W",
		"state": "NEW YORK",
		"artcc": "ZBW",
		"type": "WP",
		"updated": "11/02/1998",
	},
	{
		"name": "BURRK",
		"latitude": "41-58-38.16 N",
		"longitude": "70-39-20.37 W",
		"state": "MASSACHUSETTS",
		"artcc": "ZBW",
		"type": "RNAV",
		"updated": "06/29/2011",
	},
	{
		"name": "BUSEL",
		"latitude": "42-38-18.98 N",
		"longitude": "72-22-21.71 W",
		"state": "MASSACHUSETTS",
		"artcc": "ZBW",
		"type": "RP",
		"updated": "GDM*VOR/DME*305.84",
	},
	{
		"name": "BUTOX",
		"latitude": "44-17-56.13 N",
		"longitude": "73-3-2.53 W",
		"state": "VERMONT",
		"artcc": "ZBW",
		"type": "WP",
		"updated": "10/24/1990",
	},
	{
		"name": "BUVKE",
		"latitude": "41-45-24.41 N",
		"longitude": "70-53-56.47 W",
		"state": "MASSACHUSETTS",
		"artcc": "ZBW",
		"type": "RP",
		"updated": "PVD*VOR/DME*099.16",
	},
	{
		"name": "BUXTO",
		"latitude": "43-39-35.72 N",
		"longitude": "70-32-15.97 W",
		"state": "MAINE",
		"artcc": "ZBW",
		"type": "RP",
		"updated": "ENE*VOR/DME*030.21/14.44",
	},
	{
		"name": "BUYLA",
		"latitude": "41-41-21.33 N",
		"longitude": "70-29-16.33 W",
		"state": "MASSACHUSETTS",
		"artcc": "ZBW",
		"type": "RP",
		"updated": "FMH*LD*053.94/3.19",
	},
	{
		"name": "BUZOR",
		"latitude": "44-8-56.08 N",
		"longitude": "68-31-53.1 W",
		"state": "MAINE",
		"artcc": "ZBW",
		"type": "RNAV",
		"updated": "10/01/2009",
	},
	{
		"name": "BUZRD",
		"latitude": "41-32-45.88 N",
		"longitude": "70-57-50.69 W",
		"state": "MASSACHUSETTS",
		"artcc": "ZBW",
		"type": "RNAV",
		"updated": "03/10/2015",
	},
