[
	{
		"name": "CAAHL",
		"latitude": "42-23-44.3 N",
		"longitude": "72-54-52.68 W",
		"state": "MASSACHUSETTS",
		"artcc": "ZBW",
		"type": "RNAV",
		"updated": "03/30/2009"
	},
	{
		"name": "CABAG",
		"latitude": "41-52-26.75 N",
		"longitude": "72-51-17.05 W",
		"state": "CONNECTICUT",
		"artcc": "ZBW",
		"type": "RNAV",
		"updated": "02/22/2018"
	},
	{
		"name": "CABAK",
		"latitude": "42-43-11.52 N",
		"longitude": "73-58-16.78 W",
		"state": "NEW YORK",
		"artcc": "ZBW",
		"type": "RNAV",
		"updated": "04/10/2002"
	},
	{
		"name": "CABCI",
		"latitude": "44-49-19.94 N",
		"longitude": "71-42-55.14 W",
		"state": "VERMONT",
		"artcc": "ZBW",
		"type": "RNAV",
		"updated": "09/22/2014"
	},
	{
		"name": "CABEB",
		"latitude": "44-8-59.08 N",
		"longitude": "70-21-4.34 W",
		"state": "MAINE",
		"artcc": "ZBW",
		"type": "RNAV",
		"updated": "05/23/2007"
	},
	{
		"name": "CABTO",
		"latitude": "42-21-31.23 N",
		"longitude": "73-41-27.81 W",
		"state": "NEW YORK",
		"artcc": "ZBW",
		"type": "RNAV",
		"updated": "04/10/2002"
	},
	{
		"name": "CABUL",
		"latitude": "46-34-48.84 N",
		"longitude": "68-1-27.9 W",
		"state": "MAINE",
		"artcc": "ZBW",
		"type": "MR",
		"updated": "PQI*VOR/DME*187.00/12.00"
	},
	{
		"name": "CACVA",
		"latitude": "42-23-48.16 N",
		"longitude": "71-21-53.93 W",
		"state": "MASSACHUSETTS",
		"artcc": "ZBW",
		"type": "RNAV",
		"updated": "04/12/2006"
	},
	{
		"name": "CADAS",
		"latitude": "42-20-5.37 N",
		"longitude": "71-4-3.57 W",
		"state": "MASSACHUSETTS",
		"artcc": "ZBW",
		"type": "RNAV",
		"updated": "11/14/2013"
	},
	{
		"name": "CADEG",
		"latitude": "43-17-56.01 N",
		"longitude": "71-49-20.67 W",
		"state": "NEW HAMPSHIRE",
		"artcc": "ZBW",
		"type": "RNAV",
		"updated": "12/19/2016"
	},
	{
		"name": "CADEL",
		"latitude": "45-33-53.8 N",
		"longitude": "69-41-31.62 W",
		"state": "MAINE",
		"artcc": "ZBW",
		"type": "RNAV",
		"updated": "01/26/2009"
	},
	{
		"name": "CAGOL",
		"latitude": "44-24-20.47 N",
		"longitude": "68-51-30.25 W",
		"state": "MAINE",
		"artcc": "ZBW",
		"type": "RNAV",
		"updated": "06/20/2010"
	},
	{
		"name": "CAGRI",
		"latitude": "42-5-29.83 N",
		"longitude": "72-38-42.22 W",
		"state": "MASSACHUSETTS",
		"artcc": "ZBW",
		"type": "RNAV",
		"updated": "05/05/2016"
	},
	{
		"name": "CAGUG",
		"latitude": "43-14-24.59 N",
		"longitude": "73-36-18.36 W",
		"state": "NEW YORK",
		"artcc": "ZBW",
		"type": "RNAV",
		"updated": "11/01/2016"
	},
	{
		"name": "CAHOW",
		"latitude": "42-40-57.2 N",
		"longitude": "72-17-11.48 W",
		"state": "MASSACHUSETTS",
		"artcc": "ZBW",
		"type": "RP",
		"updated": "GDM*VOR/DME*323.08"
	},
	{
		"name": "CAHSO",
		"latitude": "43-3-39.99 N",
		"longitude": "75-59-49.05 W",
		"state": "NEW YORK",
		"artcc": "ZBW",
		"type": "RP",
		"updated": "SYR*VORTAC*134.10/10.90"
	},
	{
		"name": "CAKOL",
		"latitude": "45-41-13.79 N",
		"longitude": "70-7-15.29 W",
		"state": "MAINE",
		"artcc": "ZBW",
		"type": "RNAV",
		"updated": "04/06/2009"
	},
	{
		"name": "CALFF",
		"latitude": "40-58-10.94 N",
		"longitude": "73-37-1.06 W",
		"state": "NEW YORK",
		"artcc": "ZBW",
		"type": "RNAV",
		"updated": "09/26/2007"
	},
	{
		"name": "CALUG",
		"latitude": "43-4-34.28 N",
		"longitude": "76-39-15.19 W",
		"state": "NEW YORK",
		"artcc": "ZBW",
		"type": "RNAV",
		"updated": "07/22/2002"
	},
	{
		"name": "CAMPO",
		"latitude": "45-26-49.95 N",
		"longitude": "70-20-54.73 W",
		"state": "MAINE",
		"artcc": "ZBW",
		"type": "RP",
		"updated": "MLT*VOR/DME*284.48"
	},
	{
		"name": "CAMPU",
		"latitude": "41-41-54.02 N",
		"longitude": "72-24-0.63 W",
		"state": "CONNECTICUT",
		"artcc": "ZBW",
		"type": "RP",
		"updated": "HFD*VOR/DME*075.55/7.46"
	},
	{
		"name": "CAMTN",
		"latitude": "43-53-2 N",
		"longitude": "71-39-21 W",
		"state": "NEW HAMPSHIRE",
		"artcc": "ZBW",
		"type": "RNAV",
		"updated": "05/15/2008"
	},
	{
		"name": "CAMVA",
		"latitude": "43-5-6.82 N",
		"longitude": "76-25-26.19 W",
		"state": "NEW YORK",
		"artcc": "ZBW",
		"type": "RNAV",
		"updated": "07/22/2002"
	},
	{
		"name": "CAMVU",
		"latitude": "43-37-24.83 N",
		"longitude": "70-6-2.95 W",
		"state": "MAINE",
		"artcc": "ZBW",
		"type": "RNAV",
		"updated": "09/29/2009"
	},
	{
		"name": "CAMWI",
		"latitude": "42-30-41.97 N",
		"longitude": "71-9-9.58 W",
		"state": "MASSACHUSETTS",
		"artcc": "ZBW",
		"type": "RNAV",
		"updated": "01/15/2013"
	},
	{
		"name": "CANAL",
		"latitude": "42-40-8.51 N",
		"longitude": "70-1-21.76 W",
		"state": "MASSACHUSETTS",
		"artcc": "ZBW",
		"type": "RP",
		"updated": "BOS*VOR/DME*082.14/46.80"
	},
	{
		"name": "CANAN",
		"latitude": "42-29-34.22 N",
		"longitude": "73-26-48.07 W",
		"state": "NEW YORK",
		"artcc": "ZBW",
		"type": "RP",
		"updated": "RKA*VOR/DME*099.25/79.60"
	},
	{
		"name": "CANME",
		"latitude": "45-29-16.29 N",
		"longitude": "67-37-16.8 W",
		"state": "MAINE",
		"artcc": "ZBW",
		"type": "RNAV",
		"updated": "09/18/2014"
	},
	{
		"name": "CANTY",
		"latitude": "41-29-29.04 N",
		"longitude": "74-6-15.74 W",
		"state": "NEW YORK",
		"artcc": "ZBW",
		"type": "RP",
		"updated": "HUO*VOR/DME*088.27"
	},
	{
		"name": "CAPAS",
		"latitude": "43-28-15.11 N",
		"longitude": "76-13-24.39 W",
		"state": "NEW YORK",
		"artcc": "ZBW",
		"type": "WP",
		"updated": "11/02/1998"
	},
	{
		"name": "CAPDA",
		"latitude": "45-9-43.05 N",
		"longitude": "69-23-17.94 W",
		"state": "MAINE",
		"artcc": "ZBW",
		"type": "RNAV",
		"updated": "08/06/2007"
	},
	{
		"name": "CAPNU",
		"latitude": "44-26-51.73 N",
		"longitude": "73-21-1.76 W",
		"state": "NEW YORK",
		"artcc": "ZBW",
		"type": "RP",
		"updated": "BTV*VOR/DME*307.87/7.83"
	},
	{
		"name": "CARAY",
		"latitude": "43-6-28.71 N",
		"longitude": "70-50-52.2 W",
		"state": "NEW HAMPSHIRE",
		"artcc": "ZBW",
		"type": "RP",
		"updated": "PSM*VOR/DME*/1.57"
	},
	{
		"name": "CARDA",
		"latitude": "44-40-51.93 N",
		"longitude": "68-20-36.6 W",
		"state": "MAINE",
		"artcc": "ZBW",
		"type": "RNAV",
		"updated": "12/27/2010"
	},
	{
		"name": "CARLD",
		"latitude": "41-22-8.4 N",
		"longitude": "72-32-10.1 W",
		"state": "CONNECTICUT",
		"artcc": "ZBW",
		"type": "RP",
		"updated": "MAD*VOR/DME*077.82/7.79"
	},
	{
		"name": "CARMR",
		"latitude": "43-47-55.32 N",
		"longitude": "69-55-32.94 W",
		"state": "MAINE",
		"artcc": "ZBW",
		"type": "RP",
		"updated": "BXM*LD*191.84/6.52"
	},
	{
		"name": "CARVO",
		"latitude": "43-30-59.16 N",
		"longitude": "72-56-57.13 W",
		"state": "VERMONT",
		"artcc": "ZBW",
		"type": "RNAV",
		"updated": "12/30/2016"
	},
	{
		"name": "CASIL",
		"latitude": "42-44-40.66 N",
		"longitude": "74-34-54.4 W",
		"state": "NEW YORK",
		"artcc": "ZBW",
		"type": "RP",
		"updated": "DNY*VOR/DME*037.00"
	},
	{
		"name": "CASIX",
		"latitude": "42-20-0.95 N",
		"longitude": "71-6-57.8 W",
		"state": "MASSACHUSETTS",
		"artcc": "ZBW",
		"type": "RNAV",
		"updated": "11/14/2013"
	},
	{
		"name": "CASLE",
		"latitude": "40-54-21.39 N",
		"longitude": "73-43-12.31 W",
		"state": "NEW YORK",
		"artcc": "ZBW",
		"type": "RP",
		"updated": "DPK*VOR/DME*301.99"
	},
	{
		"name": "CASSH",
		"latitude": "41-35-38.16 N",
		"longitude": "73-42-17.07 W",
		"state": "NEW YORK",
		"artcc": "ZBW",
		"type": "RP",
		"updated": "CMK*VOR/DME*355.56/19.63"
	},
	{
		"name": "CATIE",
		"latitude": "41-20-44.15 N",
		"longitude": "71-48-38.12 W",
		"state": "RHODE ISLAND",
		"artcc": "ZBW",
		"type": "RP",
		"updated": "12/22/1994"
	},
	{
		"name": "CATIK",
		"latitude": "44-3-28.82 N",
		"longitude": "72-26-54.6 W",
		"state": "VERMONT",
		"artcc": "ZBW",
		"type": "RNAV",
		"updated": "01/15/2013"
	},
	{
		"name": "CATIR",
		"latitude": "43-16-3 N",
		"longitude": "73-20-54.48 W",
		"state": "NEW YORK",
		"artcc": "ZBW",
		"type": "RNAV",
		"updated": "01/07/2003"
	},
	{
		"name": "CAVDO",
		"latitude": "42-3-31.08 N",
		"longitude": "71-12-27.97 W",
		"state": "MASSACHUSETTS",
		"artcc": "ZBW",
		"type": "RNAV",
		"updated": "04/06/2017"
	},
	{
		"name": "CAVIL",
		"latitude": "45-0-3.45 N",
		"longitude": "68-36-9.54 W",
		"state": "MAINE",
		"artcc": "ZBW",
		"type": "RP",
		"updated": "BGR*VORTAC*069.36/15.00"
	},
	{
		"name": "CAWKE",
		"latitude": "41-47-5.14 N",
		"longitude": "80-39-1.73 W",
		"state": "OHIO",
		"artcc": "ZBW",
		"type": "RNAV",
		"updated": "07/19/2017"
	},
	{
		"name": "CAXIX",
		"latitude": "44-56-10.24 N",
		"longitude": "67-3-44.18 W",
		"state": "MAINE",
		"artcc": "ZBW",
		"type": "RNAV",
		"updated": "06/19/2017"
	},
	{
		"name": "CAXON",
		"latitude": "44-7-41.01 N",
		"longitude": "76-21-41.55 W",
		"state": "NEW YORK",
		"artcc": "ZBW",
		"type": "RNAV",
		"updated": "05/23/2011"
	},
	{
		"name": "CAYOS",
		"latitude": "44-58-58.25 N",
		"longitude": "68-7-8.84 W",
		"state": "MAINE",
		"artcc": "ZBW",
		"type": "RP",
		"updated": "MLT*VOR/DME*175.00/40.00"
	},
	{
		"name": "CBEAR",
		"latitude": "42-15-19.94 N",
		"longitude": "71-9-36.29 W",
		"state": "MASSACHUSETTS",
		"artcc": "ZBW",
		"type": "RNAV",
		"updated": "01/15/2013"
	},
	{
		"name": "CDIHE",
		"latitude": "42-0-0 N",
		"longitude": "68-39-30 W",
		"state": "OFFSHORE ATLANTIC",
		"artcc": "ZBW",
		"type": "MW",
		"updated": "12/19/2011"
	},
	{
		"name": "CDLAC",
		"latitude": "44-32-57.98 N",
		"longitude": "68-17-58.85 W",
		"state": "MAINE",
		"artcc": "ZBW",
		"type": "RP",
		"updated": "BGR*VORTAC*144.31"
	},
	{
		"name": "CDOGG",
		"latitude": "43-27-50.74 N",
		"longitude": "71-8-27.8 W",
		"state": "NEW HAMPSHIRE",
		"artcc": "ZBW",
		"type": "RNAV",
		"updated": "09/30/2015"
	},
	{
		"name": "CEBDI",
		"latitude": "45-6-34.86 N",
		"longitude": "70-11-41.2 W",
		"state": "MAINE",
		"artcc": "ZBW",
		"type": "RNAV",
		"updated": "10/23/2008"
	},
	{
		"name": "CEDAP",
		"latitude": "43-57-47.12 N",
		"longitude": "68-56-5.65 W",
		"state": "MAINE",
		"artcc": "ZBW",
		"type": "RNAV",
		"updated": "06/21/2010"
	},
	{
		"name": "CEDOR",
		"latitude": "42-44-46.16 N",
		"longitude": "74-18-30.14 W",
		"state": "NEW YORK",
		"artcc": "ZBW",
		"type": "RP",
		"updated": "DNY*VOR/DME*051.00/44.61"
	},
	{
		"name": "CEDSA",
		"latitude": "43-6-8.85 N",
		"longitude": "76-17-46.43 W",
		"state": "NEW YORK",
		"artcc": "ZBW",
		"type": "RNAV",
		"updated": "05/02/2013"
	},
	{
		"name": "CEDUX",
		"latitude": "44-20-51.63 N",
		"longitude": "71-59-28.36 W",
		"state": "VERMONT",
		"artcc": "ZBW",
		"type": "RNAV",
		"updated": "10/18/2010"
	},
	{
		"name": "CEGSO",
		"latitude": "41-38-47.35 N",
		"longitude": "70-41-0.8 W",
		"state": "MASSACHUSETTS",
		"artcc": "ZBW",
		"type": "RNAV",
		"updated": "12/19/2001"
	},
	{
		"name": "CEHJI",
		"latitude": "43-32-19.02 N",
		"longitude": "72-26-4.45 W",
		"state": "VERMONT",
		"artcc": "ZBW",
		"type": "RNAV",
		"updated": "10/21/2008"
	},
	{
		"name": "CEKAY",
		"latitude": "43-1-14.61 N",
		"longitude": "70-25-24.79 W",
		"state": "NEW HAMPSHIRE",
		"artcc": "ZBW",
		"type": "RP",
		"updated": "PSM*VOR/DME*117.87"
	},
	{
		"name": "CEKLU",
		"latitude": "42-22-50.26 N",
		"longitude": "72-42-12.3 W",
		"state": "MASSACHUSETTS",
		"artcc": "ZBW",
		"type": "RNAV",
		"updated": "03/30/2009"
	},
	{
		"name": "CEKRA",
		"latitude": "43-41-20.93 N",
		"longitude": "72-57-19.25 W",
		"state": "VERMONT",
		"artcc": "ZBW",
		"type": "RP",
		"updated": "RUT*LD*013.52/9.92"
	},
	{
		"name": "CELEM",
		"latitude": "43-8-42.9 N",
		"longitude": "72-46-37.06 W",
		"state": "VERMONT",
		"artcc": "ZBW",
		"type": "RP",
		"updated": "EEN*VORTAC*328.73/30.00"
	},
	{
		"name": "CELTK",
		"latitude": "42-15-59.05 N",
		"longitude": "70-6-12.33 W",
		"state": "MASSACHUSETTS",
		"artcc": "ZBW",
		"type": "RP",
		"updated": "LFV*VOR/DME*004.84/15.24"
	},
	{
		"name": "CELTS",
		"latitude": "42-12-47.07 N",
		"longitude": "70-48-52.5 W",
		"state": "MASSACHUSETTS",
		"artcc": "ZBW",
		"type": "RP",
		"updated": "LFV*VOR/DME*304.96/36.65"
	},
	{
		"name": "CELVU",
		"latitude": "44-13-17.34 N",
		"longitude": "73-48-19.97 W",
		"state": "NEW YORK",
		"artcc": "ZBW",
		"type": "RNAV",
		"updated": "04/15/2003"
	},
	{
		"name": "CEMDU",
		"latitude": "43-57-28.19 N",
		"longitude": "70-41-36.75 W",
		"state": "MAINE",
		"artcc": "ZBW",
		"type": "RNAV",
		"updated": "09/30/2009"
	},
	{
		"name": "CEMIB",
		"latitude": "44-15-28.3 N",
		"longitude": "72-30-38.96 W",
		"state": "VERMONT",
		"artcc": "ZBW",
		"type": "RNAV",
		"updated": "01/11/2011"
	},
	{
		"name": "CEMPA",
		"latitude": "42-50-19.63 N",
		"longitude": "72-11-38.23 W",
		"state": "NEW HAMPSHIRE",
		"artcc": "ZBW",
		"type": "RNAV",
		"updated": "10/06/2010"
	},
	{
		"name": "CENLA",
		"latitude": "44-28-39.33 N",
		"longitude": "71-38-15.72 W",
		"state": "VERMONT",
		"artcc": "ZBW",
		"type": "RNAV",
		"updated": "01/11/2011"
	},
	{
		"name": "CENOX",
		"latitude": "43-19-58.76 N",
		"longitude": "73-35-16.27 W",
		"state": "NEW YORK",
		"artcc": "ZBW",
		"type": "RNAV",
		"updated": "01/07/2003"
	},
	{
		"name": "CEPAL",
		"latitude": "44-46-32.26 N",
		"longitude": "68-36-49.26 W",
		"state": "MAINE",
		"artcc": "ZBW",
		"type": "RNAV",
		"updated": "05/10/2007"
	},
	{
		"name": "CEPGU",
		"latitude": "41-35-30.59 N",
		"longitude": "71-24-20.23 W",
		"state": "RHODE ISLAND",
		"artcc": "ZBW",
		"type": "RP",
		"updated": "PVD*VOR/DME*186.25/8.02"
	},
	{
		"name": "CEPIG",
		"latitude": "41-34-0.3 N",
		"longitude": "71-14-5.68 W",
		"state": "RHODE ISLAND",
		"artcc": "ZBW",
		"type": "RNAV",
		"updated": "11/05/2014"
	},
	{
		"name": "CEPKO",
		"latitude": "44-12-20.38 N",
		"longitude": "70-14-9.64 W",
		"state": "MAINE",
		"artcc": "ZBW",
		"type": "RNAV",
		"updated": "05/23/2007"
	},
	{
		"name": "CEPLI",
		"latitude": "44-2-21.56 N",
		"longitude": "75-44-59.84 W",
		"state": "NEW YORK",
		"artcc": "ZBW",
		"type": "MR",
		"updated": "ART*VORTAC*080.87/14.60"
	},
	{
		"name": "CEPOG",
		"latitude": "40-53-36.04 N",
		"longitude": "73-46-56.5 W",
		"state": "NEW YORK",
		"artcc": "ZBW",
		"type": "RNAV",
		"updated": "04/13/2012"
	},
	{
		"name": "CEPUL",
		"latitude": "41-46-38.03 N",
		"longitude": "69-43-12.6 W",
		"state": "MASSACHUSETTS",
		"artcc": "ZBW",
		"type": "RNAV",
		"updated": "04/20/2010"
	},
	{
		"name": "CERAP",
		"latitude": "42-42-24.36 N",
		"longitude": "73-12-10.09 W",
		"state": "MASSACHUSETTS",
		"artcc": "ZBW",
		"type": "RNAV",
		"updated": "01/15/2013"
	},
	{
		"name": "CEROD",
		"latitude": "41-19-13.31 N",
		"longitude": "70-8-36.75 W",
		"state": "MASSACHUSETTS",
		"artcc": "ZBW",
		"type": "RNAV",
		"updated": "03/27/2009"
	},
	{
		"name": "CESAL",
		"latitude": "44-21-58.47 N",
		"longitude": "73-9-25 W",
		"state": "VERMONT",
		"artcc": "ZBW",
		"type": "RNAV",
		"updated": "02/21/2003"
	},
	{
		"name": "CESGE",
		"latitude": "47-21-59.79 N",
		"longitude": "68-33-48.02 W",
		"state": "",
		"artcc": "ZBW",
		"type": "RNAV",
		"updated": "07/07/2010"
	},
	{
		"name": "CESOL",
		"latitude": "42-27-28.59 N",
		"longitude": "71-31-40.41 W",
		"state": "MASSACHUSETTS",
		"artcc": "ZBW",
		"type": "RNAV",
		"updated": "08/13/2012"
	},
	{
		"name": "CESTI",
		"latitude": "44-53-28.76 N",
		"longitude": "68-56-12.17 W",
		"state": "MAINE",
		"artcc": "ZBW",
		"type": "RP",
		"updated": "BGR*VORTAC*337.00/4.00"
	},
	{
		"name": "CESUG",
		"latitude": "46-50-58.97 N",
		"longitude": "68-14-0.99 W",
		"state": "MAINE",
		"artcc": "ZBW",
		"type": "RNAV",
		"updated": "05/19/2009"
	},
	{
		"name": "CETAK",
		"latitude": "44-21-29.32 N",
		"longitude": "73-13-37.8 W",
		"state": "VERMONT",
		"artcc": "ZBW",
		"type": "RNAV",
		"updated": "11/04/2009"
	},
	{
		"name": "CETIS",
		"latitude": "44-9-52.66 N",
		"longitude": "68-35-50.41 W",
		"state": "MAINE",
		"artcc": "ZBW",
		"type": "RNAV",
		"updated": "10/01/2009"
	},
	{
		"name": "CEVAX",
		"latitude": "41-29-8.36 N",
		"longitude": "74-13-41.99 W",
		"state": "NEW YORK",
		"artcc": "ZBW",
		"type": "RNAV",
		"updated": "04/28/2010"
	},
	{
		"name": "CEVEY",
		"latitude": "44-22-47.98 N",
		"longitude": "72-3-25.76 W",
		"state": "VERMONT",
		"artcc": "ZBW",
		"type": "RNAV",
		"updated": "12/18/2006"
	},
	{
		"name": "CEVGO",
		"latitude": "43-28-30.04 N",
		"longitude": "72-53-33.74 W",
		"state": "VERMONT",
		"artcc": "ZBW",
		"type": "RNAV",
		"updated": "11/04/2009"
	},
	{
		"name": "CEVIB",
		"latitude": "44-11-40.96 N",
		"longitude": "72-42-15.29 W",
		"state": "VERMONT",
		"artcc": "ZBW",
		"type": "RP",
		"updated": "MPV*VOR/DME*316.85/12.81"
	},
	{
		"name": "CEXAD",
		"latitude": "41-48-15.05 N",
		"longitude": "72-44-48.4 W",
		"state": "CONNECTICUT",
		"artcc": "ZBW",
		"type": "RNAV",
		"updated": "07/03/2003"
	},
	{
		"name": "CEYAK",
		"latitude": "42-49-14.67 N",
		"longitude": "72-16-33.57 W",
		"state": "NEW HAMPSHIRE",
		"artcc": "ZBW",
		"type": "RNAV",
		"updated": "06/13/2008"
	},
	{
		"name": "CEYAN",
		"latitude": "44-48-59.46 N",
		"longitude": "67-31-0.87 W",
		"state": "MAINE",
		"artcc": "ZBW",
		"type": "RNAV",
		"updated": "12/22/2008"
	},
	{
		"name": "CEYAP",
		"latitude": "43-54-28.39 N",
		"longitude": "75-30-10.82 W",
		"state": "NEW YORK",
		"artcc": "ZBW",
		"type": "MW",
		"updated": "02/13/2017"
	},
	{
		"name": "CEZAC",
		"latitude": "44-0-24.09 N",
		"longitude": "69-26-46.21 W",
		"state": "MAINE",
		"artcc": "ZBW",
		"type": "RNAV",
		"updated": "04/24/2010"
	},
	{
		"name": "CFBFQ",
		"latitude": "43-37-45.28 N",
		"longitude": "72-18-28.54 W",
		"state": "NEW HAMPSHIRE",
		"artcc": "ZBW",
		"type": "CN",
		"updated": "08/14/2015"
	},
	{
		"name": "CFBKF",
		"latitude": "41-43-28.96 N",
		"longitude": "72-38-56.23 W",
		"state": "CONNECTICUT",
		"artcc": "ZBW",
		"type": "CN",
		"updated": "01/08/2013"
	},
	{
		"name": "CFBMK",
		"latitude": "42-41-18.97 N",
		"longitude": "74-2-18.15 W",
		"state": "NEW YORK",
		"artcc": "ZBW",
		"type": "CN",
		"updated": "12/31/2012"
	},
	{
		"name": "CFBPD",
		"latitude": "44-35-51.01 N",
		"longitude": "73-21-19.79 W",
		"state": "VERMONT",
		"artcc": "ZBW",
		"type": "CN",
		"updated": "03/25/2015"
	},
	{
		"name": "CFBTZ",
		"latitude": "40-41-14.92 N",
		"longitude": "73-14-42.7 W",
		"state": "NEW YORK",
		"artcc": "ZBW",
		"type": "CN",
		"updated": "11/10/2015"
	},
	{
		"name": "CFCDV",
		"latitude": "41-53-42.37 N",
		"longitude": "71-16-56.34 W",
		"state": "MASSACHUSETTS",
		"artcc": "ZBW",
		"type": "CN",
		"updated": "04/04/2016"
	},
	{
		"name": "CFCFW",
		"latitude": "41-45-40.94 N",
		"longitude": "70-7-46.62 W",
		"state": "MASSACHUSETTS",
		"artcc": "ZBW",
		"type": "CN",
		"updated": "07/19/2016"
	},
	{
		"name": "CFCGF",
		"latitude": "42-34-38.97 N",
		"longitude": "70-55-29 W",
		"state": "MASSACHUSETTS",
		"artcc": "ZBW",
		"type": "CN",
		"updated": "09/08/2016"
	},
	{
		"name": "CFCGN",
		"latitude": "44-43-2.03 N",
		"longitude": "75-15-43.94 W",
		"state": "NEW YORK",
		"artcc": "ZBW",
		"type": "CN",
		"updated": "07/19/2016"
	},
	{
		"name": "CFCGP",
		"latitude": "43-31-27.51 N",
		"longitude": "72-56-47.04 W",
		"state": "VERMONT",
		"artcc": "ZBW",
		"type": "CN",
		"updated": "12/30/2016"
	},
	{
		"name": "CFCHP",
		"latitude": "41-19-30.74 N",
		"longitude": "73-40-24.89 W",
		"state": "NEW YORK",
		"artcc": "ZBW",
		"type": "CN",
		"updated": "08/22/2017"
	},
	{
		"name": "CFCHQ",
		"latitude": "41-10-11.96 N",
		"longitude": "73-39-29.51 W",
		"state": "NEW YORK",
		"artcc": "ZBW",
		"type": "CN",
		"updated": "09/26/2017"
	},
	{
		"name": "CFCHW",
		"latitude": "41-2-30.8 N",
		"longitude": "73-36-40.36 W",
		"state": "CONNECTICUT",
		"artcc": "ZBW",
		"type": "CN",
		"updated": "09/26/2017"
	},
	{
		"name": "CFCJL",
		"latitude": "41-10-4.84 N",
		"longitude": "73-42-27.6 W",
		"state": "NEW YORK",
		"artcc": "ZBW",
		"type": "CN",
		"updated": "09/26/2017"
	},
	{
		"name": "CFCLC",
		"latitude": "43-3-52.6 N",
		"longitude": "76-2-7.76 W",
		"state": "NEW YORK",
		"artcc": "ZBW",
		"type": "CN",
		"updated": "05/02/2013"
	},
	{
		"name": "CFDHN",
		"latitude": "43-4-12.87 N",
		"longitude": "76-0-42.07 W",
		"state": "NEW YORK",
		"artcc": "ZBW",
		"type": "CN",
		"updated": "05/02/2013"
	},
	{
		"name": "CFDJM",
		"latitude": "43-4-15.43 N",
		"longitude": "76-0-31.27 W",
		"state": "NEW YORK",
		"artcc": "ZBW",
		"type": "CN",
		"updated": "05/03/2013"
	},
	{
		"name": "CFDMH",
		"latitude": "43-9-18.89 N",
		"longitude": "76-0-49.39 W",
		"state": "NEW YORK",
		"artcc": "ZBW",
		"type": "CN",
		"updated": "05/03/2013"
	},
	{
		"name": "CFDQP",
		"latitude": "43-4-20.35 N",
		"longitude": "76-11-37.22 W",
		"state": "NEW YORK",
		"artcc": "ZBW",
		"type": "CN",
		"updated": "05/03/2013"
	},
	{
		"name": "CFDRT",
		"latitude": "42-39-24.6 N",
		"longitude": "74-53-33.8 W",
		"state": "NEW YORK",
		"artcc": "ZBW",
		"type": "CN",
		"updated": "09/26/2013"
	},
	{
		"name": "CFDRW",
		"latitude": "42-32-27.26 N",
		"longitude": "75-2-36.2 W",
		"state": "NEW YORK",
		"artcc": "ZBW",
		"type": "CN",
		"updated": "09/26/2013"
	},
	{
		"name": "CFDRX",
		"latitude": "41-7-4.14 N",
		"longitude": "73-49-19.79 W",
		"state": "NEW YORK",
		"artcc": "ZBW",
		"type": "CN",
		"updated": "09/26/2017"
	},
	{
		"name": "CFFBH",
		"latitude": "41-1-52.46 N",
		"longitude": "73-33-53.8 W",
		"state": "CONNECTICUT",
		"artcc": "ZBW",
		"type": "CN",
		"updated": "09/26/2017"
	},
	{
		"name": "CFFGJ",
		"latitude": "40-43-2.17 N",
		"longitude": "73-0-35.41 W",
		"state": "NEW YORK",
		"artcc": "ZBW",
		"type": "CN",
		"updated": "07/11/2012"
	},
	{
		"name": "CFFGL",
		"latitude": "40-49-0.78 N",
		"longitude": "72-52-44.84 W",
		"state": "NEW YORK",
		"artcc": "ZBW",
		"type": "CN",
		"updated": "07/11/2012"
	},
	{
		"name": "CFFGM",
		"latitude": "42-31-25.72 N",
		"longitude": "71-24-24.96 W",
		"state": "MASSACHUSETTS",
		"artcc": "ZBW",
		"type": "CN",
		"updated": "08/13/2012"
	},
	{
		"name": "CFFGN",
		"latitude": "42-26-16.21 N",
		"longitude": "71-26-10.99 W",
		"state": "MASSACHUSETTS",
		"artcc": "ZBW",
		"type": "CN",
		"updated": "08/13/2012"
	},
	{
		"name": "CFFGP",
		"latitude": "42-24-57.94 N",
		"longitude": "71-25-29.73 W",
		"state": "MASSACHUSETTS",
		"artcc": "ZBW",
		"type": "CN",
		"updated": "08/13/2012"
	},
	{
		"name": "CFFGS",
		"latitude": "42-29-51.46 N",
		"longitude": "71-6-31.26 W",
		"state": "MASSACHUSETTS",
		"artcc": "ZBW",
		"type": "CN",
		"updated": "08/13/2012"
	},
	{
		"name": "CFFGZ",
		"latitude": "41-45-56.22 N",
		"longitude": "71-19-27.58 W",
		"state": "RHODE ISLAND",
		"artcc": "ZBW",
		"type": "CN",
		"updated": "08/01/2012"
	},
	{
		"name": "CFFHB",
		"latitude": "41-48-37.71 N",
		"longitude": "71-25-10.22 W",
		"state": "RHODE ISLAND",
		"artcc": "ZBW",
		"type": "CN",
		"updated": "08/01/2012"
	},
	{
		"name": "CFFHC",
		"latitude": "41-40-45.24 N",
		"longitude": "71-33-21.15 W",
		"state": "RHODE ISLAND",
		"artcc": "ZBW",
		"type": "CN",
		"updated": "08/01/2012"
	},
	{
		"name": "CFFKZ",
		"latitude": "42-30-31.12 N",
		"longitude": "73-3-53.48 W",
		"state": "MASSACHUSETTS",
		"artcc": "ZBW",
		"type": "CN",
		"updated": "11/03/2014"
	},
	{
		"name": "CFFRB",
		"latitude": "41-50-38.35 N",
		"longitude": "72-44-1.61 W",
		"state": "CONNECTICUT",
		"artcc": "ZBW",
		"type": "CN",
		"updated": "02/22/2018"
	},
	{
		"name": "CFFRC",
		"latitude": "41-54-8.03 N",
		"longitude": "72-48-48.86 W",
		"state": "CONNECTICUT",
		"artcc": "ZBW",
		"type": "CN",
		"updated": "02/22/2018"
	},
	{
		"name": "CFFRD",
		"latitude": "42-1-53.75 N",
		"longitude": "72-38-38.79 W",
		"state": "CONNECTICUT",
		"artcc": "ZBW",
		"type": "CN",
		"updated": "02/22/2018"
	},
	{
		"name": "CFFRF",
		"latitude": "41-58-23.62 N",
		"longitude": "72-33-51.46 W",
		"state": "CONNECTICUT",
		"artcc": "ZBW",
		"type": "CN",
		"updated": "02/22/2018"
	},
	{
		"name": "CFGHQ",
		"latitude": "43-3-49.35 N",
		"longitude": "76-13-23.65 W",
		"state": "NEW YORK",
		"artcc": "ZBW",
		"type": "CN",
		"updated": "05/03/2013"
	},
	{
		"name": "CFHLN",
		"latitude": "43-3-47.2 N",
		"longitude": "76-13-31.01 W",
		"state": "NEW YORK",
		"artcc": "ZBW",
		"type": "CN",
		"updated": "05/03/2013"
	},
	{
		"name": "CFKFM",
		"latitude": "42-8-34 N",
		"longitude": "75-20-56.52 W",
		"state": "NEW YORK",
		"artcc": "ZBW",
		"type": "CN",
		"updated": "12/04/2014"
	},
	{
		"name": "CFLSR",
		"latitude": "42-15-28.21 N",
		"longitude": "71-42-12.73 W",
		"state": "MASSACHUSETTS",
		"artcc": "ZBW",
		"type": "CN",
		"updated": "05/10/2012"
	},
	{
		"name": "CFLTA",
		"latitude": "41-52-0.38 N",
		"longitude": "71-16-30.78 W",
		"state": "MASSACHUSETTS",
		"artcc": "ZBW",
		"type": "CN",
		"updated": "12/04/2014"
	},
	{
		"name": "CFLVP",
		"latitude": "41-9-24.61 N",
		"longitude": "73-7-54.13 W",
		"state": "CONNECTICUT",
		"artcc": "ZBW",
		"type": "CN",
		"updated": "04/24/2017"
	},
	{
		"name": "CFMCB",
		"latitude": "41-33-43.18 N",
		"longitude": "70-21-17.98 W",
		"state": "MASSACHUSETTS",
		"artcc": "ZBW",
		"type": "CN",
		"updated": "03/13/2012"
	},
	{
		"name": "CFMDR",
		"latitude": "42-33-41.46 N",
		"longitude": "71-17-15.25 W",
		"state": "MASSACHUSETTS",
		"artcc": "ZBW",
		"type": "CN",
		"updated": "09/07/2017"
	},
	{
		"name": "CFTZC",
		"latitude": "41-35-30.02 N",
		"longitude": "71-17-3.57 W",
		"state": "RHODE ISLAND",
		"artcc": "ZBW",
		"type": "CN",
		"updated": "11/05/2015"
	},
	{
		"name": "CFVGQ",
		"latitude": "42-59-10.34 N",
		"longitude": "71-31-40 W",
		"state": "NEW HAMPSHIRE",
		"artcc": "ZBW",
		"type": "CN",
		"updated": "12/03/2014"
	},
	{
		"name": "CFVJZ",
		"latitude": "43-54-5.49 N",
		"longitude": "70-22-33.66 W",
		"state": "MAINE",
		"artcc": "ZBW",
		"type": "CN",
		"updated": "10/20/2017"
	},
	{
		"name": "CFVKH",
		"latitude": "44-59-36.03 N",
		"longitude": "69-5-53.41 W",
		"state": "MAINE",
		"artcc": "ZBW",
		"type": "CN",
		"updated": "03/17/2017"
	},
	{
		"name": "CFVWJ",
		"latitude": "42-50-33.27 N",
		"longitude": "71-26-33.97 W",
		"state": "NEW HAMPSHIRE",
		"artcc": "ZBW",
		"type": "CN",
		"updated": "12/03/2014"
	},
	{
		"name": "CHAIS",
		"latitude": "41-40-48.29 N",
		"longitude": "71-21-50.25 W",
		"state": "RHODE ISLAND",
		"artcc": "ZBW",
		"type": "RP",
		"updated": "PVD*VOR/DME*145.94/3.97"
	},
	{
		"name": "CHANY",
		"latitude": "44-15-0.89 N",
		"longitude": "74-35-53.34 W",
		"state": "NEW YORK",
		"artcc": "ZBW",
		"type": "RNAV",
		"updated": "08/02/2012"
	},
	{
		"name": "CHERN",
		"latitude": "42-49-24.33 N",
		"longitude": "71-36-7.98 W",
		"state": "NEW HAMPSHIRE",
		"artcc": "ZBW",
		"type": "RNAV",
		"updated": "09/29/2016"
	},
	{
		"name": "CHERS",
		"latitude": "42-24-18.51 N",
		"longitude": "70-55-47.58 W",
		"state": "MASSACHUSETTS",
		"artcc": "ZBW",
		"type": "RNAV",
		"updated": "04/04/2016"
	},
	{
		"name": "CHEUY",
		"latitude": "42-13-47 N",
		"longitude": "72-32-32 W",
		"state": "MASSACHUSETTS",
		"artcc": "ZBW",
		"type": "MW",
		"updated": "07/15/2014"
	},
	{
		"name": "CHHAD",
		"latitude": "44-22-12.35 N",
		"longitude": "74-17-20.92 W",
		"state": "NEW YORK",
		"artcc": "ZBW",
		"type": "RNAV",
		"updated": "08/02/2012"
	},
	{
		"name": "CHHRS",
		"latitude": "42-12-31 N",
		"longitude": "72-29-35 W",
		"state": "MASSACHUSETTS",
		"artcc": "ZBW",
		"type": "MW",
		"updated": "07/15/2014"
	},
	{
		"name": "CHOPY",
		"latitude": "41-31-54.12 N",
		"longitude": "70-27-13.46 W",
		"state": "MASSACHUSETTS",
		"artcc": "ZBW",
		"type": "RP",
		"updated": "MVY*VOR/DME*056.38"
	},
	{
		"name": "CHWDA",
		"latitude": "43-57-9.26 N",
		"longitude": "70-20-39.48 W",
		"state": "MAINE",
		"artcc": "ZBW",
		"type": "RNAV",
		"updated": "10/20/2017"
	},
	{
		"name": "CHWDH",
		"latitude": "42-18-15.54 N",
		"longitude": "70-43-46.94 W",
		"state": "MASSACHUSETTS",
		"artcc": "ZBW",
		"type": "RNAV",
		"updated": "01/15/2013"
	},
	{
		"name": "CIAFA",
		"latitude": "42-59-46.63 N",
		"longitude": "76-21-40.05 W",
		"state": "NEW YORK",
		"artcc": "ZBW",
		"type": "RP",
		"updated": "GGT*VORTAC*309.00"
	},
	{
		"name": "CIBES",
		"latitude": "42-48-11.03 N",
		"longitude": "71-33-28.07 W",
		"state": "NEW HAMPSHIRE",
		"artcc": "ZBW",
		"type": "RP",
		"updated": "MHT*VOR/DME*259.77"
	},
	{
		"name": "CIBEV",
		"latitude": "44-37-26.2 N",
		"longitude": "67-25-53.41 W",
		"state": "MAINE",
		"artcc": "ZBW",
		"type": "RNAV",
		"updated": "04/12/2004"
	},
	{
		"name": "CIBGU",
		"latitude": "44-57-4.61 N",
		"longitude": "71-37-47.63 W",
		"state": "VERMONT",
		"artcc": "ZBW",
		"type": "RNAV",
		"updated": "01/12/2011"
	},
	{
		"name": "CIBID",
		"latitude": "41-35-55.72 N",
		"longitude": "73-56-1.51 W",
		"state": "NEW YORK",
		"artcc": "ZBW",
		"type": "RNAV",
		"updated": "08/14/2008"
	},
	{
		"name": "CIBNI",
		"latitude": "41-3-16.34 N",
		"longitude": "72-31-45.02 W",
		"state": "NEW YORK",
		"artcc": "ZBW",
		"type": "RNAV",
		"updated": "04/13/2012"
	},
	{
		"name": "CIBTA",
		"latitude": "42-55-55.25 N",
		"longitude": "73-20-56.35 W",
		"state": "NEW YORK",
		"artcc": "ZBW",
		"type": "RNAV",
		"updated": "04/20/2004"
	},
	{
		"name": "CIBTO",
		"latitude": "43-38-6.94 N",
		"longitude": "72-57-12.33 W",
		"state": "VERMONT",
		"artcc": "ZBW",
		"type": "RNAV",
		"updated": "08/02/2012"
	},
	{
		"name": "CIDED",
		"latitude": "45-35-14.12 N",
		"longitude": "70-6-57.39 W",
		"state": "MAINE",
		"artcc": "ZBW",
		"type": "RNAV",
		"updated": "04/06/2009"
	},
	{
		"name": "CIGPA",
		"latitude": "42-35-43.73 N",
		"longitude": "72-19-43.66 W",
		"state": "MASSACHUSETTS",
		"artcc": "ZBW",
		"type": "RNAV",
		"updated": "04/23/2012"
	},
	{
		"name": "CILAT",
		"latitude": "43-37-6.8 N",
		"longitude": "72-15-3 W",
		"state": "NEW HAMPSHIRE",
		"artcc": "ZBW",
		"type": "RNAV",
		"updated": "12/19/2016"
	},
	{
		"name": "CILVA",
		"latitude": "40-48-19.78 N",
		"longitude": "72-40-33.89 W",
		"state": "NEW YORK",
		"artcc": "ZBW",
		"type": "RNAV",
		"updated": "04/13/2012"
	},
	{
		"name": "CIMDO",
		"latitude": "43-27-1.09 N",
		"longitude": "70-47-48.74 W",
		"state": "MAINE",
		"artcc": "ZBW",
		"type": "RNAV",
		"updated": "11/09/2009"
	},
	{
		"name": "CIMOT",
		"latitude": "43-27-18.31 N",
		"longitude": "73-38-57.18 W",
		"state": "NEW YORK",
		"artcc": "ZBW",
		"type": "RNAV",
		"updated": "06/22/2010"
	},
	{
		"name": "CIMUV",
		"latitude": "43-34-12.11 N",
		"longitude": "72-14-3.1 W",
		"state": "NEW HAMPSHIRE",
		"artcc": "ZBW",
		"type": "RNAV",
		"updated": "12/19/2016"
	},
	{
		"name": "CIMVI",
		"latitude": "42-49-8.68 N",
		"longitude": "72-16-34.03 W",
		"state": "NEW HAMPSHIRE",
		"artcc": "ZBW",
		"type": "RP",
		"updated": "EEN*VORTAC*/1.64"
	},
	{
		"name": "CINIR",
		"latitude": "43-39-26.54 N",
		"longitude": "72-15-50.95 W",
		"state": "NEW HAMPSHIRE",
		"artcc": "ZBW",
		"type": "RNAV",
		"updated": "12/19/2016"
	},
	{
		"name": "CINOD",
		"latitude": "43-47-24.97 N",
		"longitude": "72-21-47.22 W",
		"state": "VERMONT",
		"artcc": "ZBW",
		"type": "RNAV",
		"updated": "12/19/2016"
	},
	{
		"name": "CIPNA",
		"latitude": "44-10-18.3 N",
		"longitude": "75-58-5.4 W",
		"state": "NEW YORK",
		"artcc": "ZBW",
		"type": "RNAV",
		"updated": "09/22/2014"
	},
	{
		"name": "CIRIR",
		"latitude": "41-47-30.24 N",
		"longitude": "71-9-5.43 W",
		"state": "MASSACHUSETTS",
		"artcc": "ZBW",
		"type": "RNAV",
		"updated": "04/13/2012"
	},
	{
		"name": "CIRRU",
		"latitude": "42-29-36.38 N",
		"longitude": "73-41-31.88 W",
		"state": "NEW YORK",
		"artcc": "ZBW",
		"type": "RP",
		"updated": "CAM*VOR/DME*221.25"
	},
	{
		"name": "CITET",
		"latitude": "42-43-36.68 N",
		"longitude": "74-57-21.04 W",
		"state": "NEW YORK",
		"artcc": "ZBW",
		"type": "RNAV",
		"updated": "08/13/2008"
	},
	{
		"name": "CIYAY",
		"latitude": "42-19-24.64 N",
		"longitude": "75-10-16.07 W",
		"state": "NEW YORK",
		"artcc": "ZBW",
		"type": "RNAV",
		"updated": "08/13/2008"
	},
	{
		"name": "CIYEP",
		"latitude": "45-58-28.66 N",
		"longitude": "67-55-15.77 W",
		"state": "MAINE",
		"artcc": "ZBW",
		"type": "RNAV",
		"updated": "06/24/2011"
	},
	{
		"name": "CLAMY",
		"latitude": "41-10-40 N",
		"longitude": "70-32-6.97 W",
		"state": "MASSACHUSETTS",
		"artcc": "ZBW",
		"type": "RP",
		"updated": "PVD*VOR/DME*142.79/51.99"
	},
	{
		"name": "CLAWW",
		"latitude": "42-23-25.27 N",
		"longitude": "70-48-47.67 W",
		"state": "MASSACHUSETTS",
		"artcc": "ZBW",
		"type": "RNAV",
		"updated": "02/14/2017"
	},
	{
		"name": "CLETR",
		"latitude": "42-29-52.87 N",
		"longitude": "71-39-50.53 W",
		"state": "MASSACHUSETTS",
		"artcc": "ZBW",
		"type": "RNAV",
		"updated": "07/25/2005"
	},
	{
		"name": "CLIKA",
		"latitude": "41-36-46 N",
		"longitude": "71-15-51.71 W",
		"state": "RHODE ISLAND",
		"artcc": "ZBW",
		"type": "RP",
		"updated": "PVD*VOR/DME*145.94/10.00"
	},
	{
		"name": "CLMPP",
		"latitude": "42-28-47.73 N",
		"longitude": "70-43-35.17 W",
		"state": "MASSACHUSETTS",
		"artcc": "ZBW",
		"type": "RNAV",
		"updated": "09/27/2014"
	},
	{
		"name": "CLOWW",
		"latitude": "42-43-53.5 N",
		"longitude": "71-51-16.5 W",
		"state": "NEW HAMPSHIRE",
		"artcc": "ZBW",
		"type": "RP",
		"updated": "07/16/1996"
	},
	{
		"name": "CLUBY",
		"latitude": "40-59-56.35 N",
		"longitude": "73-39-14.56 W",
		"state": "NEW YORK",
		"artcc": "ZBW",
		"type": "RP",
		"updated": "OJZ*LD*S CRS/5.40"
	},
	{
		"name": "CLUCH",
		"latitude": "42-41-0.64 N",
		"longitude": "75-21-21.29 W",
		"state": "NEW YORK",
		"artcc": "ZBW",
		"type": "RNAV",
		"updated": "06/22/2010"
	},
	{
		"name": "COBER",
		"latitude": "41-8-2.28 N",
		"longitude": "71-50-20.59 W",
		"state": "NEW YORK",
		"artcc": "ZBW",
		"type": "RNAV",
		"updated": "07/03/2012"
	},
	{
		"name": "COBIA",
		"latitude": "42-44-42.49 N",
		"longitude": "74-48-33.14 W",
		"state": "NEW YORK",
		"artcc": "ZBW",
		"type": "RP",
		"updated": "GGT*VORTAC*104.00"
	},
	{
		"name": "COBOL",
		"latitude": "42-5-13.3 N",
		"longitude": "72-53-14.06 W",
		"state": "MASSACHUSETTS",
		"artcc": "ZBW",
		"type": "RP",
		"updated": "BAF*VORTAC*253.58/8.86"
	},
	{
		"name": "CODAK",
		"latitude": "43-42-1.4 N",
		"longitude": "70-1-15.66 W",
		"state": "MAINE",
		"artcc": "ZBW",
		"type": "RNAV",
		"updated": "09/30/2009"
	},
	{
		"name": "CODAN",
		"latitude": "43-58-5.82 N",
		"longitude": "70-49-52.43 W",
		"state": "MAINE",
		"artcc": "ZBW",
		"type": "RNAV",
		"updated": "09/30/2009"
	},
	{
		"name": "CODDI",
		"latitude": "42-22-52.15 N",
		"longitude": "75-0-21.84 W",
		"state": "NEW YORK",
		"artcc": "ZBW",
		"type": "RP",
		"updated": "RKA*VOR/DME*127.17/11.55"
	},
	{
		"name": "COFIE",
		"latitude": "41-51-7.67 N",
		"longitude": "71-25-7.53 W",
		"state": "RHODE ISLAND",
		"artcc": "ZBW",
		"type": "RNAV",
		"updated": "08/01/2012"
	},
	{
		"name": "COGUD",
		"latitude": "42-20-57.76 N",
		"longitude": "73-39-12.41 W",
		"state": "NEW YORK",
		"artcc": "ZBW",
		"type": "RNAV",
		"updated": "06/29/2011"
	},
	{
		"name": "COGUL",
		"latitude": "43-8-54.83 N",
		"longitude": "72-39-31.37 W",
		"state": "VERMONT",
		"artcc": "ZBW",
		"type": "RP",
		"updated": "EEN*VORTAC*336.87/26.70"
	},
	{
		"name": "COGUR",
		"latitude": "44-42-13.34 N",
		"longitude": "68-42-40.09 W",
		"state": "MAINE",
		"artcc": "ZBW",
		"type": "RNAV",
		"updated": "05/10/2007"
	},
	{
		"name": "COHAS",
		"latitude": "42-14-35.07 N",
		"longitude": "70-50-33 W",
		"state": "MASSACHUSETTS",
		"artcc": "ZBW",
		"type": "RP",
		"updated": "LIP*LD*150.18/9.59"
	},
	{
		"name": "COKBI",
		"latitude": "41-15-57.45 N",
		"longitude": "70-53-52.78 W",
		"state": "MASSACHUSETTS",
		"artcc": "ZBW",
		"type": "RNAV",
		"updated": "11/26/2010"
	},
	{
		"name": "COLBB",
		"latitude": "44-24-51.97 N",
		"longitude": "69-57-50.94 W",
		"state": "MAINE",
		"artcc": "ZBW",
		"type": "RNAV",
		"updated": "02/05/2013"
	},
	{
		"name": "COLKA",
		"latitude": "43-45-48.72 N",
		"longitude": "73-24-36.79 W",
		"state": "NEW YORK",
		"artcc": "ZBW",
		"type": "RNAV",
		"updated": "01/13/2011"
	},
	{
		"name": "COLLE",
		"latitude": "42-39-39.38 N",
		"longitude": "71-16-6.8 W",
		"state": "MASSACHUSETTS",
		"artcc": "ZBW",
		"type": "RNAV",
		"updated": "06/21/2011"
	},
	{
		"name": "COLYN",
		"latitude": "42-9-9.66 N",
		"longitude": "71-2-24.39 W",
		"state": "MASSACHUSETTS",
		"artcc": "ZBW",
		"type": "RNAV",
		"updated": "01/15/2013"
	},
	{
		"name": "COMON",
		"latitude": "42-28-39.7 N",
		"longitude": "71-21-50.39 W",
		"state": "MASSACHUSETTS",
		"artcc": "ZBW",
		"type": "RNAV",
		"updated": "03/23/2009"
	},
	{
		"name": "COMUM",
		"latitude": "43-4-57.23 N",
		"longitude": "74-4-56.96 W",
		"state": "NEW YORK",
		"artcc": "ZBW",
		"type": "RNAV",
		"updated": "08/03/2010"
	},
	{
		"name": "COMVU",
		"latitude": "44-35-5.17 N",
		"longitude": "70-2-3.73 W",
		"state": "MAINE",
		"artcc": "ZBW",
		"type": "RNAV",
		"updated": "04/24/2007"
	},
	{
		"name": "CONCI",
		"latitude": "44-57-52.02 N",
		"longitude": "74-47-0.09 W",
		"state": "NEW YORK",
		"artcc": "ZBW",
		"type": "RNAV",
		"updated": "11/20/2009"
	},
	{
		"name": "CONDN",
		"latitude": "41-1-1 N",
		"longitude": "70-12-49 W",
		"state": "MASSACHUSETTS",
		"artcc": "ZBW",
		"type": "RNAV",
		"updated": "04/09/2004"
	},
	{
		"name": "CONET",
		"latitude": "43-1-36.99 N",
		"longitude": "76-0-32.78 W",
		"state": "NEW YORK",
		"artcc": "ZBW",
		"type": "RNAV",
		"updated": "05/03/2013"
	},
	{
		"name": "CONEZ",
		"latitude": "41-31-47.9 N",
		"longitude": "71-20-57.26 W",
		"state": "RHODE ISLAND",
		"artcc": "ZBW",
		"type": "RNAV",
		"updated": "12/18/2017"
	},
	{
		"name": "CONVU",
		"latitude": "42-43-41.55 N",
		"longitude": "72-4-48.3 W",
		"state": "MASSACHUSETTS",
		"artcc": "ZBW",
		"type": "RNAV",
		"updated": "07/25/2005"
	},
	{
		"name": "COOES",
		"latitude": "42-45-30.66 N",
		"longitude": "75-5-53.87 W",
		"state": "NEW YORK",
		"artcc": "ZBW",
		"type": "RP",
		"updated": "GGT*VORTAC*104.00"
	},
	{
		"name": "COOEY",
		"latitude": "43-3-40.09 N",
		"longitude": "70-38-42 W",
		"state": "NEW HAMPSHIRE",
		"artcc": "ZBW",
		"type": "RNAV",
		"updated": "01/27/2016"
	},
	{
		"name": "COOKK",
		"latitude": "41-37-43.65 N",
		"longitude": "70-5-20.11 W",
		"state": "MASSACHUSETTS",
		"artcc": "ZBW",
		"type": "RNAV",
		"updated": "04/08/2009"
	},
	{
		"name": "COOSA",
		"latitude": "42-44-12.91 N",
		"longitude": "71-41-9.22 W",
		"state": "NEW HAMPSHIRE",
		"artcc": "ZBW",
		"type": "RNAV",
		"updated": "07/07/2009"
	},
	{
		"name": "COPAP",
		"latitude": "42-12-36.22 N",
		"longitude": "73-43-57.91 W",
		"state": "NEW YORK",
		"artcc": "ZBW",
		"type": "RNAV",
		"updated": "10/23/2009"
	},
	{
		"name": "COPGU",
		"latitude": "43-41-1.07 N",
		"longitude": "71-33-7.66 W",
		"state": "NEW HAMPSHIRE",
		"artcc": "ZBW",
		"type": "RNAV",
		"updated": "11/04/2009"
	},
	{
		"name": "COPLY",
		"latitude": "42-29-52.21 N",
		"longitude": "70-33-28.57 W",
		"state": "MASSACHUSETTS",
		"artcc": "ZBW",
		"type": "RNAV",
		"updated": "02/23/2017"
	},
	{
		"name": "COPUX",
		"latitude": "44-32-57.46 N",
		"longitude": "72-56-21.84 W",
		"state": "VERMONT",
		"artcc": "ZBW",
		"type": "RNAV",
		"updated": "01/21/2003"
	},
	{
		"name": "CORAC",
		"latitude": "46-22-22.71 N",
		"longitude": "67-55-55.22 W",
		"state": "MAINE",
		"artcc": "ZBW",
		"type": "RP",
		"updated": "PQI*VOR/DME*/25.00"
	},
	{
		"name": "CORAM",
		"latitude": "40-55-11.3 N",
		"longitude": "72-56-21.72 W",
		"state": "NEW YORK",
		"artcc": "ZBW",
		"type": "RP",
		"updated": "BDR*VOR/DME*161.74"
	},
	{
		"name": "COREE",
		"latitude": "42-41-44.54 N",
		"longitude": "72-18-53.49 W",
		"state": "MASSACHUSETTS",
		"artcc": "ZBW",
		"type": "RP",
		"updated": "GDM*VOR/DME*322.40"
	},
	{
		"name": "CORNY",
		"latitude": "42-43-42.78 N",
		"longitude": "71-24-1.4 W",
		"state": "NEW HAMPSHIRE",
		"artcc": "ZBW",
		"type": "RNAV",
		"updated": "09/27/2012"
	},
	{
		"name": "CORRT",
		"latitude": "42-26-45.35 N",
		"longitude": "70-45-35.21 W",
		"state": "MASSACHUSETTS",
		"artcc": "ZBW",
		"type": "RNAV",
		"updated": "01/15/2013"
	},
	{
		"name": "CORTA",
		"latitude": "42-40-25.65 N",
		"longitude": "76-4-34.93 W",
		"state": "NEW YORK",
		"artcc": "ZNY",
		"type": "RP",
		"updated": "ITH*VOR/DME*067.64/20.10"
	},
	{
		"name": "COSAX",
		"latitude": "41-28-45.91 N",
		"longitude": "71-18-8.14 W",
		"state": "RHODE ISLAND",
		"artcc": "ZBW",
		"type": "RNAV",
		"updated": "09/06/2007"
	},
	{
		"name": "COSSY",
		"latitude": "41-31-58.77 N",
		"longitude": "70-57-1.91 W",
		"state": "MASSACHUSETTS",
		"artcc": "ZBW",
		"type": "RP",
		"updated": "SEY*VOR/DME*067.00"
	},
	{
		"name": "COTAG",
		"latitude": "41-41-17.25 N",
		"longitude": "71-27-23.46 W",
		"state": "RHODE ISLAND",
		"artcc": "ZBW",
		"type": "RNAV",
		"updated": "05/15/2003"
	},
	{
		"name": "COTEE",
		"latitude": "42-29-42.23 N",
		"longitude": "71-7-7.92 W",
		"state": "MASSACHUSETTS",
		"artcc": "ZBW",
		"type": "RP",
		"updated": "MHT*VOR/DME*168.57/25.00"
	},
	{
		"name": "COTEK",
		"latitude": "45-15-33.75 N",
		"longitude": "69-21-23.41 W",
		"state": "MAINE",
		"artcc": "ZBW",
		"type": "RNAV",
		"updated": "08/06/2007"
	},
	{
		"name": "COUSY",
		"latitude": "42-21-17.92 N",
		"longitude": "71-12-31.7 W",
		"state": "MASSACHUSETTS",
		"artcc": "ZBW",
		"type": "RNAV",
		"updated": "01/15/2013"
	},
	{
		"name": "COVAN",
		"latitude": "44-44-25.68 N",
		"longitude": "72-23-43.55 W",
		"state": "VERMONT",
		"artcc": "ZBW",
		"type": "RP",
		"updated": "YSC*VOR/DME*234.00/43.15"
	},
	{
		"name": "COVDA",
		"latitude": "41-44-50.17 N",
		"longitude": "73-45-54.98 W",
		"state": "NEW YORK",
		"artcc": "ZBW",
		"type": "RNAV",
		"updated": "06/16/2008"
	},
	{
		"name": "COVOD",
		"latitude": "41-36-5.39 N",
		"longitude": "70-22-55.86 W",
		"state": "MASSACHUSETTS",
		"artcc": "ZBW",
		"type": "RNAV",
		"updated": "03/06/2006"
	},
	{
		"name": "COVVE",
		"latitude": "40-52-24.35 N",
		"longitude": "73-39-15.86 W",
		"state": "NEW YORK",
		"artcc": "ZBW",
		"type": "WP",
		"updated": "09/27/1991"
	},
	{
		"name": "COXAD",
		"latitude": "44-51-47.09 N",
		"longitude": "69-41-29.69 W",
		"state": "MAINE",
		"artcc": "ZBW",
		"type": "RNAV",
		"updated": "05/25/2007"
	},
	{
		"name": "CRACO",
		"latitude": "41-32-39.3 N",
		"longitude": "70-11-36.6 W",
		"state": "MASSACHUSETTS",
		"artcc": "ZBW",
		"type": "RP",
		"updated": "MVY*VOR/DME*079.71"
	},
	{
		"name": "CRADL",
		"latitude": "42-0-36.88 N",
		"longitude": "70-45-47.55 W",
		"state": "MASSACHUSETTS",
		"artcc": "ZBW",
		"type": "RNAV",
		"updated": "10/24/2011"
	},
	{
		"name": "CRAIL",
		"latitude": "40-41-13.08 N",
		"longitude": "73-20-36.28 W",
		"state": "NEW YORK",
		"artcc": "ZBW",
		"type": "RNAV",
		"updated": "12/21/2009"
	},
	{
		"name": "CRALY",
		"latitude": "41-4-37.96 N",
		"longitude": "73-37-33.79 W",
		"state": "CONNECTICUT",
		"artcc": "ZBW",
		"type": "RP",
		"updated": "DPK*VOR/DME*331.53"
	},
	{
		"name": "CRANN",
		"latitude": "40-51-42.4 N",
		"longitude": "72-27-55.11 W",
		"state": "NEW YORK",
		"artcc": "ZBW",
		"type": "RNAV",
		"updated": "03/25/2009"
	},
	{
		"name": "CRAYG",
		"latitude": "41-11-17.36 N",
		"longitude": "70-9-1.2 W",
		"state": "MASSACHUSETTS",
		"artcc": "ZBW",
		"type": "RP",
		"updated": "MVY*VOR/DME*135.67"
	},
	{
		"name": "CREAM",
		"latitude": "41-8-55.85 N",
		"longitude": "72-31-18.32 W",
		"state": "NEW YORK",
		"artcc": "ZBW",
		"type": "RP",
		"updated": "BDR*VOR/DME*103.29"
	},
	{
		"name": "CREPT",
		"latitude": "41-55-44.59 N",
		"longitude": "70-45-26.61 W",
		"state": "MASSACHUSETTS",
		"artcc": "ZBW",
		"type": "RNAV",
		"updated": "08/19/2016"
	},
	{
		"name": "CRESY",
		"latitude": "44-22-14.05 N",
		"longitude": "71-27-38.24 W",
		"state": "NEW HAMPSHIRE",
		"artcc": "ZBW",
		"type": "RNAV",
		"updated": "01/04/2010"
	},
	{
		"name": "CRIBB",
		"latitude": "42-39-55.94 N",
		"longitude": "72-27-0.86 W",
		"state": "MASSACHUSETTS",
		"artcc": "ZBW",
		"type": "RNAV",
		"updated": "11/17/2014"
	},
	{
		"name": "CROCR",
		"latitude": "42-25-39.2 N",
		"longitude": "70-44-24.08 W",
		"state": "MASSACHUSETTS",
		"artcc": "ZBW",
		"type": "RNAV",
		"updated": "09/08/2016"
	},
	{
		"name": "CROIX",
		"latitude": "46-17-20.77 N",
		"longitude": "68-16-7.61 W",
		"state": "MAINE",
		"artcc": "ZBW",
		"type": "RP",
		"updated": "PQI*VOR/DME*214.98/30.00"
	},
	{
		"name": "CUBOD",
		"latitude": "44-47-28.13 N",
		"longitude": "72-12-29.22 W",
		"state": "VERMONT",
		"artcc": "ZBW",
		"type": "RNAV",
		"updated": "11/04/2009"
	},
	{
		"name": "CUDAL",
		"latitude": "45-12-37.91 N",
		"longitude": "69-22-17.69 W",
		"state": "MAINE",
		"artcc": "ZBW",
		"type": "RNAV",
		"updated": "08/06/2007"
	},
	{
		"name": "CUDIB",
		"latitude": "44-42-8.8 N",
		"longitude": "69-32-46.45 W",
		"state": "MAINE",
		"artcc": "ZBW",
		"type": "RNAV",
		"updated": "05/21/2007"
	},
	{
		"name": "CUDVA",
		"latitude": "44-13-32.34 N",
		"longitude": "68-22-43.59 W",
		"state": "MAINE",
		"artcc": "ZBW",
		"type": "RNAV",
		"updated": "04/12/2006"
	},
	{
		"name": "CUDVO",
		"latitude": "43-57-49.27 N",
		"longitude": "70-45-44.25 W",
		"state": "MAINE",
		"artcc": "ZBW",
		"type": "RNAV",
		"updated": "09/30/2009"
	},
	{
		"name": "CUFDO",
		"latitude": "41-12-16.59 N",
		"longitude": "73-35-18.32 W",
		"state": "NEW YORK",
		"artcc": "ZBW",
		"type": "RNAV",
		"updated": "08/17/2010"
	},
	{
		"name": "CUGDA",
		"latitude": "41-9-33.95 N",
		"longitude": "71-40-58.83 W",
		"state": "RHODE ISLAND",
		"artcc": "ZBW",
		"type": "RNAV",
		"updated": "03/27/2007"
	},
	{
		"name": "CUGOG",
		"latitude": "41-33-23.87 N",
		"longitude": "70-45-25.66 W",
		"state": "MASSACHUSETTS",
		"artcc": "ZBW",
		"type": "RNAV",
		"updated": "04/13/2012"
	},
	{
		"name": "CUGOP",
		"latitude": "42-51-18.04 N",
		"longitude": "73-45-58.73 W",
		"state": "NEW YORK",
		"artcc": "ZBW",
		"type": "RNAV",
		"updated": "06/27/2011"
	},
	{
		"name": "CUHSI",
		"latitude": "41-26-10.74 N",
		"longitude": "70-32-30.96 W",
		"state": "MASSACHUSETTS",
		"artcc": "ZBW",
		"type": "CN",
		"updated": "12/04/2014"
	},
	{
		"name": "CUJKE",
		"latitude": "41-9-47.03 N",
		"longitude": "70-33-48.84 W",
		"state": "MASSACHUSETTS",
		"artcc": "ZBW",
		"type": "RP",
		"updated": "LFV*VOR/DME*221.00/56.44"
	},
	{
		"name": "CUKEK",
		"latitude": "42-3-12.19 N",
		"longitude": "70-18-38.15 W",
		"state": "MASSACHUSETTS",
		"artcc": "ZBW",
		"type": "CN",
		"updated": "12/04/2014"
	},
	{
		"name": "CUKPI",
		"latitude": "44-30-12.25 N",
		"longitude": "75-41-40.33 W",
		"state": "NEW YORK",
		"artcc": "ZBW",
		"type": "RNAV",
		"updated": "04/13/2012"
	},
	{
		"name": "CULSU",
		"latitude": "42-6-40.72 N",
		"longitude": "70-9-15.88 W",
		"state": "MASSACHUSETTS",
		"artcc": "ZBW",
		"type": "CN",
		"updated": "12/04/2014"
	},
	{
		"name": "CULVU",
		"latitude": "43-28-4.93 N",
		"longitude": "73-1-1.98 W",
		"state": "VERMONT",
		"artcc": "ZBW",
		"type": "RNAV",
		"updated": "11/12/2009"
	},
	{
		"name": "CUMBR",
		"latitude": "43-48-18.01 N",
		"longitude": "70-14-3.69 W",
		"state": "MAINE",
		"artcc": "ZBW",
		"type": "RNAV",
		"updated": "10/20/2017"
	},
	{
		"name": "CUNAR",
		"latitude": "44-28-49.53 N",
		"longitude": "68-15-43.12 W",
		"state": "MAINE",
		"artcc": "ZBW",
		"type": "RNAV",
		"updated": "09/29/2009"
	},
	{
		"name": "CUNIB",
		"latitude": "43-44-24.65 N",
		"longitude": "73-10-26.76 W",
		"state": "VERMONT",
		"artcc": "ZBW",
		"type": "RNAV",
		"updated": "11/04/2009"
	},
	{
		"name": "CUNVO",
		"latitude": "44-26-47.08 N",
		"longitude": "70-31-20.07 W",
		"state": "MAINE",
		"artcc": "ZBW",
		"type": "RNAV",
		"updated": "10/24/2008"
	},
	{
		"name": "CUPEG",
		"latitude": "44-43-50.29 N",
		"longitude": "69-21-45.36 W",
		"state": "MAINE",
		"artcc": "ZBW",
		"type": "RNAV",
		"updated": "04/23/2010"
	},
	{
		"name": "CUPEN",
		"latitude": "43-42-54.3 N",
		"longitude": "76-5-14.87 W",
		"state": "NEW YORK",
		"artcc": "ZBW",
		"type": "MR",
		"updated": "ART*VORTAC*196.00/14.25"
	},
	{
		"name": "CUPNU",
		"latitude": "41-18-58.69 N",
		"longitude": "69-46-35.92 W",
		"state": "MASSACHUSETTS",
		"artcc": "ZBW",
		"type": "RNAV",
		"updated": "08/08/2016"
	},
	{
		"name": "CUPUG",
		"latitude": "42-6-30.89 N",
		"longitude": "71-7-26.21 W",
		"state": "MASSACHUSETTS",
		"artcc": "ZBW",
		"type": "RNAV",
		"updated": "03/09/2006"
	},
	{
		"name": "CURDS",
		"latitude": "44-26-38.75 N",
		"longitude": "75-37-38.63 W",
		"state": "NEW YORK",
		"artcc": "ZBW",
		"type": "RNAV",
		"updated": "04/10/2017"
	},
	{
		"name": "CUREN",
		"latitude": "42-56-52.13 N",
		"longitude": "72-36-2.31 W",
		"state": "VERMONT",
		"artcc": "ZBW",
		"type": "RNAV",
		"updated": "01/15/2013"
	},
	{
		"name": "CURER",
		"latitude": "42-45-22.46 N",
		"longitude": "71-38-34.79 W",
		"state": "NEW HAMPSHIRE",
		"artcc": "ZBW",
		"type": "RNAV",
		"updated": "01/15/2013"
	},
	{
		"name": "CURLI",
		"latitude": "42-0-55.04 N",
		"longitude": "71-3-54.34 W",
		"state": "MASSACHUSETTS",
		"artcc": "ZBW",
		"type": "RP",
		"updated": "BOS*VOR/DME*205.35"
	},
	{
		"name": "CURUR",
		"latitude": "42-46-13.24 N",
		"longitude": "73-59-4.01 W",
		"state": "NEW YORK",
		"artcc": "ZBW",
		"type": "RNAV",
		"updated": "05/10/2011"
	},
	{
		"name": "CURVO",
		"latitude": "45-11-38.64 N",
		"longitude": "69-16-13.85 W",
		"state": "MAINE",
		"artcc": "ZBW",
		"type": "RNAV",
		"updated": "08/06/2007"
	},
	{
		"name": "CUSKA",
		"latitude": "41-48-37.56 N",
		"longitude": "71-21-13.46 W",
		"state": "RHODE ISLAND",
		"artcc": "ZBW",
		"type": "RP",
		"updated": "ARJ*LD*047.17/5.55"
	},
	{
		"name": "CUSOR",
		"latitude": "44-24-5.72 N",
		"longitude": "71-12-33.04 W",
		"state": "NEW HAMPSHIRE",
		"artcc": "ZBW",
		"type": "RNAV",
		"updated": "10/18/2010"
	},
	{
		"name": "CUTIV",
		"latitude": "41-54-53.07 N",
		"longitude": "71-29-18.57 W",
		"state": "RHODE ISLAND",
		"artcc": "ZBW",
		"type": "RP",
		"updated": "PVD*VOR/DME*001.00/11.72"
	},
	{
		"name": "CUTMA",
		"latitude": "41-16-49.83 N",
		"longitude": "73-5-33.45 W",
		"state": "CONNECTICUT",
		"artcc": "ZBW",
		"type": "RP",
		"updated": "OXC*LD*184.78/12.60"
	},
	{
		"name": "CUTOX",
		"latitude": "40-52-53.28 N",
		"longitude": "71-47-11.87 W",
		"state": "NEW YORK",
		"artcc": "ZBW",
		"type": "RP",
		"updated": "JFK*VOR/DME*092.00/91.71"
	},
	{
		"name": "CUTSA",
		"latitude": "42-51-47.85 N",
		"longitude": "71-31-47.06 W",
		"state": "NEW HAMPSHIRE",
		"artcc": "ZBW",
		"type": "RNAV",
		"updated": "07/07/2009"
	},
	{
		"name": "CUTUX",
		"latitude": "41-13-35.17 N",
		"longitude": "71-42-26.13 W",
		"state": "NEW YORK",
		"artcc": "ZBW",
		"type": "RNAV",
		"updated": "07/03/2012"
	},
	{
		"name": "CUVIN",
		"latitude": "40-44-40.14 N",
		"longitude": "72-46-9.53 W",
		"state": "NEW YORK",
		"artcc": "ZBW",
		"type": "RNAV",
		"updated": "04/02/2007"
	},
	{
		"name": "CUVLU",
		"latitude": "42-41-13.77 N",
		"longitude": "73-48-7.53 W",
		"state": "NEW YORK",
		"artcc": "ZBW",
		"type": "RNAV",
		"updated": "06/27/2011"
	},
	{
		"name": "CUVOT",
		"latitude": "44-43-14.12 N",
		"longitude": "68-42-10.31 W",
		"state": "MAINE",
		"artcc": "ZBW",
		"type": "RP",
		"updated": "BGR*LD*150.19/6.37"
	},
	{
		"name": "CUXOV",
		"latitude": "43-0-1.44 N",
		"longitude": "71-21-33.2 W",
		"state": "NEW HAMPSHIRE",
		"artcc": "ZBW",
		"type": "RNAV",
		"updated": "12/01/2006"
	},
	{
		"name": "CUYKI",
		"latitude": "44-16-27.59 N",
		"longitude": "69-46-5.76 W",
		"state": "MAINE",
		"artcc": "ZBW",
		"type": "CN",
		"updated": "12/04/2014"
	},
	{
		"name": "CUZBU",
		"latitude": "45-25-12.1 N",
		"longitude": "68-33-55.27 W",
		"state": "MAINE",
		"artcc": "ZBW",
		"type": "CN",
		"updated": "12/04/2014"
	},
	{
		"name": "CUZWA",
		"latitude": "45-17-48.49 N",
		"longitude": "67-27-58.22 W",
		"state": "MAINE",
		"artcc": "ZBW",
		"type": "RNAV",
		"updated": "09/20/2014"
	},
	{
		"name": "CVLRY",
		"latitude": "44-27-13.4 N",
		"longitude": "69-44-9.57 W",
		"state": "MAINE",
		"artcc": "ZBW",
		"type": "RP",
		"updated": "RLU*LD*226.58/6.03"
	},
	{
		"name": "CVRTN",
		"latitude": "40-55-46.65 N",
		"longitude": "72-47-55.86 W",
		"state": "NEW YORK",
		"artcc": "ZBW",
		"type": "WP",
		"updated": "12/11/1995"
	},
	{
		"name": "CYOTI",
		"latitude": "42-9-23.83 N",
		"longitude": "71-15-25.55 W",
		"state": "MASSACHUSETTS",
		"artcc": "ZBW",
		"type": "RNAV",
		"updated": "12/18/2003"
	},
	{
		"name": "CYPER",
		"latitude": "42-6-32.37 N",
		"longitude": "74-16-25.52 W",
		"state": "NEW YORK",
		"artcc": "ZBW",
		"type": "RP",
		"updated": "RKA*VOR/DME*127.17/48.05"
	},
	{
		"name": "CZIMR",
		"latitude": "41-8-34.54 N",
		"longitude": "73-45-53.77 W",
		"state": "NEW YORK",
		"artcc": "ZBW",
		"type": "RP",
		"updated": "CMK*VOR/DME*237.37"
	}
]
