[
	{
		"name": "DAAME",
		"latitude": "41-33-51.78 N",
		"longitude": "71-15-41.11 W",
		"state": "RHODE ISLAND",
		"artcc": "ZBW",
		"type": "RP",
		"updated": "PVD*VOR/DME*155.68"
	},
	{
		"name": "DAANK",
		"latitude": "44-36-34.9 N",
		"longitude": "67-49-41.95 W",
		"state": "MAINE",
		"artcc": "ZBW",
		"type": "RNAV",
		"updated": "11/15/2017"
	},
	{
		"name": "DAAVY",
		"latitude": "41-22-51.16 N",
		"longitude": "73-6-51.09 W",
		"state": "CONNECTICUT",
		"artcc": "ZBW",
		"type": "RP",
		"updated": "OXC*LD*184.78/6.50"
	},
	{
		"name": "DABTE",
		"latitude": "43-47-56.67 N",
		"longitude": "73-3-5.85 W",
		"state": "VERMONT",
		"artcc": "ZBW",
		"type": "RNAV",
		"updated": "09/24/2004"
	},
	{
		"name": "DABVE",
		"latitude": "41-2-41.24 N",
		"longitude": "73-20-24.59 W",
		"state": "CONNECTICUT",
		"artcc": "ZBW",
		"type": "RNAV",
		"updated": "10/14/2008"
	},
	{
		"name": "DACBE",
		"latitude": "41-2-52.98 N",
		"longitude": "71-57-39.71 W",
		"state": "NEW YORK",
		"artcc": "ZBW",
		"type": "RNAV",
		"updated": "07/03/2012"
	},
	{
		"name": "DACCI",
		"latitude": "44-16-55.03 N",
		"longitude": "69-46-22.7 W",
		"state": "MAINE",
		"artcc": "ZBW",
		"type": "RP",
		"updated": "AUG*VOR/DME*174.00/2.50"
	},
	{
		"name": "DADAY",
		"latitude": "44-23-47.82 N",
		"longitude": "72-0-23.69 W",
		"state": "VERMONT",
		"artcc": "ZBW",
		"type": "RNAV",
		"updated": "10/14/2010"
	},
	{
		"name": "DALIA",
		"latitude": "42-46-50.89 N",
		"longitude": "71-42-56.73 W",
		"state": "NEW HAMPSHIRE",
		"artcc": "ZBW",
		"type": "RNAV",
		"updated": "07/25/2005"
	},
	{
		"name": "DALSE",
		"latitude": "42-44-17.07 N",
		"longitude": "73-44-47.57 W",
		"state": "NEW YORK",
		"artcc": "ZBW",
		"type": "RNAV",
		"updated": "04/10/2002"
	},
	{
		"name": "DALYB",
		"latitude": "43-42-51.02 N",
		"longitude": "70-36-1.97 W",
		"state": "MAINE",
		"artcc": "ZBW",
		"type": "RNAV",
		"updated": "03/13/2012"
	},
	{
		"name": "DAMKE",
		"latitude": "42-20-25.89 N",
		"longitude": "73-54-52.17 W",
		"state": "NEW YORK",
		"artcc": "ZBW",
		"type": "RNAV",
		"updated": "04/10/2002"
	},
	{
		"name": "DANNS",
		"latitude": "41-42-17.31 N",
		"longitude": "72-38-34.14 W",
		"state": "CONNECTICUT",
		"artcc": "ZBW",
		"type": "RP",
		"updated": "HFD*VOR/DME*324.72"
	},
	{
		"name": "DANOH",
		"latitude": "44-8-34.8 N",
		"longitude": "70-13-28.64 W",
		"state": "MAINE",
		"artcc": "ZBW",
		"type": "RNAV",
		"updated": "06/21/2010"
	},
	{
		"name": "DARTH",
		"latitude": "41-56-55.86 N",
		"longitude": "72-16-20.8 W",
		"state": "CONNECTICUT",
		"artcc": "ZBW",
		"type": "RP",
		"updated": "PUT*VOR/DME*282.96"
	},
	{
		"name": "DATRR",
		"latitude": "41-37-57.43 N",
		"longitude": "74-13-18.56 W",
		"state": "NEW YORK",
		"artcc": "ZBW",
		"type": "RNAV",
		"updated": "02/03/2010"
	},
	{
		"name": "DAVDA",
		"latitude": "44-43-27 N",
		"longitude": "75-22-28.2 W",
		"state": "NEW YORK",
		"artcc": "ZBW",
		"type": "RNAV",
		"updated": "09/22/2014"
	},
	{
		"name": "DAVES",
		"latitude": "42-56-44.27 N",
		"longitude": "67-30-27.19 W",
		"state": "MAINE",
		"artcc": "ZBW",
		"type": "RP",
		"updated": "YQI*VOR/DME*250.00"
	},
	{
		"name": "DAVID",
		"latitude": "43-54-35.43 N",
		"longitude": "72-20-53.51 W",
		"state": "VERMONT",
		"artcc": "ZBW",
		"type": "RP",
		"updated": "LEB*VOR/DME*352.54/15.00"
	},
	{
		"name": "DCDGG",
		"latitude": "45-57-13.32 N",
		"longitude": "70-15-23.83 W",
		"state": "MAINE",
		"artcc": "ZBW",
		"type": "CN",
		"updated": "06/12/2002"
	},
	{
		"name": "DCLNK",
		"latitude": "46-6-59.6 N",
		"longitude": "70-15-3.59 W",
		"state": "MAINE",
		"artcc": "ZBW",
		"type": "CN",
		"updated": "06/12/2002"
	},
	{
		"name": "DEBYE",
		"latitude": "40-54-28.71 N",
		"longitude": "73-25-4.13 W",
		"state": "NEW YORK",
		"artcc": "ZBW",
		"type": "RNAV",
		"updated": "02/26/2010"
	},
	{
		"name": "DECAC",
		"latitude": "43-24-31.48 N",
		"longitude": "73-37-49.2 W",
		"state": "NEW YORK",
		"artcc": "ZBW",
		"type": "RNAV",
		"updated": "06/22/2010"
	},
	{
		"name": "DECAR",
		"latitude": "42-3-14.11 N",
		"longitude": "72-44-39.58 W",
		"state": "MASSACHUSETTS",
		"artcc": "ZBW",
		"type": "RP",
		"updated": "BAF*VORTAC*204.98/6.60"
	},
	{
		"name": "DECCO",
		"latitude": "42-23-32.22 N",
		"longitude": "72-23-53.29 W",
		"state": "MASSACHUSETTS",
		"artcc": "ZBW",
		"type": "MR",
		"updated": "CEF*VORTAC*040.00/13.00"
	},
	{
		"name": "DECEN",
		"latitude": "43-21-51.52 N",
		"longitude": "72-13-2 W",
		"state": "NEW HAMPSHIRE",
		"artcc": "ZBW",
		"type": "RNAV",
		"updated": "10/02/2012"
	},
	{
		"name": "DEDEC",
		"latitude": "43-40-54.87 N",
		"longitude": "71-9-22.63 W",
		"state": "NEW HAMPSHIRE",
		"artcc": "ZBW",
		"type": "RNAV",
		"updated": "01/20/2011"
	},
	{
		"name": "DEDHM",
		"latitude": "42-11-44.3 N",
		"longitude": "70-56-57.03 W",
		"state": "MASSACHUSETTS",
		"artcc": "ZBW",
		"type": "RNAV",
		"updated": "01/15/2013"
	},
	{
		"name": "DEEBA",
		"latitude": "45-14-37.88 N",
		"longitude": "69-22-27.02 W",
		"state": "MAINE",
		"artcc": "ZBW",
		"type": "RNAV",
		"updated": "06/17/2011"
	},
	{
		"name": "DEEDE",
		"latitude": "41-38-47.81 N",
		"longitude": "73-32-25.74 W",
		"state": "NEW YORK",
		"artcc": "ZBW",
		"type": "RP",
		"updated": "IGN*VOR/DME*107.00/12.72"
	},
	{
		"name": "DEEPO",
		"latitude": "41-6-53.96 N",
		"longitude": "70-50-9.85 W",
		"state": "MASSACHUSETTS",
		"artcc": "ZBW",
		"type": "RP",
		"updated": "MVY*VOR/DME*226.01"
	},
	{
		"name": "DEERR",
		"latitude": "44-48-2.66 N",
		"longitude": "74-22-49.42 W",
		"state": "NEW YORK",
		"artcc": "ZBW",
		"type": "RNAV",
		"updated": "04/10/2017"
	},
	{
		"name": "DEERY",
		"latitude": "40-39-21.78 N",
		"longitude": "73-17-10.73 W",
		"state": "NEW YORK",
		"artcc": "ZBW",
		"type": "RP",
		"updated": "DPK*VOR/DME*186.43"
	},
	{
		"name": "DEEZZ",
		"latitude": "41-6-52 N",
		"longitude": "73-46-40 W",
		"state": "NEW YORK",
		"artcc": "ZBW",
		"type": "RP",
		"updated": "DPK*VOR/DME*324.07/28.96"
	},
	{
		"name": "DEGEY",
		"latitude": "42-13-55.62 N",
		"longitude": "71-12-7.69 W",
		"state": "MASSACHUSETTS",
		"artcc": "ZBW",
		"type": "RNAV",
		"updated": "01/16/2004"
	},
	{
		"name": "DEJZU",
		"latitude": "45-19-39.61 N",
		"longitude": "67-45-52.17 W",
		"state": "MAINE",
		"artcc": "ZBW",
		"type": "RNAV",
		"updated": "01/22/2015"
	},
	{
		"name": "DEKOW",
		"latitude": "42-17-18.32 N",
		"longitude": "72-54-58.87 W",
		"state": "MASSACHUSETTS",
		"artcc": "ZBW",
		"type": "CN",
		"updated": "12/04/2014"
	},
	{
		"name": "DELCI",
		"latitude": "41-13-53.32 N",
		"longitude": "72-0-39.28 W",
		"state": "RHODE ISLAND",
		"artcc": "ZBW",
		"type": "RNAV",
		"updated": "04/12/2002"
	},
	{
		"name": "DELGE",
		"latitude": "44-23-56.43 N",
		"longitude": "68-55-39.08 W",
		"state": "MAINE",
		"artcc": "ZBW",
		"type": "RNAV",
		"updated": "06/20/2010"
	},
	{
		"name": "DEMBE",
		"latitude": "41-40-30.53 N",
		"longitude": "70-30-11.1 W",
		"state": "MASSACHUSETTS",
		"artcc": "ZBW",
		"type": "RP",
		"updated": "FMH*LD*053.94"
	},
	{
		"name": "DENNA",
		"latitude": "41-13-59.78 N",
		"longitude": "73-11-37.93 W",
		"state": "CONNECTICUT",
		"artcc": "ZBW",
		"type": "RP",
		"updated": "BDR*VOR/DME*336.19"
	},
	{
		"name": "DENNO",
		"latitude": "42-3-0.29 N",
		"longitude": "72-32-29.26 W",
		"state": "MASSACHUSETTS",
		"artcc": "ZBW",
		"type": "RNAV",
		"updated": "08/27/2011"
	},
	{
		"name": "DEPTE",
		"latitude": "42-14-24.07 N",
		"longitude": "72-29-26.8 W",
		"state": "MASSACHUSETTS",
		"artcc": "ZBW",
		"type": "MR",
		"updated": "CEF*VORTAC*/3.00"
	},
	{
		"name": "DESLO",
		"latitude": "42-25-58.76 N",
		"longitude": "71-33-14.4 W",
		"state": "MASSACHUSETTS",
		"artcc": "ZBW",
		"type": "RNAV",
		"updated": "07/25/2005"
	},
	{
		"name": "DETFI",
		"latitude": "44-23-31.7 N",
		"longitude": "72-10-19.64 W",
		"state": "VERMONT",
		"artcc": "ZBW",
		"type": "RNAV",
		"updated": "12/18/2006"
	},
	{
		"name": "DETVE",
		"latitude": "43-5-22.24 N",
		"longitude": "76-18-37.32 W",
		"state": "NEW YORK",
		"artcc": "ZBW",
		"type": "RNAV",
		"updated": "06/11/2002"
	},
	{
		"name": "DEVSE",
		"latitude": "43-14-34.4 N",
		"longitude": "72-36-43.38 W",
		"state": "VERMONT",
		"artcc": "ZBW",
		"type": "RNAV",
		"updated": "04/12/2002"
	},
	{
		"name": "DEWEE",
		"latitude": "42-15-11.81 N",
		"longitude": "71-36-56.93 W",
		"state": "MASSACHUSETTS",
		"artcc": "ZBW",
		"type": "RNAV",
		"updated": "05/10/2012"
	},
	{
		"name": "DEXXY",
		"latitude": "43-20-23.29 N",
		"longitude": "70-37-8.6 W",
		"state": "MAINE",
		"artcc": "ZBW",
		"type": "RNAV",
		"updated": "06/21/2010"
	},
	{
		"name": "DHUTI",
		"latitude": "43-30-46.33 N",
		"longitude": "72-16-52.97 W",
		"state": "NEW HAMPSHIRE",
		"artcc": "ZBW",
		"type": "RNAV",
		"updated": "12/19/2016"
	},
	{
		"name": "DIKEY",
		"latitude": "42-9-29.52 N",
		"longitude": "71-9-19.18 W",
		"state": "MASSACHUSETTS",
		"artcc": "ZBW",
		"type": "RP",
		"updated": "OWD*LE*169.77/2.48"
	},
	{
		"name": "DIKIE",
		"latitude": "41-21-49.44 N",
		"longitude": "72-45-56.61 W",
		"state": "CONNECTICUT",
		"artcc": "ZBW",
		"type": "RNAV",
		"updated": "10/15/2012"
	},
	{
		"name": "DILLN",
		"latitude": "41-58-7.29 N",
		"longitude": "72-49-31.3 W",
		"state": "CONNECTICUT",
		"artcc": "ZBW",
		"type": "RNAV",
		"updated": "02/22/2018"
	},
	{
		"name": "DINNO",
		"latitude": "42-56-6.54 N",
		"longitude": "75-40-55.57 W",
		"state": "NEW YORK",
		"artcc": "ZBW",
		"type": "RP",
		"updated": "RKA*VOR/DME*336.28/34.27"
	},
	{
		"name": "DINNY",
		"latitude": "44-9-17.72 N",
		"longitude": "74-8-48.7 W",
		"state": "NEW YORK",
		"artcc": "ZBW",
		"type": "RP",
		"updated": "BTV*VOR/DME*266.07"
	},
	{
		"name": "DIPEY",
		"latitude": "45-35-25.48 N",
		"longitude": "69-53-24.62 W",
		"state": "MAINE",
		"artcc": "ZBW",
		"type": "RNAV",
		"updated": "01/26/2009"
	},
	{
		"name": "DIPGY",
		"latitude": "43-4-44.98 N",
		"longitude": "70-32-12.16 W",
		"state": "MAINE",
		"artcc": "ZBW",
		"type": "RNAV",
		"updated": "07/07/2003"
	},
	{
		"name": "DIPPR",
		"latitude": "42-53-47.27 N",
		"longitude": "75-36-27.48 W",
		"state": "NEW YORK",
		"artcc": "ZBW",
		"type": "RNAV",
		"updated": "08/25/2010"
	},
	{
		"name": "DIRNE",
		"latitude": "44-36-41.22 N",
		"longitude": "68-7-53.06 W",
		"state": "MAINE",
		"artcc": "ZBW",
		"type": "RNAV",
		"updated": "12/27/2010"
	},
	{
		"name": "DIWMU",
		"latitude": "41-27-54.98 N",
		"longitude": "70-25-1.02 W",
		"state": "MASSACHUSETTS",
		"artcc": "ZBW",
		"type": "RNAV",
		"updated": "06/04/2014"
	},
	{
		"name": "DIXNN",
		"latitude": "42-34-35.17 N",
		"longitude": "71-2-35.69 W",
		"state": "MASSACHUSETTS",
		"artcc": "ZBW",
		"type": "RNAV",
		"updated": "09/08/2016"
	},
	{
		"name": "DIYAD",
		"latitude": "41-26-8.92 N",
		"longitude": "74-17-39.72 W",
		"state": "NEW YORK",
		"artcc": "ZNY",
		"type": "RP",
		"updated": "HUO*VOR/DME*094.24/13.51"
	},
	{
		"name": "DIYED",
		"latitude": "43-39-17.39 N",
		"longitude": "70-2-49.61 W",
		"state": "MAINE",
		"artcc": "ZBW",
		"type": "RNAV",
		"updated": "09/29/2009"
	},
	{
		"name": "DMFZP",
		"latitude": "42-34-7.31 N",
		"longitude": "72-16-45.76 W",
		"state": "MASSACHUSETTS",
		"artcc": "ZBW",
		"type": "CN",
		"updated": "12/04/2014"
	},
	{
		"name": "DMLWW",
		"latitude": "41-42-28.5 N",
		"longitude": "72-59-18.37 W",
		"state": "CONNECTICUT",
		"artcc": "ZBW",
		"type": "CN",
		"updated": "12/04/2014"
	},
	{
		"name": "DMMHK",
		"latitude": "42-57-33.94 N",
		"longitude": "71-21-23.57 W",
		"state": "NEW HAMPSHIRE",
		"artcc": "ZBW",
		"type": "CN",
		"updated": "12/04/2014"
	},
	{
		"name": "DMYES",
		"latitude": "42-33-42.57 N",
		"longitude": "70-54-33.28 W",
		"state": "MASSACHUSETTS",
		"artcc": "ZBW",
		"type": "CN",
		"updated": "12/04/2014"
	},
	{
		"name": "DNWLS",
		"latitude": "44-54-1.17 N",
		"longitude": "74-16-57.42 W",
		"state": "NEW YORK",
		"artcc": "ZBW",
		"type": "RNAV",
		"updated": "09/14/2012"
	},
	{
		"name": "DOBTE",
		"latitude": "43-45-2.41 N",
		"longitude": "75-57-42.62 W",
		"state": "NEW YORK",
		"artcc": "ZBW",
		"type": "MW",
		"updated": "06/26/2009"
	},
	{
		"name": "DOCEB",
		"latitude": "42-4-11.36 N",
		"longitude": "72-52-5.81 W",
		"state": "MASSACHUSETTS",
		"artcc": "ZBW",
		"type": "RNAV",
		"updated": "02/22/2018"
	},
	{
		"name": "DOCLO",
		"latitude": "42-40-35.15 N",
		"longitude": "76-5-45.47 W",
		"state": "NEW YORK",
		"artcc": "ZNY",
		"type": "CN",
		"updated": "06/07/2002"
	},
	{
		"name": "DODNE",
		"latitude": "41-58-47.28 N",
		"longitude": "71-9-58.41 W",
		"state": "MASSACHUSETTS",
		"artcc": "ZBW",
		"type": "RNAV",
		"updated": "03/09/2006"
	},
	{
		"name": "DOGDE",
		"latitude": "44-27-2.6 N",
		"longitude": "71-10-48.82 W",
		"state": "NEW HAMPSHIRE",
		"artcc": "ZBW",
		"type": "RNAV",
		"updated": "10/18/2010"
	},
	{
		"name": "DOJEN",
		"latitude": "43-34-41.92 N",
		"longitude": "71-5-55.22 W",
		"state": "NEW HAMPSHIRE",
		"artcc": "ZBW",
		"type": "RNAV",
		"updated": "07/23/2007"
	},
	{
		"name": "DONGY",
		"latitude": "44-10-17.2 N",
		"longitude": "72-52-53.47 W",
		"state": "VERMONT",
		"artcc": "ZBW",
		"type": "RNAV",
		"updated": "03/11/2011"
	},
	{
		"name": "DONNN",
		"latitude": "41-47-34.25 N",
		"longitude": "70-4-46.91 W",
		"state": "MASSACHUSETTS",
		"artcc": "ZBW",
		"type": "RNAV",
		"updated": "04/08/2009"
	},
	{
		"name": "DOOTY",
		"latitude": "44-27-56.8 N",
		"longitude": "73-8-30.45 W",
		"state": "VERMONT",
		"artcc": "ZBW",
		"type": "WP",
		"updated": "11/08/1995"
	},
	{
		"name": "DOPEE",
		"latitude": "44-37-2.67 N",
		"longitude": "69-51-6.05 W",
		"state": "MAINE",
		"artcc": "ZBW",
		"type": "RP",
		"updated": "AUG*VOR/DME*010.46/18.00"
	},
	{
		"name": "DORAE",
		"latitude": "44-11-20.24 N",
		"longitude": "68-34-31.28 W",
		"state": "MAINE",
		"artcc": "ZBW",
		"type": "RNAV",
		"updated": "11/08/2007"
	},
	{
		"name": "DORIE",
		"latitude": "44-45-42.35 N",
		"longitude": "74-59-32.88 W",
		"state": "NEW YORK",
		"artcc": "ZBW",
		"type": "RP",
		"updated": "PTD*NDB*310.17"
	},
	{
		"name": "DORIS",
		"latitude": "42-58-42.88 N",
		"longitude": "73-3-51.57 W",
		"state": "VERMONT",
		"artcc": "ZBW",
		"type": "RP",
		"updated": "CAM*VOR/DME*108.28/12.35"
	},
	{
		"name": "DOSAE",
		"latitude": "44-9-19.3 N",
		"longitude": "68-49-42.12 W",
		"state": "MAINE",
		"artcc": "ZBW",
		"type": "RNAV",
		"updated": "11/08/2007"
	},
	{
		"name": "DOUNS",
		"latitude": "42-37-15.84 N",
		"longitude": "75-33-55.06 W",
		"state": "NEW YORK",
		"artcc": "ZBW",
		"type": "RNAV",
		"updated": "06/22/2010"
	},
	{
		"name": "DREEM",
		"latitude": "42-21-42.65 N",
		"longitude": "71-44-34.13 W",
		"state": "MASSACHUSETTS",
		"artcc": "ZBW",
		"type": "RP",
		"updated": "HFD*VOR/DME*052.51/56.25"
	},
	{
		"name": "DRESS",
		"latitude": "41-31-5.94 N",
		"longitude": "72-53-9.6 W",
		"state": "CONNECTICUT",
		"artcc": "ZBW",
		"type": "RNAV",
		"updated": "03/20/2015"
	},
	{
		"name": "DTONA",
		"latitude": "41-45-10.35 N",
		"longitude": "74-17-34.07 W",
		"state": "NEW YORK",
		"artcc": "ZBW",
		"type": "RNAV",
		"updated": "02/03/2010"
	},
	{
		"name": "DUBIN",
		"latitude": "42-54-43.15 N",
		"longitude": "71-59-35.41 W",
		"state": "NEW HAMPSHIRE",
		"artcc": "ZBW",
		"type": "RP",
		"updated": "MHT*VOR/DME*290.63/27.63"
	},
	{
		"name": "DUBLE",
		"latitude": "42-36-50.17 N",
		"longitude": "72-2-31.58 W",
		"state": "MASSACHUSETTS",
		"artcc": "ZBW",
		"type": "RNAV",
		"updated": "09/27/2014"
	},
	{
		"name": "DUBYU",
		"latitude": "42-23-44.55 N",
		"longitude": "71-20-44.54 W",
		"state": "MASSACHUSETTS",
		"artcc": "ZBW",
		"type": "RNAV",
		"updated": "01/15/2013"
	},
	{
		"name": "DUCEB",
		"latitude": "43-54-55.93 N",
		"longitude": "68-54-48.59 W",
		"state": "MAINE",
		"artcc": "ZBW",
		"type": "RNAV",
		"updated": "06/21/2010"
	},
	{
		"name": "DUCED",
		"latitude": "45-1-22.45 N",
		"longitude": "73-7-8.81 W",
		"state": "",
		"artcc": "ZBW",
		"type": "RNAV",
		"updated": "04/26/2011"
	},
	{
		"name": "DUCEG",
		"latitude": "41-49-24.93 N",
		"longitude": "70-27-37.25 W",
		"state": "MASSACHUSETTS",
		"artcc": "ZBW",
		"type": "RP",
		"updated": "LFV*VOR/DME*254.65"
	},
	{
		"name": "DUDDA",
		"latitude": "40-37-32.85 N",
		"longitude": "72-57-23.29 W",
		"state": "NEW YORK",
		"artcc": "ZBW",
		"type": "RNAV",
		"updated": "06/21/2011"
	},
	{
		"name": "DUEYS",
		"latitude": "41-9-9.46 N",
		"longitude": "73-47-48.52 W",
		"state": "NEW YORK",
		"artcc": "ZBW",
		"type": "RP",
		"updated": "CMK*VOR/DME*244.00/12.39"
	},
	{
		"name": "DUGSE",
		"latitude": "44-7-2.48 N",
		"longitude": "68-37-11.87 W",
		"state": "MAINE",
		"artcc": "ZBW",
		"type": "RNAV",
		"updated": "10/01/2009"
	},
	{
		"name": "DUKDE",
		"latitude": "44-20-57.77 N",
		"longitude": "68-55-8.48 W",
		"state": "MAINE",
		"artcc": "ZBW",
		"type": "RNAV",
		"updated": "06/20/2010"
	},
	{
		"name": "DUNBO",
		"latitude": "40-52-3.33 N",
		"longitude": "73-42-16.7 W",
		"state": "NEW YORK",
		"artcc": "ZBW",
		"type": "RP",
		"updated": "DPK*VOR/DME*296.11/18.82"
	},
	{
		"name": "DUNEE",
		"latitude": "40-19-24.38 N",
		"longitude": "73-2-26.06 W",
		"state": "NEW YORK",
		"artcc": "ZBW",
		"type": "RP",
		"updated": "JFK*VOR/DME*130.77/38.26"
	},
	{
		"name": "DUNKK",
		"latitude": "42-4-54.15 N",
		"longitude": "70-39-22.83 W",
		"state": "MASSACHUSETTS",
		"artcc": "ZBW",
		"type": "RP",
		"updated": "LFV*VOR/DME*294.17"
	},
	{
		"name": "DUNNS",
		"latitude": "44-24-37.25 N",
		"longitude": "69-51-44.06 W",
		"state": "MAINE",
		"artcc": "ZBW",
		"type": "RP",
		"updated": "05/17/2012"
	},
	{
		"name": "DUNOM",
		"latitude": "44-54-6.95 N",
		"longitude": "67-0-0 W",
		"state": "MAINE",
		"artcc": "ZBW",
		"type": "RNAV",
		"updated": "09/20/2014"
	},
	{
		"name": "DUPKE",
		"latitude": "41-6-56.28 N",
		"longitude": "69-52-22.25 W",
		"state": "MASSACHUSETTS",
		"artcc": "ZBW",
		"type": "RNAV",
		"updated": "03/27/2009"
	},
	{
		"name": "DURIN",
		"latitude": "44-28-41.9 N",
		"longitude": "69-6-48.94 W",
		"state": "MAINE",
		"artcc": "ZBW",
		"type": "RNAV",
		"updated": "10/23/2014"
	},
	{
		"name": "DUVDE",
		"latitude": "44-7-12.95 N",
		"longitude": "68-41-10.11 W",
		"state": "MAINE",
		"artcc": "ZBW",
		"type": "RNAV",
		"updated": "09/15/2009"
	},
	{
		"name": "DUYPA",
		"latitude": "42-6-6.36 N",
		"longitude": "73-20-39.78 W",
		"state": "MASSACHUSETTS",
		"artcc": "ZBW",
		"type": "RNAV",
		"updated": "09/06/2012"
	},
	{
		"name": "DVANY",
		"latitude": "41-51-44.56 N",
		"longitude": "72-18-11.25 W",
		"state": "CONNECTICUT",
		"artcc": "ZBW",
		"type": "RP",
		"updated": "HFD*VOR/DME*052.50/17.22"
	},
	{
		"name": "DWAIN",
		"latitude": "41-17-58.03 N",
		"longitude": "72-57-32.8 W",
		"state": "CONNECTICUT",
		"artcc": "ZBW",
		"type": "RP",
		"updated": "BDR*VOR/DME*053.93/11.19"
	},
	{
		"name": "DWOLF",
		"latitude": "41-50-3.11 N",
		"longitude": "72-38-41.85 W",
		"state": "CONNECTICUT",
		"artcc": "ZBW",
		"type": "RNAV",
		"updated": "02/22/2018"
	}
]
