	{
		"name": "FABEN",
		"latitude": "42-51-12.04 N",
		"longitude": "75-57-7.91 W",
		"state": "NEW YORK",
		"artcc": "ZBW",
		"type": "RNAV",
		"updated": "09/20/2014",
	},
	{
		"name": "FABIG",
		"latitude": "43-1-11.72 N",
		"longitude": "71-10-50.53 W",
		"state": "NEW HAMPSHIRE",
		"artcc": "ZBW",
		"type": "RNAV",
		"updated": "11/28/2007",
	},
	{
		"name": "FABIM",
		"latitude": "43-36-58.2 N",
		"longitude": "71-8-27.47 W",
		"state": "NEW HAMPSHIRE",
		"artcc": "ZBW",
		"type": "RNAV",
		"updated": "01/20/2011",
	},
	{
		"name": "FABIX",
		"latitude": "42-3-4 N",
		"longitude": "70-16-7.01 W",
		"state": "MASSACHUSETTS",
		"artcc": "ZBW",
		"type": "RP",
		"updated": "LFV*VOR/DME*297.20",
	},
	{
		"name": "FACNO",
		"latitude": "43-19-53.71 N",
		"longitude": "70-50-31.25 W",
		"state": "MAINE",
		"artcc": "ZBW",
		"type": "RP",
		"updated": "PSM*VOR/DME*014.30",
	},
	{
		"name": "FAIDS",
		"latitude": "42-17-0.75 N",
		"longitude": "72-30-33.91 W",
		"state": "MASSACHUSETTS",
		"artcc": "ZBW",
		"type": "RP",
		"updated": "BAF*VORTAC*065.58/11.75",
	},
	{
		"name": "FAIRI",
		"latitude": "40-55-51.46 N",
		"longitude": "72-32-21.32 W",
		"state": "NEW YORK",
		"artcc": "ZBW",
		"type": "MR",
		"updated": "FOK*TACAN*049.99/7.00",
	},
	{
		"name": "FALAG",
		"latitude": "41-41-25.94 N",
		"longitude": "71-29-56.59 W",
		"state": "RHODE ISLAND",
		"artcc": "ZBW",
		"type": "RP",
		"updated": "PVD*VOR/DME*251.00",
	},
	{
		"name": "FALBO",
		"latitude": "43-43-13.9 N",
		"longitude": "70-7-4.03 W",
		"state": "MAINE",
		"artcc": "ZBW",
		"type": "RNAV",
		"updated": "09/29/2009",
	},
	{
		"name": "FALLN",
		"latitude": "43-17-12.63 N",
		"longitude": "76-18-20.28 W",
		"state": "NEW YORK",
		"artcc": "ZBW",
		"type": "RP",
		"updated": "FZY*LD*149.90/5.79",
	},
	{
		"name": "FALMA",
		"latitude": "41-22-22.16 N",
		"longitude": "71-10-16.25 W",
		"state": "RHODE ISLAND",
		"artcc": "ZBW",
		"type": "RP",
		"updated": "PVD*VOR/DME*165.00",
	},
	{
		"name": "FALMO",
		"latitude": "44-5-28.19 N",
		"longitude": "70-15-26.23 W",
		"state": "MAINE",
		"artcc": "ZBW",
		"type": "RNAV",
		"updated": "01/26/2005",
	},
	{
		"name": "FALOX",
		"latitude": "42-31-20.43 N",
		"longitude": "73-27-54 W",
		"state": "NEW YORK",
		"artcc": "ZBW",
		"type": "RNAV",
		"updated": "04/10/2002",
	},
	{
		"name": "FALVU",
		"latitude": "44-21-15.61 N",
		"longitude": "70-41-1.63 W",
		"state": "MAINE",
		"artcc": "ZBW",
		"type": "RNAV",
		"updated": "05/11/2012",
	},
	{
		"name": "FALZA",
		"latitude": "42-46-8.67 N",
		"longitude": "71-36-13.44 W",
		"state": "NEW HAMPSHIRE",
		"artcc": "ZBW",
		"type": "RNAV",
		"updated": "07/25/2005",
	},
	{
		"name": "FAMCI",
		"latitude": "44-45-34.86 N",
		"longitude": "70-9-32.66 W",
		"state": "MAINE",
		"artcc": "ZBW",
		"type": "RNAV",
		"updated": "03/10/2015",
	},
	{
		"name": "FAMEP",
		"latitude": "43-10-21.92 N",
		"longitude": "76-18-58.14 W",
		"state": "NEW YORK",
		"artcc": "ZBW",
		"type": "RNAV",
		"updated": "07/22/2002",
	},
	{
		"name": "FAMMA",
		"latitude": "41-0-35.68 N",
		"longitude": "73-40-54.79 W",
		"state": "NEW YORK",
		"artcc": "ZBW",
		"type": "RP",
		"updated": "DPK*VOR/DME*319.36/21.61",
	},
	{
		"name": "FANRA",
		"latitude": "45-7-58.57 N",
		"longitude": "70-4-19.15 W",
		"state": "MAINE",
		"artcc": "ZBW",
		"type": "RNAV",
		"updated": "10/23/2008",
	},
	{
		"name": "FAPGO",
		"latitude": "42-40-12.58 N",
		"longitude": "75-33-26.68 W",
		"state": "NEW YORK",
		"artcc": "ZBW",
		"type": "RNAV",
		"updated": "08/31/2015",
	},
	{
		"name": "FAPIM",
		"latitude": "44-14-42.2 N",
		"longitude": "73-53-32.22 W",
		"state": "NEW YORK",
		"artcc": "ZBW",
		"type": "RNAV",
		"updated": "04/15/2003",
	},
	{
		"name": "FARAN",
		"latitude": "41-17-43.76 N",
		"longitude": "73-52-56.32 W",
		"state": "NEW YORK",
		"artcc": "ZBW",
		"type": "RP",
		"updated": "CMK*VOR/DME*285.98",
	},
	{
		"name": "FARED",
		"latitude": "42-1-31.5 N",
		"longitude": "70-54-50.2 W",
		"state": "MASSACHUSETTS",
		"artcc": "ZBW",
		"type": "RNAV",
		"updated": "08/19/2016",
	},
	{
		"name": "FARGU",
		"latitude": "41-3-4.95 N",
		"longitude": "69-57-29.18 W",
		"state": "MASSACHUSETTS",
		"artcc": "ZBW",
		"type": "RNAV",
		"updated": "03/26/2014",
	},
	{
		"name": "FARIL",
		"latitude": "41-57-59.46 N",
		"longitude": "72-39-4.81 W",
		"state": "CONNECTICUT",
		"artcc": "ZBW",
		"type": "RP",
		"updated": "BAF*VORTAC*180.09",
	},
	{
		"name": "FARNU",
		"latitude": "42-47-9.93 N",
		"longitude": "72-16-29.92 W",
		"state": "NEW HAMPSHIRE",
		"artcc": "ZBW",
		"type": "RNAV",
		"updated": "11/04/2009",
	},
	{
		"name": "FAROX",
		"latitude": "43-25-5.89 N",
		"longitude": "73-2-11.13 W",
		"state": "VERMONT",
		"artcc": "ZBW",
		"type": "RP",
		"updated": "RUT*VOR/DME*224.99/7.50",
	},
	{
		"name": "FASEM",
		"latitude": "42-18-59.22 N",
		"longitude": "71-7-26.36 W",
		"state": "MASSACHUSETTS",
		"artcc": "ZBW",
		"type": "RNAV",
		"updated": "11/14/2013",
	},
	{
		"name": "FATON",
		"latitude": "40-12-27.41 N",
		"longitude": "73-2-21.53 W",
		"state": "OFFSHORE ATLANTIC",
		"artcc": "ZBW",
		"type": "RNAV",
		"updated": "03/23/2018",
	},
	{
		"name": "FATUP",
		"latitude": "43-1-31.89 N",
		"longitude": "76-3-59.74 W",
		"state": "NEW YORK",
		"artcc": "ZBW",
		"type": "RP",
		"updated": "SYR*VORTAC*154.12/10.12",
	},
	{
		"name": "FAVNU",
		"latitude": "45-33-12.37 N",
		"longitude": "69-40-31.75 W",
		"state": "MAINE",
		"artcc": "ZBW",
		"type": "RNAV",
		"updated": "12/19/2008",
	},
	{
		"name": "FAWNS",
		"latitude": "44-59-36.44 N",
		"longitude": "74-5-25.18 W",
		"state": "NEW YORK",
		"artcc": "ZBW",
		"type": "RP",
		"updated": "MSS*VORTAC*093.79",
	},
	{
		"name": "FAXIB",
		"latitude": "43-0-39.28 N",
		"longitude": "73-32-56.3 W",
		"state": "NEW YORK",
		"artcc": "ZBW",
		"type": "RNAV",
		"updated": "04/20/2004",
	},
	{
		"name": "FAYET",
		"latitude": "43-7-39.54 N",
		"longitude": "75-56-31.4 W",
		"state": "NEW YORK",
		"artcc": "ZBW",
		"type": "RP",
		"updated": "GGT*VORTAC*357.00",
	},
	{
		"name": "FEAST",
		"latitude": "40-57-37.93 N",
		"longitude": "72-8-24.63 W",
		"state": "NEW YORK",
		"artcc": "ZBW",
		"type": "RNAV",
		"updated": "01/22/2015",
	},
	{
		"name": "FEBGI",
		"latitude": "44-0-48.29 N",
		"longitude": "70-45-18.2 W",
		"state": "MAINE",
		"artcc": "ZBW",
		"type": "RNAV",
		"updated": "09/30/2009",
	},
	{
		"name": "FEBLO",
		"latitude": "44-56-54.42 N",
		"longitude": "71-31-44.62 W",
		"state": "VERMONT",
		"artcc": "ZBW",
		"type": "RNAV",
		"updated": "01/12/2011",
	},
	{
		"name": "FEBMA",
		"latitude": "43-9-26.23 N",
		"longitude": "71-36-24.31 W",
		"state": "NEW HAMPSHIRE",
		"artcc": "ZBW",
		"type": "RNAV",
		"updated": "11/04/2009",
	},
	{
		"name": "FEBUT",
		"latitude": "42-12-42.1 N",
		"longitude": "75-50-17.05 W",
		"state": "NEW YORK",
		"artcc": "ZNY",
		"type": "RNAV",
		"updated": "02/22/2011",
	},
	{
		"name": "FEDAS",
		"latitude": "44-26-30.36 N",
		"longitude": "73-14-49.7 W",
		"state": "VERMONT",
		"artcc": "ZBW",
		"type": "RNAV",
		"updated": "11/04/2009",
	},
	{
		"name": "FEDED",
		"latitude": "41-54-24.5 N",
		"longitude": "71-16-20.74 W",
		"state": "MASSACHUSETTS",
		"artcc": "ZBW",
		"type": "RNAV",
		"updated": "08/01/2011",
	},
	{
		"name": "FEDUT",
		"latitude": "44-47-44.62 N",
		"longitude": "67-22-46.31 W",
		"state": "MAINE",
		"artcc": "ZBW",
		"type": "RNAV",
		"updated": "12/22/2008",
	},
	{
		"name": "FEFOX",
		"latitude": "41-40-43.78 N",
		"longitude": "71-21-52.46 W",
		"state": "RHODE ISLAND",
		"artcc": "ZBW",
		"type": "CN",
		"updated": "12/04/2014",
	},
	{
		"name": "FEGUD",
		"latitude": "44-51-42.09 N",
		"longitude": "66-55-14.75 W",
		"state": "MAINE",
		"artcc": "ZBW",
		"type": "RNAV",
		"updated": "06/19/2017",
	},
	{
		"name": "FEHLO",
		"latitude": "42-40-9.36 N",
		"longitude": "76-37-22.13 W",
		"state": "NEW YORK",
		"artcc": "ZNY",
		"type": "RNAV",
		"updated": "10/23/2014",
	},
	{
		"name": "FEKOX",
		"latitude": "43-42-37.67 N",
		"longitude": "72-19-35.41 W",
		"state": "VERMONT",
		"artcc": "ZBW",
		"type": "RNAV",
		"updated": "11/04/2009",
	},
	{
		"name": "FEKWU",
		"latitude": "41-36-31.76 N",
		"longitude": "71-20-26.35 W",
		"state": "RHODE ISLAND",
		"artcc": "ZBW",
		"type": "RP",
		"updated": "PVD*VOR/DME*163.96/8.01",
	},
	{
		"name": "FELKA",
		"latitude": "43-16-36.02 N",
		"longitude": "72-57-38.96 W",
		"state": "VERMONT",
		"artcc": "ZBW",
		"type": "RP",
		"updated": "RUT*VOR/DME*196.70/15.00",
	},
	{
		"name": "FEMAS",
		"latitude": "45-33-6.09 N",
		"longitude": "69-31-59.56 W",
		"state": "MAINE",
		"artcc": "ZBW",
		"type": "RNAV",
		"updated": "12/19/2008",
	},
	{
		"name": "FEMIG",
		"latitude": "44-38-5.16 N",
		"longitude": "70-2-2.41 W",
		"state": "MAINE",
		"artcc": "ZBW",
		"type": "RNAV",
		"updated": "04/24/2007",
	},
	{
		"name": "FENDU",
		"latitude": "42-3-56.95 N",
		"longitude": "72-38-42.47 W",
		"state": "MASSACHUSETTS",
		"artcc": "ZBW",
		"type": "RNAV",
		"updated": "11/05/2013",
	},
	{
		"name": "FENUB",
		"latitude": "42-27-32.05 N",
		"longitude": "75-31-50.39 W",
		"state": "NEW YORK",
		"artcc": "ZBW",
		"type": "RNAV",
		"updated": "08/31/2015",
	},
	{
		"name": "FENVO",
		"latitude": "44-54-20.71 N",
		"longitude": "72-13-23.51 W",
		"state": "VERMONT",
		"artcc": "ZBW",
		"type": "RNAV",
		"updated": "11/04/2009",
	},
	{
		"name": "FENWY",
		"latitude": "42-22-38.4 N",
		"longitude": "70-43-40.17 W",
		"state": "MASSACHUSETTS",
		"artcc": "ZBW",
		"type": "RNAV",
		"updated": "01/15/2013",
	},
	{
		"name": "FEPUV",
		"latitude": "44-28-34.7 N",
		"longitude": "70-27-58.61 W",
		"state": "MAINE",
		"artcc": "ZBW",
		"type": "RNAV",
		"updated": "10/24/2008",
	},
	{
		"name": "FERIM",
		"latitude": "45-3-54.76 N",
		"longitude": "69-18-37.14 W",
		"state": "MAINE",
		"artcc": "ZBW",
		"type": "RNAV",
		"updated": "06/17/2011",
	},
	{
		"name": "FERNS",
		"latitude": "43-1-53.05 N",
		"longitude": "71-29-0.74 W",
		"state": "NEW HAMPSHIRE",
		"artcc": "ZBW",
		"type": "RP",
		"updated": "PSM*VOR/DME*279.89",
	},
	{
		"name": "FERNZ",
		"latitude": "41-50-35.4 N",
		"longitude": "69-46-53.11 W",
		"state": "MASSACHUSETTS",
		"artcc": "ZBW",
		"type": "RNAV",
		"updated": "09/27/2014",
	},
	{
		"name": "FEROG",
		"latitude": "46-31-6.26 N",
		"longitude": "67-59-8.18 W",
		"state": "MAINE",
		"artcc": "ZBW",
		"type": "RP",
		"updated": "PQI*VOR/DME*/16.00",
	},
	{
		"name": "FESNU",
		"latitude": "44-24-15.05 N",
		"longitude": "70-41-21.31 W",
		"state": "MAINE",
		"artcc": "ZBW",
		"type": "RNAV",
		"updated": "05/11/2012",
	},
	{
		"name": "FESUM",
		"latitude": "42-55-39.72 N",
		"longitude": "75-52-58.8 W",
		"state": "NEW YORK",
		"artcc": "ZBW",
		"type": "RNAV",
		"updated": "07/11/2005",
	},
	{
		"name": "FETOG",
		"latitude": "45-38-13.88 N",
		"longitude": "70-7-9.46 W",
		"state": "MAINE",
		"artcc": "ZBW",
		"type": "RNAV",
		"updated": "04/06/2009",
	},
	{
		"name": "FETPU",
		"latitude": "42-40-45.27 N",
		"longitude": "73-54-20.67 W",
		"state": "NEW YORK",
		"artcc": "ZBW",
		"type": "RNAV",
		"updated": "06/27/2011",
	},
	{
		"name": "FEXOR",
		"latitude": "41-41-17.01 N",
		"longitude": "72-48-17.23 W",
		"state": "CONNECTICUT",
		"artcc": "ZBW",
		"type": "RNAV",
		"updated": "02/03/2005",
	},
	{
		"name": "FEXXX",
		"latitude": "41-12-39.54 N",
		"longitude": "72-54-59.76 W",
		"state": "CONNECTICUT",
		"artcc": "ZBW",
		"type": "RNAV",
		"updated": "09/27/2014",
	},
	{
		"name": "FFATY",
		"latitude": "42-35-27.4 N",
		"longitude": "72-39-20.46 W",
		"state": "MASSACHUSETTS",
		"artcc": "ZBW",
		"type": "RNAV",
		"updated": "11/17/2014",
	},
	{
		"name": "FFRED",
		"latitude": "42-10-21.28 N",
		"longitude": "72-33-9.12 W",
		"state": "MASSACHUSETTS",
		"artcc": "ZBW",
		"type": "MR",
		"updated": "CEF*VORTAC*218.00/1.90",
	},
	{
		"name": "FIBAB",
		"latitude": "42-46-40.85 N",
		"longitude": "71-59-21.77 W",
		"state": "NEW HAMPSHIRE",
		"artcc": "ZBW",
		"type": "RNAV",
		"updated": "07/25/2005",
	},
	{
		"name": "FIBAR",
		"latitude": "43-24-3.3 N",
		"longitude": "72-24-53.64 W",
		"state": "VERMONT",
		"artcc": "ZBW",
		"type": "RNAV",
		"updated": "01/12/2011",
	},
	{
		"name": "FIDER",
		"latitude": "43-17-51.98 N",
		"longitude": "72-33-36.71 W",
		"state": "VERMONT",
		"artcc": "ZBW",
		"type": "RNAV",
		"updated": "04/12/2002",
	},
	{
		"name": "FIDES",
		"latitude": "42-21-27.42 N",
		"longitude": "71-10-1.92 W",
		"state": "MASSACHUSETTS",
		"artcc": "ZBW",
		"type": "RNAV",
		"updated": "11/14/2013",
	},
	{
		"name": "FIGOL",
		"latitude": "42-9-34.95 N",
		"longitude": "71-9-22.62 W",
		"state": "MASSACHUSETTS",
		"artcc": "ZBW",
		"type": "RNAV",
		"updated": "03/09/2006",
	},
	{
		"name": "FIGOP",
		"latitude": "44-10-37.96 N",
		"longitude": "70-17-35.38 W",
		"state": "MAINE",
		"artcc": "ZBW",
		"type": "RNAV",
		"updated": "05/23/2007",
	},
	{
		"name": "FIGUV",
		"latitude": "42-51-2.25 N",
		"longitude": "73-52-44.84 W",
		"state": "NEW YORK",
		"artcc": "ZBW",
		"type": "RNAV",
		"updated": "06/27/2011",
	},
	{
		"name": "FIKAT",
		"latitude": "43-34-41.18 N",
		"longitude": "73-41-58.3 W",
		"state": "NEW YORK",
		"artcc": "ZBW",
		"type": "RNAV",
		"updated": "06/22/2010",
	},
	{
		"name": "FILGA",
		"latitude": "41-24-28.13 N",
		"longitude": "74-1-12.37 W",
		"state": "NEW YORK",
		"artcc": "ZBW",
		"type": "RNAV",
		"updated": "06/30/2015",
	},
	{
		"name": "FILOS",
		"latitude": "43-43-40.41 N",
		"longitude": "75-51-4.56 W",
		"state": "NEW YORK",
		"artcc": "ZBW",
		"type": "RNAV",
		"updated": "06/26/2009",
	},
	{
		"name": "FILPS",
		"latitude": "41-56-30.72 N",
		"longitude": "74-23-42.83 W",
		"state": "NEW YORK",
		"artcc": "ZBW",
		"type": "RP",
		"updated": "DNY*VOR/DME*130.27/28.83",
	},
	{
		"name": "FILYP",
		"latitude": "41-46-26.57 N",
		"longitude": "71-18-49.35 W",
		"state": "MASSACHUSETTS",
		"artcc": "ZBW",
		"type": "RNAV",
		"updated": "07/13/2012",
	},
	{
		"name": "FIMVO",
		"latitude": "42-10-48.75 N",
		"longitude": "72-32-43.75 W",
		"state": "MASSACHUSETTS",
		"artcc": "ZBW",
		"type": "MR",
		"updated": "CEF*VORTAC*/1.34",
	},
	{
		"name": "FINGA",
		"latitude": "42-51-7.32 N",
		"longitude": "71-58-39.44 W",
		"state": "NEW HAMPSHIRE",
		"artcc": "ZBW",
		"type": "RNAV",
		"updated": "03/07/2011",
	},
	{
		"name": "FINGU",
		"latitude": "43-32-51.28 N",
		"longitude": "72-58-35.61 W",
		"state": "VERMONT",
		"artcc": "ZBW",
		"type": "RNAV",
		"updated": "11/04/2009",
	},
	{
		"name": "FINPI",
		"latitude": "41-43-1.07 N",
		"longitude": "74-15-50.79 W",
		"state": "NEW YORK",
		"artcc": "ZBW",
		"type": "RNAV",
		"updated": "08/06/2010",
	},
	{
		"name": "FINUS",
		"latitude": "43-38-55.05 N",
		"longitude": "70-22-1.98 W",
		"state": "MAINE",
		"artcc": "ZBW",
		"type": "RP",
		"updated": "PWM*LD*290.30/3.15",
	},
	{
		"name": "FISAL",
		"latitude": "43-56-17.63 N",
		"longitude": "69-56-35.62 W",
		"state": "MAINE",
		"artcc": "ZBW",
		"type": "RNAV",
		"updated": "01/17/2012",
	},
	{
		"name": "FISBO",
		"latitude": "41-47-56.12 N",
		"longitude": "71-30-12.7 W",
		"state": "RHODE ISLAND",
		"artcc": "ZBW",
		"type": "RNAV",
		"updated": "05/15/2003",
	},
	{
		"name": "FISRR",
		"latitude": "41-15-30.13 N",
		"longitude": "71-57-15.12 W",
		"state": "NEW YORK",
		"artcc": "ZBW",
		"type": "RNAV",
		"updated": "09/07/2005",
	},
	{
		"name": "FITRE",
		"latitude": "41-54-44.73 N",
		"longitude": "74-55-3 W",
		"state": "NEW YORK",
		"artcc": "ZBW",
		"type": "RP",
		"updated": "HNK*VOR/DME*127.72/20.00",
	},
	{
		"name": "FITZY",
		"latitude": "42-51-50.79 N",
		"longitude": "71-31-43.5 W",
		"state": "NEW HAMPSHIRE",
		"artcc": "ZBW",
		"type": "RP",
		"updated": "LWM*VOR/DME*306.32",
	},
	{
		"name": "FIVBO",
		"latitude": "45-5-20.61 N",
		"longitude": "69-11-19.65 W",
		"state": "MAINE",
		"artcc": "ZBW",
		"type": "RP",
		"updated": "BGR*VORTAC*337.00/20.00",
	},
	{
		"name": "FIXUG",
		"latitude": "41-32-9.53 N",
		"longitude": "70-29-6.18 W",
		"state": "MASSACHUSETTS",
		"artcc": "ZBW",
		"type": "RNAV",
		"updated": "03/06/2006",
	},
	{
		"name": "FLAPE",
		"latitude": "41-3-56.3 N",
		"longitude": "71-4-10.55 W",
		"state": "MASSACHUSETTS",
		"artcc": "ZBW",
		"type": "RP",
		"updated": "ACK*VOR/DME*270.00/49.00",
	},
	{
		"name": "FLEIG",
		"latitude": "42-39-19.99 N",
		"longitude": "73-48-2.6 W",
		"state": "NEW YORK",
		"artcc": "ZBW",
		"type": "RP",
		"updated": "DEJ*LD*191.17/6.47",
	},
	{
		"name": "FLIBB",
		"latitude": "41-13-37.34 N",
		"longitude": "72-25-20.19 W",
		"state": "CONNECTICUT",
		"artcc": "ZBW",
		"type": "RP",
		"updated": "BDR*VOR/DME*094.64/32.06",
	},
	{
		"name": "FLOOR",
		"latitude": "43-23-33.42 N",
		"longitude": "75-56-35.28 W",
		"state": "NEW YORK",
		"artcc": "ZBW",
		"type": "RP",
		"updated": "UCA*VORTAC*315.00/40.61",
	},
	{
		"name": "FLOSI",
		"latitude": "41-32-36.7 N",
		"longitude": "74-20-2.75 W",
		"state": "NEW YORK",
		"artcc": "ZBW",
		"type": "RP",
		"updated": "IGN*VOR/DME*264.56/24.17",
	},
	{
		"name": "FLUTI",
		"latitude": "42-24-44.74 N",
		"longitude": "70-53-11.93 W",
		"state": "MASSACHUSETTS",
		"artcc": "ZBW",
		"type": "RNAV",
		"updated": "07/13/2012",
	},
	{
		"name": "FLYZZ",
		"latitude": "42-48-13.41 N",
		"longitude": "72-29-25.2 W",
		"state": "NEW HAMPSHIRE",
		"artcc": "ZBW",
		"type": "RNAV",
		"updated": "11/17/2014",
	},
	{
		"name": "FOBBS",
		"latitude": "42-23-38.1 N",
		"longitude": "72-38-59.6 W",
		"state": "MASSACHUSETTS",
		"artcc": "ZBW",
		"type": "MR",
		"updated": "CEF*VORTAC*349.00/13.00",
	},
	{
		"name": "FOBOP",
		"latitude": "45-8-13.08 N",
		"longitude": "73-14-9.51 W",
		"state": "",
		"artcc": "ZBW",
		"type": "RP",
		"updated": "YJN*VOR/DME*169.06/8.00",
	},
	{
		"name": "FOBUX",
		"latitude": "44-15-49.11 N",
		"longitude": "73-9-55.76 W",
		"state": "VERMONT",
		"artcc": "ZBW",
		"type": "RNAV",
		"updated": "02/21/2003",
	},
	{
		"name": "FODAG",
		"latitude": "44-48-19.96 N",
		"longitude": "67-26-54.19 W",
		"state": "MAINE",
		"artcc": "ZBW",
		"type": "RNAV",
		"updated": "12/22/2008",
	},
	{
		"name": "FODAK",
		"latitude": "41-16-17.16 N",
		"longitude": "73-44-9.17 W",
		"state": "NEW YORK",
		"artcc": "ZBW",
		"type": "RNAV",
		"updated": "08/17/2010",
	},
	{
		"name": "FOGAV",
		"latitude": "45-11-57.5 N",
		"longitude": "69-18-9.61 W",
		"state": "MAINE",
		"artcc": "ZBW",
		"type": "RNAV",
		"updated": "08/06/2007",
	},
	{
		"name": "FOGDO",
		"latitude": "44-24-2.57 N",
		"longitude": "70-45-31.79 W",
		"state": "MAINE",
		"artcc": "ZBW",
		"type": "RNAV",
		"updated": "05/11/2012",
	},
	{
		"name": "FOGMO",
		"latitude": "44-22-26.12 N",
		"longitude": "72-53-0.57 W",
		"state": "VERMONT",
		"artcc": "ZBW",
		"type": "RNAV",
		"updated": "03/11/2011",
	},
	{
		"name": "FOGUS",
		"latitude": "43-59-47.87 N",
		"longitude": "76-8-58.99 W",
		"state": "NEW YORK",
		"artcc": "ZBW",
		"type": "RNAV",
		"updated": "05/23/2011",
	},
	{
		"name": "FOLIO",
		"latitude": "45-6-24.12 N",
		"longitude": "68-25-15.36 W",
		"state": "MAINE",
		"artcc": "ZBW",
		"type": "RP",
		"updated": "MLT*VOR/DME*192.06",
	},
	{
		"name": "FOMEP",
		"latitude": "47-17-28.8 N",
		"longitude": "68-36-56.78 W",
		"state": "",
		"artcc": "ZBW",
		"type": "RNAV",
		"updated": "07/08/2010",
	},
	{
		"name": "FOMLU",
		"latitude": "44-17-41.35 N",
		"longitude": "68-35-23.21 W",
		"state": "MAINE",
		"artcc": "ZBW",
		"type": "RNAV",
		"updated": "04/12/2006",
	},
	{
		"name": "FOMTA",
		"latitude": "44-2-26.61 N",
		"longitude": "70-43-42.82 W",
		"state": "MAINE",
		"artcc": "ZBW",
		"type": "RNAV",
		"updated": "09/30/2009",
	},
	{
		"name": "FOMUR",
		"latitude": "44-19-34.39 N",
		"longitude": "68-54-54.21 W",
		"state": "MAINE",
		"artcc": "ZBW",
		"type": "RNAV",
		"updated": "06/20/2010",
	},
	{
		"name": "FONAP",
		"latitude": "43-36-23.1 N",
		"longitude": "70-4-5.25 W",
		"state": "MAINE",
		"artcc": "ZBW",
		"type": "RNAV",
		"updated": "09/30/2009",
	},
	{
		"name": "FONEB",
		"latitude": "45-7-12.06 N",
		"longitude": "70-8-24.75 W",
		"state": "MAINE",
		"artcc": "ZBW",
		"type": "RNAV",
		"updated": "10/23/2008",
	},
	{
		"name": "FONUB",
		"latitude": "44-36-47.6 N",
		"longitude": "69-36-52.25 W",
		"state": "MAINE",
		"artcc": "ZBW",
		"type": "RNAV",
		"updated": "05/21/2007",
	},
	{
		"name": "FONVU",
		"latitude": "41-30-54.41 N",
		"longitude": "70-45-30.81 W",
		"state": "MASSACHUSETTS",
		"artcc": "ZBW",
		"type": "RNAV",
		"updated": "05/24/2007",
	},
	{
		"name": "FORGU",
		"latitude": "44-1-57.12 N",
		"longitude": "70-44-11.44 W",
		"state": "MAINE",
		"artcc": "ZBW",
		"type": "RNAV",
		"updated": "09/30/2009",
	},
	{
		"name": "FORME",
		"latitude": "43-16-34.98 N",
		"longitude": "72-8-58.77 W",
		"state": "NEW HAMPSHIRE",
		"artcc": "ZBW",
		"type": "RNAV",
		"updated": "04/20/2016",
	},
	{
		"name": "FORMU",
		"latitude": "40-55-32.67 N",
		"longitude": "73-16-12.76 W",
		"state": "NEW YORK",
		"artcc": "ZBW",
		"type": "RNAV",
		"updated": "11/04/2015",
	},
	{
		"name": "FOROR",
		"latitude": "41-27-54.76 N",
		"longitude": "73-48-28.81 W",
		"state": "NEW YORK",
		"artcc": "ZBW",
		"type": "RNAV",
		"updated": "04/28/2010",
	},
	{
		"name": "FOSAN",
		"latitude": "42-50-32.37 N",
		"longitude": "71-42-31.75 W",
		"state": "NEW HAMPSHIRE",
		"artcc": "ZBW",
		"type": "RNAV",
		"updated": "07/07/2009",
	},
	{
		"name": "FOSCO",
		"latitude": "43-16-15.56 N",
		"longitude": "70-35-27.32 W",
		"state": "MAINE",
		"artcc": "ZBW",
		"type": "RNAV",
		"updated": "06/01/2012",
	},
	{
		"name": "FOSEX",
		"latitude": "42-44-54.83 N",
		"longitude": "73-42-2.72 W",
		"state": "NEW YORK",
		"artcc": "ZBW",
		"type": "RNAV",
		"updated": "06/27/2011",
	},
	{
		"name": "FOSRA",
		"latitude": "42-36-24.43 N",
		"longitude": "74-5-31.9 W",
		"state": "NEW YORK",
		"artcc": "ZBW",
		"type": "RNAV",
		"updated": "05/10/2011",
	},
	{
		"name": "FOSTY",
		"latitude": "41-50-35.46 N",
		"longitude": "71-38-31.34 W",
		"state": "RHODE ISLAND",
		"artcc": "ZBW",
		"type": "RP",
		"updated": "PUT*VOR/DME*140.57/11.28",
	},
	{
		"name": "FOSYU",
		"latitude": "44-12-25.39 N",
		"longitude": "74-19-58.15 W",
		"state": "NEW YORK",
		"artcc": "ZBW",
		"type": "RP",
		"updated": "SLK*VOR/DME*221.48/12.00",
	},
	{
		"name": "FOVAX",
		"latitude": "44-0-51.3 N",
		"longitude": "75-39-21.66 W",
		"state": "NEW YORK",
		"artcc": "ZBW",
		"type": "MW",
		"updated": "02/13/2017",
	},
	{
		"name": "FOVEG",
		"latitude": "42-21-17.5 N",
		"longitude": "71-30-10.58 W",
		"state": "MASSACHUSETTS",
		"artcc": "ZBW",
		"type": "RNAV",
		"updated": "08/14/2012",
	},
	{
		"name": "FOVES",
		"latitude": "44-32-12.66 N",
		"longitude": "73-15-24.83 W",
		"state": "VERMONT",
		"artcc": "ZBW",
		"type": "RP",
		"updated": "BTV*LD*325.81/6.62",
	},
	{
		"name": "FOXAL",
		"latitude": "44-57-2.51 N",
		"longitude": "70-40-31.04 W",
		"state": "MAINE",
		"artcc": "ZBW",
		"type": "RNAV",
		"updated": "03/24/2009",
	},
	{
		"name": "FOXBO",
		"latitude": "41-55-0.37 N",
		"longitude": "70-14-58.08 W",
		"state": "MASSACHUSETTS",
		"artcc": "ZBW",
		"type": "WP",
		"updated": "07/08/1991",
	},
	{
		"name": "FOXEK",
		"latitude": "41-14-53.67 N",
		"longitude": "73-41-46.72 W",
		"state": "NEW YORK",
		"artcc": "ZBW",
		"type": "RNAV",
		"updated": "08/17/2010",
	},
	{
		"name": "FOXWD",
		"latitude": "41-48-21.66 N",
		"longitude": "71-48-7.03 W",
		"state": "CONNECTICUT",
		"artcc": "ZBW",
		"type": "RNAV",
		"updated": "02/23/2017",
	},
	{
		"name": "FOXXX",
		"latitude": "42-18-55.28 N",
		"longitude": "70-54-10.54 W",
		"state": "MASSACHUSETTS",
		"artcc": "ZBW",
		"type": "RNAV",
		"updated": "01/15/2013",
	},
	{
		"name": "FRANQ",
		"latitude": "40-51-10.81 N",
		"longitude": "72-34-57.48 W",
		"state": "NEW YORK",
		"artcc": "ZBW",
		"type": "RNAV",
		"updated": "10/13/2016",
	},
	{
		"name": "FREBI",
		"latitude": "43-53-32.74 N",
		"longitude": "70-11-53.94 W",
		"state": "MAINE",
		"artcc": "ZBW",
		"type": "MR",
		"updated": "NHZ*TACAN*285.00/11.00",
	},
	{
		"name": "FREDO",
		"latitude": "41-54-20.42 N",
		"longitude": "70-34-56.04 W",
		"state": "MASSACHUSETTS",
		"artcc": "ZBW",
		"type": "RP",
		"updated": "LFV*VOR/DME*270.85",
	},
	{
		"name": "FREEH",
		"latitude": "43-1-14.77 N",
		"longitude": "71-33-34.21 W",
		"state": "NEW HAMPSHIRE",
		"artcc": "ZBW",
		"type": "RNAV",
		"updated": "12/03/2014",
	},
	{
		"name": "FRIAR",
		"latitude": "44-26-28.93 N",
		"longitude": "69-53-4.38 W",
		"state": "MAINE",
		"artcc": "ZBW",
		"type": "RP",
		"updated": "BGR*VORTAC*260.00/50.00",
	},
	{
		"name": "FRILL",
		"latitude": "42-13-47.53 N",
		"longitude": "69-49-28.72 W",
		"state": "OFFSHORE ATLANTIC",
		"artcc": "ZBW",
		"type": "RP",
		"updated": "BOS*VOR/DME*114.00/52.43",
	},
	{
		"name": "FRLDI",
		"latitude": "42-1-37.15 N",
		"longitude": "73-59-7.87 W",
		"state": "NEW YORK",
		"artcc": "ZBW",
		"type": "RNAV",
		"updated": "05/13/2015",
	},
	{
		"name": "FROLY",
		"latitude": "41-36-51.69 N",
		"longitude": "71-1-30.49 W",
		"state": "MASSACHUSETTS",
		"artcc": "ZBW",
		"type": "RP",
		"updated": "PVD*VOR/DME*123.80",
	},
	{
		"name": "FRRST",
		"latitude": "40-39-17.47 N",
		"longitude": "73-18-23.2 W",
		"state": "NEW YORK",
		"artcc": "ZBW",
		"type": "RNAV",
		"updated": "02/26/2010",
	},
	{
		"name": "FRYYS",
		"latitude": "43-40-43.07 N",
		"longitude": "72-19-7.47 W",
		"state": "VERMONT",
		"artcc": "ZBW",
		"type": "RP",
		"updated": "LEB*VOR/DME*284.86",
	},
	{
		"name": "FUGET",
		"latitude": "41-15-19.4 N",
		"longitude": "73-36-38.39 W",
		"state": "NEW YORK",
		"artcc": "ZBW",
		"type": "RNAV",
		"updated": "07/13/2017",
	},
	{
		"name": "FURBS",
		"latitude": "41-49-32.73 N",
		"longitude": "70-48-3.19 W",
		"state": "MASSACHUSETTS",
		"artcc": "ZBW",
		"type": "RP",
		"updated": "EWB*LD*054.45/10.86",
	},
	{
		"name": "FYSHR",
		"latitude": "42-49-14.09 N",
		"longitude": "72-9-14.19 W",
		"state": "NEW HAMPSHIRE",
		"artcc": "ZBW",
		"type": "RNAV",
		"updated": "11/17/2014",
	},
	{
		"name": "FZOOL",
		"latitude": "41-19-35.11 N",
		"longitude": "73-16-59.58 W",
		"state": "CONNECTICUT",
		"artcc": "ZBW",
		"type": "RP",
		"updated": "BDR*VOR/DME*336.19",
	},
