	{
		"name": "HAANK",
		"latitude": "43-46-26.42 N",
		"longitude": "72-20-22.84 W",
		"state": "VERMONT",
		"artcc": "ZBW",
		"type": "RP",
		"updated": "DVR*LD*006.97/9.62",
	},
	{
		"name": "HAARP",
		"latitude": "41-6-58.87 N",
		"longitude": "73-35-36.54 W",
		"state": "CONNECTICUT",
		"artcc": "ZBW",
		"type": "RP",
		"updated": "DPK*VOR/DME*338.00",
	},
	{
		"name": "HABAG",
		"latitude": "43-20-29.83 N",
		"longitude": "73-14-19.85 W",
		"state": "NEW YORK",
		"artcc": "ZBW",
		"type": "RNAV",
		"updated": "01/07/2003",
	},
	{
		"name": "HABAX",
		"latitude": "43-40-14.65 N",
		"longitude": "70-6-36.36 W",
		"state": "MAINE",
		"artcc": "ZBW",
		"type": "RNAV",
		"updated": "09/30/2009",
	},
	{
		"name": "HABOK",
		"latitude": "44-27-40.59 N",
		"longitude": "73-8-4.27 W",
		"state": "VERMONT",
		"artcc": "ZBW",
		"type": "RNAV",
		"updated": "01/16/2003",
	},
	{
		"name": "HABRU",
		"latitude": "42-52-53.51 N",
		"longitude": "70-56-38.76 W",
		"state": "NEW HAMPSHIRE",
		"artcc": "ZBW",
		"type": "RNAV",
		"updated": "01/15/2013",
	},
	{
		"name": "HADAS",
		"latitude": "42-59-40.86 N",
		"longitude": "75-58-18.81 W",
		"state": "NEW YORK",
		"artcc": "ZBW",
		"type": "RNAV",
		"updated": "05/03/2013",
	},
	{
		"name": "HADEV",
		"latitude": "42-30-12.56 N",
		"longitude": "71-3-2.31 W",
		"state": "MASSACHUSETTS",
		"artcc": "ZBW",
		"type": "RNAV",
		"updated": "08/13/2012",
	},
	{
		"name": "HADGO",
		"latitude": "41-57-52.52 N",
		"longitude": "72-30-34.75 W",
		"state": "CONNECTICUT",
		"artcc": "ZBW",
		"type": "RNAV",
		"updated": "02/22/2018",
	},
	{
		"name": "HADOM",
		"latitude": "43-40-1.48 N",
		"longitude": "72-16-2.95 W",
		"state": "NEW HAMPSHIRE",
		"artcc": "ZBW",
		"type": "RNAV",
		"updated": "12/19/2016",
	},
	{
		"name": "HADUX",
		"latitude": "41-48-8.54 N",
		"longitude": "72-30-7.71 W",
		"state": "CONNECTICUT",
		"artcc": "ZBW",
		"type": "RP",
		"updated": "HFD*VOR/DME*024.86",
	},
	{
		"name": "HAGET",
		"latitude": "42-38-38.87 N",
		"longitude": "71-11-49.95 W",
		"state": "MASSACHUSETTS",
		"artcc": "ZBW",
		"type": "RP",
		"updated": "MHT*VOR/DME*165.44",
	},
	{
		"name": "HAGIK",
		"latitude": "40-54-27.57 N",
		"longitude": "72-33-9.72 W",
		"state": "NEW YORK",
		"artcc": "ZBW",
		"type": "RNAV",
		"updated": "04/13/2012",
	},
	{
		"name": "HAGLO",
		"latitude": "43-24-37.41 N",
		"longitude": "71-59-31.94 W",
		"state": "NEW HAMPSHIRE",
		"artcc": "ZBW",
		"type": "RNAV",
		"updated": "01/15/2013",
	},
	{
		"name": "HAGTU",
		"latitude": "41-36-9.23 N",
		"longitude": "70-25-31.4 W",
		"state": "MASSACHUSETTS",
		"artcc": "ZBW",
		"type": "RP",
		"updated": "PVD*VOR/DME*112.85",
	},
	{
		"name": "HAGWE",
		"latitude": "41-37-34.86 N",
		"longitude": "73-40-57.4 W",
		"state": "NEW YORK",
		"artcc": "ZBW",
		"type": "RNAV",
		"updated": "06/16/2008",
	},
	{
		"name": "HAIZO",
		"latitude": "43-23-33.87 N",
		"longitude": "72-32-43.26 W",
		"state": "VERMONT",
		"artcc": "ZBW",
		"type": "RNAV",
		"updated": "10/21/2008",
	},
	{
		"name": "HAKAM",
		"latitude": "42-43-48.53 N",
		"longitude": "71-32-28.98 W",
		"state": "NEW HAMPSHIRE",
		"artcc": "ZBW",
		"type": "RNAV",
		"updated": "07/07/2009",
	},
	{
		"name": "HALBO",
		"latitude": "44-24-32.41 N",
		"longitude": "68-23-22.43 W",
		"state": "MAINE",
		"artcc": "ZBW",
		"type": "RNAV",
		"updated": "12/27/2010",
	},
	{
		"name": "HALOO",
		"latitude": "43-9-40 N",
		"longitude": "76-38-4 W",
		"state": "NEW YORK",
		"artcc": "ZBW",
		"type": "RNAV",
		"updated": "04/12/2005",
	},
	{
		"name": "HAMLU",
		"latitude": "44-7-25.14 N",
		"longitude": "70-43-32.89 W",
		"state": "MAINE",
		"artcc": "ZBW",
		"type": "RNAV",
		"updated": "09/30/2009",
	},
	{
		"name": "HAMMM",
		"latitude": "43-48-56.12 N",
		"longitude": "72-20-55.81 W",
		"state": "VERMONT",
		"artcc": "ZBW",
		"type": "RP",
		"updated": "DVR*LD*006.97/12.14",
	},
	{
		"name": "HAMSO",
		"latitude": "45-30-7.17 N",
		"longitude": "69-36-20.18 W",
		"state": "MAINE",
		"artcc": "ZBW",
		"type": "RNAV",
		"updated": "12/19/2008",
	},
	{
		"name": "HANAA",
		"latitude": "43-11-52.06 N",
		"longitude": "73-36-46.17 W",
		"state": "NEW YORK",
		"artcc": "ZBW",
		"type": "RNAV",
		"updated": "06/13/2017",
	},
	{
		"name": "HANLY",
		"latitude": "42-46-15.89 N",
		"longitude": "73-59-2.25 W",
		"state": "NEW YORK",
		"artcc": "ZBW",
		"type": "RP",
		"updated": "HEU*NDB*218.11",
	},
	{
		"name": "HAPAT",
		"latitude": "42-13-37 N",
		"longitude": "72-31-49 W",
		"state": "MASSACHUSETTS",
		"artcc": "ZBW",
		"type": "MW",
		"updated": "07/15/2014",
	},
	{
		"name": "HAPIE",
		"latitude": "40-23-11.46 N",
		"longitude": "72-58-57.63 W",
		"state": "OFFSHORE ATLANTIC",
		"artcc": "ZBW",
		"type": "RP",
		"updated": "JFK*VOR/DME*124.00/39.00",
	},
	{
		"name": "HARBB",
		"latitude": "42-2-20.27 N",
		"longitude": "70-45-5.78 W",
		"state": "MASSACHUSETTS",
		"artcc": "ZBW",
		"type": "RP",
		"updated": "BOS*VOR/DME*166.87",
	},
	{
		"name": "HARDA",
		"latitude": "42-20-2.35 N",
		"longitude": "73-41-54.64 W",
		"state": "NEW YORK",
		"artcc": "ZBW",
		"type": "RNAV",
		"updated": "01/02/2018",
	},
	{
		"name": "HAROY",
		"latitude": "42-10-38.82 N",
		"longitude": "73-44-30.27 W",
		"state": "NEW YORK",
		"artcc": "ZBW",
		"type": "RNAV",
		"updated": "10/23/2009",
	},
	{
		"name": "HARVA",
		"latitude": "41-57-53.32 N",
		"longitude": "75-7-54.65 W",
		"state": "NEW YORK",
		"artcc": "ZBW",
		"type": "RP",
		"updated": "DNY*VOR/DME*222.46/15.00",
	},
	{
		"name": "HASVI",
		"latitude": "44-31-0.34 N",
		"longitude": "70-30-26.38 W",
		"state": "MAINE",
		"artcc": "ZBW",
		"type": "RNAV",
		"updated": "10/24/2008",
	},
	{
		"name": "HATAM",
		"latitude": "44-11-9.99 N",
		"longitude": "72-6-46.36 W",
		"state": "VERMONT",
		"artcc": "ZBW",
		"type": "RNAV",
		"updated": "10/18/2010",
	},
	{
		"name": "HATEN",
		"latitude": "46-39-19.37 N",
		"longitude": "68-2-9.64 W",
		"state": "MAINE",
		"artcc": "ZBW",
		"type": "RP",
		"updated": "PQI*VOR/DME*/7.53",
	},
	{
		"name": "HATKI",
		"latitude": "45-38-4.78 N",
		"longitude": "70-13-25.49 W",
		"state": "MAINE",
		"artcc": "ZBW",
		"type": "RNAV",
		"updated": "04/06/2009",
	},
	{
		"name": "HATSO",
		"latitude": "44-28-31.73 N",
		"longitude": "68-11-32.95 W",
		"state": "MAINE",
		"artcc": "ZBW",
		"type": "RNAV",
		"updated": "09/29/2009",
	},
	{
		"name": "HAUKS",
		"latitude": "42-31-13.98 N",
		"longitude": "72-15-26.78 W",
		"state": "MASSACHUSETTS",
		"artcc": "ZBW",
		"type": "RNAV",
		"updated": "09/23/2014",
	},
	{
		"name": "HAUKY",
		"latitude": "42-49-36.24 N",
		"longitude": "73-48-29.31 W",
		"state": "NEW YORK",
		"artcc": "ZBW",
		"type": "RP",
		"updated": "ALB*LD*011.17/3.80",
	},
	{
		"name": "HAVAN",
		"latitude": "43-16-40.94 N",
		"longitude": "70-57-37.39 W",
		"state": "NEW HAMPSHIRE",
		"artcc": "ZBW",
		"type": "RP",
		"updated": "MHT*VOR/DME*051.08",
	},
	{
		"name": "HAVRD",
		"latitude": "42-10-6.85 N",
		"longitude": "70-46-10.57 W",
		"state": "MASSACHUSETTS",
		"artcc": "ZBW",
		"type": "RNAV",
		"updated": "09/28/2006",
	},
	{
		"name": "HAXEM",
		"latitude": "41-32-35.54 N",
		"longitude": "71-17-30.13 W",
		"state": "RHODE ISLAND",
		"artcc": "ZBW",
		"type": "RNAV",
		"updated": "02/07/2008",
	},
	{
		"name": "HAXUS",
		"latitude": "45-33-7.11 N",
		"longitude": "69-36-15.71 W",
		"state": "MAINE",
		"artcc": "ZBW",
		"type": "RNAV",
		"updated": "12/19/2008",
	},
	{
		"name": "HEADI",
		"latitude": "39-57-49.56 N",
		"longitude": "73-43-28.85 W",
		"state": "NEW JERSEY",
		"artcc": "ZBW",
		"type": "RNAV",
		"updated": "02/23/2017",
	},
	{
		"name": "HEARR",
		"latitude": "42-26-49.28 N",
		"longitude": "70-42-35.12 W",
		"state": "MASSACHUSETTS",
		"artcc": "ZBW",
		"type": "RNAV",
		"updated": "08/30/2009",
	},
	{
		"name": "HEBAL",
		"latitude": "44-19-0.26 N",
		"longitude": "70-34-6.03 W",
		"state": "MAINE",
		"artcc": "ZBW",
		"type": "RNAV",
		"updated": "10/01/2009",
	},
	{
		"name": "HEDGI",
		"latitude": "42-47-10.56 N",
		"longitude": "71-37-30.09 W",
		"state": "NEW HAMPSHIRE",
		"artcc": "ZBW",
		"type": "RNAV",
		"updated": "07/07/2009",
	},
	{
		"name": "HEDOG",
		"latitude": "41-33-54.48 N",
		"longitude": "70-45-27.88 W",
		"state": "MASSACHUSETTS",
		"artcc": "ZBW",
		"type": "RNAV",
		"updated": "11/03/2014",
	},
	{
		"name": "HEDUX",
		"latitude": "44-10-29.03 N",
		"longitude": "73-38-4.01 W",
		"state": "NEW YORK",
		"artcc": "ZBW",
		"type": "RNAV",
		"updated": "04/15/2003",
	},
	{
		"name": "HEFTY",
		"latitude": "41-54-19.19 N",
		"longitude": "71-33-50.39 W",
		"state": "RHODE ISLAND",
		"artcc": "ZBW",
		"type": "RP",
		"updated": "PVD*VOR/DME*345.00/12.42",
	},
	{
		"name": "HEKIR",
		"latitude": "42-27-24.37 N",
		"longitude": "73-12-35.71 W",
		"state": "MASSACHUSETTS",
		"artcc": "ZBW",
		"type": "RP",
		"updated": "EIF*LE*079.28/4.58",
	},
	{
		"name": "HEKPU",
		"latitude": "44-32-37.43 N",
		"longitude": "70-32-4.96 W",
		"state": "MAINE",
		"artcc": "ZBW",
		"type": "RNAV",
		"updated": "10/24/2008",
	},
	{
		"name": "HELNO",
		"latitude": "44-37-43.97 N",
		"longitude": "71-11-21.57 W",
		"state": "NEW HAMPSHIRE",
		"artcc": "ZBW",
		"type": "RNAV",
		"updated": "11/20/2003",
	},
	{
		"name": "HELON",
		"latitude": "41-40-2.72 N",
		"longitude": "74-16-49.52 W",
		"state": "NEW YORK",
		"artcc": "ZBW",
		"type": "RP",
		"updated": "IGN*VOR/DME*282.48/20.60",
	},
	{
		"name": "HELOS",
		"latitude": "43-23-0.15 N",
		"longitude": "74-10-25.38 W",
		"state": "NEW YORK",
		"artcc": "ZBW",
		"type": "RNAV",
		"updated": "01/21/2003",
	},
	{
		"name": "HENDI",
		"latitude": "43-50-24.2 N",
		"longitude": "76-18-17.13 W",
		"state": "NEW YORK",
		"artcc": "ZBW",
		"type": "RP",
		"updated": "SYR*VORTAC*004.91/41.00",
	},
	{
		"name": "HENEY",
		"latitude": "42-56-7.18 N",
		"longitude": "70-56-43.53 W",
		"state": "NEW HAMPSHIRE",
		"artcc": "ZBW",
		"type": "WP",
		"updated": "LWM*VOR/DME*044.38/13.42",
	},
	{
		"name": "HEPES",
		"latitude": "44-27-22.68 N",
		"longitude": "73-8-57.92 W",
		"state": "VERMONT",
		"artcc": "ZBW",
		"type": "RNAV",
		"updated": "01/16/2003",
	},
	{
		"name": "HEPIT",
		"latitude": "44-36-27.81 N",
		"longitude": "73-26-34.93 W",
		"state": "NEW YORK",
		"artcc": "ZBW",
		"type": "RP",
		"updated": "FQV*LD*172.48/3.97",
	},
	{
		"name": "HEREK",
		"latitude": "40-25-39.36 N",
		"longitude": "73-30-9.57 W",
		"state": "NEW YORK",
		"artcc": "ZBW",
		"type": "RNAV",
		"updated": "06/27/2011",
	},
	{
		"name": "HEREL",
		"latitude": "42-59-4.8 N",
		"longitude": "73-12-18.66 W",
		"state": "VERMONT",
		"artcc": "ZBW",
		"type": "RNAV",
		"updated": "01/15/2013",
	},
	{
		"name": "HERIN",
		"latitude": "42-0-9.77 N",
		"longitude": "67-47-26.21 W",
		"state": "MASSACHUSETTS",
		"artcc": "ZBW",
		"type": "RP",
		"updated": "LFV*VOR/DME*105.75/100.47",
	},
	{
		"name": "HERKK",
		"latitude": "42-0-57.5 N",
		"longitude": "72-41-41.73 W",
		"state": "CONNECTICUT",
		"artcc": "ZBW",
		"type": "MR",
		"updated": "CEF*VORTAC*/13.24",
	},
	{
		"name": "HERKU",
		"latitude": "41-39-21.77 N",
		"longitude": "70-37-5.12 W",
		"state": "MASSACHUSETTS",
		"artcc": "ZBW",
		"type": "RNAV",
		"updated": "12/19/2001",
	},
	{
		"name": "HERRO",
		"latitude": "44-31-56.04 N",
		"longitude": "73-14-58.06 W",
		"state": "VERMONT",
		"artcc": "ZBW",
		"type": "RP",
		"updated": "BTV*LD*325.81/6.20",
	},
	{
		"name": "HESIS",
		"latitude": "45-26-30.7 N",
		"longitude": "68-36-27.19 W",
		"state": "MAINE",
		"artcc": "ZBW",
		"type": "RNAV",
		"updated": "05/19/2009",
	},
	{
		"name": "HESKO",
		"latitude": "42-48-30.46 N",
		"longitude": "71-34-9.24 W",
		"state": "NEW HAMPSHIRE",
		"artcc": "ZBW",
		"type": "RNAV",
		"updated": "05/13/2013",
	},
	{
		"name": "HESMI",
		"latitude": "41-36-6.48 N",
		"longitude": "72-54-28.01 W",
		"state": "CONNECTICUT",
		"artcc": "ZBW",
		"type": "RNAV",
		"updated": "01/28/2002",
	},
	{
		"name": "HESOD",
		"latitude": "42-47-25.89 N",
		"longitude": "75-36-12 W",
		"state": "NEW YORK",
		"artcc": "ZBW",
		"type": "RNAV",
		"updated": "08/31/2015",
	},
	{
		"name": "HETEL",
		"latitude": "43-1-21.71 N",
		"longitude": "76-9-9.05 W",
		"state": "NEW YORK",
		"artcc": "ZBW",
		"type": "RNAV",
		"updated": "05/03/2013",
	},
	{
		"name": "HEVAB",
		"latitude": "41-7-41.68 N",
		"longitude": "73-45-13.28 W",
		"state": "NEW YORK",
		"artcc": "ZBW",
		"type": "RNAV",
		"updated": "10/14/2008",
	},
	{
		"name": "HEVKO",
		"latitude": "44-33-27.4 N",
		"longitude": "69-25-41.37 W",
		"state": "MAINE",
		"artcc": "ZBW",
		"type": "RNAV",
		"updated": "04/23/2010",
	},
	{
		"name": "HEVUR",
		"latitude": "44-8-42.6 N",
		"longitude": "69-4-16.4 W",
		"state": "MAINE",
		"artcc": "ZBW",
		"type": "RNAV",
		"updated": "10/08/2008",
	},
	{
		"name": "HEWMO",
		"latitude": "42-11-16.32 N",
		"longitude": "70-44-0.45 W",
		"state": "MASSACHUSETTS",
		"artcc": "ZBW",
		"type": "RNAV",
		"updated": "01/15/2013",
	},
	{
		"name": "HHEPP",
		"latitude": "42-31-40.73 N",
		"longitude": "72-46-39.66 W",
		"state": "MASSACHUSETTS",
		"artcc": "ZBW",
		"type": "RNAV",
		"updated": "03/30/2009",
	},
	{
		"name": "HHIGH",
		"latitude": "41-41-31.73 N",
		"longitude": "71-19-8.27 W",
		"state": "RHODE ISLAND",
		"artcc": "ZBW",
		"type": "RNAV",
		"updated": "08/01/2012",
	},
	{
		"name": "HHOTT",
		"latitude": "41-48-0.9 N",
		"longitude": "71-54-39.54 W",
		"state": "CONNECTICUT",
		"artcc": "ZBW",
		"type": "RP",
		"updated": "PUT*VOR/DME*211.87",
	},
	{
		"name": "HIBAG",
		"latitude": "44-20-56.52 N",
		"longitude": "68-27-25.96 W",
		"state": "MAINE",
		"artcc": "ZBW",
		"type": "RNAV",
		"updated": "05/23/2012",
	},
	{
		"name": "HIBBY",
		"latitude": "41-27-12.57 N",
		"longitude": "73-48-43.33 W",
		"state": "NEW YORK",
		"artcc": "ZBW",
		"type": "RNAV",
		"updated": "06/16/2008",
	},
	{
		"name": "HIDAL",
		"latitude": "42-15-50.18 N",
		"longitude": "73-29-53.6 W",
		"state": "NEW YORK",
		"artcc": "ZBW",
		"type": "RP",
		"updated": "IGN*VOR/DME*033.89/38.71",
	},
	{
		"name": "HIDIB",
		"latitude": "44-54-57.79 N",
		"longitude": "71-30-17.64 W",
		"state": "NEW HAMPSHIRE",
		"artcc": "ZBW",
		"type": "RNAV",
		"updated": "01/12/2011",
	},
	{
		"name": "HIDID",
		"latitude": "43-42-13.88 N",
		"longitude": "71-42-48.89 W",
		"state": "NEW HAMPSHIRE",
		"artcc": "ZBW",
		"type": "RNAV",
		"updated": "01/20/2011",
	},
	{
		"name": "HIDRI",
		"latitude": "42-34-54.68 N",
		"longitude": "71-32-20.6 W",
		"state": "MASSACHUSETTS",
		"artcc": "ZBW",
		"type": "RNAV",
		"updated": "08/13/2012",
	},
	{
		"name": "HIGAM",
		"latitude": "41-57-56.58 N",
		"longitude": "72-43-30.68 W",
		"state": "CONNECTICUT",
		"artcc": "ZBW",
		"type": "RNAV",
		"updated": "05/15/2003",
	},
	{
		"name": "HIGBO",
		"latitude": "44-32-8.31 N",
		"longitude": "70-31-35.38 W",
		"state": "MAINE",
		"artcc": "ZBW",
		"type": "RNAV",
		"updated": "10/24/2008",
	},
	{
		"name": "HIGES",
		"latitude": "42-35-57.08 N",
		"longitude": "73-39-30.14 W",
		"state": "NEW YORK",
		"artcc": "ZBW",
		"type": "RNAV",
		"updated": "06/27/2011",
	},
	{
		"name": "HIGUS",
		"latitude": "42-44-41.52 N",
		"longitude": "71-32-25.97 W",
		"state": "NEW HAMPSHIRE",
		"artcc": "ZBW",
		"type": "RNAV",
		"updated": "01/15/2013",
	},
	{
		"name": "HIGUT",
		"latitude": "41-33-54.55 N",
		"longitude": "70-41-28.09 W",
		"state": "MASSACHUSETTS",
		"artcc": "ZBW",
		"type": "RNAV",
		"updated": "05/24/2007",
	},
	{
		"name": "HIGVI",
		"latitude": "43-56-26.17 N",
		"longitude": "72-39-33.56 W",
		"state": "VERMONT",
		"artcc": "ZBW",
		"type": "RNAV",
		"updated": "01/15/2013",
	},
	{
		"name": "HIKOD",
		"latitude": "43-33-31.95 N",
		"longitude": "70-58-53.49 W",
		"state": "NEW HAMPSHIRE",
		"artcc": "ZBW",
		"type": "RP",
		"updated": "ENE*VOR/DME*313.56",
	},
	{
		"name": "HIKSO",
		"latitude": "41-11-10.1 N",
		"longitude": "69-57-56.8 W",
		"state": "MASSACHUSETTS",
		"artcc": "ZBW",
		"type": "RNAV",
		"updated": "03/26/2014",
	},
	{
		"name": "HILAB",
		"latitude": "43-25-14.55 N",
		"longitude": "73-57-55.88 W",
		"state": "NEW YORK",
		"artcc": "ZBW",
		"type": "RNAV",
		"updated": "01/07/2003",
	},
	{
		"name": "HILBI",
		"latitude": "44-14-7.68 N",
		"longitude": "72-32-18.94 W",
		"state": "VERMONT",
		"artcc": "ZBW",
		"type": "RNAV",
		"updated": "01/11/2011",
	},
	{
		"name": "HILDA",
		"latitude": "42-6-10.45 N",
		"longitude": "72-37-32.02 W",
		"state": "MASSACHUSETTS",
		"artcc": "ZBW",
		"type": "MR",
		"updated": "BAF*VORTAC*145.16",
	},
	{
		"name": "HILRY",
		"latitude": "40-53-3.9 N",
		"longitude": "69-33-58.9 W",
		"state": "OFFSHORE ATLANTIC",
		"artcc": "ZBW",
		"type": "WP",
		"updated": "03/26/2002",
	},
	{
		"name": "HIMUG",
		"latitude": "42-39-21.89 N",
		"longitude": "70-59-47.41 W",
		"state": "MASSACHUSETTS",
		"artcc": "ZBW",
		"type": "RP",
		"updated": "LWM*VOR/DME*154.27/6.67",
	},
	{
		"name": "HIMUT",
		"latitude": "42-28-37.33 N",
		"longitude": "73-9-10.52 W",
		"state": "MASSACHUSETTS",
		"artcc": "ZBW",
		"type": "RNAV",
		"updated": "11/03/2014",
	},
	{
		"name": "HINAP",
		"latitude": "42-59-59.9 N",
		"longitude": "75-42-39.52 W",
		"state": "NEW YORK",
		"artcc": "ZBW",
		"type": "RNAV",
		"updated": "08/17/2010",
	},
	{
		"name": "HINED",
		"latitude": "44-54-1.14 N",
		"longitude": "74-33-20.14 W",
		"state": "NEW YORK",
		"artcc": "ZBW",
		"type": "RNAV",
		"updated": "11/23/2009",
	},
	{
		"name": "HINGZ",
		"latitude": "42-9-31.81 N",
		"longitude": "74-21-44.08 W",
		"state": "NEW YORK",
		"artcc": "ZBW",
		"type": "RNAV",
		"updated": "08/01/2012",
	},
	{
		"name": "HINOT",
		"latitude": "45-0-2.68 N",
		"longitude": "70-11-8.17 W",
		"state": "MAINE",
		"artcc": "ZBW",
		"type": "RNAV",
		"updated": "08/04/2017",
	},
	{
		"name": "HINUD",
		"latitude": "45-39-15.19 N",
		"longitude": "69-55-20.91 W",
		"state": "MAINE",
		"artcc": "ZBW",
		"type": "RNAV",
		"updated": "11/28/2016",
	},
	{
		"name": "HIRER",
		"latitude": "43-25-24.66 N",
		"longitude": "72-21-17.78 W",
		"state": "NEW HAMPSHIRE",
		"artcc": "ZBW",
		"type": "RNAV",
		"updated": "10/21/2008",
	},
	{
		"name": "HIRIM",
		"latitude": "44-17-36.06 N",
		"longitude": "69-39-11.59 W",
		"state": "MAINE",
		"artcc": "ZBW",
		"type": "RNAV",
		"updated": "02/05/2013",
	},
	{
		"name": "HIRKA",
		"latitude": "41-25-9.69 N",
		"longitude": "71-57-48.83 W",
		"state": "CONNECTICUT",
		"artcc": "ZBW",
		"type": "RNAV",
		"updated": "09/07/2005",
	},
	{
		"name": "HIRMN",
		"latitude": "43-56-1.98 N",
		"longitude": "70-50-26.76 W",
		"state": "MAINE",
		"artcc": "ZBW",
		"type": "RNAV",
		"updated": "10/23/2014",
	},
	{
		"name": "HIRUS",
		"latitude": "43-36-6.66 N",
		"longitude": "73-35-22.61 W",
		"state": "NEW YORK",
		"artcc": "ZBW",
		"type": "RNAV",
		"updated": "06/22/2010",
	},
	{
		"name": "HITVA",
		"latitude": "42-50-7.26 N",
		"longitude": "72-15-43.12 W",
		"state": "NEW HAMPSHIRE",
		"artcc": "ZBW",
		"type": "RNAV",
		"updated": "11/04/2009",
	},
	{
		"name": "HIVDI",
		"latitude": "45-38-7.68 N",
		"longitude": "70-11-25.84 W",
		"state": "MAINE",
		"artcc": "ZBW",
		"type": "RNAV",
		"updated": "04/06/2009",
	},
	{
		"name": "HIVRI",
		"latitude": "40-52-9.98 N",
		"longitude": "72-56-1.49 W",
		"state": "NEW YORK",
		"artcc": "ZBW",
		"type": "RNAV",
		"updated": "04/02/2007",
	},
	{
		"name": "HIVUX",
		"latitude": "44-24-54.14 N",
		"longitude": "73-4-8.28 W",
		"state": "VERMONT",
		"artcc": "ZBW",
		"type": "RP",
		"updated": "BJA*TACAN*149.51/5.29",
	},
	{
		"name": "HNDRK",
		"latitude": "44-26-14.5 N",
		"longitude": "74-9-27.49 W",
		"state": "NEW YORK",
		"artcc": "ZBW",
		"type": "RP",
		"updated": "SLK*VOR/DME*/3.76",
	},
	{
		"name": "HNOVR",
		"latitude": "42-32-7.43 N",
		"longitude": "70-49-47.85 W",
		"state": "MASSACHUSETTS",
		"artcc": "ZBW",
		"type": "RNAV",
		"updated": "09/27/2014",
	},
	{
		"name": "HOBAM",
		"latitude": "40-58-34.17 N",
		"longitude": "73-36-56.85 W",
		"state": "NEW YORK",
		"artcc": "ZBW",
		"type": "RP",
		"updated": "DPK*VOR/DME*320.00/18.00",
	},
	{
		"name": "HOBET",
		"latitude": "41-33-18.52 N",
		"longitude": "71-14-45.2 W",
		"state": "RHODE ISLAND",
		"artcc": "ZBW",
		"type": "RNAV",
		"updated": "08/01/2011",
	},
	{
		"name": "HODSA",
		"latitude": "44-59-59.44 N",
		"longitude": "74-47-23.07 W",
		"state": "NEW YORK",
		"artcc": "ZBW",
		"type": "RNAV",
		"updated": "09/03/2010",
	},
	{
		"name": "HOFFI",
		"latitude": "40-48-3.46 N",
		"longitude": "72-27-41.97 W",
		"state": "NEW YORK",
		"artcc": "ZBW",
		"type": "RP",
		"updated": "JFK*VOR/DME*092.00/60.60",
	},
	{
		"name": "HOGDU",
		"latitude": "43-17-37.7 N",
		"longitude": "72-28-14.82 W",
		"state": "VERMONT",
		"artcc": "ZBW",
		"type": "RNAV",
		"updated": "11/04/2009",
	},
	{
		"name": "HOGOK",
		"latitude": "43-59-53.55 N",
		"longitude": "70-18-56.51 W",
		"state": "MAINE",
		"artcc": "ZBW",
		"type": "RNAV",
		"updated": "10/20/2017",
	},
	{
		"name": "HOKAT",
		"latitude": "43-48-35.88 N",
		"longitude": "71-44-16 W",
		"state": "NEW HAMPSHIRE",
		"artcc": "ZBW",
		"type": "RNAV",
		"updated": "11/04/2009",
	},
	{
		"name": "HOKDU",
		"latitude": "42-20-43.93 N",
		"longitude": "70-33-55.81 W",
		"state": "MASSACHUSETTS",
		"artcc": "ZBW",
		"type": "RNAV",
		"updated": "09/27/2014",
	},
	{
		"name": "HOKEL",
		"latitude": "41-24-10.47 N",
		"longitude": "70-15-12.3 W",
		"state": "MASSACHUSETTS",
		"artcc": "ZBW",
		"type": "RNAV",
		"updated": "06/03/2011",
	},
	{
		"name": "HOKMI",
		"latitude": "41-51-51.26 N",
		"longitude": "71-34-22.8 W",
		"state": "RHODE ISLAND",
		"artcc": "ZBW",
		"type": "RNAV",
		"updated": "05/15/2003",
	},
	{
		"name": "HOKVA",
		"latitude": "42-34-49.25 N",
		"longitude": "75-31-23.77 W",
		"state": "NEW YORK",
		"artcc": "ZBW",
		"type": "RNAV",
		"updated": "08/31/2015",
	},
	{
		"name": "HOKVU",
		"latitude": "44-47-36.37 N",
		"longitude": "75-47-50 W",
		"state": "",
		"artcc": "ZBW",
		"type": "RP",
		"updated": "04/16/2012",
	},
	{
		"name": "HOLVO",
		"latitude": "43-34-59.48 N",
		"longitude": "72-9-48.82 W",
		"state": "NEW HAMPSHIRE",
		"artcc": "ZBW",
		"type": "RNAV",
		"updated": "11/04/2009",
	},
	{
		"name": "HOLZZ",
		"latitude": "41-35-7.75 N",
		"longitude": "74-14-6.4 W",
		"state": "NEW YORK",
		"artcc": "ZBW",
		"type": "RNAV",
		"updated": "07/24/2012",
	},
	{
		"name": "HOMEY",
		"latitude": "41-52-17.86 N",
		"longitude": "72-35-47.43 W",
		"state": "CONNECTICUT",
		"artcc": "ZBW",
		"type": "RP",
		"updated": "HFD*VOR/DME*003.96",
	},
	{
		"name": "HOMGI",
		"latitude": "44-4-23.01 N",
		"longitude": "72-11-5 W",
		"state": "VERMONT",
		"artcc": "ZBW",
		"type": "RNAV",
		"updated": "01/15/2013",
	},
	{
		"name": "HOMUN",
		"latitude": "43-42-18.47 N",
		"longitude": "72-12-34.3 W",
		"state": "NEW HAMPSHIRE",
		"artcc": "ZBW",
		"type": "RNAV",
		"updated": "10/21/2008",
	},
	{
		"name": "HOMUX",
		"latitude": "42-38-40.12 N",
		"longitude": "70-58-49.17 W",
		"state": "MASSACHUSETTS",
		"artcc": "ZBW",
		"type": "RNAV",
		"updated": "01/18/2013",
	},
	{
		"name": "HONIB",
		"latitude": "44-19-30.23 N",
		"longitude": "72-54-55.2 W",
		"state": "VERMONT",
		"artcc": "ZBW",
		"type": "RP",
		"updated": "VOE*LD*145.83/12.80",
	},
	{
		"name": "HOPMU",
		"latitude": "44-30-26.54 N",
		"longitude": "69-54-59.35 W",
		"state": "MAINE",
		"artcc": "ZBW",
		"type": "RNAV",
		"updated": "03/11/2015",
	},
	{
		"name": "HOPTU",
		"latitude": "41-46-51.37 N",
		"longitude": "71-2-9.65 W",
		"state": "MASSACHUSETTS",
		"artcc": "ZBW",
		"type": "RP",
		"updated": "PVD*VOR/DME*093.00/18.00",
	},
	{
		"name": "HOPUL",
		"latitude": "42-8-11.87 N",
		"longitude": "71-31-11.82 W",
		"state": "MASSACHUSETTS",
		"artcc": "ZBW",
		"type": "RNAV",
		"updated": "04/17/2012",
	},
	{
		"name": "HORAX",
		"latitude": "41-13-38.63 N",
		"longitude": "70-48-0.16 W",
		"state": "MASSACHUSETTS",
		"artcc": "ZBW",
		"type": "RNAV",
		"updated": "05/08/2007",
	},
	{
		"name": "HOSAK",
		"latitude": "44-38-8.38 N",
		"longitude": "70-6-14.45 W",
		"state": "MAINE",
		"artcc": "ZBW",
		"type": "RNAV",
		"updated": "04/24/2007",
	},
	{
		"name": "HOSEP",
		"latitude": "44-59-58.88 N",
		"longitude": "68-47-55.74 W",
		"state": "MAINE",
		"artcc": "ZBW",
		"type": "RP",
		"updated": "MLT*VOR/DME*218.91/37.22",
	},
	{
		"name": "HOSOS",
		"latitude": "44-56-54.97 N",
		"longitude": "68-37-14.86 W",
		"state": "MAINE",
		"artcc": "ZBW",
		"type": "RNAV",
		"updated": "07/27/2010",
	},
	{
		"name": "HOTMI",
		"latitude": "41-33-54.58 N",
		"longitude": "70-39-4.22 W",
		"state": "MASSACHUSETTS",
		"artcc": "ZBW",
		"type": "RNAV",
		"updated": "11/03/2014",
	},
	{
		"name": "HOTOM",
		"latitude": "42-52-20.59 N",
		"longitude": "75-34-35.34 W",
		"state": "NEW YORK",
		"artcc": "ZBW",
		"type": "RNAV",
		"updated": "06/22/2010",
	},
	{
		"name": "HOTSU",
		"latitude": "43-16-47.41 N",
		"longitude": "75-28-19.78 W",
		"state": "NEW YORK",
		"artcc": "ZBW",
		"type": "RNAV",
		"updated": "04/25/2010",
	},
	{
		"name": "HOVOB",
		"latitude": "44-21-5.01 N",
		"longitude": "71-53-37.24 W",
		"state": "VERMONT",
		"artcc": "ZBW",
		"type": "RNAV",
		"updated": "10/18/2010",
	},
	{
		"name": "HOWDI",
		"latitude": "42-31-36.5 N",
		"longitude": "71-14-53.39 W",
		"state": "MASSACHUSETTS",
		"artcc": "ZBW",
		"type": "RP",
		"updated": "LWM*VOR/DME*222.97/14.50",
	},
	{
		"name": "HOXAL",
		"latitude": "41-43-14.91 N",
		"longitude": "72-44-48.4 W",
		"state": "CONNECTICUT",
		"artcc": "ZBW",
		"type": "RNAV",
		"updated": "07/03/2003",
	},
	{
		"name": "HOXEB",
		"latitude": "46-41-12.2 N",
		"longitude": "67-57-19.62 W",
		"state": "MAINE",
		"artcc": "ZBW",
		"type": "RNAV",
		"updated": "04/29/2016",
	},
	{
		"name": "HOXUB",
		"latitude": "44-10-53.89 N",
		"longitude": "72-1-38.73 W",
		"state": "NEW HAMPSHIRE",
		"artcc": "ZBW",
		"type": "RNAV",
		"updated": "01/30/2007",
	},
	{
		"name": "HOXUD",
		"latitude": "41-34-46.62 N",
		"longitude": "69-57-59.32 W",
		"state": "MASSACHUSETTS",
		"artcc": "ZBW",
		"type": "RNAV",
		"updated": "06/23/2011",
	},
	{
		"name": "HRALD",
		"latitude": "42-22-48.26 N",
		"longitude": "71-15-28.72 W",
		"state": "MASSACHUSETTS",
		"artcc": "ZBW",
		"type": "RNAV",
		"updated": "01/15/2013",
	},
	{
		"name": "HRRIS",
		"latitude": "42-27-40.77 N",
		"longitude": "71-9-21.69 W",
		"state": "MASSACHUSETTS",
		"artcc": "ZBW",
		"type": "RNAV",
		"updated": "04/04/2016",
	},
	{
		"name": "HSBRO",
		"latitude": "41-47-17.82 N",
		"longitude": "71-22-20.59 W",
		"state": "RHODE ISLAND",
		"artcc": "ZBW",
		"type": "RNAV",
		"updated": "08/01/2012",
	},
	{
		"name": "HSKEL",
		"latitude": "43-39-12.82 N",
		"longitude": "71-2-51.86 W",
		"state": "NEW HAMPSHIRE",
		"artcc": "ZBW",
		"type": "RNAV",
		"updated": "06/26/2012",
	},
	{
		"name": "HTOAD",
		"latitude": "40-57-34.5 N",
		"longitude": "72-12-38.11 W",
		"state": "NEW YORK",
		"artcc": "ZBW",
		"type": "RNAV",
		"updated": "01/22/2015",
	},
	{
		"name": "HUBIR",
		"latitude": "42-20-4.97 N",
		"longitude": "70-57-53.59 W",
		"state": "MASSACHUSETTS",
		"artcc": "ZBW",
		"type": "RNAV",
		"updated": "10/28/2011",
	},
	{
		"name": "HUBMA",
		"latitude": "44-49-42.78 N",
		"longitude": "69-38-26.73 W",
		"state": "MAINE",
		"artcc": "ZBW",
		"type": "RNAV",
		"updated": "05/25/2007",
	},
	{
		"name": "HUBTU",
		"latitude": "42-27-46.45 N",
		"longitude": "76-25-1.32 W",
		"state": "NEW YORK",
		"artcc": "ZNY",
		"type": "RNAV",
		"updated": "12/30/2009",
	},
	{
		"name": "HUDAG",
		"latitude": "42-9-38.67 N",
		"longitude": "70-35-4.87 W",
		"state": "MASSACHUSETTS",
		"artcc": "ZBW",
		"type": "RNAV",
		"updated": "10/02/2014",
	},
	{
		"name": "HUDEN",
		"latitude": "43-7-2.54 N",
		"longitude": "76-40-15.29 W",
		"state": "NEW YORK",
		"artcc": "ZBW",
		"type": "RNAV",
		"updated": "10/23/2014",
	},
	{
		"name": "HUDOP",
		"latitude": "41-49-16.1 N",
		"longitude": "70-20-42.84 W",
		"state": "MASSACHUSETTS",
		"artcc": "ZBW",
		"type": "RP",
		"updated": "LFV*VOR/DME*245.66",
	},
	{
		"name": "HUDPO",
		"latitude": "42-2-3.83 N",
		"longitude": "70-45-39.15 W",
		"state": "MASSACHUSETTS",
		"artcc": "ZBW",
		"type": "RNAV",
		"updated": "10/02/2014",
	},
	{
		"name": "HUDRI",
		"latitude": "45-0-53.74 N",
		"longitude": "68-38-14.79 W",
		"state": "MAINE",
		"artcc": "ZBW",
		"type": "RNAV",
		"updated": "07/27/2010",
	},
	{
		"name": "HUFEE",
		"latitude": "42-21-15.49 N",
		"longitude": "70-53-38.35 W",
		"state": "MASSACHUSETTS",
		"artcc": "ZBW",
		"type": "RP",
		"updated": "BOS*VOR/DME*108.52/4.26",
	},
	{
		"name": "HUGIV",
		"latitude": "43-8-33.1 N",
		"longitude": "76-8-35.29 W",
		"state": "NEW YORK",
		"artcc": "ZBW",
		"type": "RNAV",
		"updated": "07/11/2005",
	},
	{
		"name": "HULEM",
		"latitude": "41-33-42.22 N",
		"longitude": "71-22-43.66 W",
		"state": "RHODE ISLAND",
		"artcc": "ZBW",
		"type": "RNAV",
		"updated": "12/18/2017",
	},
	{
		"name": "HUMAX",
		"latitude": "46-41-25.37 N",
		"longitude": "68-0-58.06 W",
		"state": "MAINE",
		"artcc": "ZBW",
		"type": "RNAV",
		"updated": "08/01/2003",
	},
	{
		"name": "HUMEP",
		"latitude": "42-4-20.32 N",
		"longitude": "73-19-24.23 W",
		"state": "MASSACHUSETTS",
		"artcc": "ZBW",
		"type": "RNAV",
		"updated": "09/06/2012",
	},
	{
		"name": "HUMIS",
		"latitude": "44-8-26.95 N",
		"longitude": "68-33-23.59 W",
		"state": "MAINE",
		"artcc": "ZBW",
		"type": "RNAV",
		"updated": "11/08/2007",
	},
	{
		"name": "HUMOM",
		"latitude": "41-26-31.75 N",
		"longitude": "73-7-38.61 W",
		"state": "CONNECTICUT",
		"artcc": "ZBW",
		"type": "RP",
		"updated": "OXC*LD*184.78/2.78",
	},
	{
		"name": "HUNED",
		"latitude": "42-51-25.7 N",
		"longitude": "75-34-6.36 W",
		"state": "NEW YORK",
		"artcc": "ZBW",
		"type": "WP",
		"updated": "09/13/2010",
	},
	{
		"name": "HUNEE",
		"latitude": "41-52-23.2 N",
		"longitude": "72-46-25.16 W",
		"state": "CONNECTICUT",
		"artcc": "ZBW",
		"type": "RP",
		"updated": "HFD*VOR/DME*336.94",
	},
	{
		"name": "HUNUX",
		"latitude": "44-6-56.9 N",
		"longitude": "68-47-9.22 W",
		"state": "MAINE",
		"artcc": "ZBW",
		"type": "RNAV",
		"updated": "11/08/2007",
	},
	{
		"name": "HUPUM",
		"latitude": "43-59-19.49 N",
		"longitude": "75-56-13.83 W",
		"state": "NEW YORK",
		"artcc": "ZBW",
		"type": "RNAV",
		"updated": "05/01/2017",
	},
	{
		"name": "HURBE",
		"latitude": "42-27-38.74 N",
		"longitude": "70-51-7.04 W",
		"state": "MASSACHUSETTS",
		"artcc": "ZBW",
		"type": "RNAV",
		"updated": "02/14/2017",
	},
	{
		"name": "HURDS",
		"latitude": "44-56-16.57 N",
		"longitude": "71-59-40.65 W",
		"state": "VERMONT",
		"artcc": "ZBW",
		"type": "RP",
		"updated": "MPV*VOR/DME*036.73/54.75",
	},
	{
		"name": "HUREX",
		"latitude": "41-49-13.87 N",
		"longitude": "71-54-2.26 W",
		"state": "CONNECTICUT",
		"artcc": "ZBW",
		"type": "RP",
		"updated": "PUT*VOR/DME*211.40/8.48",
	},
	{
		"name": "HURLY",
		"latitude": "42-35-19.49 N",
		"longitude": "72-17-30.4 W",
		"state": "MASSACHUSETTS",
		"artcc": "ZBW",
		"type": "RP",
		"updated": "GDM*VOR/DME*298.00/10.67",
	},
	{
		"name": "HURTI",
		"latitude": "43-17-8.41 N",
		"longitude": "76-18-14.89 W",
		"state": "NEW YORK",
		"artcc": "ZBW",
		"type": "RP",
		"updated": "FZY*LD*149.90/5.89",
	},
	{
		"name": "HURUN",
		"latitude": "40-57-28.39 N",
		"longitude": "72-19-42.86 W",
		"state": "NEW YORK",
		"artcc": "ZBW",
		"type": "RNAV",
		"updated": "05/24/2012",
	},
	{
		"name": "HUSAT",
		"latitude": "43-29-2.07 N",
		"longitude": "70-3-0.99 W",
		"state": "MAINE",
		"artcc": "ZBW",
		"type": "RNAV",
		"updated": "09/17/2015",
	},
	{
		"name": "HUSAV",
		"latitude": "44-32-25.87 N",
		"longitude": "72-40-12.55 W",
		"state": "VERMONT",
		"artcc": "ZBW",
		"type": "RNAV",
		"updated": "08/14/2014",
	},
	{
		"name": "HUSKI",
		"latitude": "43-28-45.31 N",
		"longitude": "71-43-25.01 W",
		"state": "NEW HAMPSHIRE",
		"artcc": "ZBW",
		"type": "RP",
		"updated": "CON*VOR/DME*352.43",
	},
	{
		"name": "HUTCH",
		"latitude": "42-49-37.03 N",
		"longitude": "75-38-45.74 W",
		"state": "NEW YORK",
		"artcc": "ZBW",
		"type": "RP",
		"updated": "RKA*VOR/DME*331.35",
	},
	{
		"name": "HUTIN",
		"latitude": "42-28-4.88 N",
		"longitude": "72-6-4.71 W",
		"state": "MASSACHUSETTS",
		"artcc": "ZBW",
		"type": "RNAV",
		"updated": "04/23/2012",
	},
	{
		"name": "HUTRI",
		"latitude": "44-8-57.03 N",
		"longitude": "68-44-34.05 W",
		"state": "MAINE",
		"artcc": "ZBW",
		"type": "RNAV",
		"updated": "11/08/2007",
	},
	{
		"name": "HUTUB",
		"latitude": "41-46-10.62 N",
		"longitude": "71-28-20.72 W",
		"state": "RHODE ISLAND",
		"artcc": "ZBW",
		"type": "RP",
		"updated": "05/15/2003",
	},
	{
		"name": "HUVIG",
		"latitude": "43-2-10.92 N",
		"longitude": "72-47-24.39 W",
		"state": "VERMONT",
		"artcc": "ZBW",
		"type": "RNAV",
		"updated": "01/15/2013",
	},
	{
		"name": "HUVIR",
		"latitude": "44-8-35.19 N",
		"longitude": "68-57-16.69 W",
		"state": "MAINE",
		"artcc": "ZBW",
		"type": "RNAV",
		"updated": "10/04/2007",
	},
	{
		"name": "HUVUX",
		"latitude": "41-45-37.45 N",
		"longitude": "72-6-12.9 W",
		"state": "CONNECTICUT",
		"artcc": "ZBW",
		"type": "RNAV",
		"updated": "06/29/2011",
	},
	{
		"name": "HUXAX",
		"latitude": "44-39-22.88 N",
		"longitude": "75-19-7.25 W",
		"state": "NEW YORK",
		"artcc": "ZBW",
		"type": "RP",
		"updated": "PTD*NDB*271.99",
	},
	{
		"name": "HYLND",
		"latitude": "42-46-51.12 N",
		"longitude": "71-16-31.08 W",
		"state": "NEW HAMPSHIRE",
		"artcc": "ZBW",
		"type": "RP",
		"updated": "PSM*VOR/DME*243.17/26.71",
	},
