	{
		"name": "IBEYU",
		"latitude": "43-6-49.81 N",
		"longitude": "70-39-53.05 W",
		"state": "MAINE",
		"artcc": "ZBW",
		"type": "RNAV",
		"updated": "07/07/2003",
	},
	{
		"name": "IBUNY",
		"latitude": "44-11-43.73 N",
		"longitude": "70-32-27.9 W",
		"state": "MAINE",
		"artcc": "ZBW",
		"type": "RNAV",
		"updated": "08/08/2012",
	},
	{
		"name": "IBYED",
		"latitude": "43-40-55.73 N",
		"longitude": "70-9-11.73 W",
		"state": "MAINE",
		"artcc": "ZBW",
		"type": "RNAV",
		"updated": "09/30/2009",
	},
	{
		"name": "ICICO",
		"latitude": "43-29-33.65 N",
		"longitude": "72-57-25.91 W",
		"state": "VERMONT",
		"artcc": "ZBW",
		"type": "RNAV",
		"updated": "11/04/2009",
	},
	{
		"name": "ICOPA",
		"latitude": "42-58-47.89 N",
		"longitude": "73-56-17.81 W",
		"state": "NEW YORK",
		"artcc": "ZBW",
		"type": "RNAV",
		"updated": "02/03/2009",
	},
	{
		"name": "ICURO",
		"latitude": "42-49-31.9 N",
		"longitude": "72-52-35.13 W",
		"state": "VERMONT",
		"artcc": "ZBW",
		"type": "RNAV",
		"updated": "06/17/2005",
	},
	{
		"name": "IDATE",
		"latitude": "47-10-14.7 N",
		"longitude": "68-32-26.64 W",
		"state": "MAINE",
		"artcc": "ZBW",
		"type": "RNAV",
		"updated": "08/01/2007",
	},
	{
		"name": "IDEAR",
		"latitude": "41-49-50.2 N",
		"longitude": "71-20-12.26 W",
		"state": "MASSACHUSETTS",
		"artcc": "ZBW",
		"type": "RNAV",
		"updated": "08/01/2012",
	},
	{
		"name": "IDEED",
		"latitude": "42-54-35.87 N",
		"longitude": "70-41-11.09 W",
		"state": "NEW HAMPSHIRE",
		"artcc": "ZBW",
		"type": "RP",
		"updated": "PSM*VOR/DME*164.47/12.27",
	},
	{
		"name": "IDIKE",
		"latitude": "41-52-27.24 N",
		"longitude": "71-31-52.86 W",
		"state": "RHODE ISLAND",
		"artcc": "ZBW",
		"type": "RNAV",
		"updated": "12/13/2012",
	},
	{
		"name": "IDOCO",
		"latitude": "41-55-24.33 N",
		"longitude": "72-40-2.23 W",
		"state": "CONNECTICUT",
		"artcc": "ZBW",
		"type": "RP",
		"updated": "IKX*LD*148.38/1.79",
	},
	{
		"name": "IFADY",
		"latitude": "41-7-7.82 N",
		"longitude": "73-44-47.27 W",
		"state": "NEW YORK",
		"artcc": "ZBW",
		"type": "RNAV",
		"updated": "08/17/2010",
	},
	{
		"name": "IFIZE",
		"latitude": "43-28-46.04 N",
		"longitude": "76-11-53.65 W",
		"state": "NEW YORK",
		"artcc": "ZBW",
		"type": "RNAV",
		"updated": "06/16/2009",
	},
	{
		"name": "IGEFY",
		"latitude": "44-21-57.65 N",
		"longitude": "68-41-6 W",
		"state": "MAINE",
		"artcc": "ZBW",
		"type": "RNAV",
		"updated": "10/23/2014",
	},
	{
		"name": "IGIKE",
		"latitude": "43-53-28.2 N",
		"longitude": "73-24-53.96 W",
		"state": "NEW YORK",
		"artcc": "ZBW",
		"type": "RNAV",
		"updated": "01/13/2011",
	},
	{
		"name": "IGILE",
		"latitude": "43-51-29.56 N",
		"longitude": "69-18-56.99 W",
		"state": "MAINE",
		"artcc": "ZBW",
		"type": "RNAV",
		"updated": "06/21/2010",
	},
	{
		"name": "IGUNE",
		"latitude": "44-25-32.41 N",
		"longitude": "68-11-54.86 W",
		"state": "MAINE",
		"artcc": "ZBW",
		"type": "RNAV",
		"updated": "09/29/2009",
	},
	{
		"name": "IHEYA",
		"latitude": "43-31-3.84 N",
		"longitude": "71-36-4.16 W",
		"state": "NEW HAMPSHIRE",
		"artcc": "ZBW",
		"type": "RP",
		"updated": "CON*VOR/DME*011.41",
	},
	{
		"name": "IHHUB",
		"latitude": "41-11-15.39 N",
		"longitude": "70-31-17.68 W",
		"state": "MASSACHUSETTS",
		"artcc": "ZBW",
		"type": "RNAV",
		"updated": "07/18/2012",
	},
	{
		"name": "IHOBB",
		"latitude": "42-43-41.25 N",
		"longitude": "71-29-11.66 W",
		"state": "NEW HAMPSHIRE",
		"artcc": "ZBW",
		"type": "RNAV",
		"updated": "12/03/2014",
	},
	{
		"name": "IHXOK",
		"latitude": "41-42-9.14 N",
		"longitude": "71-0-4.64 W",
		"state": "MASSACHUSETTS",
		"artcc": "ZBW",
		"type": "RNAV",
		"updated": "04/13/2012",
	},
	{
		"name": "IJHEV",
		"latitude": "44-18-55.24 N",
		"longitude": "72-55-41.31 W",
		"state": "VERMONT",
		"artcc": "ZBW",
		"type": "RP",
		"updated": "BJA*TACAN*149.51/13.81",
	},
	{
		"name": "IKACA",
		"latitude": "43-33-18.98 N",
		"longitude": "70-12-31.36 W",
		"state": "MAINE",
		"artcc": "ZBW",
		"type": "RNAV",
		"updated": "09/28/2009",
	},
	{
		"name": "IKAVE",
		"latitude": "46-55-4.6 N",
		"longitude": "68-1-52.72 W",
		"state": "MAINE",
		"artcc": "ZBW",
		"type": "RNAV",
		"updated": "04/29/2016",
	},
	{
		"name": "IKAXE",
		"latitude": "41-10-56.23 N",
		"longitude": "73-46-16.05 W",
		"state": "NEW YORK",
		"artcc": "ZBW",
		"type": "RNAV",
		"updated": "08/17/2010",
	},
	{
		"name": "IKEWI",
		"latitude": "41-0-12.19 N",
		"longitude": "73-39-29.3 W",
		"state": "CONNECTICUT",
		"artcc": "ZBW",
		"type": "RNAV",
		"updated": "08/17/2010",
	},
	{
		"name": "IKEXE",
		"latitude": "44-58-42.95 N",
		"longitude": "69-4-35.96 W",
		"state": "MAINE",
		"artcc": "ZBW",
		"type": "RP",
		"updated": "BGR*VORTAC*332.60/11.92",
	},
	{
		"name": "IKGAB",
		"latitude": "44-43-13.62 N",
		"longitude": "73-39-48.17 W",
		"state": "NEW YORK",
		"artcc": "ZBW",
		"type": "RNAV",
		"updated": "01/21/2003",
	},
	{
		"name": "IKILY",
		"latitude": "41-4-3.99 N",
		"longitude": "73-33-16.78 W",
		"state": "CONNECTICUT",
		"artcc": "ZBW",
		"type": "RNAV",
		"updated": "08/17/2010",
	},
	{
		"name": "IKMOW",
		"latitude": "44-56-41.81 N",
		"longitude": "69-9-51.48 W",
		"state": "MAINE",
		"artcc": "ZBW",
		"type": "RNAV",
		"updated": "06/17/2011",
	},
	{
		"name": "ILACI",
		"latitude": "41-10-0.67 N",
		"longitude": "71-35-35.48 W",
		"state": "RHODE ISLAND",
		"artcc": "ZBW",
		"type": "RNAV",
		"updated": "12/19/2001",
	},
	{
		"name": "ILEXE",
		"latitude": "42-33-28.32 N",
		"longitude": "71-26-23.35 W",
		"state": "MASSACHUSETTS",
		"artcc": "ZBW",
		"type": "RNAV",
		"updated": "08/13/2012",
	},
	{
		"name": "ILGEZ",
		"latitude": "42-13-18.27 N",
		"longitude": "73-53-38.44 W",
		"state": "NEW YORK",
		"artcc": "ZBW",
		"type": "RNAV",
		"updated": "10/31/2012",
	},
	{
		"name": "ILLID",
		"latitude": "41-3-36.01 N",
		"longitude": "73-42-5.04 W",
		"state": "NEW YORK",
		"artcc": "ZBW",
		"type": "WP",
		"updated": "LGA*VOR/DME*036.60/18.23",
	},
	{
		"name": "ILUTE",
		"latitude": "42-34-1.97 N",
		"longitude": "72-13-29.47 W",
		"state": "MASSACHUSETTS",
		"artcc": "ZBW",
		"type": "RP",
		"updated": "GDM*VOR/DME*293.86/7.50",
	},
	{
		"name": "ILZID",
		"latitude": "44-10-53.57 N",
		"longitude": "69-34-15.22 W",
		"state": "MAINE",
		"artcc": "ZBW",
		"type": "RNAV",
		"updated": "12/22/2005",
	},
	{
		"name": "IMAMA",
		"latitude": "46-44-17.8216 N",
		"longitude": "67-46-39.1893 W",
		"state": "",
		"artcc": "ZBW",
		"type": "RNAV",
		"updated": "11/09/2016",
	},
	{
		"name": "IMIBE",
		"latitude": "42-2-59.51 N",
		"longitude": "73-59-28.79 W",
		"state": "NEW YORK",
		"artcc": "ZBW",
		"type": "RNAV",
		"updated": "05/13/2015",
	},
	{
		"name": "INADY",
		"latitude": "42-12-34.59 N",
		"longitude": "75-36-51.13 W",
		"state": "NEW YORK",
		"artcc": "ZBW",
		"type": "RNAV",
		"updated": "02/25/2000",
	},
	{
		"name": "INGRD",
		"latitude": "44-17-35.75 N",
		"longitude": "74-17-51.58 W",
		"state": "NEW YORK",
		"artcc": "ZBW",
		"type": "RNAV",
		"updated": "08/02/2012",
	},
	{
		"name": "INGUY",
		"latitude": "44-10-10.79 N",
		"longitude": "68-10-20.32 W",
		"state": "MAINE",
		"artcc": "ZBW",
		"type": "RNAV",
		"updated": "10/01/2009",
	},
	{
		"name": "INISE",
		"latitude": "41-43-50.17 N",
		"longitude": "74-11-7.89 W",
		"state": "NEW YORK",
		"artcc": "ZBW",
		"type": "RNAV",
		"updated": "02/03/2010",
	},
	{
		"name": "INKOW",
		"latitude": "43-23-49.04 N",
		"longitude": "71-37-41.34 W",
		"state": "NEW HAMPSHIRE",
		"artcc": "ZBW",
		"type": "RNAV",
		"updated": "06/03/2005",
	},
	{
		"name": "INNDY",
		"latitude": "41-46-19.19 N",
		"longitude": "71-5-55.93 W",
		"state": "MASSACHUSETTS",
		"artcc": "ZBW",
		"type": "RP",
		"updated": "SEY*VOR/DME*045.54/42.16",
	},
	{
		"name": "INOPE",
		"latitude": "41-59-2.1 N",
		"longitude": "73-15-38.02 W",
		"state": "CONNECTICUT",
		"artcc": "ZBW",
		"type": "RNAV",
		"updated": "09/06/2012",
	},
	{
		"name": "INOSE",
		"latitude": "40-53-5.52 N",
		"longitude": "72-57-14.77 W",
		"state": "NEW YORK",
		"artcc": "ZBW",
		"type": "RNAV",
		"updated": "05/19/2009",
	},
	{
		"name": "IONIA",
		"latitude": "42-36-3.85 N",
		"longitude": "73-45-27.02 W",
		"state": "NEW YORK",
		"artcc": "ZBW",
		"type": "RP",
		"updated": "CAM*VOR/DME*231.89/29.83",
	},
	{
		"name": "IPADE",
		"latitude": "41-21-22.17 N",
		"longitude": "70-19-44.92 W",
		"state": "MASSACHUSETTS",
		"artcc": "ZBW",
		"type": "RNAV",
		"updated": "07/19/2012",
	},
	{
		"name": "IPESE",
		"latitude": "47-2-40.47 N",
		"longitude": "68-14-53.6 W",
		"state": "MAINE",
		"artcc": "ZBW",
		"type": "RNAV",
		"updated": "04/29/2016",
	},
	{
		"name": "IPEYA",
		"latitude": "43-7-57.49 N",
		"longitude": "73-28-15.14 W",
		"state": "NEW YORK",
		"artcc": "ZBW",
		"type": "RP",
		"updated": "CAM*VOR/DME*340.13/10.00",
	},
	{
		"name": "IPIPE",
		"latitude": "42-13-2.76 N",
		"longitude": "75-42-14.46 W",
		"state": "NEW YORK",
		"artcc": "ZBW",
		"type": "RNAV",
		"updated": "11/18/2009",
	},
	{
		"name": "IPKAH",
		"latitude": "43-36-55.18 N",
		"longitude": "70-36-48.69 W",
		"state": "MAINE",
		"artcc": "ZBW",
		"type": "RNAV",
		"updated": "05/23/2014",
	},
	{
		"name": "IPOSE",
		"latitude": "44-2-7.12 N",
		"longitude": "68-48-5.35 W",
		"state": "MAINE",
		"artcc": "ZBW",
		"type": "RNAV",
		"updated": "09/28/2009",
	},
	{
		"name": "IQHET",
		"latitude": "42-59-55.69 N",
		"longitude": "74-11-52.09 W",
		"state": "NEW YORK",
		"artcc": "ZBW",
		"type": "RNAV",
		"updated": "08/03/2010",
	},
	{
		"name": "IQNIS",
		"latitude": "43-4-47.02 N",
		"longitude": "74-36-49.33 W",
		"state": "NEW YORK",
		"artcc": "ZBW",
		"type": "RNAV",
		"updated": "08/03/2010",
	},
	{
		"name": "IQSAL",
		"latitude": "43-59-23.48 N",
		"longitude": "68-50-58.99 W",
		"state": "MAINE",
		"artcc": "ZBW",
		"type": "RNAV",
		"updated": "10/08/2008",
	},
	{
		"name": "IRABE",
		"latitude": "44-19-28.44 N",
		"longitude": "74-10-44.96 W",
		"state": "NEW YORK",
		"artcc": "ZBW",
		"type": "RNAV",
		"updated": "04/15/2003",
	},
	{
		"name": "IRADE",
		"latitude": "44-18-10.16 N",
		"longitude": "70-25-49.58 W",
		"state": "MAINE",
		"artcc": "ZBW",
		"type": "RNAV",
		"updated": "10/01/2009",
	},
	{
		"name": "IRAGE",
		"latitude": "44-26-45.51 N",
		"longitude": "73-5-25.6 W",
		"state": "VERMONT",
		"artcc": "ZBW",
		"type": "RNAV",
		"updated": "03/11/2011",
	},
	{
		"name": "IRAME",
		"latitude": "44-45-3.88 N",
		"longitude": "73-2-53.18 W",
		"state": "VERMONT",
		"artcc": "ZBW",
		"type": "RNAV",
		"updated": "03/28/2006",
	},
	{
		"name": "IREYU",
		"latitude": "44-16-54.53 N",
		"longitude": "72-2-48.86 W",
		"state": "NEW HAMPSHIRE",
		"artcc": "ZBW",
		"type": "RNAV",
		"updated": "01/30/2007",
	},
	{
		"name": "IRGAW",
		"latitude": "42-35-3.75 N",
		"longitude": "71-21-52.18 W",
		"state": "MASSACHUSETTS",
		"artcc": "ZBW",
		"type": "RNAV",
		"updated": "09/27/2012",
	},
	{
		"name": "IRSEW",
		"latitude": "42-19-21.56 N",
		"longitude": "71-1-31.91 W",
		"state": "MASSACHUSETTS",
		"artcc": "ZBW",
		"type": "RP",
		"updated": "BOS*LD*214.74/3.81",
	},
	{
		"name": "ISACU",
		"latitude": "43-57-11.51 N",
		"longitude": "72-19-3.99 W",
		"state": "VERMONT",
		"artcc": "ZBW",
		"type": "RP",
		"updated": "LEB*VOR/DME*000.01/17.04",
	},
	{
		"name": "ISEGE",
		"latitude": "43-6-6.46 N",
		"longitude": "71-44-0.49 W",
		"state": "NEW HAMPSHIRE",
		"artcc": "ZBW",
		"type": "RNAV",
		"updated": "12/19/2016",
	},
	{
		"name": "ISICA",
		"latitude": "44-44-16.77 N",
		"longitude": "74-42-6.58 W",
		"state": "NEW YORK",
		"artcc": "ZBW",
		"type": "RNAV",
		"updated": "10/05/2004",
	},
	{
		"name": "ISKUQ",
		"latitude": "43-19-32.35 N",
		"longitude": "73-35-47.35 W",
		"state": "NEW YORK",
		"artcc": "ZBW",
		"type": "RNAV",
		"updated": "06/22/2010",
	},
	{
		"name": "ISLAY",
		"latitude": "42-29-46.42 N",
		"longitude": "71-3-39.16 W",
		"state": "MASSACHUSETTS",
		"artcc": "ZBW",
		"type": "RNAV",
		"updated": "04/04/2016",
	},
	{
		"name": "ISLET",
		"latitude": "41-0-59.88 N",
		"longitude": "73-40-5.67 W",
		"state": "NEW YORK",
		"artcc": "ZBW",
		"type": "RNAV",
		"updated": "06/12/2013",
	},
	{
		"name": "ISOZO",
		"latitude": "41-22-3.91 N",
		"longitude": "73-29-33.42 W",
		"state": "CONNECTICUT",
		"artcc": "ZBW",
		"type": "RP",
		"updated": "DXR*LE*266.73/0.53",
	},
	{
		"name": "ISQAC",
		"latitude": "40-43-58.57 N",
		"longitude": "72-51-41.65 W",
		"state": "NEW YORK",
		"artcc": "ZBW",
		"type": "RNAV",
		"updated": "09/04/2001",
	},
	{
		"name": "ISUCO",
		"latitude": "42-20-0.79 N",
		"longitude": "71-11-14.9 W",
		"state": "MASSACHUSETTS",
		"artcc": "ZBW",
		"type": "RNAV",
		"updated": "11/14/2013",
	},
	{
		"name": "ITASE",
		"latitude": "45-3-32.73 N",
		"longitude": "68-58-0.78 W",
		"state": "MAINE",
		"artcc": "ZBW",
		"type": "RNAV",
		"updated": "03/17/2017",
	},
	{
		"name": "ITAWA",
		"latitude": "43-15-24.42 N",
		"longitude": "70-58-11.71 W",
		"state": "NEW HAMPSHIRE",
		"artcc": "ZBW",
		"type": "RP",
		"updated": "PSM*VOR/DME*345.68/11.98",
	},
	{
		"name": "ITAWT",
		"latitude": "43-17-44.72 N",
		"longitude": "71-13-32.35 W",
		"state": "NEW HAMPSHIRE",
		"artcc": "ZBW",
		"type": "RNAV",
		"updated": "10/16/2006",
	},
	{
		"name": "ITOME",
		"latitude": "41-40-27.51 N",
		"longitude": "74-21-34.87 W",
		"state": "NEW YORK",
		"artcc": "ZBW",
		"type": "RNAV",
		"updated": "08/06/2010",
	},
	{
		"name": "ITTLE",
		"latitude": "41-50-49.99 N",
		"longitude": "73-48-36.84 W",
		"state": "NEW YORK",
		"artcc": "ZBW",
		"type": "RNAV",
		"updated": "05/13/2015",
	},
	{
		"name": "ITUXY",
		"latitude": "43-58-58.36 N",
		"longitude": "69-40-29.59 W",
		"state": "MAINE",
		"artcc": "ZBW",
		"type": "RNAV",
		"updated": "04/24/2010",
	},
	{
		"name": "IVAFO",
		"latitude": "45-6-33.01 N",
		"longitude": "68-35-1.06 W",
		"state": "MAINE",
		"artcc": "ZBW",
		"type": "RNAV",
		"updated": "07/27/2010",
	},
	{
		"name": "IVVEW",
		"latitude": "45-38-54.95 N",
		"longitude": "68-32-9.92 W",
		"state": "MAINE",
		"artcc": "ZBW",
		"type": "RNAV",
		"updated": "04/02/2012",
	},
	{
		"name": "IWKIC",
		"latitude": "44-19-49.56 N",
		"longitude": "69-46-42.37 W",
		"state": "MAINE",
		"artcc": "ZBW",
		"type": "RP",
		"updated": "AUG*VOR/DME*069.32/1.00",
	},
	{
		"name": "IXOPE",
		"latitude": "44-56-52.88 N",
		"longitude": "72-12-35.26 W",
		"state": "VERMONT",
		"artcc": "ZBW",
		"type": "RNAV",
		"updated": "11/05/2009",
	},
	{
		"name": "IYANA",
		"latitude": "42-3-16.48 N",
		"longitude": "70-49-40.68 W",
		"state": "MASSACHUSETTS",
		"artcc": "ZBW",
		"type": "RNAV",
		"updated": "04/04/2016",
	},
	{
		"name": "IYIYO",
		"latitude": "42-30-39.14 N",
		"longitude": "73-47-40.14 W",
		"state": "NEW YORK",
		"artcc": "ZBW",
		"type": "CN",
		"updated": "06/27/2011",
	},
	{
		"name": "IYOYO",
		"latitude": "43-48-12.69 N",
		"longitude": "73-24-42.16 W",
		"state": "NEW YORK",
		"artcc": "ZBW",
		"type": "RNAV",
		"updated": "01/13/2011",
	},
