[
	{
		"name": "LABEL",
		"latitude": "43-47-3.87 N",
		"longitude": "70-45-51.85 W",
		"state": "MAINE",
		"artcc": "ZBW",
		"type": "RP",
		"updated": "PSM*VOR/DME*020.00"
	},
	{
		"name": "LABRE",
		"latitude": "46-45-6.92 N",
		"longitude": "69-56-7.86 W",
		"state": "",
		"artcc": "ZBW",
		"type": "RP",
		"updated": "PQI*VOR/DME*290.66/76.00"
	},
	{
		"name": "LACKO",
		"latitude": "41-55-12.18 N",
		"longitude": "70-27-52.22 W",
		"state": "MASSACHUSETTS",
		"artcc": "ZBW",
		"type": "RNAV",
		"updated": "06/04/2014"
	},
	{
		"name": "LADNE",
		"latitude": "45-11-50.43 N",
		"longitude": "68-23-5.96 W",
		"state": "MAINE",
		"artcc": "ZBW",
		"type": "RNAV",
		"updated": "05/19/2009"
	},
	{
		"name": "LADTI",
		"latitude": "42-44-35.33 N",
		"longitude": "71-5-25.17 W",
		"state": "MASSACHUSETTS",
		"artcc": "ZBW",
		"type": "RP",
		"updated": "PSM*VOR/DME*225.18"
	},
	{
		"name": "LAFAY",
		"latitude": "41-27-45.22 N",
		"longitude": "71-43-16.43 W",
		"state": "RHODE ISLAND",
		"artcc": "ZBW",
		"type": "RP",
		"updated": "PVD*VOR/DME*234.00/20.46"
	},
	{
		"name": "LAGGO",
		"latitude": "47-13-5.82 N",
		"longitude": "68-33-48.17 W",
		"state": "MAINE",
		"artcc": "ZBW",
		"type": "RNAV",
		"updated": "08/01/2007"
	},
	{
		"name": "LAGGS",
		"latitude": "44-17-49.65 N",
		"longitude": "74-13-44.19 W",
		"state": "NEW YORK",
		"artcc": "ZBW",
		"type": "RNAV",
		"updated": "08/24/2016"
	},
	{
		"name": "LAIVS",
		"latitude": "44-57-39.95 N",
		"longitude": "74-13-5.89 W",
		"state": "NEW YORK",
		"artcc": "ZBW",
		"type": "RNAV",
		"updated": "09/14/2012"
	},
	{
		"name": "LAMED",
		"latitude": "43-26-52.64 N",
		"longitude": "73-42-13.79 W",
		"state": "NEW YORK",
		"artcc": "ZBW",
		"type": "RP",
		"updated": "YSC*VOR/DME*234.00"
	},
	{
		"name": "LANGY",
		"latitude": "42-45-39.98 N",
		"longitude": "73-40-7.52 W",
		"state": "NEW YORK",
		"artcc": "ZBW",
		"type": "RP",
		"updated": "ALB*VORTAC*095.01/6.00"
	},
	{
		"name": "LAODE",
		"latitude": "43-48-29.54 N",
		"longitude": "69-18-56.99 W",
		"state": "MAINE",
		"artcc": "ZBW",
		"type": "RNAV",
		"updated": "06/21/2010"
	},
	{
		"name": "LAPEL",
		"latitude": "42-27-40.92 N",
		"longitude": "72-12-15.79 W",
		"state": "MASSACHUSETTS",
		"artcc": "ZBW",
		"type": "RP",
		"updated": "ENE*VOR/DME*183.00"
	},
	{
		"name": "LARIE",
		"latitude": "41-49-23.46 N",
		"longitude": "69-58-41.96 W",
		"state": "MASSACHUSETTS",
		"artcc": "ZBW",
		"type": "RNAV",
		"updated": "04/09/2010"
	},
	{
		"name": "LAROE",
		"latitude": "43-44-58.72 N",
		"longitude": "71-16-47.95 W",
		"state": "NEW HAMPSHIRE",
		"artcc": "ZBW",
		"type": "RP",
		"updated": "ENE*VOR/DME*321.00"
	},
	{
		"name": "LATRL",
		"latitude": "41-9-52.55 N",
		"longitude": "73-7-8.94 W",
		"state": "CONNECTICUT",
		"artcc": "ZBW",
		"type": "WP",
		"updated": "12/28/1995"
	},
	{
		"name": "LATSE",
		"latitude": "41-21-21.82 N",
		"longitude": "72-0-50.96 W",
		"state": "CONNECTICUT",
		"artcc": "ZBW",
		"type": "RP",
		"updated": "GON*VOR/DME*062.00/2.30"
	},
	{
		"name": "LATTS",
		"latitude": "44-51-29.78 N",
		"longitude": "73-32-29.26 W",
		"state": "NEW YORK",
		"artcc": "ZBW",
		"type": "RNAV",
		"updated": "05/16/2014"
	},
	{
		"name": "LAUDS",
		"latitude": "45-25-10.13 N",
		"longitude": "68-12-26.96 W",
		"state": "MAINE",
		"artcc": "ZBW",
		"type": "RP",
		"updated": "MLT*VOR/DME*147.56"
	},
	{
		"name": "LAWRN",
		"latitude": "42-12-11.7 N",
		"longitude": "71-49-34.07 W",
		"state": "MASSACHUSETTS",
		"artcc": "ZBW",
		"type": "RP",
		"updated": "GDM*VOR/DME*167.26/23.00"
	},
	{
		"name": "LAYIR",
		"latitude": "43-28-38.87 N",
		"longitude": "72-0-28.34 W",
		"state": "NEW HAMPSHIRE",
		"artcc": "ZBW",
		"type": "RNAV",
		"updated": "10/02/2012"
	},
	{
		"name": "LAZYE",
		"latitude": "40-57-29.22 N",
		"longitude": "72-18-47.11 W",
		"state": "NEW YORK",
		"artcc": "ZBW",
		"type": "RNAV",
		"updated": "03/06/2009"
	},
	{
		"name": "LBSTA",
		"latitude": "42-48-0 N",
		"longitude": "70-36-48.7 W",
		"state": "MASSACHUSETTS",
		"artcc": "ZBW",
		"type": "RP",
		"updated": "MHT*VOR/DME*111.76"
	},
	{
		"name": "LEADS",
		"latitude": "42-22-26.65 N",
		"longitude": "72-39-47.57 W",
		"state": "MASSACHUSETTS",
		"artcc": "ZBW",
		"type": "RP",
		"updated": "BAF*VORTAC*024.49/12.94"
	},
	{
		"name": "LEAFY",
		"latitude": "44-18-3.13 N",
		"longitude": "73-32-54.83 W",
		"state": "NEW YORK",
		"artcc": "ZBW",
		"type": "RNAV",
		"updated": "08/12/2016"
	},
	{
		"name": "LECEG",
		"latitude": "43-44-56.66 N",
		"longitude": "72-57-26.96 W",
		"state": "VERMONT",
		"artcc": "ZBW",
		"type": "RNAV",
		"updated": "08/02/2012"
	},
	{
		"name": "LEDEC",
		"latitude": "41-6-46.63 N",
		"longitude": "71-52-8.26 W",
		"state": "NEW YORK",
		"artcc": "ZBW",
		"type": "RNAV",
		"updated": "07/03/2012"
	},
	{
		"name": "LEEZI",
		"latitude": "42-41-2.21 N",
		"longitude": "70-44-36.3 W",
		"state": "MASSACHUSETTS",
		"artcc": "ZBW",
		"type": "RNAV",
		"updated": "09/28/2014"
	},
	{
		"name": "LELIC",
		"latitude": "42-36-13.9 N",
		"longitude": "71-48-50.53 W",
		"state": "MASSACHUSETTS",
		"artcc": "ZBW",
		"type": "RNAV",
		"updated": "07/25/2005"
	},
	{
		"name": "LELSE",
		"latitude": "45-31-38.38 N",
		"longitude": "68-41-9.27 W",
		"state": "MAINE",
		"artcc": "ZBW",
		"type": "RNAV",
		"updated": "05/19/2009"
	},
	{
		"name": "LENEC",
		"latitude": "42-59-20.49 N",
		"longitude": "76-11-34.69 W",
		"state": "NEW YORK",
		"artcc": "ZBW",
		"type": "RNAV",
		"updated": "05/03/2013"
	},
	{
		"name": "LENNE",
		"latitude": "40-59-46.61 N",
		"longitude": "72-7-18.38 W",
		"state": "NEW YORK",
		"artcc": "ZBW",
		"type": "RP",
		"updated": "HTO*VORTAC*075.33/10.00"
	},
	{
		"name": "LENOL",
		"latitude": "44-15-47.8 N",
		"longitude": "76-9-46.06 W",
		"state": "NEW YORK",
		"artcc": "ZBW",
		"type": "RNAV",
		"updated": "07/10/2001"
	},
	{
		"name": "LESWL",
		"latitude": "41-53-31 N",
		"longitude": "73-19-20 W",
		"state": "CONNECTICUT",
		"artcc": "ZBW",
		"type": "RNAV",
		"updated": "08/26/2011"
	},
	{
		"name": "LETUS",
		"latitude": "44-37-22.34 N",
		"longitude": "75-27-11.44 W",
		"state": "NEW YORK",
		"artcc": "ZBW",
		"type": "RP",
		"updated": "PTD*NDB*270.33"
	},
	{
		"name": "LEWIE",
		"latitude": "43-57-44.4 N",
		"longitude": "70-20-17.47 W",
		"state": "MAINE",
		"artcc": "ZBW",
		"type": "RNAV",
		"updated": "02/28/2014"
	},
	{
		"name": "LGURI",
		"latitude": "43-9-45.37 N",
		"longitude": "70-44-19.31 W",
		"state": "MAINE",
		"artcc": "ZBW",
		"type": "RNAV",
		"updated": "11/09/2009"
	},
	{
		"name": "LIBBE",
		"latitude": "41-0-15.86 N",
		"longitude": "71-21-20.34 W",
		"state": "NEW YORK",
		"artcc": "ZBW",
		"type": "RP",
		"updated": "HTO*VORTAC*096.00/43.98"
	},
	{
		"name": "LIDLE",
		"latitude": "43-42-18.63 N",
		"longitude": "76-0-38.54 W",
		"state": "NEW YORK",
		"artcc": "ZBW",
		"type": "RP",
		"updated": "ART*VORTAC*183.00/15.00"
	},
	{
		"name": "LIDOW",
		"latitude": "44-21-21.21 N",
		"longitude": "71-51-34.93 W",
		"state": "VERMONT",
		"artcc": "ZBW",
		"type": "RNAV",
		"updated": "04/07/2006"
	},
	{
		"name": "LIEFF",
		"latitude": "40-49-21.77 N",
		"longitude": "72-52-32.15 W",
		"state": "NEW YORK",
		"artcc": "ZBW",
		"type": "RP",
		"updated": "CCC*VOR/DME*221.61/7.30"
	},
	{
		"name": "LIGDE",
		"latitude": "41-53-36.8 N",
		"longitude": "71-57-54.05 W",
		"state": "CONNECTICUT",
		"artcc": "ZBW",
		"type": "RNAV",
		"updated": "01/21/2010"
	},
	{
		"name": "LIGUW",
		"latitude": "43-54-43.54 N",
		"longitude": "68-53-28.39 W",
		"state": "MAINE",
		"artcc": "ZBW",
		"type": "RNAV",
		"updated": "10/08/2008"
	},
	{
		"name": "LIKME",
		"latitude": "44-43-32.12 N",
		"longitude": "74-38-44.6 W",
		"state": "NEW YORK",
		"artcc": "ZBW",
		"type": "RNAV",
		"updated": "09/14/2012"
	},
	{
		"name": "LIKRE",
		"latitude": "43-14-55.2 N",
		"longitude": "71-11-48.94 W",
		"state": "NEW HAMPSHIRE",
		"artcc": "ZBW",
		"type": "RNAV",
		"updated": "01/16/2013"
	},
	{
		"name": "LILKS",
		"latitude": "42-19-42.91 N",
		"longitude": "71-5-12.9 W",
		"state": "MASSACHUSETTS",
		"artcc": "ZBW",
		"type": "RNAV",
		"updated": "11/14/2013"
	},
	{
		"name": "LIMER",
		"latitude": "43-41-1.4 N",
		"longitude": "70-54-38.77 W",
		"state": "MAINE",
		"artcc": "ZBW",
		"type": "RP",
		"updated": "ENE*VOR/DME*337.15"
	},
	{
		"name": "LINKS",
		"latitude": "41-46-24.47 N",
		"longitude": "72-2-26.36 W",
		"state": "CONNECTICUT",
		"artcc": "ZBW",
		"type": "RP",
		"updated": "PUT*VOR/DME*232.98"
	},
	{
		"name": "LIPVE",
		"latitude": "44-40-24.4 N",
		"longitude": "69-26-46.53 W",
		"state": "MAINE",
		"artcc": "ZBW",
		"type": "RP",
		"updated": "AUG*VOR/DME*053.23/26.00"
	},
	{
		"name": "LIQED",
		"latitude": "44-46-12.03 N",
		"longitude": "72-37-24.36 W",
		"state": "VERMONT",
		"artcc": "ZBW",
		"type": "RNAV",
		"updated": "05/10/2017"
	},
	{
		"name": "LIRGE",
		"latitude": "44-14-6.01 N",
		"longitude": "68-12-41.54 W",
		"state": "MAINE",
		"artcc": "ZBW",
		"type": "RNAV",
		"updated": "10/01/2009"
	},
	{
		"name": "LISBE",
		"latitude": "43-10-27.31 N",
		"longitude": "72-40-36.01 W",
		"state": "VERMONT",
		"artcc": "ZBW",
		"type": "RNAV",
		"updated": "04/12/2002"
	},
	{
		"name": "LISDE",
		"latitude": "46-42-34.94 N",
		"longitude": "67-54-19.92 W",
		"state": "MAINE",
		"artcc": "ZBW",
		"type": "RNAV",
		"updated": "05/19/2009"
	},
	{
		"name": "LIVGE",
		"latitude": "41-58-14.33 N",
		"longitude": "71-27-1.73 W",
		"state": "RHODE ISLAND",
		"artcc": "ZBW",
		"type": "RNAV",
		"updated": "12/13/2012"
	},
	{
		"name": "LIZLU",
		"latitude": "43-44-35.2 N",
		"longitude": "70-13-26.82 W",
		"state": "MAINE",
		"artcc": "ZBW",
		"type": "RNAV",
		"updated": "06/26/2012"
	},
	{
		"name": "LIZZZ",
		"latitude": "44-32-35.99 N",
		"longitude": "73-53-34.23 W",
		"state": "NEW YORK",
		"artcc": "ZBW",
		"type": "RP",
		"updated": "BTV*VOR/DME*301.29/31.75"
	},
	{
		"name": "LLIVE",
		"latitude": "42-59-28.06 N",
		"longitude": "71-37-9.8 W",
		"state": "NEW HAMPSHIRE",
		"artcc": "ZBW",
		"type": "RNAV",
		"updated": "12/03/2014"
	},
	{
		"name": "LLUND",
		"latitude": "40-51-45.04 N",
		"longitude": "73-46-57.3 W",
		"state": "NEW YORK",
		"artcc": "ZBW",
		"type": "RP",
		"updated": "LGA*VOR/DME*051.64"
	},
	{
		"name": "LOBBY",
		"latitude": "42-30-15.53 N",
		"longitude": "71-36-34.04 W",
		"state": "MASSACHUSETTS",
		"artcc": "ZBW",
		"type": "RP",
		"updated": "MHT*VOR/DME*221.00"
	},
	{
		"name": "LOBME",
		"latitude": "44-6-11.67 N",
		"longitude": "68-49-51.39 W",
		"state": "MAINE",
		"artcc": "ZBW",
		"type": "RNAV",
		"updated": "09/28/2009"
	},
	{
		"name": "LOBOS",
		"latitude": "41-39-22.69 N",
		"longitude": "74-28-42.1 W",
		"state": "NEW YORK",
		"artcc": "ZBW",
		"type": "WP",
		"updated": "11/02/1998"
	},
	{
		"name": "LOBOW",
		"latitude": "45-49-32.89 N",
		"longitude": "69-30-56.97 W",
		"state": "MAINE",
		"artcc": "ZBW",
		"type": "RNAV",
		"updated": "11/28/2016"
	},
	{
		"name": "LOCET",
		"latitude": "44-3-36.03 N",
		"longitude": "73-24-8.3 W",
		"state": "VERMONT",
		"artcc": "ZBW",
		"type": "RNAV",
		"updated": "01/13/2011"
	},
	{
		"name": "LODTI",
		"latitude": "42-51-13.87 N",
		"longitude": "71-39-56.05 W",
		"state": "NEW HAMPSHIRE",
		"artcc": "ZBW",
		"type": "RP",
		"updated": "MHT*VOR/DME*281.25"
	},
	{
		"name": "LOGLI",
		"latitude": "45-4-24 N",
		"longitude": "74-28-54 W",
		"state": "",
		"artcc": "ZBW",
		"type": "RP",
		"updated": "07/19/2001"
	},
	{
		"name": "LOKZA",
		"latitude": "46-46-17.95 N",
		"longitude": "68-4-45.01 W",
		"state": "MAINE",
		"artcc": "ZBW",
		"type": "RNAV",
		"updated": "05/19/2009"
	},
	{
		"name": "LOLLY",
		"latitude": "41-23-7.81 N",
		"longitude": "74-3-48.54 W",
		"state": "NEW YORK",
		"artcc": "ZBW",
		"type": "RP",
		"updated": "IGN*VOR/DME*225.00/20.00"
	},
	{
		"name": "LOLYE",
		"latitude": "42-58-17.86 N",
		"longitude": "75-54-3.11 W",
		"state": "NEW YORK",
		"artcc": "ZBW",
		"type": "RNAV",
		"updated": "07/11/2005"
	},
	{
		"name": "LOMIS",
		"latitude": "41-38-16.36 N",
		"longitude": "72-37-19.96 W",
		"state": "CONNECTICUT",
		"artcc": "ZBW",
		"type": "RP",
		"updated": "HFD*VOR/DME*279.73"
	},
	{
		"name": "LONER",
		"latitude": "42-23-58.87 N",
		"longitude": "70-45-47.8 W",
		"state": "MASSACHUSETTS",
		"artcc": "ZBW",
		"type": "RP",
		"updated": "DGU*LD*091.58/11.54"
	},
	{
		"name": "LONEY",
		"latitude": "42-28-55.22 N",
		"longitude": "69-54-42.21 W",
		"state": "OFFSHORE ATLANTIC",
		"artcc": "ZBW",
		"type": "RNAV",
		"updated": "09/26/2014"
	},
	{
		"name": "LOTMY",
		"latitude": "42-15-14.94 N",
		"longitude": "75-31-9.78 W",
		"state": "NEW YORK",
		"artcc": "ZBW",
		"type": "RNAV",
		"updated": "01/31/2001"
	},
	{
		"name": "LOVES",
		"latitude": "41-32-19.64 N",
		"longitude": "73-29-17.14 W",
		"state": "CONNECTICUT",
		"artcc": "ZBW",
		"type": "RP",
		"updated": "BDR*VOR/DME*336.19/28.00"
	},
	{
		"name": "LOVIE",
		"latitude": "43-52-51.21 N",
		"longitude": "76-22-42.42 W",
		"state": "NEW YORK",
		"artcc": "ZBW",
		"type": "RNAV",
		"updated": "05/24/2011"
	},
	{
		"name": "LOXFO",
		"latitude": "43-7-42.99 N",
		"longitude": "73-46-37.03 W",
		"state": "NEW YORK",
		"artcc": "ZBW",
		"type": "RNAV",
		"updated": "07/08/2009"
	},
	{
		"name": "LOXXE",
		"latitude": "42-34-29.55 N",
		"longitude": "75-43-33.49 W",
		"state": "NEW YORK",
		"artcc": "ZBW",
		"type": "RP",
		"updated": "SYR*VORTAC*159.83"
	},
	{
		"name": "LUBCA",
		"latitude": "42-42-52.99 N",
		"longitude": "71-12-8.63 W",
		"state": "NEW HAMPSHIRE",
		"artcc": "ZBW",
		"type": "WP",
		"updated": "11/02/1998"
	},
	{
		"name": "LUBCI",
		"latitude": "44-48-16.52 N",
		"longitude": "66-48-45.57 W",
		"state": "MAINE",
		"artcc": "ZBW",
		"type": "RNAV",
		"updated": "09/14/2010"
	},
	{
		"name": "LUCEG",
		"latitude": "44-15-34.86 N",
		"longitude": "70-30-33.09 W",
		"state": "MAINE",
		"artcc": "ZBW",
		"type": "RNAV",
		"updated": "10/01/2009"
	},
	{
		"name": "LUCEY",
		"latitude": "43-12-8.5 N",
		"longitude": "73-36-13.27 W",
		"state": "NEW YORK",
		"artcc": "ZBW",
		"type": "WP",
		"updated": "GFL*VORTAC*191.57/8.37"
	},
	{
		"name": "LUCIB",
		"latitude": "42-2-18.41 N",
		"longitude": "73-7-19.89 W",
		"state": "CONNECTICUT",
		"artcc": "ZBW",
		"type": "RNAV",
		"updated": "09/06/2012"
	},
	{
		"name": "LUCIC",
		"latitude": "42-47-24.05 N",
		"longitude": "72-44-34.66 W",
		"state": "VERMONT",
		"artcc": "ZBW",
		"type": "RNAV",
		"updated": "11/17/2014"
	},
	{
		"name": "LUCOS",
		"latitude": "41-38-17.26 N",
		"longitude": "70-46-5.59 W",
		"state": "MASSACHUSETTS",
		"artcc": "ZBW",
		"type": "RP",
		"updated": "BOS*VOR/DME*183.00/44.26"
	},
	{
		"name": "LUKXA",
		"latitude": "41-5-37.14 N",
		"longitude": "73-48-37.54 W",
		"state": "NEW YORK",
		"artcc": "ZBW",
		"type": "RNAV",
		"updated": "02/09/2018"
	},
	{
		"name": "LULIY",
		"latitude": "41-28-20.67 N",
		"longitude": "70-24-47.85 W",
		"state": "MASSACHUSETTS",
		"artcc": "ZBW",
		"type": "RNAV",
		"updated": "03/06/2006"
	},
	{
		"name": "LUNFI",
		"latitude": "44-41-32.44 N",
		"longitude": "72-7-29.65 W",
		"state": "VERMONT",
		"artcc": "ZBW",
		"type": "RNAV",
		"updated": "08/10/2015"
	},
	{
		"name": "LUPDY",
		"latitude": "44-32-26.09 N",
		"longitude": "73-24-14.89 W",
		"state": "NEW YORK",
		"artcc": "ZBW",
		"type": "RP",
		"updated": "05/12/2017"
	},
	{
		"name": "LURCH",
		"latitude": "42-53-57.64 N",
		"longitude": "71-48-23.47 W",
		"state": "NEW HAMPSHIRE",
		"artcc": "ZBW",
		"type": "RP",
		"updated": "MHT*VOR/DME*290.63/19.36"
	},
	{
		"name": "LURYO",
		"latitude": "42-59-57.16 N",
		"longitude": "74-4-55.25 W",
		"state": "NEW YORK",
		"artcc": "ZBW",
		"type": "RNAV",
		"updated": "08/03/2010"
	},
	{
		"name": "LUSIC",
		"latitude": "46-40-3.77 N",
		"longitude": "68-8-41.88 W",
		"state": "MAINE",
		"artcc": "ZBW",
		"type": "RNAV",
		"updated": "05/19/2009"
	},
	{
		"name": "LUYEN",
		"latitude": "40-59-57.09 N",
		"longitude": "72-56-58.3 W",
		"state": "NEW YORK",
		"artcc": "ZBW",
		"type": "RNAV",
		"updated": "04/02/2007"
	},
	{
		"name": "LVRON",
		"latitude": "42-11-55.24 N",
		"longitude": "71-5-58.92 W",
		"state": "MASSACHUSETTS",
		"artcc": "ZBW",
		"type": "RNAV",
		"updated": "03/23/2017"
	},
	{
		"name": "LWLND",
		"latitude": "42-34-56.56 N",
		"longitude": "71-1-6.27 W",
		"state": "MASSACHUSETTS",
		"artcc": "ZBW",
		"type": "RNAV",
		"updated": "04/04/2016"
	},
	{
		"name": "LYHTT",
		"latitude": "42-19-39.6 N",
		"longitude": "70-53-25.24 W",
		"state": "MASSACHUSETTS",
		"artcc": "ZBW",
		"type": "RP",
		"updated": "BOS*VOR/DME*128.00/4.76"
	},
	{
		"name": "LYLAC",
		"latitude": "43-3-46 N",
		"longitude": "71-39-33 W",
		"state": "NEW HAMPSHIRE",
		"artcc": "ZBW",
		"type": "RNAV",
		"updated": "12/03/2014"
	},
	{
		"name": "LYNES",
		"latitude": "42-55-17.31 N",
		"longitude": "71-0-57.2 W",
		"state": "NEW HAMPSHIRE",
		"artcc": "ZBW",
		"type": "WP",
		"updated": "MHT*VOR/DME*093.00/15.90"
	},
	{
		"name": "LYSAN",
		"latitude": "43-12-44.7 N",
		"longitude": "76-30-51.53 W",
		"state": "NEW YORK",
		"artcc": "ZBW",
		"type": "RP",
		"updated": "SYR*VORTAC*294.00/13.95"
	}
]
