	{
		"name": "OAKEN",
		"latitude": "44-13-7.29 N",
		"longitude": "72-34-36.59 W",
		"state": "VERMONT",
		"artcc": "ZBW",
		"type": "RP",
		"updated": "MPV*LD*347.68/1.69",
	},
	{
		"name": "OAKIL",
		"latitude": "42-26-26.98 N",
		"longitude": "74-25-48.33 W",
		"state": "NEW YORK",
		"artcc": "ZBW",
		"type": "RP",
		"updated": "UCA*VORTAC*149.00",
	},
	{
		"name": "OBEME",
		"latitude": "44-13-36.33 N",
		"longitude": "72-32-57.8 W",
		"state": "VERMONT",
		"artcc": "ZBW",
		"type": "RNAV",
		"updated": "01/11/2011",
	},
	{
		"name": "OBEVE",
		"latitude": "45-0-51.22 N",
		"longitude": "68-24-0.31 W",
		"state": "MAINE",
		"artcc": "ZBW",
		"type": "RNAV",
		"updated": "07/27/2010",
	},
	{
		"name": "OBKOE",
		"latitude": "46-36-54.08 N",
		"longitude": "68-1-15.89 W",
		"state": "MAINE",
		"artcc": "ZBW",
		"type": "RNAV",
		"updated": "05/19/2009",
	},
	{
		"name": "OBMUE",
		"latitude": "42-46-23.39 N",
		"longitude": "71-27-48.33 W",
		"state": "NEW HAMPSHIRE",
		"artcc": "ZBW",
		"type": "RP",
		"updated": "LWM*VOR/DME*292.00/16.41",
	},
	{
		"name": "OBRIE",
		"latitude": "44-25-22.77 N",
		"longitude": "73-9-7.94 W",
		"state": "VERMONT",
		"artcc": "ZBW",
		"type": "RNAV",
		"updated": "01/16/2003",
	},
	{
		"name": "OBUBE",
		"latitude": "41-23-35.44 N",
		"longitude": "69-52-41 W",
		"state": "MASSACHUSETTS",
		"artcc": "ZBW",
		"type": "RP",
		"updated": "ACK*VOR/DME*060.14/9.47",
	},
	{
		"name": "OCAGO",
		"latitude": "43-51-35.27 N",
		"longitude": "69-9-55.79 W",
		"state": "MAINE",
		"artcc": "ZBW",
		"type": "RNAV",
		"updated": "10/08/2008",
	},
	{
		"name": "OCBAB",
		"latitude": "44-9-57.53 N",
		"longitude": "68-41-36.57 W",
		"state": "MAINE",
		"artcc": "ZBW",
		"type": "RNAV",
		"updated": "11/08/2007",
	},
	{
		"name": "OCCAS",
		"latitude": "42-29-39.16 N",
		"longitude": "73-52-24.53 W",
		"state": "NEW YORK",
		"artcc": "ZBW",
		"type": "RNAV",
		"updated": "06/27/2011",
	},
	{
		"name": "OCESA",
		"latitude": "44-40-14.8 N",
		"longitude": "66-57-7.34 W",
		"state": "MAINE",
		"artcc": "ZBW",
		"type": "RNAV",
		"updated": "12/08/2004",
	},
	{
		"name": "OCHOA",
		"latitude": "44-14-4.6 N",
		"longitude": "75-39-1.58 W",
		"state": "NEW YORK",
		"artcc": "ZBW",
		"type": "MR",
		"updated": "01/04/2000",
	},
	{
		"name": "OCITU",
		"latitude": "43-43-45.78 N",
		"longitude": "70-13-37.73 W",
		"state": "MAINE",
		"artcc": "ZBW",
		"type": "RNAV",
		"updated": "09/28/2009",
	},
	{
		"name": "OCIVA",
		"latitude": "44-33-30.29 N",
		"longitude": "72-48-54.95 W",
		"state": "VERMONT",
		"artcc": "ZBW",
		"type": "RNAV",
		"updated": "08/14/2014",
	},
	{
		"name": "OCTAV",
		"latitude": "41-2-31.24 N",
		"longitude": "72-49-51.74 W",
		"state": "NEW YORK",
		"artcc": "ZBW",
		"type": "RNAV",
		"updated": "10/13/2016",
	},
	{
		"name": "ODALE",
		"latitude": "40-56-4.29 N",
		"longitude": "73-28-36.03 W",
		"state": "NEW YORK",
		"artcc": "ZBW",
		"type": "RP",
		"updated": "DPK*VOR/DME*329.44/11.63",
	},
	{
		"name": "ODARE",
		"latitude": "44-16-42.92 N",
		"longitude": "68-21-43.63 W",
		"state": "MAINE",
		"artcc": "ZBW",
		"type": "RNAV",
		"updated": "10/01/2009",
	},
	{
		"name": "ODEBY",
		"latitude": "42-24-28.75 N",
		"longitude": "75-11-22.14 W",
		"state": "NEW YORK",
		"artcc": "ZBW",
		"type": "RNAV",
		"updated": "02/20/2014",
	},
	{
		"name": "ODIKE",
		"latitude": "44-40-6.55 N",
		"longitude": "69-5-35.45 W",
		"state": "MAINE",
		"artcc": "ZBW",
		"type": "RP",
		"updated": "BGR*VORTAC*241.00/14.00",
	},
	{
		"name": "ODOLE",
		"latitude": "41-31-14.9 N",
		"longitude": "70-48-39.3 W",
		"state": "MASSACHUSETTS",
		"artcc": "ZBW",
		"type": "RNAV",
		"updated": "07/19/2012",
	},
	{
		"name": "ODOMY",
		"latitude": "41-43-42.45 N",
		"longitude": "71-2-41.51 W",
		"state": "MASSACHUSETTS",
		"artcc": "ZBW",
		"type": "RNAV",
		"updated": "04/13/2012",
	},
	{
		"name": "ODOVE",
		"latitude": "44-4-54.35 N",
		"longitude": "68-48-38.9 W",
		"state": "MAINE",
		"artcc": "ZBW",
		"type": "RNAV",
		"updated": "11/07/2007",
	},
	{
		"name": "ODVAE",
		"latitude": "43-38-17.38 N",
		"longitude": "71-31-22.48 W",
		"state": "NEW HAMPSHIRE",
		"artcc": "ZBW",
		"type": "RNAV",
		"updated": "11/05/2009",
	},
	{
		"name": "OFTHE",
		"latitude": "42-48-3.37 N",
		"longitude": "71-26-42.78 W",
		"state": "NEW HAMPSHIRE",
		"artcc": "ZBW",
		"type": "RNAV",
		"updated": "12/03/2014",
	},
	{
		"name": "OFTUR",
		"latitude": "41-15-10.9 N",
		"longitude": "71-8-35.5 W",
		"state": "MASSACHUSETTS",
		"artcc": "ZBW",
		"type": "CN",
		"updated": "12/04/2014",
	},
	{
		"name": "OGABE",
		"latitude": "44-9-28.47 N",
		"longitude": "68-58-26.58 W",
		"state": "MAINE",
		"artcc": "ZBW",
		"type": "RNAV",
		"updated": "09/28/2009",
	},
	{
		"name": "OGFIG",
		"latitude": "41-52-12.54 N",
		"longitude": "71-4-6.39 W",
		"state": "MASSACHUSETTS",
		"artcc": "ZBW",
		"type": "RNAV",
		"updated": "04/13/2012",
	},
	{
		"name": "OGIGE",
		"latitude": "43-31-40 N",
		"longitude": "72-26-55 W",
		"state": "VERMONT",
		"artcc": "ZBW",
		"type": "RNAV",
		"updated": "12/19/2016",
	},
	{
		"name": "OGIPE",
		"latitude": "43-2-47.6 N",
		"longitude": "72-10-44.34 W",
		"state": "NEW HAMPSHIRE",
		"artcc": "ZBW",
		"type": "RNAV",
		"updated": "04/17/2014",
	},
	{
		"name": "OGIVE",
		"latitude": "44-42-6.39 N",
		"longitude": "75-21-10.94 W",
		"state": "NEW YORK",
		"artcc": "ZBW",
		"type": "RP",
		"updated": "OGS*LE*089.02/5.49",
	},
	{
		"name": "OGTEE",
		"latitude": "41-25-30.57 N",
		"longitude": "72-31-29.84 W",
		"state": "CONNECTICUT",
		"artcc": "ZBW",
		"type": "RNAV",
		"updated": "07/07/2009",
	},
	{
		"name": "OJUCU",
		"latitude": "41-42-15.61 N",
		"longitude": "70-50-2.34 W",
		"state": "MASSACHUSETTS",
		"artcc": "ZBW",
		"type": "RNAV",
		"updated": "06/04/2014",
	},
	{
		"name": "OKBEW",
		"latitude": "42-50-43.86 N",
		"longitude": "74-2-47.09 W",
		"state": "NEW YORK",
		"artcc": "ZBW",
		"type": "RNAV",
		"updated": "05/10/2011",
	},
	{
		"name": "OKELE",
		"latitude": "44-8-38.93 N",
		"longitude": "70-31-54.26 W",
		"state": "MAINE",
		"artcc": "ZBW",
		"type": "RNAV",
		"updated": "10/01/2009",
	},
	{
		"name": "OKHEX",
		"latitude": "44-24-55.61 N",
		"longitude": "73-3-40.75 W",
		"state": "VERMONT",
		"artcc": "ZBW",
		"type": "RP",
		"updated": "VOE*LD*145.83/4.50",
	},
	{
		"name": "OKIME",
		"latitude": "44-8-35.3 N",
		"longitude": "69-4-13.32 W",
		"state": "MAINE",
		"artcc": "ZBW",
		"type": "RNAV",
		"updated": "10/04/2007",
	},
	{
		"name": "OKIPE",
		"latitude": "42-17-48.66 N",
		"longitude": "71-7-20.32 W",
		"state": "MASSACHUSETTS",
		"artcc": "ZBW",
		"type": "RNAV",
		"updated": "11/14/2013",
	},
	{
		"name": "OKIPY",
		"latitude": "44-53-52.78 N",
		"longitude": "69-11-10.03 W",
		"state": "MAINE",
		"artcc": "ZBW",
		"type": "RNAV",
		"updated": "03/17/2017",
	},
	{
		"name": "OKLAE",
		"latitude": "42-54-12.11 N",
		"longitude": "70-51-21.64 W",
		"state": "NEW HAMPSHIRE",
		"artcc": "ZBW",
		"type": "RNAV",
		"updated": "01/16/2013",
	},
	{
		"name": "OKNUE",
		"latitude": "42-48-49.67 N",
		"longitude": "73-54-42.48 W",
		"state": "NEW YORK",
		"artcc": "ZBW",
		"type": "RNAV",
		"updated": "07/15/2011",
	},
	{
		"name": "OKOKE",
		"latitude": "46-49-33.54 N",
		"longitude": "68-0-3.79 W",
		"state": "MAINE",
		"artcc": "ZBW",
		"type": "RNAV",
		"updated": "04/29/2016",
	},
	{
		"name": "OKOTE",
		"latitude": "43-18-7.71 N",
		"longitude": "72-33-27.4 W",
		"state": "VERMONT",
		"artcc": "ZBW",
		"type": "RP",
		"updated": "VSF*LE*231.39/3.51",
	},
	{
		"name": "OLDMN",
		"latitude": "42-48-11.09 N",
		"longitude": "71-30-47.4 W",
		"state": "NEW HAMPSHIRE",
		"artcc": "ZBW",
		"type": "RNAV",
		"updated": "12/03/2014",
	},
	{
		"name": "OLGAE",
		"latitude": "42-30-21.14 N",
		"longitude": "75-31-40.11 W",
		"state": "NEW YORK",
		"artcc": "ZBW",
		"type": "RNAV",
		"updated": "08/31/2015",
	},
	{
		"name": "OLIXY",
		"latitude": "41-5-37.14 N",
		"longitude": "73-56-33.67 W",
		"state": "NEW YORK",
		"artcc": "ZBW",
		"type": "RNAV",
		"updated": "02/09/2018",
	},
	{
		"name": "OLKEE",
		"latitude": "46-48-55.31 N",
		"longitude": "67-47-30.24 W",
		"state": "MAINE",
		"artcc": "ZBW",
		"type": "RNAV",
		"updated": "05/27/2009",
	},
	{
		"name": "OLLIV",
		"latitude": "42-33-40.04 N",
		"longitude": "71-46-16.33 W",
		"state": "MASSACHUSETTS",
		"artcc": "ZBW",
		"type": "RNAV",
		"updated": "07/25/2005",
	},
	{
		"name": "OLOKE",
		"latitude": "42-20-24.5 N",
		"longitude": "73-32-8.26 W",
		"state": "NEW YORK",
		"artcc": "ZBW",
		"type": "RNAV",
		"updated": "02/26/2010",
	},
	{
		"name": "OMASS",
		"latitude": "42-31-6.32 N",
		"longitude": "72-11-27.8 W",
		"state": "MASSACHUSETTS",
		"artcc": "ZBW",
		"type": "RNAV",
		"updated": "04/23/2012",
	},
	{
		"name": "OMDEE",
		"latitude": "42-58-51.71 N",
		"longitude": "71-28-36 W",
		"state": "NEW HAMPSHIRE",
		"artcc": "ZBW",
		"type": "RNAV",
		"updated": "01/21/2010",
	},
	{
		"name": "OMDOW",
		"latitude": "44-0-30.21 N",
		"longitude": "69-37-48.15 W",
		"state": "MAINE",
		"artcc": "ZBW",
		"type": "RNAV",
		"updated": "04/24/2010",
	},
	{
		"name": "OMIXY",
		"latitude": "42-39-52.72 N",
		"longitude": "71-14-12.38 W",
		"state": "MASSACHUSETTS",
		"artcc": "ZBW",
		"type": "RNAV",
		"updated": "08/13/2012",
	},
	{
		"name": "OMNEW",
		"latitude": "47-14-59.89 N",
		"longitude": "68-34-42.57 W",
		"state": "MAINE",
		"artcc": "ZBW",
		"type": "RNAV",
		"updated": "08/01/2007",
	},
	{
		"name": "OMPEE",
		"latitude": "44-20-22.2 N",
		"longitude": "72-44-54 W",
		"state": "VERMONT",
		"artcc": "ZBW",
		"type": "RNAV",
		"updated": "11/12/2009",
	},
	{
		"name": "OMUFE",
		"latitude": "41-38-52.03 N",
		"longitude": "70-39-35.66 W",
		"state": "MASSACHUSETTS",
		"artcc": "ZBW",
		"type": "RNAV",
		"updated": "04/13/2012",
	},
	{
		"name": "OMVOZ",
		"latitude": "42-23-35.78 N",
		"longitude": "70-59-28.9 W",
		"state": "MASSACHUSETTS",
		"artcc": "ZBW",
		"type": "RNAV",
		"updated": "11/01/2011",
	},
	{
		"name": "OMYOX",
		"latitude": "44-56-20.42 N",
		"longitude": "68-30-15.29 W",
		"state": "MAINE",
		"artcc": "ZBW",
		"type": "RNAV",
		"updated": "07/27/2010",
	},
	{
		"name": "ONDEC",
		"latitude": "42-32-47.83 N",
		"longitude": "72-3-56.71 W",
		"state": "MASSACHUSETTS",
		"artcc": "ZBW",
		"type": "RNAV",
		"updated": "09/28/2014",
	},
	{
		"name": "ONEPS",
		"latitude": "42-8-28.26 N",
		"longitude": "72-9-28.84 W",
		"state": "MASSACHUSETTS",
		"artcc": "ZBW",
		"type": "RP",
		"updated": "BAF*VORTAC*106.68/24.94",
	},
	{
		"name": "ONGEE",
		"latitude": "43-0-4.59 N",
		"longitude": "71-21-29.41 W",
		"state": "NEW HAMPSHIRE",
		"artcc": "ZBW",
		"type": "RNAV",
		"updated": "11/09/2007",
	},
	{
		"name": "ONMEW",
		"latitude": "43-46-29.53 N",
		"longitude": "69-18-56.99 W",
		"state": "MAINE",
		"artcc": "ZBW",
		"type": "RNAV",
		"updated": "06/21/2010",
	},
	{
		"name": "ONOXY",
		"latitude": "41-26-54.65 N",
		"longitude": "70-41-54.41 W",
		"state": "MASSACHUSETTS",
		"artcc": "ZBW",
		"type": "RNAV",
		"updated": "07/19/2012",
	},
	{
		"name": "ONRAE",
		"latitude": "41-59-58.46 N",
		"longitude": "70-34-25.21 W",
		"state": "MASSACHUSETTS",
		"artcc": "ZBW",
		"type": "RNAV",
		"updated": "12/01/2015",
	},
	{
		"name": "ONTAE",
		"latitude": "42-45-2.95 N",
		"longitude": "71-26-50.45 W",
		"state": "NEW HAMPSHIRE",
		"artcc": "ZBW",
		"type": "RNAV",
		"updated": "09/27/2012",
	},
	{
		"name": "ONTEW",
		"latitude": "42-2-32.84 N",
		"longitude": "72-35-24.43 W",
		"state": "MASSACHUSETTS",
		"artcc": "ZBW",
		"type": "RNAV",
		"updated": "02/22/2018",
	},
	{
		"name": "OOSHN",
		"latitude": "42-36-5.44 N",
		"longitude": "70-13-52.37 W",
		"state": "OFFSHORE ATLANTIC",
		"artcc": "ZBW",
		"type": "RNAV",
		"updated": "09/26/2014",
	},
	{
		"name": "OPAGE",
		"latitude": "44-25-26.08 N",
		"longitude": "71-43-17.41 W",
		"state": "VERMONT",
		"artcc": "ZBW",
		"type": "RNAV",
		"updated": "01/12/2011",
	},
	{
		"name": "OPDIE",
		"latitude": "44-16-40.07 N",
		"longitude": "74-0-19.03 W",
		"state": "NEW YORK",
		"artcc": "ZBW",
		"type": "RNAV",
		"updated": "04/15/2003",
	},
	{
		"name": "OPEYE",
		"latitude": "44-24-23.18 N",
		"longitude": "69-33-47.05 W",
		"state": "MAINE",
		"artcc": "ZBW",
		"type": "RNAV",
		"updated": "12/22/2005",
	},
	{
		"name": "OQDEK",
		"latitude": "42-21-53.76 N",
		"longitude": "70-57-39.68 W",
		"state": "MASSACHUSETTS",
		"artcc": "ZBW",
		"type": "RP",
		"updated": "DGU*LD*091.58/2.50",
	},
	{
		"name": "ORCHA",
		"latitude": "40-55-8.37 N",
		"longitude": "72-19-0.15 W",
		"state": "NEW YORK",
		"artcc": "ZBW",
		"type": "RNAV",
		"updated": "02/23/2017",
	},
	{
		"name": "ORCHD",
		"latitude": "43-25-15.59 N",
		"longitude": "70-21-16.99 W",
		"state": "MAINE",
		"artcc": "ZBW",
		"type": "RNAV",
		"updated": "06/01/2012",
	},
	{
		"name": "ORDIE",
		"latitude": "43-0-10.22 N",
		"longitude": "71-28-32.59 W",
		"state": "NEW HAMPSHIRE",
		"artcc": "ZBW",
		"type": "RP",
		"updated": "MNA*LD*351.52/3.75",
	},
	{
		"name": "ORMIW",
		"latitude": "41-35-57.73 N",
		"longitude": "70-25-11.5 W",
		"state": "MASSACHUSETTS",
		"artcc": "ZBW",
		"type": "RNAV",
		"updated": "06/04/2014",
	},
	{
		"name": "ORNGE",
		"latitude": "41-32-20.79 N",
		"longitude": "74-10-7.07 W",
		"state": "NEW YORK",
		"artcc": "ZBW",
		"type": "RNAV",
		"updated": "02/03/2010",
	},
	{
		"name": "OROSE",
		"latitude": "44-57-36.59 N",
		"longitude": "69-26-3.87 W",
		"state": "MAINE",
		"artcc": "ZBW",
		"type": "RNAV",
		"updated": "04/23/2010",
	},
	{
		"name": "ORRRR",
		"latitude": "42-25-28.48 N",
		"longitude": "70-45-13.44 W",
		"state": "MASSACHUSETTS",
		"artcc": "ZBW",
		"type": "RNAV",
		"updated": "01/15/2013",
	},
	{
		"name": "ORTON",
		"latitude": "41-53-33.6 N",
		"longitude": "71-14-49.44 W",
		"state": "MASSACHUSETTS",
		"artcc": "ZBW",
		"type": "RP",
		"updated": "PVD*VOR/DME*053.00/13.00",
	},
	{
		"name": "ORUSE",
		"latitude": "42-14-32.99 N",
		"longitude": "72-29-48.5 W",
		"state": "MASSACHUSETTS",
		"artcc": "ZBW",
		"type": "MR",
		"updated": "CEF*VORTAC*040.00/3.00",
	},
	{
		"name": "OSARE",
		"latitude": "42-46-24.95 N",
		"longitude": "73-13-54.82 W",
		"state": "VERMONT",
		"artcc": "ZBW",
		"type": "RNAV",
		"updated": "01/16/2013",
	},
	{
		"name": "OSASE",
		"latitude": "44-27-56.43 N",
		"longitude": "73-11-58.19 W",
		"state": "VERMONT",
		"artcc": "ZBW",
		"type": "RNAV",
		"updated": "11/05/2009",
	},
	{
		"name": "OSEBE",
		"latitude": "44-6-51 N",
		"longitude": "72-2-20.27 W",
		"state": "NEW HAMPSHIRE",
		"artcc": "ZBW",
		"type": "RNAV",
		"updated": "01/16/2013",
	},
	{
		"name": "OSICE",
		"latitude": "43-36-26.3 N",
		"longitude": "72-18-3.29 W",
		"state": "NEW HAMPSHIRE",
		"artcc": "ZBW",
		"type": "RNAV",
		"updated": "10/21/2008",
	},
	{
		"name": "OSIYE",
		"latitude": "42-40-7.27 N",
		"longitude": "74-52-29.63 W",
		"state": "NEW YORK",
		"artcc": "ZBW",
		"type": "RNAV",
		"updated": "08/13/2008",
	},
	{
		"name": "OSPEE",
		"latitude": "43-31-14.59 N",
		"longitude": "71-35-29.03 W",
		"state": "NEW HAMPSHIRE",
		"artcc": "ZBW",
		"type": "RNAV",
		"updated": "07/23/2007",
	},
	{
		"name": "OSSER",
		"latitude": "41-2-13.46 N",
		"longitude": "71-12-12.29 W",
		"state": "NEW YORK",
		"artcc": "ZBW",
		"type": "RP",
		"updated": "PVD*VOR/DME*180.00",
	},
	{
		"name": "OSSGO",
		"latitude": "43-12-10.96 N",
		"longitude": "76-11-55.33 W",
		"state": "NEW YORK",
		"artcc": "ZBW",
		"type": "RP",
		"updated": "FZY*LD*149.90/12.66",
	},
	{
		"name": "OSYOB",
		"latitude": "43-32-25.49 N",
		"longitude": "76-16-34.79 W",
		"state": "NEW YORK",
		"artcc": "ZBW",
		"type": "RNAV",
		"updated": "06/16/2009",
	},
	{
		"name": "OTELE",
		"latitude": "42-6-20.81 N",
		"longitude": "72-32-47.04 W",
		"state": "MASSACHUSETTS",
		"artcc": "ZBW",
		"type": "RNAV",
		"updated": "11/05/2013",
	},
	{
		"name": "OTGOE",
		"latitude": "44-51-52.78 N",
		"longitude": "73-35-34.04 W",
		"state": "NEW YORK",
		"artcc": "ZBW",
		"type": "RNAV",
		"updated": "03/05/2007",
	},
	{
		"name": "OTHID",
		"latitude": "42-8-0.46 N",
		"longitude": "75-32-58.63 W",
		"state": "NEW YORK",
		"artcc": "ZBW",
		"type": "RNAV",
		"updated": "01/31/2001",
	},
	{
		"name": "OTOLE",
		"latitude": "42-56-58.56 N",
		"longitude": "73-51-5.77 W",
		"state": "NEW YORK",
		"artcc": "ZBW",
		"type": "RP",
		"updated": "CAM*VOR/DME*277.34",
	},
	{
		"name": "OTYIJ",
		"latitude": "44-27-28.02 N",
		"longitude": "73-9-0.39 W",
		"state": "VERMONT",
		"artcc": "ZBW",
		"type": "RP",
		"updated": "BTV*VOR/DME*036.00/3.90",
	},
	{
		"name": "OUTTE",
		"latitude": "41-4-41.48 N",
		"longitude": "73-30-39.78 W",
		"state": "CONNECTICUT",
		"artcc": "ZBW",
		"type": "RP",
		"updated": "CMK*VOR/DME*177.23",
	},
	{
		"name": "OUTTT",
		"latitude": "41-36-6.41 N",
		"longitude": "71-50-49.56 W",
		"state": "CONNECTICUT",
		"artcc": "ZBW",
		"type": "RP",
		"updated": "PVD*VOR/DME*262.67/20.16",
	},
	{
		"name": "OVBEE",
		"latitude": "42-56-12.45 N",
		"longitude": "72-17-25.28 W",
		"state": "NEW HAMPSHIRE",
		"artcc": "ZBW",
		"type": "RNAV",
		"updated": "11/06/2009",
	},
	{
		"name": "OWLET",
		"latitude": "42-22-4.24 N",
		"longitude": "71-37-27.05 W",
		"state": "MASSACHUSETTS",
		"artcc": "ZBW",
		"type": "RNAV",
		"updated": "07/25/2005",
	},
	{
		"name": "OXART",
		"latitude": "43-58-25.95 N",
		"longitude": "72-39-44 W",
		"state": "VERMONT",
		"artcc": "ZBW",
		"type": "RNAV",
		"updated": "01/16/2013",
	},
	{
		"name": "OXASE",
		"latitude": "43-39-12.88 N",
		"longitude": "73-17-28.69 W",
		"state": "VERMONT",
		"artcc": "ZBW",
		"type": "RNAV",
		"updated": "01/13/2011",
	},
	{
		"name": "OXFIC",
		"latitude": "42-50-13.71 N",
		"longitude": "73-48-30.95 W",
		"state": "NEW YORK",
		"artcc": "ZBW",
		"type": "RNAV",
		"updated": "06/27/2011",
	},
	{
		"name": "OXFOR",
		"latitude": "42-22-3.81 N",
		"longitude": "75-31-44.03 W",
		"state": "NEW YORK",
		"artcc": "ZBW",
		"type": "RP",
		"updated": "RKA*VOR/DME*256.41/14.16",
	},
	{
		"name": "OXUTY",
		"latitude": "42-24-4.97 N",
		"longitude": "73-21-54.28 W",
		"state": "MASSACHUSETTS",
		"artcc": "ZBW",
		"type": "RNAV",
		"updated": "11/03/2014",
	},
	{
		"name": "OYADU",
		"latitude": "42-16-53.22 N",
		"longitude": "75-6-42.75 W",
		"state": "NEW YORK",
		"artcc": "ZBW",
		"type": "RNAV",
		"updated": "08/13/2008",
	},
	{
		"name": "OYIVE",
		"latitude": "42-32-28.68 N",
		"longitude": "71-13-1.71 W",
		"state": "MASSACHUSETTS",
		"artcc": "ZBW",
		"type": "RNAV",
		"updated": "04/19/2006",
	},
	{
		"name": "OYUVA",
		"latitude": "40-44-35.72 N",
		"longitude": "73-10-19.55 W",
		"state": "NEW YORK",
		"artcc": "ZBW",
		"type": "RNAV",
		"updated": "12/04/2008",
	},
