	{
		"name": "PAARK",
		"latitude": "42-20-38.84 N",
		"longitude": "70-59-59.39 W",
		"state": "MASSACHUSETTS",
		"artcc": "ZBW",
		"type": "RNAV",
		"updated": "09/29/2006",
	},
	{
		"name": "PAATI",
		"latitude": "44-32-51.06 N",
		"longitude": "67-54-57.96 W",
		"state": "MAINE",
		"artcc": "ZBW",
		"type": "RNAV",
		"updated": "11/15/2017",
	},
	{
		"name": "PACER",
		"latitude": "41-26-23.36 N",
		"longitude": "72-56-25.55 W",
		"state": "CONNECTICUT",
		"artcc": "ZBW",
		"type": "RP",
		"updated": "MAD*VOR/DME*317.05",
	},
	{
		"name": "PAGER",
		"latitude": "43-25-25.64 N",
		"longitude": "76-9-30.34 W",
		"state": "NEW YORK",
		"artcc": "ZBW",
		"type": "RP",
		"updated": "UCA*VORTAC*311.00",
	},
	{
		"name": "PAGNE",
		"latitude": "42-0-8.71 N",
		"longitude": "72-36-15.06 W",
		"state": "CONNECTICUT",
		"artcc": "ZBW",
		"type": "RNAV",
		"updated": "02/22/2018",
	},
	{
		"name": "PAISN",
		"latitude": "41-50-22.56 N",
		"longitude": "72-7-2.55 W",
		"state": "CONNECTICUT",
		"artcc": "ZBW",
		"type": "RNAV",
		"updated": "10/24/2011",
	},
	{
		"name": "PAMLA",
		"latitude": "42-8-11.14 N",
		"longitude": "71-42-43.75 W",
		"state": "MASSACHUSETTS",
		"artcc": "ZBW",
		"type": "RNAV",
		"updated": "04/19/2010",
	},
	{
		"name": "PARCH",
		"latitude": "41-5-57.22 N",
		"longitude": "72-7-14.66 W",
		"state": "NEW YORK",
		"artcc": "ZBW",
		"type": "RP",
		"updated": "CCC*VOR/DME*084.50",
	},
	{
		"name": "PARSO",
		"latitude": "43-40-30.75 N",
		"longitude": "70-46-30.28 W",
		"state": "MAINE",
		"artcc": "ZBW",
		"type": "RP",
		"updated": "PSM*VOR/DME*020.00/35.53",
	},
	{
		"name": "PATEE",
		"latitude": "43-50-1.5 N",
		"longitude": "75-41-36.33 W",
		"state": "NEW YORK",
		"artcc": "ZBW",
		"type": "RNAV",
		"updated": "05/24/2011",
	},
	{
		"name": "PATSS",
		"latitude": "42-5-20.66 N",
		"longitude": "71-42-39.03 W",
		"state": "MASSACHUSETTS",
		"artcc": "ZBW",
		"type": "RP",
		"updated": "BOS*VOR/DME*259.65/35.96",
	},
	{
		"name": "PATTA",
		"latitude": "45-58-56.04 N",
		"longitude": "69-35-46.31 W",
		"state": "MAINE",
		"artcc": "ZBW",
		"type": "RP",
		"updated": "BGR*VORTAC*355.22",
	},
	{
		"name": "PAULI",
		"latitude": "41-28-11.2 N",
		"longitude": "70-31-21.41 W",
		"state": "MASSACHUSETTS",
		"artcc": "ZBW",
		"type": "RP",
		"updated": "MVY*VOR/DME*057.64/6.00",
	},
	{
		"name": "PAWEE",
		"latitude": "43-52-47.56 N",
		"longitude": "69-9-29.53 W",
		"state": "MAINE",
		"artcc": "ZBW",
		"type": "RP",
		"updated": "ENE*VOR/DME*083.24",
	},
	{
		"name": "PAYGE",
		"latitude": "43-0-50.48 N",
		"longitude": "74-15-12.76 W",
		"state": "NEW YORK",
		"artcc": "ZBW",
		"type": "RP",
		"updated": "UCA*VORTAC*102.76/40.10",
	},
	{
		"name": "PAYIK",
		"latitude": "44-21-47.95 N",
		"longitude": "71-39-45.03 W",
		"state": "NEW HAMPSHIRE",
		"artcc": "ZBW",
		"type": "RNAV",
		"updated": "01/04/2010",
	},
	{
		"name": "PAZTA",
		"latitude": "40-50-27.68 N",
		"longitude": "73-7-28.2 W",
		"state": "NEW YORK",
		"artcc": "ZBW",
		"type": "RP",
		"updated": "DPK*VOR/DME*082.05/8.68",
	},
	{
		"name": "PBERG",
		"latitude": "44-42-6.25 N",
		"longitude": "73-31-22.18 W",
		"state": "NEW YORK",
		"artcc": "ZBW",
		"type": "RNAV",
		"updated": "04/27/2015",
	},
	{
		"name": "PEAAK",
		"latitude": "43-39-2.02 N",
		"longitude": "70-6-3.67 W",
		"state": "MAINE",
		"artcc": "ZBW",
		"type": "RNAV",
		"updated": "06/01/2012",
	},
	{
		"name": "PEAKE",
		"latitude": "41-34-14.87 N",
		"longitude": "70-24-31.61 W",
		"state": "MASSACHUSETTS",
		"artcc": "ZBW",
		"type": "RP",
		"updated": "LFV*VOR/DME*228.04/31.54",
	},
	{
		"name": "PEASE",
		"latitude": "43-5-4.11 N",
		"longitude": "70-49-55.1 W",
		"state": "NEW HAMPSHIRE",
		"artcc": "ZBW",
		"type": "WP",
		"updated": "03/06/1995",
	},
	{
		"name": "PEATT",
		"latitude": "43-38-10.22 N",
		"longitude": "70-11-1.06 W",
		"state": "MAINE",
		"artcc": "ZBW",
		"type": "RP",
		"updated": "GCS*LD*110.32/4.88",
	},
	{
		"name": "PEBME",
		"latitude": "41-34-31.48 N",
		"longitude": "70-37-11.38 W",
		"state": "MASSACHUSETTS",
		"artcc": "ZBW",
		"type": "RNAV",
		"updated": "12/19/2001",
	},
	{
		"name": "PEDKE",
		"latitude": "43-23-3.52 N",
		"longitude": "72-17-50.11 W",
		"state": "NEW HAMPSHIRE",
		"artcc": "ZBW",
		"type": "RNAV",
		"updated": "12/19/2016",
	},
	{
		"name": "PEENK",
		"latitude": "45-39-1.41 N",
		"longitude": "69-6-5.19 W",
		"state": "MAINE",
		"artcc": "ZBW",
		"type": "RNAV",
		"updated": "04/02/2012",
	},
	{
		"name": "PEKAZ",
		"latitude": "43-32-48.34 N",
		"longitude": "71-28-30.19 W",
		"state": "NEW HAMPSHIRE",
		"artcc": "ZBW",
		"type": "RNAV",
		"updated": "11/05/2009",
	},
	{
		"name": "PELAN",
		"latitude": "42-45-20 N",
		"longitude": "71-19-47.41 W",
		"state": "NEW HAMPSHIRE",
		"artcc": "ZBW",
		"type": "RP",
		"updated": "MHT*VOR/DME*180.48",
	},
	{
		"name": "PEMGY",
		"latitude": "43-16-23 N",
		"longitude": "72-19-21.85 W",
		"state": "NEW HAMPSHIRE",
		"artcc": "ZBW",
		"type": "RNAV",
		"updated": "11/05/2009",
	},
	{
		"name": "PENNA",
		"latitude": "41-48-7.67 N",
		"longitude": "72-51-58.53 W",
		"state": "CONNECTICUT",
		"artcc": "ZBW",
		"type": "RP",
		"updated": "HFD*VOR/DME*317.09",
	},
	{
		"name": "PEPDE",
		"latitude": "41-52-40.1 N",
		"longitude": "70-26-26.12 W",
		"state": "MASSACHUSETTS",
		"artcc": "ZBW",
		"type": "RNAV",
		"updated": "12/01/2015",
	},
	{
		"name": "PEPER",
		"latitude": "41-5-5.79 N",
		"longitude": "72-53-59.2 W",
		"state": "CONNECTICUT",
		"artcc": "ZBW",
		"type": "RP",
		"updated": "BDR*VOR/DME*125.97/11.16",
	},
	{
		"name": "PESIC",
		"latitude": "46-41-55.04 N",
		"longitude": "67-58-8.58 W",
		"state": "MAINE",
		"artcc": "ZBW",
		"type": "RNAV",
		"updated": "05/19/2009",
	},
	{
		"name": "PETAE",
		"latitude": "43-1-26 N",
		"longitude": "71-57-22.08 W",
		"state": "NEW HAMPSHIRE",
		"artcc": "ZBW",
		"type": "RNAV",
		"updated": "04/17/2014",
	},
	{
		"name": "PETEJ",
		"latitude": "41-23-56.91 N",
		"longitude": "70-49-34.66 W",
		"state": "MASSACHUSETTS",
		"artcc": "ZBW",
		"type": "RNAV",
		"updated": "06/04/2014",
	},
	{
		"name": "PETEQ",
		"latitude": "42-1-16.03 N",
		"longitude": "73-17-19.15 W",
		"state": "MASSACHUSETTS",
		"artcc": "ZBW",
		"type": "RP",
		"updated": "PWL*VOR/DME*054.73",
	},
	{
		"name": "PETER",
		"latitude": "42-12-18.93 N",
		"longitude": "74-31-50.25 W",
		"state": "NEW YORK",
		"artcc": "ZBW",
		"type": "RP",
		"updated": "RKA*VOR/DME*127.17/35.21",
	},
	{
		"name": "PETGE",
		"latitude": "42-13-7.79 N",
		"longitude": "72-42-3.58 W",
		"state": "MASSACHUSETTS",
		"artcc": "ZBW",
		"type": "RP",
		"updated": "BAF*VORTAC*025.24/3.48",
	},
	{
		"name": "PEYSI",
		"latitude": "44-21-17.69 N",
		"longitude": "69-48-39.14 W",
		"state": "MAINE",
		"artcc": "ZBW",
		"type": "RP",
		"updated": "AUG*VOR/DME*001.61/2.18",
	},
	{
		"name": "PHONY",
		"latitude": "42-1-3.29 N",
		"longitude": "70-20-38.95 W",
		"state": "MASSACHUSETTS",
		"artcc": "ZBW",
		"type": "RP",
		"updated": "LFV*VOR/DME*286.20",
	},
	{
		"name": "PIBOI",
		"latitude": "44-22-24.71 N",
		"longitude": "68-57-32.48 W",
		"state": "MAINE",
		"artcc": "ZBW",
		"type": "RNAV",
		"updated": "10/23/2014",
	},
	{
		"name": "PICAR",
		"latitude": "40-45-45.56 N",
		"longitude": "72-44-58.26 W",
		"state": "NEW YORK",
		"artcc": "ZBW",
		"type": "MR",
		"updated": "FOK*TACAN*243.01/7.00",
	},
	{
		"name": "PIERR",
		"latitude": "45-0-44.49 N",
		"longitude": "67-12-27.92 W",
		"state": "MAINE",
		"artcc": "ZBW",
		"type": "RNAV",
		"updated": "12/08/2004",
	},
	{
		"name": "PIHIV",
		"latitude": "42-12-24.7 N",
		"longitude": "73-40-28.89 W",
		"state": "NEW YORK",
		"artcc": "ZBW",
		"type": "RNAV",
		"updated": "06/29/2011",
	},
	{
		"name": "PINBE",
		"latitude": "43-1-7.35 N",
		"longitude": "76-14-51.69 W",
		"state": "NEW YORK",
		"artcc": "ZBW",
		"type": "RNAV",
		"updated": "05/03/2013",
	},
	{
		"name": "PINET",
		"latitude": "41-14-45.2 N",
		"longitude": "72-7-7.17 W",
		"state": "NEW YORK",
		"artcc": "ZBW",
		"type": "RP",
		"updated": "MAD*VOR/DME*111.74",
	},
	{
		"name": "PINGS",
		"latitude": "42-10-23.85 N",
		"longitude": "72-33-6.49 W",
		"state": "MASSACHUSETTS",
		"artcc": "ZBW",
		"type": "MW",
		"updated": "10/11/2017",
	},
	{
		"name": "PINLE",
		"latitude": "46-15-11.24 N",
		"longitude": "68-7-0.71 W",
		"state": "MAINE",
		"artcc": "ZBW",
		"type": "RNAV",
		"updated": "06/24/2011",
	},
	{
		"name": "PINTE",
		"latitude": "46-26-45.9 N",
		"longitude": "70-3-7.1 W",
		"state": "",
		"artcc": "ZBW",
		"type": "RP",
		"updated": "YQB*VORTAC*119.00",
	},
	{
		"name": "PIPPO",
		"latitude": "44-44-56.99 N",
		"longitude": "71-12-24.89 W",
		"state": "NEW HAMPSHIRE",
		"artcc": "ZBW",
		"type": "RNAV",
		"updated": "11/20/2003",
	},
	{
		"name": "PIPYO",
		"latitude": "44-4-30.53 N",
		"longitude": "73-3-44.95 W",
		"state": "VERMONT",
		"artcc": "ZBW",
		"type": "RP",
		"updated": "BTV*VOR/DME*179.94/20.00",
	},
	{
		"name": "PIRCE",
		"latitude": "40-41-30.25 N",
		"longitude": "73-2-35.92 W",
		"state": "NEW YORK",
		"artcc": "ZBW",
		"type": "RNAV",
		"updated": "03/27/2008",
	},
	{
		"name": "PIRTE",
		"latitude": "44-20-15.72 N",
		"longitude": "75-43-47.88 W",
		"state": "NEW YORK",
		"artcc": "ZBW",
		"type": "MW",
		"updated": "06/27/2009",
	},
	{
		"name": "PITCH",
		"latitude": "42-40-36.94 N",
		"longitude": "75-44-49.58 W",
		"state": "NEW YORK",
		"artcc": "ZBW",
		"type": "RP",
		"updated": "GGT*VORTAC*163.31/7.59",
	},
	{
		"name": "PITRE",
		"latitude": "46-34-19.09 N",
		"longitude": "68-0-18.64 W",
		"state": "MAINE",
		"artcc": "ZBW",
		"type": "RNAV",
		"updated": "05/19/2009",
	},
	{
		"name": "PIYOR",
		"latitude": "43-49-57.61 N",
		"longitude": "69-0-31.31 W",
		"state": "MAINE",
		"artcc": "ZBW",
		"type": "RNAV",
		"updated": "10/08/2008",
	},
	{
		"name": "PLAKO",
		"latitude": "42-39-20.57 N",
		"longitude": "71-44-23 W",
		"state": "MASSACHUSETTS",
		"artcc": "ZBW",
		"type": "RNAV",
		"updated": "07/25/2005",
	},
	{
		"name": "PLGRM",
		"latitude": "42-23-15.44 N",
		"longitude": "70-51-19.79 W",
		"state": "MASSACHUSETTS",
		"artcc": "ZBW",
		"type": "RNAV",
		"updated": "10/24/2011",
	},
	{
		"name": "PLOTT",
		"latitude": "44-33-17.94 N",
		"longitude": "72-12-2.63 W",
		"state": "VERMONT",
		"artcc": "ZBW",
		"type": "RP",
		"updated": "BTV*VOR/DME*092.00",
	},
	{
		"name": "PLUME",
		"latitude": "40-7-6.67 N",
		"longitude": "73-17-8.03 W",
		"state": "NEW JERSEY",
		"artcc": "ZNY",
		"type": "RP",
		"updated": "JFK*VOR/DME*156.00",
	},
	{
		"name": "PLYMM",
		"latitude": "42-2-37.49 N",
		"longitude": "70-25-36.89 W",
		"state": "MASSACHUSETTS",
		"artcc": "ZBW",
		"type": "RNAV",
		"updated": "02/27/2018",
	},
	{
		"name": "PNARD",
		"latitude": "42-49-53.92 N",
		"longitude": "71-55-40.36 W",
		"state": "NEW HAMPSHIRE",
		"artcc": "ZBW",
		"type": "RNAV",
		"updated": "11/17/2014",
	},
	{
		"name": "PODBE",
		"latitude": "43-51-48.63 N",
		"longitude": "73-24-50.23 W",
		"state": "NEW YORK",
		"artcc": "ZBW",
		"type": "RNAV",
		"updated": "01/13/2011",
	},
	{
		"name": "POESY",
		"latitude": "44-14-47.21 N",
		"longitude": "72-37-23.14 W",
		"state": "VERMONT",
		"artcc": "ZBW",
		"type": "RNAV",
		"updated": "06/28/2017",
	},
	{
		"name": "POKUE",
		"latitude": "44-34-32.64 N",
		"longitude": "69-18-51.77 W",
		"state": "MAINE",
		"artcc": "ZBW",
		"type": "RNAV",
		"updated": "04/23/2010",
	},
	{
		"name": "POLME",
		"latitude": "41-35-4.82 N",
		"longitude": "72-50-42.61 W",
		"state": "CONNECTICUT",
		"artcc": "ZBW",
		"type": "RNAV",
		"updated": "01/28/2002",
	},
	{
		"name": "POMPY",
		"latitude": "42-55-48 N",
		"longitude": "75-58-10.1 W",
		"state": "NEW YORK",
		"artcc": "ZBW",
		"type": "RP",
		"updated": "GGT*VORTAC*334.38/10.55",
	},
	{
		"name": "PONCT",
		"latitude": "42-44-48.83 N",
		"longitude": "73-48-48.07 W",
		"state": "NEW YORK",
		"artcc": "ZBW",
		"type": "RNAV",
		"updated": "09/20/2014",
	},
	{
		"name": "PONDS",
		"latitude": "41-10-53.91 N",
		"longitude": "72-54-28.37 W",
		"state": "CONNECTICUT",
		"artcc": "ZBW",
		"type": "RP",
		"updated": "BDR*VOR/DME*094.64/9.90",
	},
	{
		"name": "PONEE",
		"latitude": "42-16-11.14 N",
		"longitude": "73-8-15.74 W",
		"state": "MASSACHUSETTS",
		"artcc": "ZBW",
		"type": "RP",
		"updated": "HNK*VOR/DME*093.00/97.89",
	},
	{
		"name": "POPHM",
		"latitude": "43-46-29.9 N",
		"longitude": "69-40-30.26 W",
		"state": "MAINE",
		"artcc": "ZBW",
		"type": "MR",
		"updated": "NHZ*TACAN*141.00/14.00",
	},
	{
		"name": "POPOW",
		"latitude": "41-31-36.05 N",
		"longitude": "73-57-45.82 W",
		"state": "NEW YORK",
		"artcc": "ZBW",
		"type": "RP",
		"updated": "IGN*VOR/DME*229.28",
	},
	{
		"name": "POPPI",
		"latitude": "41-57-17.79 N",
		"longitude": "72-45-53.1 W",
		"state": "CONNECTICUT",
		"artcc": "ZBW",
		"type": "RNAV",
		"updated": "04/20/2010",
	},
	{
		"name": "POPPP",
		"latitude": "42-49-23.27 N",
		"longitude": "71-55-11.22 W",
		"state": "NEW HAMPSHIRE",
		"artcc": "ZBW",
		"type": "RP",
		"updated": "MHT*VOR/DME*278.79",
	},
	{
		"name": "POROE",
		"latitude": "44-13-28.02 N",
		"longitude": "72-46-26.54 W",
		"state": "VERMONT",
		"artcc": "ZBW",
		"type": "RP",
		"updated": "BTV*VOR/DME*135.33/20.42",
	},
	{
		"name": "POTIC",
		"latitude": "44-42-14.21 N",
		"longitude": "75-20-26.51 W",
		"state": "NEW YORK",
		"artcc": "ZBW",
		"type": "RNAV",
		"updated": "07/19/2016",
	},
	{
		"name": "PPICE",
		"latitude": "41-53-35.39 N",
		"longitude": "69-52-49.5 W",
		"state": "MASSACHUSETTS",
		"artcc": "ZBW",
		"type": "RNAV",
		"updated": "04/20/2010",
	},
	{
		"name": "PPORT",
		"latitude": "43-5-23.59 N",
		"longitude": "70-59-29.08 W",
		"state": "NEW HAMPSHIRE",
		"artcc": "ZBW",
		"type": "RNAV",
		"updated": "03/27/2012",
	},
	{
		"name": "PRENO",
		"latitude": "41-3-55.97 N",
		"longitude": "73-18-50.58 W",
		"state": "CONNECTICUT",
		"artcc": "ZBW",
		"type": "RP",
		"updated": "BDR*VOR/DME*248.49/10.32",
	},
	{
		"name": "PRENT",
		"latitude": "45-39-22.72 N",
		"longitude": "68-3-57.46 W",
		"state": "MAINE",
		"artcc": "ZBW",
		"type": "RP",
		"updated": "HUL*VOR/DME*224.00",
	},
	{
		"name": "PREPI",
		"latitude": "39-48-41.06 N",
		"longitude": "73-15-40.7 W",
		"state": "OFFSHORE ATLANTIC",
		"artcc": "ZNY",
		"type": "RP",
		"updated": "CYN*VORTAC*100.00/54.11",
	},
	{
		"name": "PRIMS",
		"latitude": "43-10-59.6 N",
		"longitude": "76-5-45.06 W",
		"state": "NEW YORK",
		"artcc": "ZBW",
		"type": "RNAV",
		"updated": "05/03/2013",
	},
	{
		"name": "PRNCE",
		"latitude": "41-58-24.75 N",
		"longitude": "74-28-12.25 W",
		"state": "NEW YORK",
		"artcc": "ZBW",
		"type": "RP",
		"updated": "DNY*VOR/DME*130.28/24.98",
	},
	{
		"name": "PROUT",
		"latitude": "44-16-16.7 N",
		"longitude": "70-16-15.2 W",
		"state": "MAINE",
		"artcc": "ZBW",
		"type": "RNAV",
		"updated": "06/21/2010",
	},
	{
		"name": "PROVI",
		"latitude": "41-43-25.46 N",
		"longitude": "71-25-54.17 W",
		"state": "RHODE ISLAND",
		"artcc": "ZBW",
		"type": "RNAV",
		"updated": "09/28/2014",
	},
	{
		"name": "PTAKI",
		"latitude": "42-39-0.31 N",
		"longitude": "76-36-4.77 W",
		"state": "NEW YORK",
		"artcc": "ZNY",
		"type": "RP",
		"updated": "ITH*VOR/DME*336.07",
	},
	{
		"name": "PTRIK",
		"latitude": "42-31-38.24 N",
		"longitude": "70-49-14.28 W",
		"state": "MASSACHUSETTS",
		"artcc": "ZBW",
		"type": "RNAV",
		"updated": "01/15/2013",
	},
	{
		"name": "PUCBY",
		"latitude": "42-5-40.88 N",
		"longitude": "73-39-0.87 W",
		"state": "NEW YORK",
		"artcc": "ZBW",
		"type": "RNAV",
		"updated": "10/23/2009",
	},
	{
		"name": "PUDGY",
		"latitude": "42-19-38.52 N",
		"longitude": "72-26-4.25 W",
		"state": "MASSACHUSETTS",
		"artcc": "ZBW",
		"type": "RP",
		"updated": "PUT*VOR/DME*324.44/34.53",
	},
	{
		"name": "PUDJJ",
		"latitude": "42-28-48.58 N",
		"longitude": "70-17-48.68 W",
		"state": "MASSACHUSETTS",
		"artcc": "ZBW",
		"type": "RNAV",
		"updated": "09/28/2014",
	},
	{
		"name": "PUDYE",
		"latitude": "43-10-15.75 N",
		"longitude": "70-53-58.14 W",
		"state": "NEW HAMPSHIRE",
		"artcc": "ZBW",
		"type": "RP",
		"updated": "PSM*VOR/DME*346.30/5.98",
	},
	{
		"name": "PUGGS",
		"latitude": "40-56-27.65 N",
		"longitude": "73-13-47.73 W",
		"state": "NEW YORK",
		"artcc": "ZBW",
		"type": "RP",
		"updated": "BDR*VOR/DME*212.00",
	},
	{
		"name": "PUGRE",
		"latitude": "44-21-19.47 N",
		"longitude": "74-17-40.18 W",
		"state": "NEW YORK",
		"artcc": "ZBW",
		"type": "RNAV",
		"updated": "04/15/2003",
	},
	{
		"name": "PULLO",
		"latitude": "43-38-56.75 N",
		"longitude": "73-31-14.82 W",
		"state": "NEW YORK",
		"artcc": "ZBW",
		"type": "RNAV",
		"updated": "01/13/2011",
	},
	{
		"name": "PUNAZ",
		"latitude": "43-44-15 N",
		"longitude": "72-38-35.4 W",
		"state": "VERMONT",
		"artcc": "ZBW",
		"type": "CN",
		"updated": "10/21/2002",
	},
	{
		"name": "PUPPY",
		"latitude": "43-3-26.46 N",
		"longitude": "75-17-39.3 W",
		"state": "NEW YORK",
		"artcc": "ZBW",
		"type": "RNAV",
		"updated": "09/22/2014",
	},
	{
		"name": "PURBL",
		"latitude": "42-57-44.52 N",
		"longitude": "71-40-38.57 W",
		"state": "NEW HAMPSHIRE",
		"artcc": "ZBW",
		"type": "RNAV",
		"updated": "11/17/2014",
	},
	{
		"name": "PUTNM",
		"latitude": "41-57-19.65 N",
		"longitude": "71-50-38.76 W",
		"state": "CONNECTICUT",
		"artcc": "ZBW",
		"type": "WP",
		"updated": "11/02/1995",
	},
	{
		"name": "PUTRE",
		"latitude": "43-7-56.63 N",
		"longitude": "71-20-54.78 W",
		"state": "NEW HAMPSHIRE",
		"artcc": "ZBW",
		"type": "RNAV",
		"updated": "11/09/2007",
	},
	{
		"name": "PUVIE",
		"latitude": "44-47-2.49 N",
		"longitude": "69-34-17.89 W",
		"state": "MAINE",
		"artcc": "ZBW",
		"type": "RP",
		"updated": "AUG*VOR/DME*037.04/29.47",
	},
	{
		"name": "PUYRI",
		"latitude": "42-46-35.34 N",
		"longitude": "71-30-5.59 W",
		"state": "NEW HAMPSHIRE",
		"artcc": "ZBW",
		"type": "RP",
		"updated": "LWM*VOR/DME*292.00/18.11",
	},
	{
		"name": "PYXES",
		"latitude": "42-29-13.4 N",
		"longitude": "73-31-34.84 W",
		"state": "NEW YORK",
		"artcc": "ZBW",
		"type": "RNAV",
		"updated": "01/02/2018",
	},
	{
		"name": "PZULU",
		"latitude": "40-37-15.39 N",
		"longitude": "73-23-44.07 W",
		"state": "NEW YORK",
		"artcc": "ZBW",
		"type": "RNAV",
		"updated": "06/11/2014",
	},
