[
	{
		"name": "RAALF",
		"latitude": "41-17-51.88 N",
		"longitude": "72-47-10.16 W",
		"state": "CONNECTICUT",
		"artcc": "ZBW",
		"type": "RP",
		"updated": "JFK*VOR/DME*060.00/59.96"
	},
	{
		"name": "RABPO",
		"latitude": "41-48-28.42 N",
		"longitude": "72-42-21.22 W",
		"state": "CONNECTICUT",
		"artcc": "ZBW",
		"type": "RNAV",
		"updated": "02/22/2018"
	},
	{
		"name": "RACEY",
		"latitude": "41-25-0.94 N",
		"longitude": "73-11-38.1 W",
		"state": "CONNECTICUT",
		"artcc": "ZBW",
		"type": "RP",
		"updated": "CMK*VOR/DME*077.00/19.00"
	},
	{
		"name": "RAEGN",
		"latitude": "45-16-54.17 N",
		"longitude": "68-27-41.46 W",
		"state": "MAINE",
		"artcc": "ZBW",
		"type": "RNAV",
		"updated": "09/11/2014"
	},
	{
		"name": "RAKAM",
		"latitude": "44-1-15.05 N",
		"longitude": "76-29-44.15 W",
		"state": "NEW YORK",
		"artcc": "ZBW",
		"type": "RNAV",
		"updated": "09/20/2014"
	},
	{
		"name": "RAKET",
		"latitude": "41-40-39.92 N",
		"longitude": "72-7-1.24 W",
		"state": "CONNECTICUT",
		"artcc": "ZBW",
		"type": "RP",
		"updated": "HFD*VOR/DME*096.37"
	},
	{
		"name": "RALGE",
		"latitude": "44-17-43.31 N",
		"longitude": "74-4-13.64 W",
		"state": "NEW YORK",
		"artcc": "ZBW",
		"type": "RNAV",
		"updated": "04/15/2003"
	},
	{
		"name": "RAMBO",
		"latitude": "41-48-4.65 N",
		"longitude": "72-26-11.59 W",
		"state": "CONNECTICUT",
		"artcc": "ZBW",
		"type": "RP",
		"updated": "PUT*VOR/DME*265.00/28.12"
	},
	{
		"name": "RANGY",
		"latitude": "44-48-12.25 N",
		"longitude": "70-40-51.97 W",
		"state": "MAINE",
		"artcc": "ZBW",
		"type": "RP",
		"updated": "ENE*VOR/DME*015.00/82.71"
	},
	{
		"name": "RAWNE",
		"latitude": "47-7-44.68 N",
		"longitude": "68-7-0.46 W",
		"state": "MAINE",
		"artcc": "ZBW",
		"type": "RNAV",
		"updated": "07/07/2010"
	},
	{
		"name": "RAYMY",
		"latitude": "43-3-36.89 N",
		"longitude": "71-6-42.16 W",
		"state": "NEW HAMPSHIRE",
		"artcc": "ZBW",
		"type": "RP",
		"updated": "MHT*VOR/DME*059.56/16.16"
	},
	{
		"name": "RAYNM",
		"latitude": "41-53-35.29 N",
		"longitude": "70-58-23.77 W",
		"state": "MASSACHUSETTS",
		"artcc": "ZBW",
		"type": "RNAV",
		"updated": "03/19/2003"
	},
	{
		"name": "RAZZR",
		"latitude": "44-13-16.51 N",
		"longitude": "69-35-12.25 W",
		"state": "MAINE",
		"artcc": "ZBW",
		"type": "RP",
		"updated": "AUG*VOR/DME*141.16/10.81"
	},
	{
		"name": "RBELA",
		"latitude": "42-49-57.99 N",
		"longitude": "70-57-17.96 W",
		"state": "MASSACHUSETTS",
		"artcc": "ZBW",
		"type": "RNAV",
		"updated": "10/01/2008"
	},
	{
		"name": "RBUDD",
		"latitude": "41-25-19.71 N",
		"longitude": "70-19-12.44 W",
		"state": "MASSACHUSETTS",
		"artcc": "ZBW",
		"type": "RNAV",
		"updated": "02/23/2017"
	},
	{
		"name": "RDHOK",
		"latitude": "42-29-36.1 N",
		"longitude": "71-3-20.94 W",
		"state": "MASSACHUSETTS",
		"artcc": "ZBW",
		"type": "RNAV",
		"updated": "04/04/2016"
	},
	{
		"name": "RDUKE",
		"latitude": "42-19-51.57 N",
		"longitude": "70-57-35.67 W",
		"state": "MASSACHUSETTS",
		"artcc": "ZBW",
		"type": "RP",
		"updated": "LIP*LD*150.18/2.16"
	},
	{
		"name": "REAMY",
		"latitude": "41-9-25.85 N",
		"longitude": "73-7-47.69 W",
		"state": "CONNECTICUT",
		"artcc": "ZBW",
		"type": "WP",
		"updated": "MAD*VOR/DME*257.80/21.90"
	},
	{
		"name": "REAVE",
		"latitude": "42-44-59.86 N",
		"longitude": "74-54-41.95 W",
		"state": "NEW YORK",
		"artcc": "ZBW",
		"type": "RP",
		"updated": "GGT*VORTAC*104.00"
	},
	{
		"name": "REBRW",
		"latitude": "44-2-57.87 N",
		"longitude": "72-6-40.83 W",
		"state": "VERMONT",
		"artcc": "ZBW",
		"type": "RNAV",
		"updated": "01/16/2013"
	},
	{
		"name": "REDLE",
		"latitude": "42-57-3.43 N",
		"longitude": "70-52-36.61 W",
		"state": "NEW HAMPSHIRE",
		"artcc": "ZBW",
		"type": "RNAV",
		"updated": "01/16/2013"
	},
	{
		"name": "REDME",
		"latitude": "41-32-8.78 N",
		"longitude": "73-37-15.21 W",
		"state": "NEW YORK",
		"artcc": "ZBW",
		"type": "RNAV",
		"updated": "06/16/2008"
	},
	{
		"name": "REDSX",
		"latitude": "41-55-21.46 N",
		"longitude": "70-14-5.77 W",
		"state": "MASSACHUSETTS",
		"artcc": "ZBW",
		"type": "RP",
		"updated": "LFV*VOR/DME*253.41/10.51"
	},
	{
		"name": "REENE",
		"latitude": "40-46-0.33 N",
		"longitude": "72-47-54.83 W",
		"state": "NEW YORK",
		"artcc": "ZBW",
		"type": "RNAV",
		"updated": "05/19/2009"
	},
	{
		"name": "REGGI",
		"latitude": "44-27-56.55 N",
		"longitude": "72-45-46.34 W",
		"state": "VERMONT",
		"artcc": "ZBW",
		"type": "RP",
		"updated": "BTV*VOR/DME*092.00"
	},
	{
		"name": "REMIE",
		"latitude": "44-0-20.74 N",
		"longitude": "75-44-29.66 W",
		"state": "NEW YORK",
		"artcc": "ZBW",
		"type": "MR",
		"updated": "AEZ*LD*208.99/4.30"
	},
	{
		"name": "REPOY",
		"latitude": "41-49-22.8 N",
		"longitude": "71-2-0.84 W",
		"state": "MASSACHUSETTS",
		"artcc": "ZBW",
		"type": "RNAV",
		"updated": "03/19/2003"
	},
	{
		"name": "RESCU",
		"latitude": "41-39-30.61 N",
		"longitude": "70-4-16.95 W",
		"state": "MASSACHUSETTS",
		"artcc": "ZBW",
		"type": "RNAV",
		"updated": "06/04/2014"
	},
	{
		"name": "REVEN",
		"latitude": "45-33-9.74 N",
		"longitude": "70-42-1.9 W",
		"state": "",
		"artcc": "ZBW",
		"type": "RNAV",
		"updated": "03/26/2018"
	},
	{
		"name": "REVER",
		"latitude": "42-26-27.48 N",
		"longitude": "70-57-41.31 W",
		"state": "MASSACHUSETTS",
		"artcc": "ZBW",
		"type": "RP",
		"updated": "BOS*VOR/DME*029.98/5.16"
	},
	{
		"name": "REVLE",
		"latitude": "44-22-27.59 N",
		"longitude": "73-26-58.74 W",
		"state": "NEW YORK",
		"artcc": "ZBW",
		"type": "RNAV",
		"updated": "12/22/2015"
	},
	{
		"name": "REVSS",
		"latitude": "42-20-43.57 N",
		"longitude": "71-48-37.07 W",
		"state": "MASSACHUSETTS",
		"artcc": "ZBW",
		"type": "RP",
		"updated": "BOS*VOR/DME*285.15/36.52"
	},
	{
		"name": "REZDI",
		"latitude": "43-36-28.04 N",
		"longitude": "71-18-7.03 W",
		"state": "NEW HAMPSHIRE",
		"artcc": "ZBW",
		"type": "RNAV",
		"updated": "07/23/2007"
	},
	{
		"name": "RHINA",
		"latitude": "41-9-56.02 N",
		"longitude": "71-41-34.06 W",
		"state": "RHODE ISLAND",
		"artcc": "ZBW",
		"type": "RP",
		"updated": "SEY*VOR/DME*283.82/5.29"
	},
	{
		"name": "RHODY",
		"latitude": "41-41-32.34 N",
		"longitude": "71-12-40.54 W",
		"state": "RHODE ISLAND",
		"artcc": "ZBW",
		"type": "RP",
		"updated": "PVD*VOR/DME*115.00/10.00"
	},
	{
		"name": "RICEC",
		"latitude": "42-23-4.48 N",
		"longitude": "73-24-43.11 W",
		"state": "NEW YORK",
		"artcc": "ZBW",
		"type": "RNAV",
		"updated": "11/03/2014"
	},
	{
		"name": "RICED",
		"latitude": "40-36-43.09 N",
		"longitude": "72-41-31.86 W",
		"state": "NEW YORK",
		"artcc": "ZBW",
		"type": "RP",
		"updated": "HTO*VORTAC*236.04/25.14"
	},
	{
		"name": "RICOS",
		"latitude": "43-59-38.31 N",
		"longitude": "76-4-36.58 W",
		"state": "NEW YORK",
		"artcc": "ZBW",
		"type": "RNAV",
		"updated": "05/24/2011"
	},
	{
		"name": "RIDKE",
		"latitude": "42-48-54.03 N",
		"longitude": "73-11-36.28 W",
		"state": "VERMONT",
		"artcc": "ZBW",
		"type": "RNAV",
		"updated": "01/16/2013"
	},
	{
		"name": "RIDRE",
		"latitude": "42-59-50.14 N",
		"longitude": "71-6-46.87 W",
		"state": "NEW HAMPSHIRE",
		"artcc": "ZBW",
		"type": "RNAV",
		"updated": "01/16/2013"
	},
	{
		"name": "RIEBA",
		"latitude": "43-53-8.42 N",
		"longitude": "75-55-58.17 W",
		"state": "NEW YORK",
		"artcc": "ZBW",
		"type": "MW",
		"updated": "07/28/1998"
	},
	{
		"name": "RIFER",
		"latitude": "43-5-48.34 N",
		"longitude": "70-44-14.34 W",
		"state": "MAINE",
		"artcc": "ZBW",
		"type": "RNAV",
		"updated": "01/27/2016"
	},
	{
		"name": "RIFLE",
		"latitude": "40-41-24.18 N",
		"longitude": "72-34-54.89 W",
		"state": "NEW YORK",
		"artcc": "ZBW",
		"type": "RP",
		"updated": "RBV*VORTAC*080.93/92.38"
	},
	{
		"name": "RIFTS",
		"latitude": "44-18-12.7 N",
		"longitude": "72-43-40.07 W",
		"state": "VERMONT",
		"artcc": "ZBW",
		"type": "RNAV",
		"updated": "06/28/2017"
	},
	{
		"name": "RIGID",
		"latitude": "44-35-19.53 N",
		"longitude": "73-44-34.07 W",
		"state": "NEW YORK",
		"artcc": "ZBW",
		"type": "RP",
		"updated": "BTV*VOR/DME*310.74/26.66"
	},
	{
		"name": "RIGLE",
		"latitude": "42-49-3.17 N",
		"longitude": "72-0-1.35 W",
		"state": "NEW HAMPSHIRE",
		"artcc": "ZBW",
		"type": "RNAV",
		"updated": "04/17/2014"
	},
	{
		"name": "RIIKE",
		"latitude": "44-28-42.82 N",
		"longitude": "74-7-2.8 W",
		"state": "NEW YORK",
		"artcc": "ZBW",
		"type": "RP",
		"updated": "SLK*VOR/DME*/6.77"
	},
	{
		"name": "RIKAH",
		"latitude": "42-33-5.03 N",
		"longitude": "71-25-7.23 W",
		"state": "MASSACHUSETTS",
		"artcc": "ZBW",
		"type": "RNAV",
		"updated": "09/08/2016"
	},
	{
		"name": "RILIE",
		"latitude": "43-1-28.92 N",
		"longitude": "76-4-41.9 W",
		"state": "NEW YORK",
		"artcc": "ZBW",
		"type": "RNAV",
		"updated": "05/03/2013"
	},
	{
		"name": "RILMS",
		"latitude": "43-7-5.57 N",
		"longitude": "73-34-8.01 W",
		"state": "NEW YORK",
		"artcc": "ZBW",
		"type": "RP",
		"updated": "GFL*VORTAC*186.00/13.50"
	},
	{
		"name": "RIMBA",
		"latitude": "42-3-10.4 N",
		"longitude": "74-39-27.66 W",
		"state": "NEW YORK",
		"artcc": "ZBW",
		"type": "RP",
		"updated": "DNY*VOR/DME*130.27/15.33"
	},
	{
		"name": "RINTH",
		"latitude": "45-1-7.23 N",
		"longitude": "69-5-55.65 W",
		"state": "MAINE",
		"artcc": "ZBW",
		"type": "RP",
		"updated": "MLT*VOR/DME*236.14/42.10"
	},
	{
		"name": "RINTS",
		"latitude": "41-14-20.18 N",
		"longitude": "72-4-45.3 W",
		"state": "CONNECTICUT",
		"artcc": "ZBW",
		"type": "RP",
		"updated": "MAD*VOR/DME*112.00"
	},
	{
		"name": "RIPIT",
		"latitude": "42-22-46.76 N",
		"longitude": "70-52-39.05 W",
		"state": "MASSACHUSETTS",
		"artcc": "ZBW",
		"type": "RP",
		"updated": "DGU*LD*091.58/6.32"
	},
	{
		"name": "RIRXI",
		"latitude": "41-37-54.57 N",
		"longitude": "70-14-47.24 W",
		"state": "MASSACHUSETTS",
		"artcc": "ZBW",
		"type": "RNAV",
		"updated": "06/04/2014"
	},
	{
		"name": "RISSY",
		"latitude": "40-23-52.17 N",
		"longitude": "73-35-13.79 W",
		"state": "NEW YORK",
		"artcc": "ZBW",
		"type": "RNAV",
		"updated": "06/11/2014"
	},
	{
		"name": "RITAS",
		"latitude": "42-19-17.24 N",
		"longitude": "73-0-14.33 W",
		"state": "MASSACHUSETTS",
		"artcc": "ZBW",
		"type": "RP",
		"updated": "BAF*VORTAC*320.82/16.00"
	},
	{
		"name": "RITPE",
		"latitude": "44-56-17.77 N",
		"longitude": "72-12-46.4 W",
		"state": "VERMONT",
		"artcc": "ZBW",
		"type": "RNAV",
		"updated": "11/06/2009"
	},
	{
		"name": "RIYOV",
		"latitude": "42-35-44.87 N",
		"longitude": "74-58-15.83 W",
		"state": "NEW YORK",
		"artcc": "ZBW",
		"type": "RNAV",
		"updated": "08/13/2008"
	},
	{
		"name": "RIZER",
		"latitude": "40-50-35.95 N",
		"longitude": "73-2-25.52 W",
		"state": "NEW YORK",
		"artcc": "ZBW",
		"type": "RP",
		"updated": "RXN*LS*059.01"
	},
	{
		"name": "RIZZO",
		"latitude": "43-32-52.33 N",
		"longitude": "72-27-9.33 W",
		"state": "VERMONT",
		"artcc": "ZBW",
		"type": "RP",
		"updated": "LEB*VOR/DME*247.77/12.96"
	},
	{
		"name": "RNKRS",
		"latitude": "44-59-41.42 N",
		"longitude": "74-24-0.99 W",
		"state": "NEW YORK",
		"artcc": "ZBW",
		"type": "CN",
		"updated": "07/20/2015"
	},
	{
		"name": "RNNDY",
		"latitude": "44-20-35.97 N",
		"longitude": "74-28-52.02 W",
		"state": "NEW YORK",
		"artcc": "ZBW",
		"type": "RNAV",
		"updated": "04/17/2018"
	},
	{
		"name": "RNPCY",
		"latitude": "45-0-29.4 N",
		"longitude": "71-57-23.69 W",
		"state": "VERMONT",
		"artcc": "ZBW",
		"type": "CN",
		"updated": "06/03/2002"
	},
	{
		"name": "RNPSB",
		"latitude": "45-0-47.61 N",
		"longitude": "71-31-7.57 W",
		"state": "NEW HAMPSHIRE",
		"artcc": "ZBW",
		"type": "CN",
		"updated": "06/03/2002"
	},
	{
		"name": "RNSLL",
		"latitude": "45-25-23.52 N",
		"longitude": "70-37-45 W",
		"state": "MAINE",
		"artcc": "ZBW",
		"type": "CN",
		"updated": "06/03/2002"
	},
	{
		"name": "RNSYN",
		"latitude": "46-2-33.81 N",
		"longitude": "67-46-51.65 W",
		"state": "MAINE",
		"artcc": "ZBW",
		"type": "CN",
		"updated": "06/03/2002"
	},
	{
		"name": "ROAME",
		"latitude": "41-2-27.22 N",
		"longitude": "72-22-8.4 W",
		"state": "NEW YORK",
		"artcc": "ZBW",
		"type": "RP",
		"updated": "CCC*VOR/DME*084.00"
	},
	{
		"name": "ROBER",
		"latitude": "40-41-7.67 N",
		"longitude": "73-1-57.4 W",
		"state": "NEW YORK",
		"artcc": "ZBW",
		"type": "RP",
		"updated": "CCC*VOR/DME*229.11/18.10"
	},
	{
		"name": "ROBUC",
		"latitude": "41-40-44.11 N",
		"longitude": "71-35-6.42 W",
		"state": "RHODE ISLAND",
		"artcc": "ZBW",
		"type": "RNAV",
		"updated": "09/28/2014"
	},
	{
		"name": "ROCHS",
		"latitude": "43-16-11.66 N",
		"longitude": "70-56-4.28 W",
		"state": "NEW HAMPSHIRE",
		"artcc": "ZBW",
		"type": "RP",
		"updated": "PSM*VOR/DME*354.00/12.00"
	},
	{
		"name": "ROCOW",
		"latitude": "45-41-35.54 N",
		"longitude": "69-12-42.29 W",
		"state": "MAINE",
		"artcc": "ZBW",
		"type": "RP",
		"updated": "MLT*VOR/DME*302.55/30.00"
	},
	{
		"name": "RODAN",
		"latitude": "43-2-50.25 N",
		"longitude": "76-27-59.65 W",
		"state": "NEW YORK",
		"artcc": "ZBW",
		"type": "RP",
		"updated": "GGT*VORTAC*310.00"
	},
	{
		"name": "RODEE",
		"latitude": "42-35-58.22 N",
		"longitude": "69-56-54.94 W",
		"state": "OFFSHORE ATLANTIC",
		"artcc": "ZBW",
		"type": "RNAV",
		"updated": "09/26/2014"
	},
	{
		"name": "RODME",
		"latitude": "41-27-0.56 N",
		"longitude": "71-2-19.17 W",
		"state": "MASSACHUSETTS",
		"artcc": "ZBW",
		"type": "RNAV",
		"updated": "11/05/2014"
	},
	{
		"name": "RODYO",
		"latitude": "44-43-27.81 N",
		"longitude": "74-53-0.63 W",
		"state": "NEW YORK",
		"artcc": "ZBW",
		"type": "RNAV",
		"updated": "10/05/2004"
	},
	{
		"name": "RODYY",
		"latitude": "41-52-25.85 N",
		"longitude": "74-35-49.39 W",
		"state": "NEW YORK",
		"artcc": "ZBW",
		"type": "RNAV",
		"updated": "09/20/2014"
	},
	{
		"name": "ROGGR",
		"latitude": "42-27-50.52 N",
		"longitude": "71-12-59.29 W",
		"state": "MASSACHUSETTS",
		"artcc": "ZBW",
		"type": "RP",
		"updated": "LWM*VOR/DME*213.05"
	},
	{
		"name": "ROLAF",
		"latitude": "44-16-56.55 N",
		"longitude": "69-51-56.39 W",
		"state": "MAINE",
		"artcc": "ZBW",
		"type": "RP",
		"updated": "AUG*VOR/DME*250.84"
	},
	{
		"name": "ROLNS",
		"latitude": "43-13-42.16 N",
		"longitude": "70-50-30.3 W",
		"state": "NEW HAMPSHIRE",
		"artcc": "ZBW",
		"type": "RNAV",
		"updated": "11/09/2009"
	},
	{
		"name": "ROMRE",
		"latitude": "43-44-52.95 N",
		"longitude": "72-1-38.09 W",
		"state": "NEW HAMPSHIRE",
		"artcc": "ZBW",
		"type": "RNAV",
		"updated": "03/30/2009"
	},
	{
		"name": "ROMUW",
		"latitude": "44-49-55.3 N",
		"longitude": "72-11-52.42 W",
		"state": "VERMONT",
		"artcc": "ZBW",
		"type": "RNAV",
		"updated": "08/10/2015"
	},
	{
		"name": "RONGE",
		"latitude": "41-54-52.77 N",
		"longitude": "73-12-21.29 W",
		"state": "CONNECTICUT",
		"artcc": "ZBW",
		"type": "RNAV",
		"updated": "08/21/2013"
	},
	{
		"name": "ROOMS",
		"latitude": "43-1-9.84 N",
		"longitude": "74-35-3.27 W",
		"state": "NEW YORK",
		"artcc": "ZBW",
		"type": "RP",
		"updated": "DNY*VOR/DME*029.00"
	},
	{
		"name": "ROOTS",
		"latitude": "44-59-27.83 N",
		"longitude": "70-39-57.2 W",
		"state": "MAINE",
		"artcc": "ZBW",
		"type": "RNAV",
		"updated": "03/23/2009"
	},
	{
		"name": "ROZZE",
		"latitude": "42-49-45.26 N",
		"longitude": "71-59-32.85 W",
		"state": "NEW HAMPSHIRE",
		"artcc": "ZBW",
		"type": "RNAV",
		"updated": "11/17/2014"
	},
	{
		"name": "RSDEE",
		"latitude": "41-41-59.35 N",
		"longitude": "71-23-35.63 W",
		"state": "RHODE ISLAND",
		"artcc": "ZBW",
		"type": "RP",
		"updated": "PVD*VOR/DME*145.94/2.20"
	},
	{
		"name": "RUBER",
		"latitude": "41-37-31.81 N",
		"longitude": "74-33-3.3 W",
		"state": "NEW YORK",
		"artcc": "ZBW",
		"type": "RP",
		"updated": "HUO*VOR/DME*019.05/13.07"
	},
	{
		"name": "RUBLE",
		"latitude": "41-28-13.66 N",
		"longitude": "71-14-15.01 W",
		"state": "RHODE ISLAND",
		"artcc": "ZBW",
		"type": "RNAV",
		"updated": "02/07/2008"
	},
	{
		"name": "RUBOC",
		"latitude": "45-50-50.64 N",
		"longitude": "67-46-27.89 W",
		"state": "MAINE",
		"artcc": "ZBW",
		"type": "RNAV",
		"updated": "06/24/2011"
	},
	{
		"name": "RUCKY",
		"latitude": "43-57-50.16 N",
		"longitude": "72-35-43.98 W",
		"state": "VERMONT",
		"artcc": "ZBW",
		"type": "RP",
		"updated": "LEB*VOR/DME*331.19/23.75"
	},
	{
		"name": "RUEED",
		"latitude": "44-11-1.86 N",
		"longitude": "68-19-58.31 W",
		"state": "MAINE",
		"artcc": "ZBW",
		"type": "RNAV",
		"updated": "07/10/2012"
	},
	{
		"name": "RUIZE",
		"latitude": "41-28-45.63 N",
		"longitude": "72-12-33.94 W",
		"state": "CONNECTICUT",
		"artcc": "ZBW",
		"type": "RNAV",
		"updated": "04/04/2016"
	},
	{
		"name": "RUKYA",
		"latitude": "41-8-37.31 N",
		"longitude": "73-52-35.6 W",
		"state": "NEW YORK",
		"artcc": "ZBW",
		"type": "RNAV",
		"updated": "02/09/2018"
	},
	{
		"name": "RUNVE",
		"latitude": "44-12-57.74 N",
		"longitude": "68-36-3.21 W",
		"state": "MAINE",
		"artcc": "ZBW",
		"type": "RNAV",
		"updated": "11/08/2007"
	},
	{
		"name": "RURBY",
		"latitude": "42-11-52.63 N",
		"longitude": "72-12-30.68 W",
		"state": "MASSACHUSETTS",
		"artcc": "ZBW",
		"type": "RNAV",
		"updated": "01/21/2010"
	},
	{
		"name": "RUSEL",
		"latitude": "42-0-36.53 N",
		"longitude": "71-25-2.14 W",
		"state": "RHODE ISLAND",
		"artcc": "ZBW",
		"type": "RNAV",
		"updated": "12/13/2012"
	},
	{
		"name": "RUSKY",
		"latitude": "41-48-11.05 N",
		"longitude": "71-29-16.73 W",
		"state": "RHODE ISLAND",
		"artcc": "ZBW",
		"type": "RP",
		"updated": "PVD*VOR/DME*345.00/5.39"
	},
	{
		"name": "RYDER",
		"latitude": "43-21-1.39 N",
		"longitude": "70-35-25.82 W",
		"state": "MAINE",
		"artcc": "ZBW",
		"type": "RNAV",
		"updated": "03/02/2010"
	},
	{
		"name": "RYMES",
		"latitude": "41-11-30 N",
		"longitude": "73-31-50.72 W",
		"state": "CONNECTICUT",
		"artcc": "ZBW",
		"type": "RP",
		"updated": "DPK*VOR/DME*348.79"
	}
]
