[
	{
		"name": "SAACK",
		"latitude": "44-7-18.56 N",
		"longitude": "75-49-29.71 W",
		"state": "NEW YORK",
		"artcc": "ZBW",
		"type": "MR",
		"updated": "ART*VORTAC*057.44"
	},
	{
		"name": "SAACO",
		"latitude": "43-14-57.47 N",
		"longitude": "70-13-27.67 W",
		"state": "MAINE",
		"artcc": "ZBW",
		"type": "RNAV",
		"updated": "06/01/2012"
	},
	{
		"name": "SACTO",
		"latitude": "43-17-48.22 N",
		"longitude": "70-27-29.24 W",
		"state": "MAINE",
		"artcc": "ZBW",
		"type": "RNAV",
		"updated": "03/02/2010"
	},
	{
		"name": "SADOY",
		"latitude": "47-14-25.67 N",
		"longitude": "68-34-26.24 W",
		"state": "MAINE",
		"artcc": "ZBW",
		"type": "RNAV",
		"updated": "08/01/2007"
	},
	{
		"name": "SADTO",
		"latitude": "42-48-44.91 N",
		"longitude": "71-10-4.46 W",
		"state": "MASSACHUSETTS",
		"artcc": "ZBW",
		"type": "RP",
		"updated": "MHT*VOR/DME*125.63"
	},
	{
		"name": "SAEZE",
		"latitude": "43-19-32.82 N",
		"longitude": "76-10-35.04 W",
		"state": "NEW YORK",
		"artcc": "ZBW",
		"type": "WP",
		"updated": "07/05/2001"
	},
	{
		"name": "SAFAD",
		"latitude": "43-6-53.67 N",
		"longitude": "72-40-22.67 W",
		"state": "VERMONT",
		"artcc": "ZBW",
		"type": "RP",
		"updated": "CAM*VOR/DME*090.00"
	},
	{
		"name": "SAGES",
		"latitude": "42-2-46.33 N",
		"longitude": "74-19-10.33 W",
		"state": "NEW YORK",
		"artcc": "ZBW",
		"type": "RP",
		"updated": "IGN*VOR/DME*327.85/31.92"
	},
	{
		"name": "SAILE",
		"latitude": "41-11-8.77 N",
		"longitude": "67-53-44.56 W",
		"state": "OFFSHORE ATLANTIC",
		"artcc": "ZBW",
		"type": "RNAV",
		"updated": "03/21/2018"
	},
	{
		"name": "SAILN",
		"latitude": "40-15-15.92 N",
		"longitude": "73-27-1.93 W",
		"state": "OFFSHORE ATLANTIC",
		"artcc": "ZBW",
		"type": "RNAV",
		"updated": "02/28/2017"
	},
	{
		"name": "SALAS",
		"latitude": "45-6-7.61 N",
		"longitude": "74-42-7.33 W",
		"state": "",
		"artcc": "ZBW",
		"type": "RNAV",
		"updated": "11/23/2009"
	},
	{
		"name": "SALDY",
		"latitude": "41-11-49.75 N",
		"longitude": "69-58-49.05 W",
		"state": "MASSACHUSETTS",
		"artcc": "ZBW",
		"type": "RNAV",
		"updated": "03/27/2009"
	},
	{
		"name": "SALEM",
		"latitude": "41-24-48.41 N",
		"longitude": "72-11-1.29 W",
		"state": "CONNECTICUT",
		"artcc": "ZBW",
		"type": "RP",
		"updated": "HFD*VOR/DME*142.65/21.34"
	},
	{
		"name": "SALLT",
		"latitude": "41-10-50.06 N",
		"longitude": "72-53-36.03 W",
		"state": "CONNECTICUT",
		"artcc": "ZBW",
		"type": "RP",
		"updated": "BDR*VOR/DME*095.44"
	},
	{
		"name": "SALME",
		"latitude": "41-46-20.95 N",
		"longitude": "71-34-33.15 W",
		"state": "RHODE ISLAND",
		"artcc": "ZBW",
		"type": "RP",
		"updated": "PVD*VOR/DME*307.78"
	},
	{
		"name": "SALNE",
		"latitude": "42-20-51.82 N",
		"longitude": "71-7-23.77 W",
		"state": "MASSACHUSETTS",
		"artcc": "ZBW",
		"type": "RNAV",
		"updated": "11/14/2013"
	},
	{
		"name": "SANTT",
		"latitude": "41-11-19.92 N",
		"longitude": "73-25-23.85 W",
		"state": "CONNECTICUT",
		"artcc": "ZBW",
		"type": "RP",
		"updated": "RBV*VORTAC*049.24/76.75"
	},
	{
		"name": "SAPPE",
		"latitude": "43-37-37.41 N",
		"longitude": "70-3-7.2 W",
		"state": "MAINE",
		"artcc": "ZBW",
		"type": "RP",
		"updated": "ENE*VOR/DME*080.57"
	},
	{
		"name": "SAPTE",
		"latitude": "42-39-11.52 N",
		"longitude": "72-3-14.18 W",
		"state": "MASSACHUSETTS",
		"artcc": "ZBW",
		"type": "RNAV",
		"updated": "06/18/2010"
	},
	{
		"name": "SAPUE",
		"latitude": "47-19-45.01 N",
		"longitude": "68-36-59.01 W",
		"state": "",
		"artcc": "ZBW",
		"type": "RNAV",
		"updated": "08/01/2007"
	},
	{
		"name": "SARDI",
		"latitude": "40-31-26.61 N",
		"longitude": "72-47-55.87 W",
		"state": "NEW YORK",
		"artcc": "ZBW",
		"type": "RP",
		"updated": "CCC*VOR/DME*193.00/24.32"
	},
	{
		"name": "SASHA",
		"latitude": "42-7-58.7 N",
		"longitude": "73-8-55.39 W",
		"state": "MASSACHUSETTS",
		"artcc": "ZBW",
		"type": "RP",
		"updated": "CTR*VOR/DME*236.17/13.01"
	},
	{
		"name": "SATAN",
		"latitude": "43-23-9.13 N",
		"longitude": "70-48-11.07 W",
		"state": "MAINE",
		"artcc": "ZBW",
		"type": "RP",
		"updated": "PSM*VOR/DME*020.00"
	},
	{
		"name": "SAUGY",
		"latitude": "41-29-22.03 N",
		"longitude": "71-48-1.95 W",
		"state": "CONNECTICUT",
		"artcc": "ZBW",
		"type": "RNAV",
		"updated": "04/06/2012"
	},
	{
		"name": "SAVAL",
		"latitude": "44-54-15 N",
		"longitude": "74-42-1.2 W",
		"state": "NEW YORK",
		"artcc": "ZBW",
		"type": "RNAV",
		"updated": "09/22/2014"
	},
	{
		"name": "SAWTO",
		"latitude": "44-57-54.04 N",
		"longitude": "70-36-28.16 W",
		"state": "MAINE",
		"artcc": "ZBW",
		"type": "RNAV",
		"updated": "03/24/2009"
	},
	{
		"name": "SBCDC",
		"latitude": "46-2-3.82 N",
		"longitude": "67-46-51.6 W",
		"state": "MAINE",
		"artcc": "ZBW",
		"type": "CN",
		"updated": "06/03/2002"
	},
	{
		"name": "SBGSK",
		"latitude": "46-0-36.85 N",
		"longitude": "67-46-51.91 W",
		"state": "MAINE",
		"artcc": "ZBW",
		"type": "CN",
		"updated": "06/03/2002"
	},
	{
		"name": "SCALD",
		"latitude": "41-58-20.61 N",
		"longitude": "70-49-39.72 W",
		"state": "MASSACHUSETTS",
		"artcc": "ZBW",
		"type": "RNAV",
		"updated": "08/23/2016"
	},
	{
		"name": "SCARS",
		"latitude": "43-32-55.1 N",
		"longitude": "70-20-27.87 W",
		"state": "MAINE",
		"artcc": "ZBW",
		"type": "RP",
		"updated": "ENE*VOR/DME*075.00/14.00"
	},
	{
		"name": "SCIPO",
		"latitude": "42-48-29.07 N",
		"longitude": "76-28-45.68 W",
		"state": "NEW YORK",
		"artcc": "ZNY",
		"type": "RP",
		"updated": "GGT*VORTAC*283.50/28.85"
	},
	{
		"name": "SCITU",
		"latitude": "42-16-43.48 N",
		"longitude": "70-45-38.19 W",
		"state": "MASSACHUSETTS",
		"artcc": "ZBW",
		"type": "RNAV",
		"updated": "09/28/2014"
	},
	{
		"name": "SCOAR",
		"latitude": "42-18-45.42 N",
		"longitude": "70-38-15.02 W",
		"state": "MASSACHUSETTS",
		"artcc": "ZBW",
		"type": "RNAV",
		"updated": "01/15/2013"
	},
	{
		"name": "SCOGS",
		"latitude": "43-9-44.07 N",
		"longitude": "70-18-3.14 W",
		"state": "MAINE",
		"artcc": "ZBW",
		"type": "RP",
		"updated": "BOS*VOR/DME*048.00/57.07"
	},
	{
		"name": "SCOOP",
		"latitude": "43-1-56.26 N",
		"longitude": "71-31-33.48 W",
		"state": "NEW HAMPSHIRE",
		"artcc": "ZBW",
		"type": "RP",
		"updated": "MHT*VOR/DME*340.00/12.00"
	},
	{
		"name": "SCOTI",
		"latitude": "44-22-19.43 N",
		"longitude": "69-42-21.12 W",
		"state": "MAINE",
		"artcc": "ZBW",
		"type": "RP",
		"updated": "AUG*VOR/DME*069.32/5.00"
	},
	{
		"name": "SCOUT",
		"latitude": "43-18-52.32 N",
		"longitude": "75-31-16.87 W",
		"state": "NEW YORK",
		"artcc": "ZBW",
		"type": "RNAV",
		"updated": "04/25/2010"
	},
	{
		"name": "SCROB",
		"latitude": "42-41-32.36 N",
		"longitude": "72-1-37.52 W",
		"state": "MASSACHUSETTS",
		"artcc": "ZBW",
		"type": "RP",
		"updated": "GDM*VOR/DME*022.91/8.89"
	},
	{
		"name": "SCUPP",
		"latitude": "42-36-11.01 N",
		"longitude": "70-13-49.35 W",
		"state": "OFFSHORE ATLANTIC",
		"artcc": "ZBW",
		"type": "RP",
		"updated": "LFV*VOR/DME*002.32/36.18"
	},
	{
		"name": "SEABE",
		"latitude": "41-46-44.52 N",
		"longitude": "71-30-42.26 W",
		"state": "RHODE ISLAND",
		"artcc": "ZBW",
		"type": "RNAV",
		"updated": "08/01/2012"
	},
	{
		"name": "SEAER",
		"latitude": "43-55-28.39 N",
		"longitude": "69-29-30.47 W",
		"state": "MAINE",
		"artcc": "ZBW",
		"type": "RP",
		"updated": "BGR*VORTAC*225.00/61.00"
	},
	{
		"name": "SEALL",
		"latitude": "41-23-33.74 N",
		"longitude": "72-50-50.56 W",
		"state": "CONNECTICUT",
		"artcc": "ZBW",
		"type": "RP",
		"updated": "BDR*VOR/DME*053.93"
	},
	{
		"name": "SEEDY",
		"latitude": "43-4-33.15 N",
		"longitude": "70-36-48.68 W",
		"state": "NEW HAMPSHIRE",
		"artcc": "ZBW",
		"type": "RP",
		"updated": "PSM*VOR/DME*108.99"
	},
	{
		"name": "SEETS",
		"latitude": "42-38-46.19 N",
		"longitude": "72-19-5.71 W",
		"state": "MASSACHUSETTS",
		"artcc": "ZBW",
		"type": "RNAV",
		"updated": "09/28/2014"
	},
	{
		"name": "SEGOE",
		"latitude": "42-33-26.7 N",
		"longitude": "71-0-24.87 W",
		"state": "MASSACHUSETTS",
		"artcc": "ZBW",
		"type": "RNAV",
		"updated": "08/13/2012"
	},
	{
		"name": "SEHAG",
		"latitude": "42-28-4.94 N",
		"longitude": "70-47-6.19 W",
		"state": "MASSACHUSETTS",
		"artcc": "ZBW",
		"type": "RNAV",
		"updated": "04/04/2016"
	},
	{
		"name": "SELLA",
		"latitude": "41-35-47.46 N",
		"longitude": "71-34-20.74 W",
		"state": "RHODE ISLAND",
		"artcc": "ZBW",
		"type": "RP",
		"updated": "PVD*VOR/DME*234.00/10.00"
	},
	{
		"name": "SEMTE",
		"latitude": "43-16-8.98 N",
		"longitude": "70-44-32.06 W",
		"state": "MAINE",
		"artcc": "ZBW",
		"type": "RNAV",
		"updated": "01/16/2013"
	},
	{
		"name": "SENOE",
		"latitude": "42-58-0.71 N",
		"longitude": "71-14-48.6 W",
		"state": "NEW HAMPSHIRE",
		"artcc": "ZBW",
		"type": "RNAV",
		"updated": "01/16/2013"
	},
	{
		"name": "SEPAE",
		"latitude": "42-58-23.16 N",
		"longitude": "70-54-41.79 W",
		"state": "NEW HAMPSHIRE",
		"artcc": "ZBW",
		"type": "RNAV",
		"updated": "01/16/2013"
	},
	{
		"name": "SEROC",
		"latitude": "43-10-2.61 N",
		"longitude": "70-29-31.37 W",
		"state": "MAINE",
		"artcc": "ZBW",
		"type": "RP",
		"updated": "ENE*VOR/DME*178.00/16.38"
	},
	{
		"name": "SERPA",
		"latitude": "43-50-23.48 N",
		"longitude": "70-39-56.87 W",
		"state": "MAINE",
		"artcc": "ZBW",
		"type": "RP",
		"updated": "AUG*VOR/DME*250.84/47.36"
	},
	{
		"name": "SETBE",
		"latitude": "44-43-7.15 N",
		"longitude": "74-53-32.69 W",
		"state": "NEW YORK",
		"artcc": "ZBW",
		"type": "RNAV",
		"updated": "11/23/2009"
	},
	{
		"name": "SETHE",
		"latitude": "41-9-15.39 N",
		"longitude": "73-1-13.29 W",
		"state": "CONNECTICUT",
		"artcc": "ZBW",
		"type": "RNAV",
		"updated": "06/16/2017"
	},
	{
		"name": "SEVIE",
		"latitude": "44-40-20.76 N",
		"longitude": "67-54-55.47 W",
		"state": "MAINE",
		"artcc": "ZBW",
		"type": "RNAV",
		"updated": "11/15/2017"
	},
	{
		"name": "SEYOB",
		"latitude": "43-35-42.97 N",
		"longitude": "72-57-7.21 W",
		"state": "VERMONT",
		"artcc": "ZBW",
		"type": "RP",
		"updated": "RUT*LD*013.52/4.29"
	},
	{
		"name": "SEYON",
		"latitude": "42-52-31.58 N",
		"longitude": "73-37-59.53 W",
		"state": "NEW YORK",
		"artcc": "ZBW",
		"type": "RNAV",
		"updated": "06/27/2011"
	},
	{
		"name": "SEZTY",
		"latitude": "44-42-28.58 N",
		"longitude": "68-27-31.34 W",
		"state": "MAINE",
		"artcc": "ZBW",
		"type": "RNAV",
		"updated": "03/17/2017"
	},
	{
		"name": "SHAAN",
		"latitude": "42-34-47.62 N",
		"longitude": "70-49-39.4 W",
		"state": "MASSACHUSETTS",
		"artcc": "ZBW",
		"type": "RNAV",
		"updated": "01/15/2013"
	},
	{
		"name": "SHAGG",
		"latitude": "42-27-20.34 N",
		"longitude": "71-10-44.19 W",
		"state": "MASSACHUSETTS",
		"artcc": "ZBW",
		"type": "WP",
		"updated": "BOS*VOR/DME*321.04/10.27"
	},
	{
		"name": "SHAHE",
		"latitude": "42-41-12.77 N",
		"longitude": "74-7-15.95 W",
		"state": "NEW YORK",
		"artcc": "ZBW",
		"type": "RP",
		"updated": "ALB*VORTAC*268.66/14.52"
	},
	{
		"name": "SHANK",
		"latitude": "42-37-41 N",
		"longitude": "68-29-14 W",
		"state": "OFFSHORE ATLANTIC",
		"artcc": "ZBW",
		"type": "RNAV",
		"updated": "02/27/2018"
	},
	{
		"name": "SHAUN",
		"latitude": "42-40-34.24 N",
		"longitude": "70-38-27.06 W",
		"state": "MASSACHUSETTS",
		"artcc": "ZBW",
		"type": "RNAV",
		"updated": "06/01/2012"
	},
	{
		"name": "SHAWE",
		"latitude": "44-21-10.51 N",
		"longitude": "69-49-17.58 W",
		"state": "MAINE",
		"artcc": "ZBW",
		"type": "RP",
		"updated": "AUG*VOR/DME*349.42/2.25"
	},
	{
		"name": "SHERB",
		"latitude": "42-46-37.91 N",
		"longitude": "75-31-55.05 W",
		"state": "NEW YORK",
		"artcc": "ZBW",
		"type": "RP",
		"updated": "RKA*VOR/DME*336.28/22.71"
	},
	{
		"name": "SHHAR",
		"latitude": "40-59-1.45 N",
		"longitude": "71-18-20.53 W",
		"state": "MASSACHUSETTS",
		"artcc": "ZBW",
		"type": "RNAV",
		"updated": "04/09/2010"
	},
	{
		"name": "SHIGY",
		"latitude": "42-23-57.95 N",
		"longitude": "73-19-0.98 W",
		"state": "MASSACHUSETTS",
		"artcc": "ZBW",
		"type": "RP",
		"updated": "PWL*VOR/DME*030.45"
	},
	{
		"name": "SHINY",
		"latitude": "44-49-6.74 N",
		"longitude": "70-55-10.32 W",
		"state": "MAINE",
		"artcc": "ZBW",
		"type": "RP",
		"updated": "BML*VOR/DME*062.66/15.92"
	},
	{
		"name": "SHIPN",
		"latitude": "41-2-4.04 N",
		"longitude": "73-31-37.72 W",
		"state": "NEW YORK",
		"artcc": "ZBW",
		"type": "RNAV",
		"updated": "09/26/2007"
	},
	{
		"name": "SHLEP",
		"latitude": "40-41-5.5 N",
		"longitude": "72-36-11.14 W",
		"state": "NEW YORK",
		"artcc": "ZBW",
		"type": "RP",
		"updated": "SEY*VOR/DME*253.56/54.94"
	},
	{
		"name": "SHOEL",
		"latitude": "42-59-27 N",
		"longitude": "70-52-40.39 W",
		"state": "NEW HAMPSHIRE",
		"artcc": "ZBW",
		"type": "RNAV",
		"updated": "10/01/2008"
	},
	{
		"name": "SHOLS",
		"latitude": "42-55-6.69 N",
		"longitude": "70-40-47.15 W",
		"state": "NEW HAMPSHIRE",
		"artcc": "ZBW",
		"type": "RP",
		"updated": "PSM*VOR/DME*162.00/12.00"
	},
	{
		"name": "SHOWZ",
		"latitude": "42-48-19.53 N",
		"longitude": "71-34-51.65 W",
		"state": "NEW HAMPSHIRE",
		"artcc": "ZBW",
		"type": "RNAV",
		"updated": "11/17/2014"
	},
	{
		"name": "SHRAK",
		"latitude": "44-9-17.98 N",
		"longitude": "75-40-56.03 W",
		"state": "NEW YORK",
		"artcc": "ZBW",
		"type": "MR",
		"updated": "GTB*LD*028.99/7.03"
	},
	{
		"name": "SHYMO",
		"latitude": "43-41-49.1 N",
		"longitude": "72-8-47.82 W",
		"state": "NEW HAMPSHIRE",
		"artcc": "ZBW",
		"type": "RNAV",
		"updated": "03/30/2009"
	},
	{
		"name": "SHYNA",
		"latitude": "40-40-19.8 N",
		"longitude": "73-10-7.87 W",
		"state": "NEW YORK",
		"artcc": "ZBW",
		"type": "RNAV",
		"updated": "02/26/2010"
	},
	{
		"name": "SIBIE",
		"latitude": "43-22-13.25 N",
		"longitude": "73-43-31.73 W",
		"state": "NEW YORK",
		"artcc": "ZBW",
		"type": "RNAV",
		"updated": "01/07/2003"
	},
	{
		"name": "SIBJI",
		"latitude": "42-20-58.9 N",
		"longitude": "75-18-53.71 W",
		"state": "NEW YORK",
		"artcc": "ZBW",
		"type": "RNAV",
		"updated": "02/20/2014"
	},
	{
		"name": "SICOS",
		"latitude": "41-25-24.79 N",
		"longitude": "70-55-16.22 W",
		"state": "MASSACHUSETTS",
		"artcc": "ZBW",
		"type": "RNAV",
		"updated": "07/19/2012"
	},
	{
		"name": "SILDE",
		"latitude": "44-18-51.91 N",
		"longitude": "72-42-46.89 W",
		"state": "VERMONT",
		"artcc": "ZBW",
		"type": "RNAV",
		"updated": "01/16/2003"
	},
	{
		"name": "SILOC",
		"latitude": "41-21-40.8 N",
		"longitude": "70-38-53.33 W",
		"state": "MASSACHUSETTS",
		"artcc": "ZBW",
		"type": "RNAV",
		"updated": "11/26/2010"
	},
	{
		"name": "SILVE",
		"latitude": "42-54-43.49 N",
		"longitude": "70-36-48.69 W",
		"state": "NEW HAMPSHIRE",
		"artcc": "ZBW",
		"type": "RP",
		"updated": "PSM*VOR/DME*153.00"
	},
	{
		"name": "SIMAY",
		"latitude": "42-45-9.75 N",
		"longitude": "73-39-21.98 W",
		"state": "NEW YORK",
		"artcc": "ZBW",
		"type": "RNAV",
		"updated": "06/27/2011"
	},
	{
		"name": "SINUE",
		"latitude": "41-32-49.37 N",
		"longitude": "74-7-46.81 W",
		"state": "NEW YORK",
		"artcc": "ZBW",
		"type": "RNAV",
		"updated": "08/06/2010"
	},
	{
		"name": "SITLE",
		"latitude": "42-57-55.39 N",
		"longitude": "71-27-12.74 W",
		"state": "NEW HAMPSHIRE",
		"artcc": "ZBW",
		"type": "RP",
		"updated": "MNA*LD*351.52/1.30"
	},
	{
		"name": "SIVME",
		"latitude": "42-57-52.6 N",
		"longitude": "71-28-50.2 W",
		"state": "NEW HAMPSHIRE",
		"artcc": "ZBW",
		"type": "RNAV",
		"updated": "11/06/2009"
	},
	{
		"name": "SIXJO",
		"latitude": "41-35-21.56 N",
		"longitude": "74-26-41.25 W",
		"state": "NEW YORK",
		"artcc": "ZBW",
		"type": "RNAV",
		"updated": "02/04/2010"
	},
	{
		"name": "SKALP",
		"latitude": "40-55-8.38 N",
		"longitude": "72-19-0.14 W",
		"state": "NEW YORK",
		"artcc": "ZBW",
		"type": "MR",
		"updated": "FOK*TACAN*084.14/15.15"
	},
	{
		"name": "SKEEE",
		"latitude": "43-54-49 N",
		"longitude": "72-48-13 W",
		"state": "VERMONT",
		"artcc": "ZBW",
		"type": "RNAV",
		"updated": "06/13/2017"
	},
	{
		"name": "SKOWL",
		"latitude": "41-15-47.18 N",
		"longitude": "71-16-44.35 W",
		"state": "RHODE ISLAND",
		"artcc": "ZBW",
		"type": "RNAV",
		"updated": "02/23/2017"
	},
	{
		"name": "SLAGS",
		"latitude": "44-21-57.32 N",
		"longitude": "72-44-6.91 W",
		"state": "VERMONT",
		"artcc": "ZBW",
		"type": "RNAV",
		"updated": "06/28/2017"
	},
	{
		"name": "SLAMZ",
		"latitude": "43-33-31.3 N",
		"longitude": "69-58-27.44 W",
		"state": "MAINE",
		"artcc": "ZBW",
		"type": "RNAV",
		"updated": "03/13/2012"
	},
	{
		"name": "SLIDA",
		"latitude": "41-43-3.13 N",
		"longitude": "71-25-10.62 W",
		"state": "RHODE ISLAND",
		"artcc": "ZBW",
		"type": "RP",
		"updated": "PVD*VOR/DME*145.94/0.61"
	},
	{
		"name": "SLOWW",
		"latitude": "42-12-37.95 N",
		"longitude": "71-48-8.95 W",
		"state": "MASSACHUSETTS",
		"artcc": "ZBW",
		"type": "RNAV",
		"updated": "04/19/2010"
	},
	{
		"name": "SMAIR",
		"latitude": "44-3-32.47 N",
		"longitude": "74-26-20.99 W",
		"state": "NEW YORK",
		"artcc": "ZBW",
		"type": "RP",
		"updated": "SLK*VOR/DME*221.48/22.00"
	},
	{
		"name": "SMARI",
		"latitude": "41-37-31.42 N",
		"longitude": "71-13-31.79 W",
		"state": "RHODE ISLAND",
		"artcc": "ZBW",
		"type": "RP",
		"updated": "SEY*VOR/DME*044.85"
	},
	{
		"name": "SMITY",
		"latitude": "41-56-2.42 N",
		"longitude": "70-42-12.92 W",
		"state": "MASSACHUSETTS",
		"artcc": "ZBW",
		"type": "RNAV",
		"updated": "06/29/2011"
	},
	{
		"name": "SMUTZ",
		"latitude": "42-27-42.59 N",
		"longitude": "72-50-46.43 W",
		"state": "MASSACHUSETTS",
		"artcc": "ZBW",
		"type": "RNAV",
		"updated": "03/30/2009"
	},
	{
		"name": "SMYTH",
		"latitude": "42-30-16.56 N",
		"longitude": "73-53-5.86 W",
		"state": "NEW YORK",
		"artcc": "ZBW",
		"type": "RNAV",
		"updated": "11/17/2014"
	},
	{
		"name": "SNAPO",
		"latitude": "41-52-33.24 N",
		"longitude": "71-52-38.85 W",
		"state": "CONNECTICUT",
		"artcc": "ZBW",
		"type": "RP",
		"updated": "PUT*VOR/DME*211.40/5.00"
	},
	{
		"name": "SNEZY",
		"latitude": "42-44-43.31 N",
		"longitude": "71-29-8.23 W",
		"state": "NEW HAMPSHIRE",
		"artcc": "ZBW",
		"type": "WP",
		"updated": "MHT*VOR/DME*229.80/9.00"
	},
	{
		"name": "SNIVL",
		"latitude": "41-28-46.11 N",
		"longitude": "72-44-34.9 W",
		"state": "CONNECTICUT",
		"artcc": "ZBW",
		"type": "RP",
		"updated": "MAD*VOR/DME*360.00/10.19"
	},
	{
		"name": "SNOOH",
		"latitude": "42-38-5 N",
		"longitude": "70-39-32.11 W",
		"state": "MASSACHUSETTS",
		"artcc": "ZBW",
		"type": "RNAV",
		"updated": "09/08/2016"
	},
	{
		"name": "SNOWI",
		"latitude": "43-10-13.69 N",
		"longitude": "70-53-56.36 W",
		"state": "NEW HAMPSHIRE",
		"artcc": "ZBW",
		"type": "RP",
		"updated": "PSM*VOR/DME*/5.94"
	},
	{
		"name": "SOARS",
		"latitude": "41-30-42.07 N",
		"longitude": "73-16-17.78 W",
		"state": "CONNECTICUT",
		"artcc": "ZBW",
		"type": "RP",
		"updated": "BDR*VOR/DME*354.52"
	},
	{
		"name": "SOBAH",
		"latitude": "42-14-14.45 N",
		"longitude": "70-8-43.28 W",
		"state": "MASSACHUSETTS",
		"artcc": "ZBW",
		"type": "RNAV",
		"updated": "09/28/2014"
	},
	{
		"name": "SOFEE",
		"latitude": "41-50-35.42 N",
		"longitude": "71-15-32.13 W",
		"state": "MASSACHUSETTS",
		"artcc": "ZBW",
		"type": "RNAV",
		"updated": "09/28/2014"
	},
	{
		"name": "SOFOB",
		"latitude": "41-43-44.45 N",
		"longitude": "70-0-29.05 W",
		"state": "MASSACHUSETTS",
		"artcc": "ZBW",
		"type": "RNAV",
		"updated": "04/08/2009"
	},
	{
		"name": "SOLTE",
		"latitude": "44-25-55.23 N",
		"longitude": "72-0-51.84 W",
		"state": "VERMONT",
		"artcc": "ZBW",
		"type": "RNAV",
		"updated": "10/14/2010"
	},
	{
		"name": "SOLVA",
		"latitude": "43-6-15.52 N",
		"longitude": "76-14-31.82 W",
		"state": "NEW YORK",
		"artcc": "ZBW",
		"type": "RP",
		"updated": "SYR*VORTAC*217.12"
	},
	{
		"name": "SONEY",
		"latitude": "41-27-40.45 N",
		"longitude": "71-51-30.9 W",
		"state": "CONNECTICUT",
		"artcc": "ZBW",
		"type": "RP",
		"updated": "PVD*VOR/DME*244.89"
	},
	{
		"name": "SONOC",
		"latitude": "40-48-39.47 N",
		"longitude": "72-40-25.99 W",
		"state": "NEW YORK",
		"artcc": "ZBW",
		"type": "MR",
		"updated": "FOK*TACAN*243.01/2.50"
	},
	{
		"name": "SORLE",
		"latitude": "42-5-54.87 N",
		"longitude": "72-2-11.33 W",
		"state": "MASSACHUSETTS",
		"artcc": "ZBW",
		"type": "RP",
		"updated": "PUT*VOR/DME*329.00/12.15"
	},
	{
		"name": "SORRY",
		"latitude": "41-28-43.1 N",
		"longitude": "73-1-2.67 W",
		"state": "CONNECTICUT",
		"artcc": "ZBW",
		"type": "RP",
		"updated": "CMK*VOR/DME*076.76/28.12"
	},
	{
		"name": "SORTS",
		"latitude": "44-28-54.39 N",
		"longitude": "68-23-16.29 W",
		"state": "MAINE",
		"artcc": "ZBW",
		"type": "MR",
		"updated": "BGR*VORTAC*154.89/30.00"
	},
	{
		"name": "SOSYO",
		"latitude": "42-29-14.45 N",
		"longitude": "71-25-55.75 W",
		"state": "MASSACHUSETTS",
		"artcc": "ZBW",
		"type": "RP",
		"updated": "MHT*VOR/DME*201.93"
	},
	{
		"name": "SOUND",
		"latitude": "40-51-51.66 N",
		"longitude": "73-9-22.49 W",
		"state": "NEW YORK",
		"artcc": "ZBW",
		"type": "RP",
		"updated": "DPK*VOR/DME*069.00/8.00"
	},
	{
		"name": "SPAGS",
		"latitude": "42-15-36.49 N",
		"longitude": "71-44-54.1 W",
		"state": "MASSACHUSETTS",
		"artcc": "ZBW",
		"type": "RP",
		"updated": "PUT*VOR/DME*027.14"
	},
	{
		"name": "SPDWY",
		"latitude": "44-2-24.15 N",
		"longitude": "70-17-51.44 W",
		"state": "MAINE",
		"artcc": "ZBW",
		"type": "RNAV",
		"updated": "08/08/2012"
	},
	{
		"name": "SPECL",
		"latitude": "41-40-0.77 N",
		"longitude": "74-6-14.03 W",
		"state": "NEW YORK",
		"artcc": "ZBW",
		"type": "RP",
		"updated": "IGN*VOR/DME*282.48/12.67"
	},
	{
		"name": "SPENO",
		"latitude": "42-16-48.55 N",
		"longitude": "72-9-14.7 W",
		"state": "MASSACHUSETTS",
		"artcc": "ZBW",
		"type": "RP",
		"updated": "GDM*VOR/DME*209.00/16.50"
	},
	{
		"name": "SPREE",
		"latitude": "40-54-26.82 N",
		"longitude": "72-33-10.63 W",
		"state": "NEW YORK",
		"artcc": "ZBW",
		"type": "RP",
		"updated": "FOK*LD*055.52/6.02"
	},
	{
		"name": "SPRGE",
		"latitude": "42-50-39.8 N",
		"longitude": "75-33-45.28 W",
		"state": "NEW YORK",
		"artcc": "ZBW",
		"type": "RP",
		"updated": "GGT*VORTAC*085.00/12.13"
	},
	{
		"name": "SPUDD",
		"latitude": "46-48-53.34 N",
		"longitude": "68-13-39.22 W",
		"state": "MAINE",
		"artcc": "ZBW",
		"type": "MR",
		"updated": "PQI*VOR/DME*315.00/6.00"
	},
	{
		"name": "SPYSD",
		"latitude": "42-26-58.45 N",
		"longitude": "71-1-37.25 W",
		"state": "MASSACHUSETTS",
		"artcc": "ZBW",
		"type": "RNAV",
		"updated": "02/14/2017"
	},
	{
		"name": "SQUAB",
		"latitude": "44-56-31.15 N",
		"longitude": "69-32-56.13 W",
		"state": "MAINE",
		"artcc": "ZBW",
		"type": "RNAV",
		"updated": "04/23/2010"
	},
	{
		"name": "SQUAM",
		"latitude": "43-46-40 N",
		"longitude": "71-29-0.97 W",
		"state": "NEW HAMPSHIRE",
		"artcc": "ZBW",
		"type": "RP",
		"updated": "ALB*VORTAC*070.91/119.00"
	},
	{
		"name": "SQUEL",
		"latitude": "42-6-49.59 N",
		"longitude": "71-45-57.58 W",
		"state": "MASSACHUSETTS",
		"artcc": "ZBW",
		"type": "RP",
		"updated": "PUT*VOR/DME*034.17"
	},
	{
		"name": "SSAAM",
		"latitude": "42-37-55.51 N",
		"longitude": "71-23-9.86 W",
		"state": "MASSACHUSETTS",
		"artcc": "ZBW",
		"type": "RNAV",
		"updated": "04/04/2016"
	},
	{
		"name": "SSOXS",
		"latitude": "41-50-12.62 N",
		"longitude": "70-44-46.26 W",
		"state": "MASSACHUSETTS",
		"artcc": "ZBW",
		"type": "RP",
		"updated": "BOS*VOR/DME*176.72/33.06"
	},
	{
		"name": "STAEV",
		"latitude": "44-36-25.03 N",
		"longitude": "73-22-15.21 W",
		"state": "VERMONT",
		"artcc": "ZBW",
		"type": "RNAV",
		"updated": "03/25/2015"
	},
	{
		"name": "STANE",
		"latitude": "41-5-41.12 N",
		"longitude": "73-13-12.54 W",
		"state": "CONNECTICUT",
		"artcc": "ZBW",
		"type": "RP",
		"updated": "BDR*VOR/DME*239.68/5.87"
	},
	{
		"name": "STATN",
		"latitude": "42-31-55.07 N",
		"longitude": "76-31-7.97 W",
		"state": "NEW YORK",
		"artcc": "ZNY",
		"type": "RNAV",
		"updated": "12/30/2009"
	},
	{
		"name": "STAYC",
		"latitude": "42-30-28.2 N",
		"longitude": "70-47-29.61 W",
		"state": "MASSACHUSETTS",
		"artcc": "ZBW",
		"type": "RNAV",
		"updated": "01/15/2013"
	},
	{
		"name": "STAYS",
		"latitude": "40-54-42.14 N",
		"longitude": "72-28-11.68 W",
		"state": "NEW YORK",
		"artcc": "ZBW",
		"type": "RNAV",
		"updated": "03/25/2009"
	},
	{
		"name": "STEEM",
		"latitude": "42-14-31.29 N",
		"longitude": "70-49-32.29 W",
		"state": "MASSACHUSETTS",
		"artcc": "ZBW",
		"type": "RNAV",
		"updated": "01/13/2011"
	},
	{
		"name": "STELA",
		"latitude": "42-16-53.15 N",
		"longitude": "73-9-14.16 W",
		"state": "MASSACHUSETTS",
		"artcc": "ZBW",
		"type": "RP",
		"updated": "CTR*VOR/DME*279.34/9.13"
	},
	{
		"name": "STELR",
		"latitude": "41-52-26.83 N",
		"longitude": "74-13-9.84 W",
		"state": "NEW YORK",
		"artcc": "ZBW",
		"type": "WP",
		"updated": "11/02/1998"
	},
	{
		"name": "STEPS",
		"latitude": "42-52-32.33 N",
		"longitude": "71-57-37.68 W",
		"state": "NEW HAMPSHIRE",
		"artcc": "ZBW",
		"type": "RNAV",
		"updated": "03/07/2011"
	},
	{
		"name": "STEVO",
		"latitude": "42-56-12.05 N",
		"longitude": "70-55-40.19 W",
		"state": "NEW HAMPSHIRE",
		"artcc": "ZBW",
		"type": "RP",
		"updated": "MHT*VOR/DME*093.00/19.90"
	},
	{
		"name": "STODA",
		"latitude": "43-7-0.2 N",
		"longitude": "75-51-21.23 W",
		"state": "NEW YORK",
		"artcc": "ZBW",
		"type": "RP",
		"updated": "RKA*VOR/DME*336.28/47.58"
	},
	{
		"name": "STOGE",
		"latitude": "42-7-8.45 N",
		"longitude": "71-7-49.94 W",
		"state": "MASSACHUSETTS",
		"artcc": "ZBW",
		"type": "RP",
		"updated": "OWD*LE*169.77/5.08"
	},
	{
		"name": "STOLI",
		"latitude": "42-44-26.75 N",
		"longitude": "73-6-52.28 W",
		"state": "MASSACHUSETTS",
		"artcc": "ZBW",
		"type": "RNAV",
		"updated": "04/04/2016"
	},
	{
		"name": "STOOL",
		"latitude": "42-8-34.08 N",
		"longitude": "68-44-59.18 W",
		"state": "MASSACHUSETTS",
		"artcc": "ZBW",
		"type": "RP",
		"updated": "BOS*VOR/DME*112.60/100.63"
	},
	{
		"name": "STOTT",
		"latitude": "42-20-7.34 N",
		"longitude": "73-43-1.41 W",
		"state": "NEW YORK",
		"artcc": "ZBW",
		"type": "RP",
		"updated": "PWL*VOR/DME*003.31/34.32"
	},
	{
		"name": "STPLS",
		"latitude": "44-1-37.7 N",
		"longitude": "68-59-2.19 W",
		"state": "MAINE",
		"artcc": "ZBW",
		"type": "RNAV",
		"updated": "10/08/2008"
	},
	{
		"name": "STRUM",
		"latitude": "42-55-51.18 N",
		"longitude": "72-16-48.88 W",
		"state": "NEW HAMPSHIRE",
		"artcc": "ZBW",
		"type": "RP",
		"updated": "MHT*VOR/DME*290.63/40.34"
	},
	{
		"name": "STUBY",
		"latitude": "41-54-7.54 N",
		"longitude": "73-26-14.04 W",
		"state": "CONNECTICUT",
		"artcc": "ZBW",
		"type": "RP",
		"updated": "BDR*VOR/DME*354.52"
	},
	{
		"name": "STUFF",
		"latitude": "41-25-15.32 N",
		"longitude": "74-17-59.41 W",
		"state": "NEW YORK",
		"artcc": "ZNY",
		"type": "RNAV",
		"updated": "02/09/2010"
	},
	{
		"name": "STUFY",
		"latitude": "41-40-37.2 N",
		"longitude": "71-38-1.19 W",
		"state": "RHODE ISLAND",
		"artcc": "ZBW",
		"type": "RNAV",
		"updated": "08/01/2012"
	},
	{
		"name": "STURB",
		"latitude": "42-2-16.57 N",
		"longitude": "71-57-17.31 W",
		"state": "MASSACHUSETTS",
		"artcc": "ZBW",
		"type": "RP",
		"updated": "PUT*VOR/DME*329.00/7.00"
	},
	{
		"name": "SUFFI",
		"latitude": "43-1-29.66 N",
		"longitude": "69-55-1.71 W",
		"state": "OFFSHORE ATLANTIC",
		"artcc": "ZBW",
		"type": "RNAV",
		"updated": "09/26/2014"
	},
	{
		"name": "SUFOK",
		"latitude": "41-9-47.61 N",
		"longitude": "71-49-44.1 W",
		"state": "RHODE ISLAND",
		"artcc": "ZBW",
		"type": "RP",
		"updated": "SEY*VOR/DME*283.82/11.46"
	},
	{
		"name": "SUGRR",
		"latitude": "45-5-38.49 N",
		"longitude": "70-12-59.04 W",
		"state": "MAINE",
		"artcc": "ZBW",
		"type": "RP",
		"updated": "BML*VOR/DME*073.00/50.00"
	},
	{
		"name": "SUMAW",
		"latitude": "44-56-35.84 N",
		"longitude": "68-33-21.9 W",
		"state": "MAINE",
		"artcc": "ZBW",
		"type": "RNAV",
		"updated": "07/27/2010"
	},
	{
		"name": "SUMIT",
		"latitude": "42-35-26.67 N",
		"longitude": "74-36-58.32 W",
		"state": "NEW YORK",
		"artcc": "ZBW",
		"type": "RP",
		"updated": "RKA*VOR/DME*086.00"
	},
	{
		"name": "SUMNA",
		"latitude": "43-54-53.12 N",
		"longitude": "70-34-13.02 W",
		"state": "MAINE",
		"artcc": "ZBW",
		"type": "RNAV",
		"updated": "10/20/2017"
	},
	{
		"name": "SUNOY",
		"latitude": "42-50-40.06 N",
		"longitude": "74-5-2.28 W",
		"state": "NEW YORK",
		"artcc": "ZBW",
		"type": "RNAV",
		"updated": "05/10/2011"
	},
	{
		"name": "SURLE",
		"latitude": "42-4-36.01 N",
		"longitude": "72-30-23.08 W",
		"state": "MASSACHUSETTS",
		"artcc": "ZBW",
		"type": "RP",
		"updated": "BAF*VORTAC*132.57"
	},
	{
		"name": "SURME",
		"latitude": "44-27-1.96 N",
		"longitude": "75-26-57.31 W",
		"state": "NEW YORK",
		"artcc": "ZBW",
		"type": "MR",
		"updated": "ART*VORTAC*053.39/40.00"
	},
	{
		"name": "SUVOY",
		"latitude": "43-55-0.57 N",
		"longitude": "75-43-23.9 W",
		"state": "NEW YORK",
		"artcc": "ZBW",
		"type": "RNAV",
		"updated": "05/24/2011"
	},
	{
		"name": "SUVVO",
		"latitude": "42-28-34.92 N",
		"longitude": "71-20-58.23 W",
		"state": "MASSACHUSETTS",
		"artcc": "ZBW",
		"type": "RP",
		"updated": "BED*LD*293.13/3.64"
	},
	{
		"name": "SWALO",
		"latitude": "42-3-55.75 N",
		"longitude": "72-11-37.1 W",
		"state": "MASSACHUSETTS",
		"artcc": "ZBW",
		"type": "RP",
		"updated": "PUT*VOR/DME*307.00"
	},
	{
		"name": "SWEDE",
		"latitude": "42-28-40.12 N",
		"longitude": "74-40-8.11 W",
		"state": "NEW YORK",
		"artcc": "ZBW",
		"type": "RP",
		"updated": "RKA*VOR/DME*099.25/25.34"
	},
	{
		"name": "SWIGG",
		"latitude": "42-31-58.57 N",
		"longitude": "71-14-37.41 W",
		"state": "MASSACHUSETTS",
		"artcc": "ZBW",
		"type": "RP",
		"updated": "MHT*VOR/DME*179.50"
	},
	{
		"name": "SWLCH",
		"latitude": "43-25-0.84 N",
		"longitude": "70-31-41.51 W",
		"state": "MAINE",
		"artcc": "ZBW",
		"type": "RNAV",
		"updated": "06/21/2010"
	},
	{
		"name": "SYLVA",
		"latitude": "42-32-1.34 N",
		"longitude": "70-57-3.18 W",
		"state": "MASSACHUSETTS",
		"artcc": "ZBW",
		"type": "WP",
		"updated": "BOS*VOR/DME*025.00/10.70"
	}
]
