	{
		"name": "UBELY",
		"latitude": "44-27-48.87 N",
		"longitude": "73-21-34.69 W",
		"state": "NEW YORK",
		"artcc": "ZBW",
		"type": "RP",
		"updated": "05/12/2017",
	},
	{
		"name": "UBISE",
		"latitude": "43-50-58.2 N",
		"longitude": "73-24-53.21 W",
		"state": "NEW YORK",
		"artcc": "ZBW",
		"type": "RNAV",
		"updated": "01/13/2011",
	},
	{
		"name": "UCAKE",
		"latitude": "42-47-34.8 N",
		"longitude": "72-0-20.23 W",
		"state": "NEW HAMPSHIRE",
		"artcc": "ZBW",
		"type": "RP",
		"updated": "GDM*VOR/DME*022.91/15.00",
	},
	{
		"name": "UCANA",
		"latitude": "42-58-11.88 N",
		"longitude": "74-13-19.9 W",
		"state": "NEW YORK",
		"artcc": "ZBW",
		"type": "RNAV",
		"updated": "12/13/2004",
	},
	{
		"name": "UCCOX",
		"latitude": "44-37-30.33 N",
		"longitude": "69-53-18.73 W",
		"state": "MAINE",
		"artcc": "ZBW",
		"type": "WP",
		"updated": "11/02/1998",
	},
	{
		"name": "UCEKA",
		"latitude": "43-40-32 N",
		"longitude": "72-17-45.67 W",
		"state": "NEW HAMPSHIRE",
		"artcc": "ZBW",
		"type": "RNAV",
		"updated": "10/21/2008",
	},
	{
		"name": "UCEKU",
		"latitude": "43-13-20.5 N",
		"longitude": "72-55-8.8 W",
		"state": "VERMONT",
		"artcc": "ZBW",
		"type": "RNAV",
		"updated": "12/30/2016",
	},
	{
		"name": "UCENO",
		"latitude": "44-25-11.4 N",
		"longitude": "69-52-8.18 W",
		"state": "MAINE",
		"artcc": "ZBW",
		"type": "RNAV",
		"updated": "12/22/2005",
	},
	{
		"name": "UCFAM",
		"latitude": "44-4-3.36 N",
		"longitude": "68-48-29.19 W",
		"state": "MAINE",
		"artcc": "ZBW",
		"type": "RNAV",
		"updated": "10/08/2008",
	},
	{
		"name": "UCIYE",
		"latitude": "41-48-55.02 N",
		"longitude": "73-43-28.53 W",
		"state": "NEW YORK",
		"artcc": "ZBW",
		"type": "RP",
		"updated": "IGN*VOR/DME*038.00/10.00",
	},
	{
		"name": "UCOKE",
		"latitude": "44-40-31.99 N",
		"longitude": "72-37-10.69 W",
		"state": "VERMONT",
		"artcc": "ZBW",
		"type": "RNAV",
		"updated": "05/10/2017",
	},
	{
		"name": "UDDEL",
		"latitude": "42-42-39.2 N",
		"longitude": "76-2-48.56 W",
		"state": "NEW YORK",
		"artcc": "ZNY",
		"type": "WP",
		"updated": "11/02/1998",
	},
	{
		"name": "UDOYU",
		"latitude": "43-12-12.75 N",
		"longitude": "72-51-30.1 W",
		"state": "VERMONT",
		"artcc": "ZBW",
		"type": "RP",
		"updated": "EEN*VORTAC*328.73/35.00",
	},
	{
		"name": "UFAZY",
		"latitude": "45-34-20.92 N",
		"longitude": "68-35-10.49 W",
		"state": "MAINE",
		"artcc": "ZBW",
		"type": "RNAV",
		"updated": "05/19/2009",
	},
	{
		"name": "UFERA",
		"latitude": "44-3-59.72 N",
		"longitude": "72-27-47.29 W",
		"state": "VERMONT",
		"artcc": "ZBW",
		"type": "RNAV",
		"updated": "08/14/2014",
	},
	{
		"name": "UFTAC",
		"latitude": "41-7-0.93 N",
		"longitude": "70-14-39.85 W",
		"state": "MASSACHUSETTS",
		"artcc": "ZBW",
		"type": "RP",
		"updated": "MVY*VOR/DME*150.02",
	},
	{
		"name": "UGIBE",
		"latitude": "42-11-35 N",
		"longitude": "72-29-30 W",
		"state": "MASSACHUSETTS",
		"artcc": "ZBW",
		"type": "MW",
		"updated": "07/15/2014",
	},
	{
		"name": "UGLAH",
		"latitude": "42-6-33.69 N",
		"longitude": "73-21-5.29 W",
		"state": "MASSACHUSETTS",
		"artcc": "ZBW",
		"type": "RP",
		"updated": "PWL*VOR/DME*040.62",
	},
	{
		"name": "UGUYU",
		"latitude": "42-58-34.98 N",
		"longitude": "72-29-29.08 W",
		"state": "VERMONT",
		"artcc": "ZBW",
		"type": "RNAV",
		"updated": "06/13/2008",
	},
	{
		"name": "UHNUF",
		"latitude": "41-20-23.77 N",
		"longitude": "73-35-38.51 W",
		"state": "NEW YORK",
		"artcc": "ZBW",
		"type": "RNAV",
		"updated": "07/13/2017",
	},
	{
		"name": "UJEGE",
		"latitude": "42-32-10.99 N",
		"longitude": "71-4-56.82 W",
		"state": "MASSACHUSETTS",
		"artcc": "ZBW",
		"type": "RNAV",
		"updated": "08/13/2012",
	},
	{
		"name": "UJNOZ",
		"latitude": "44-42-32.09 N",
		"longitude": "69-52-7.2 W",
		"state": "MAINE",
		"artcc": "ZBW",
		"type": "RP",
		"updated": "AUG*VOR/DME*010.46/23.54",
	},
	{
		"name": "UJTAP",
		"latitude": "42-20-15.32 N",
		"longitude": "75-20-27.27 W",
		"state": "NEW YORK",
		"artcc": "ZBW",
		"type": "RNAV",
		"updated": "02/20/2014",
	},
	{
		"name": "UJWUF",
		"latitude": "44-21-42.08 N",
		"longitude": "72-58-32.14 W",
		"state": "VERMONT",
		"artcc": "ZBW",
		"type": "RP",
		"updated": "VOE*LD*145.83/9.40",
	},
	{
		"name": "UKAYU",
		"latitude": "41-40-58.02 N",
		"longitude": "73-47-32.95 W",
		"state": "NEW YORK",
		"artcc": "ZBW",
		"type": "RNAV",
		"updated": "12/09/2008",
	},
	{
		"name": "UKEGE",
		"latitude": "40-50-54.53 N",
		"longitude": "73-2-1.08 W",
		"state": "NEW YORK",
		"artcc": "ZBW",
		"type": "RNAV",
		"updated": "11/04/2015",
	},
	{
		"name": "UKOYO",
		"latitude": "46-47-3.27 N",
		"longitude": "67-59-14.49 W",
		"state": "MAINE",
		"artcc": "ZBW",
		"type": "RNAV",
		"updated": "04/29/2016",
	},
	{
		"name": "ULAKY",
		"latitude": "43-40-34.38 N",
		"longitude": "71-58-8.28 W",
		"state": "NEW HAMPSHIRE",
		"artcc": "ZBW",
		"type": "RNAV",
		"updated": "03/30/2009",
	},
	{
		"name": "ULOGE",
		"latitude": "45-37-50.79 N",
		"longitude": "68-37-38.1 W",
		"state": "MAINE",
		"artcc": "ZBW",
		"type": "RP",
		"updated": "MLT*VOR/DME*319.00/5.40",
	},
	{
		"name": "ULOVY",
		"latitude": "46-58-22.69 N",
		"longitude": "68-2-58.09 W",
		"state": "MAINE",
		"artcc": "ZBW",
		"type": "RNAV",
		"updated": "04/29/2016",
	},
	{
		"name": "UMAIN",
		"latitude": "44-53-9.9 N",
		"longitude": "68-56-31.34 W",
		"state": "MAINE",
		"artcc": "ZBW",
		"type": "RP",
		"updated": "JVH*LD*330.17/7.88",
	},
	{
		"name": "UMANE",
		"latitude": "41-50-6.81 N",
		"longitude": "69-48-0.79 W",
		"state": "MASSACHUSETTS",
		"artcc": "ZBW",
		"type": "RNAV",
		"updated": "04/20/2010",
	},
	{
		"name": "UMUMY",
		"latitude": "44-56-41.05 N",
		"longitude": "71-27-18.49 W",
		"state": "NEW HAMPSHIRE",
		"artcc": "ZBW",
		"type": "RNAV",
		"updated": "11/20/2003",
	},
	{
		"name": "UNAVY",
		"latitude": "44-57-45.43 N",
		"longitude": "68-47-37.46 W",
		"state": "MAINE",
		"artcc": "ZBW",
		"type": "RNAV",
		"updated": "07/27/2010",
	},
	{
		"name": "UNCAP",
		"latitude": "44-28-31.49 N",
		"longitude": "69-55-56.1 W",
		"state": "MAINE",
		"artcc": "ZBW",
		"type": "RP",
		"updated": "AUG*VOR/DME*346.00/11.00",
	},
	{
		"name": "UNINY",
		"latitude": "42-55-4.7 N",
		"longitude": "75-37-44.74 W",
		"state": "NEW YORK",
		"artcc": "ZBW",
		"type": "RNAV",
		"updated": "08/17/2010",
	},
	{
		"name": "UNIRE",
		"latitude": "42-33-19.99 N",
		"longitude": "70-52-53.56 W",
		"state": "MASSACHUSETTS",
		"artcc": "ZBW",
		"type": "RNAV",
		"updated": "01/18/2013",
	},
	{
		"name": "UNIWY",
		"latitude": "41-20-39.44 N",
		"longitude": "70-32-13.32 W",
		"state": "MASSACHUSETTS",
		"artcc": "ZBW",
		"type": "RNAV",
		"updated": "07/19/2012",
	},
	{
		"name": "UNKER",
		"latitude": "43-20-55.19 N",
		"longitude": "72-14-40.5 W",
		"state": "NEW HAMPSHIRE",
		"artcc": "ZBW",
		"type": "RP",
		"updated": "LEB*VOR/DME*198.61",
	},
	{
		"name": "UNMIP",
		"latitude": "42-50-25.48 N",
		"longitude": "74-13-27.65 W",
		"state": "NEW YORK",
		"artcc": "ZBW",
		"type": "RNAV",
		"updated": "05/10/2011",
	},
	{
		"name": "UNTER",
		"latitude": "41-50-17.06 N",
		"longitude": "71-27-53.1 W",
		"state": "RHODE ISLAND",
		"artcc": "ZBW",
		"type": "RP",
		"updated": "PUT*VOR/DME*126.37",
	},
	{
		"name": "UNUYE",
		"latitude": "45-4-40.21 N",
		"longitude": "68-28-28.66 W",
		"state": "MAINE",
		"artcc": "ZBW",
		"type": "RNAV",
		"updated": "07/27/2010",
	},
	{
		"name": "UPBIN",
		"latitude": "41-46-58.39 N",
		"longitude": "71-1-20.18 W",
		"state": "MASSACHUSETTS",
		"artcc": "ZBW",
		"type": "RP",
		"updated": "PVD*VOR/DME*093.00/18.63",
	},
	{
		"name": "UPDIZ",
		"latitude": "44-29-17.72 N",
		"longitude": "69-55-3.31 W",
		"state": "MAINE",
		"artcc": "ZBW",
		"type": "RNAV",
		"updated": "03/10/2011",
	},
	{
		"name": "UPEDE",
		"latitude": "45-6-13.45 N",
		"longitude": "73-8-25.3 W",
		"state": "",
		"artcc": "ZBW",
		"type": "RNAV",
		"updated": "03/09/2004",
	},
	{
		"name": "UPESY",
		"latitude": "43-22-26.11 N",
		"longitude": "72-27-13.17 W",
		"state": "VERMONT",
		"artcc": "ZBW",
		"type": "RNAV",
		"updated": "10/02/2012",
	},
	{
		"name": "UPEYA",
		"latitude": "42-57-49.8 N",
		"longitude": "71-45-4.8 W",
		"state": "NEW HAMPSHIRE",
		"artcc": "ZBW",
		"type": "RNAV",
		"updated": "11/06/2009",
	},
	{
		"name": "UPICE",
		"latitude": "43-41-58.18 N",
		"longitude": "73-0-21.39 W",
		"state": "VERMONT",
		"artcc": "ZBW",
		"type": "RNAV",
		"updated": "11/06/2009",
	},
	{
		"name": "URACI",
		"latitude": "42-39-10.03 N",
		"longitude": "73-57-30.35 W",
		"state": "NEW YORK",
		"artcc": "ZBW",
		"type": "RNAV",
		"updated": "06/27/2011",
	},
	{
		"name": "UREZI",
		"latitude": "42-17-10.07 N",
		"longitude": "75-58-25.09 W",
		"state": "NEW YORK",
		"artcc": "ZBW",
		"type": "RNAV",
		"updated": "03/29/2010",
	},
	{
		"name": "URTOQ",
		"latitude": "42-28-41.62 N",
		"longitude": "71-27-27.49 W",
		"state": "MASSACHUSETTS",
		"artcc": "ZBW",
		"type": "RNAV",
		"updated": "08/13/2012",
	},
	{
		"name": "USEZO",
		"latitude": "44-20-26.75 N",
		"longitude": "68-54-39.1 W",
		"state": "MAINE",
		"artcc": "ZBW",
		"type": "RNAV",
		"updated": "10/23/2014",
	},
	{
		"name": "USICI",
		"latitude": "43-11-23.04 N",
		"longitude": "75-3-6.15 W",
		"state": "NEW YORK",
		"artcc": "ZBW",
		"type": "RP",
		"updated": "UCA*VORTAC*038.82/10.97",
	},
	{
		"name": "USNEC",
		"latitude": "44-6-20.42 N",
		"longitude": "70-50-6.16 W",
		"state": "MAINE",
		"artcc": "ZBW",
		"type": "RNAV",
		"updated": "10/23/2014",
	},
	{
		"name": "UTADE",
		"latitude": "43-52-8.62 N",
		"longitude": "72-49-49.21 W",
		"state": "VERMONT",
		"artcc": "ZBW",
		"type": "RP",
		"updated": "LEB*VOR/DME*308.35/29.04",
	},
	{
		"name": "UTBEQ",
		"latitude": "41-42-47.8 N",
		"longitude": "71-1-9.56 W",
		"state": "MASSACHUSETTS",
		"artcc": "ZBW",
		"type": "RNAV",
		"updated": "04/13/2012",
	},
	{
		"name": "UTUBE",
		"latitude": "41-36-34.83 N",
		"longitude": "72-52-28.76 W",
		"state": "CONNECTICUT",
		"artcc": "ZBW",
		"type": "RNAV",
		"updated": "03/20/2015",
	},
	{
		"name": "UTULE",
		"latitude": "41-35-40.96 N",
		"longitude": "74-26-27.61 W",
		"state": "NEW YORK",
		"artcc": "ZBW",
		"type": "RNAV",
		"updated": "02/09/2010",
	},
	{
		"name": "UVENE",
		"latitude": "44-57-26.53 N",
		"longitude": "74-43-20.17 W",
		"state": "NEW YORK",
		"artcc": "ZBW",
		"type": "RNAV",
		"updated": "11/23/2009",
	},
	{
		"name": "UWAGU",
		"latitude": "43-44-30.86 N",
		"longitude": "72-57-26.04 W",
		"state": "VERMONT",
		"artcc": "ZBW",
		"type": "RP",
		"updated": "RUT*LD*013.52/13.09",
	},
	{
		"name": "UXSEZ",
		"latitude": "44-50-41.49 N",
		"longitude": "73-4-21.1 W",
		"state": "VERMONT",
		"artcc": "ZBW",
		"type": "RNAV",
		"updated": "04/22/2011",
	},
	{
		"name": "UYIWU",
		"latitude": "43-19-42.81 N",
		"longitude": "76-21-32.5 W",
		"state": "NEW YORK",
		"artcc": "ZBW",
		"type": "RP",
		"updated": "FZY*LD*149.90/2.36",
	},
	{
		"name": "UYOSI",
		"latitude": "45-7-31.28 N",
		"longitude": "68-32-36.94 W",
		"state": "MAINE",
		"artcc": "ZBW",
		"type": "RNAV",
		"updated": "09/11/2014",
	},
	{
		"name": "UYUNI",
		"latitude": "42-29-45.04 N",
		"longitude": "74-49-55.36 W",
		"state": "NEW YORK",
		"artcc": "ZBW",
		"type": "RNAV",
		"updated": "08/13/2008",
	},
	{
		"name": "UYZAY",
		"latitude": "44-29-3.72 N",
		"longitude": "72-39-46.47 W",
		"state": "VERMONT",
		"artcc": "ZBW",
		"type": "RNAV",
		"updated": "06/28/2017",
	},
	{
		"name": "UZAZU",
		"latitude": "41-54-18.45 N",
		"longitude": "72-4-31.89 W",
		"state": "CONNECTICUT",
		"artcc": "ZBW",
		"type": "RNAV",
		"updated": "01/21/2010",
	},
	{
		"name": "UZUBO",
		"latitude": "42-18-59.61 N",
		"longitude": "75-6-39.95 W",
		"state": "NEW YORK",
		"artcc": "ZBW",
		"type": "RNAV",
		"updated": "02/20/2014",
	},
