	{
		"name": "WAATR",
		"latitude": "42-27-28.16 N",
		"longitude": "70-49-31.96 W",
		"state": "MASSACHUSETTS",
		"artcc": "ZBW",
		"type": "RNAV",
		"updated": "09/28/2014",
	},
	{
		"name": "WACHU",
		"latitude": "42-39-8.71 N",
		"longitude": "71-28-51.95 W",
		"state": "MASSACHUSETTS",
		"artcc": "ZBW",
		"type": "RNAV",
		"updated": "04/04/2016",
	},
	{
		"name": "WACKY",
		"latitude": "41-20-25.52 N",
		"longitude": "71-51-22.32 W",
		"state": "RHODE ISLAND",
		"artcc": "ZBW",
		"type": "RP",
		"updated": "PVD*VOR/DME*234.00/29.99",
	},
	{
		"name": "WACOR",
		"latitude": "43-11-12.02 N",
		"longitude": "76-21-35.78 W",
		"state": "NEW YORK",
		"artcc": "ZBW",
		"type": "RP",
		"updated": "SYR*VORTAC*294.00/7.00",
	},
	{
		"name": "WADMO",
		"latitude": "43-55-50.24 N",
		"longitude": "72-39-30.44 W",
		"state": "VERMONT",
		"artcc": "ZBW",
		"type": "RNAV",
		"updated": "01/16/2013",
	},
	{
		"name": "WADNI",
		"latitude": "42-50-47.34 N",
		"longitude": "73-11-43.54 W",
		"state": "VERMONT",
		"artcc": "ZBW",
		"type": "RNAV",
		"updated": "01/18/2013",
	},
	{
		"name": "WAGEK",
		"latitude": "43-11-7.08 N",
		"longitude": "72-19-1.2 W",
		"state": "NEW HAMPSHIRE",
		"artcc": "ZBW",
		"type": "RNAV",
		"updated": "12/19/2016",
	},
	{
		"name": "WAGEM",
		"latitude": "42-44-1.62 N",
		"longitude": "72-28-15.46 W",
		"state": "VERMONT",
		"artcc": "ZBW",
		"type": "RNAV",
		"updated": "10/18/2010",
	},
	{
		"name": "WAGIP",
		"latitude": "41-48-46.83 N",
		"longitude": "73-45-18.82 W",
		"state": "NEW YORK",
		"artcc": "ZBW",
		"type": "RNAV",
		"updated": "12/09/2008",
	},
	{
		"name": "WAIFS",
		"latitude": "44-32-0.06 N",
		"longitude": "68-57-56.12 W",
		"state": "MAINE",
		"artcc": "ZBW",
		"type": "RP",
		"updated": "AUG*VOR/DME*088.00/38.00",
	},
	{
		"name": "WAINS",
		"latitude": "42-37-35.64 N",
		"longitude": "73-17-25.31 W",
		"state": "MASSACHUSETTS",
		"artcc": "ZBW",
		"type": "RNAV",
		"updated": "08/25/2015",
	},
	{
		"name": "WAIVS",
		"latitude": "41-18-53.66 N",
		"longitude": "69-58-56.3 W",
		"state": "MASSACHUSETTS",
		"artcc": "ZBW",
		"type": "RP",
		"updated": "MVY*VOR/DME*114.50/28.90",
	},
	{
		"name": "WAKBI",
		"latitude": "42-47-40.16 N",
		"longitude": "70-51-59.16 W",
		"state": "MASSACHUSETTS",
		"artcc": "ZBW",
		"type": "RNAV",
		"updated": "06/21/2011",
	},
	{
		"name": "WAKVO",
		"latitude": "42-13-5.72 N",
		"longitude": "72-41-50.34 W",
		"state": "MASSACHUSETTS",
		"artcc": "ZBW",
		"type": "RP",
		"updated": "BAF*VORTAC*028.00/3.48",
	},
	{
		"name": "WALAL",
		"latitude": "42-43-43.5 N",
		"longitude": "72-11-55.97 W",
		"state": "NEW HAMPSHIRE",
		"artcc": "ZBW",
		"type": "RNAV",
		"updated": "06/18/2010",
	},
	{
		"name": "WALIX",
		"latitude": "44-5-16.89 N",
		"longitude": "73-17-5.67 W",
		"state": "VERMONT",
		"artcc": "ZBW",
		"type": "RNAV",
		"updated": "01/13/2011",
	},
	{
		"name": "WALLU",
		"latitude": "41-44-35.93 N",
		"longitude": "71-38-26.71 W",
		"state": "RHODE ISLAND",
		"artcc": "ZBW",
		"type": "RNAV",
		"updated": "03/30/2009",
	},
	{
		"name": "WALTU",
		"latitude": "42-54-4.23 N",
		"longitude": "74-1-24.18 W",
		"state": "NEW YORK",
		"artcc": "ZBW",
		"type": "RNAV",
		"updated": "02/03/2009",
	},
	{
		"name": "WAMSA",
		"latitude": "43-3-5.75 N",
		"longitude": "73-52-3.81 W",
		"state": "NEW YORK",
		"artcc": "ZBW",
		"type": "RP",
		"updated": "CAM*VOR/DME*292.66/23.30",
	},
	{
		"name": "WANDI",
		"latitude": "41-22-33.77 N",
		"longitude": "72-8-1.83 W",
		"state": "CONNECTICUT",
		"artcc": "ZBW",
		"type": "RNAV",
		"updated": "04/05/2012",
	},
	{
		"name": "WANKA",
		"latitude": "42-10-8 N",
		"longitude": "72-31-23 W",
		"state": "MASSACHUSETTS",
		"artcc": "ZBW",
		"type": "MW",
		"updated": "07/15/2014",
	},
	{
		"name": "WANLA",
		"latitude": "42-25-9.39 N",
		"longitude": "71-39-40.53 W",
		"state": "MASSACHUSETTS",
		"artcc": "ZBW",
		"type": "RNAV",
		"updated": "10/24/2011",
	},
	{
		"name": "WANTS",
		"latitude": "42-42-26.93 N",
		"longitude": "71-25-41.03 W",
		"state": "NEW HAMPSHIRE",
		"artcc": "ZBW",
		"type": "RP",
		"updated": "MHT*VOR/DME*210.00/10.00",
	},
	{
		"name": "WANTU",
		"latitude": "42-20-54.92 N",
		"longitude": "71-3-11.85 W",
		"state": "NEW YORK",
		"artcc": "ZBW",
		"type": "RNAV",
		"updated": "07/02/2002",
	},
	{
		"name": "WANUX",
		"latitude": "44-17-30.12 N",
		"longitude": "72-37-53.87 W",
		"state": "VERMONT",
		"artcc": "ZBW",
		"type": "RP",
		"updated": "MPV*LD*347.68/6.67",
	},
	{
		"name": "WAPIG",
		"latitude": "44-56-39.56 N",
		"longitude": "73-5-54.71 W",
		"state": "VERMONT",
		"artcc": "ZBW",
		"type": "RP",
		"updated": "YJN*VOR/DME*169.06/20.95",
	},
	{
		"name": "WAPOG",
		"latitude": "41-25-30.58 N",
		"longitude": "71-54-43.33 W",
		"state": "CONNECTICUT",
		"artcc": "ZBW",
		"type": "RP",
		"updated": "ORW*VOR/DME*167.39",
	},
	{
		"name": "WARDS",
		"latitude": "45-0-54.44 N",
		"longitude": "73-11-27.56 W",
		"state": "",
		"artcc": "ZBW",
		"type": "RP",
		"updated": "BTV*VOR/DME*014.45/37.08",
	},
	{
		"name": "WAREN",
		"latitude": "43-16-43.89 N",
		"longitude": "73-55-51.8 W",
		"state": "NEW YORK",
		"artcc": "ZBW",
		"type": "RP",
		"updated": "GFL*VORTAC*269.03/14.49",
	},
	{
		"name": "WARIC",
		"latitude": "42-37-42 N",
		"longitude": "72-30-37.72 W",
		"state": "MASSACHUSETTS",
		"artcc": "ZBW",
		"type": "RP",
		"updated": "GDM*VOR/DME*298.00/20.65",
	},
	{
		"name": "WARIP",
		"latitude": "41-34-35.01 N",
		"longitude": "70-37-28.41 W",
		"state": "MASSACHUSETTS",
		"artcc": "ZBW",
		"type": "RP",
		"updated": "FMH*TACAN*240.00/7.00",
	},
	{
		"name": "WARUV",
		"latitude": "42-45-52.14 N",
		"longitude": "73-34-41.41 W",
		"state": "NEW YORK",
		"artcc": "ZBW",
		"type": "RP",
		"updated": "CAM*VOR/DME*230.93",
	},
	{
		"name": "WASPO",
		"latitude": "42-13-48.32 N",
		"longitude": "70-4-56.47 W",
		"state": "MASSACHUSETTS",
		"artcc": "ZBW",
		"type": "RNAV",
		"updated": "11/26/2002",
	},
	{
		"name": "WATAN",
		"latitude": "46-0-21.3 N",
		"longitude": "68-9-3.47 W",
		"state": "MAINE",
		"artcc": "ZBW",
		"type": "RNAV",
		"updated": "06/24/2011",
	},
	{
		"name": "WATIP",
		"latitude": "44-26-26.82 N",
		"longitude": "73-6-5.36 W",
		"state": "VERMONT",
		"artcc": "ZBW",
		"type": "RP",
		"updated": "VOE*LD*145.83/2.20",
	},
	{
		"name": "WATIR",
		"latitude": "41-33-37.76 N",
		"longitude": "71-23-59.83 W",
		"state": "RHODE ISLAND",
		"artcc": "ZBW",
		"type": "RP",
		"updated": "PVD*VOR/DME*186.25/9.92",
	},
	{
		"name": "WAVBO",
		"latitude": "43-4-34.29 N",
		"longitude": "71-15-52.38 W",
		"state": "NEW HAMPSHIRE",
		"artcc": "ZBW",
		"type": "RNAV",
		"updated": "11/09/2007",
	},
	{
		"name": "WAVEP",
		"latitude": "44-13-9.6 N",
		"longitude": "72-30-1.2 W",
		"state": "VERMONT",
		"artcc": "ZBW",
		"type": "RNAV",
		"updated": "11/06/2009",
	},
	{
		"name": "WAVON",
		"latitude": "41-11-12.69 N",
		"longitude": "71-20-48.38 W",
		"state": "RHODE ISLAND",
		"artcc": "ZBW",
		"type": "RNAV",
		"updated": "03/13/2007",
	},
	{
		"name": "WAWIK",
		"latitude": "41-37-11.58 N",
		"longitude": "71-39-9.45 W",
		"state": "RHODE ISLAND",
		"artcc": "ZBW",
		"type": "RNAV",
		"updated": "04/06/2012",
	},
	{
		"name": "WAXEN",
		"latitude": "42-35-4.42 N",
		"longitude": "70-54-46.69 W",
		"state": "MASSACHUSETTS",
		"artcc": "ZBW",
		"type": "RP",
		"updated": "MHT*VOR/DME*145.00/26.42",
	},
	{
		"name": "WAYGO",
		"latitude": "43-25-0 N",
		"longitude": "75-55-0 W",
		"state": "NEW YORK",
		"artcc": "ZBW",
		"type": "RNAV",
		"updated": "09/22/2014",
	},
	{
		"name": "WAYZU",
		"latitude": "43-4-33.83 N",
		"longitude": "75-49-0.72 W",
		"state": "NEW YORK",
		"artcc": "ZBW",
		"type": "WP",
		"updated": "11/02/1998",
	},
	{
		"name": "WEARD",
		"latitude": "41-45-43.63 N",
		"longitude": "74-31-30.07 W",
		"state": "NEW YORK",
		"artcc": "ZBW",
		"type": "RP",
		"updated": "HUO*VOR/DME*019.05/21.35",
	},
	{
		"name": "WEBDI",
		"latitude": "41-17-27.68 N",
		"longitude": "70-6-16.52 W",
		"state": "MASSACHUSETTS",
		"artcc": "ZBW",
		"type": "RNAV",
		"updated": "06/03/2011",
	},
	{
		"name": "WEBIN",
		"latitude": "43-40-18.38 N",
		"longitude": "72-12-19.21 W",
		"state": "NEW HAMPSHIRE",
		"artcc": "ZBW",
		"type": "RNAV",
		"updated": "03/30/2009",
	},
	{
		"name": "WEENG",
		"latitude": "40-53-13.87 N",
		"longitude": "72-47-11.33 W",
		"state": "NEW YORK",
		"artcc": "ZBW",
		"type": "RNAV",
		"updated": "04/02/2007",
	},
	{
		"name": "WEEPY",
		"latitude": "43-20-31.63 N",
		"longitude": "75-50-4.16 W",
		"state": "NEW YORK",
		"artcc": "ZBW",
		"type": "RP",
		"updated": "UCA*VORTAC*315.00/34.98",
	},
	{
		"name": "WEETS",
		"latitude": "41-51-26.98 N",
		"longitude": "74-11-51.51 W",
		"state": "NEW YORK",
		"artcc": "ZBW",
		"type": "RP",
		"updated": "DNY*VOR/DME*130.28/39.03",
	},
	{
		"name": "WEEZE",
		"latitude": "42-50-52.95 N",
		"longitude": "70-20-36.06 W",
		"state": "MASSACHUSETTS",
		"artcc": "ZBW",
		"type": "RP",
		"updated": "BOS*VOR/DME*060.00/41.06",
	},
	{
		"name": "WEGIR",
		"latitude": "42-52-37.32 N",
		"longitude": "75-26-22.36 W",
		"state": "NEW YORK",
		"artcc": "ZBW",
		"type": "RNAV",
		"updated": "08/31/2015",
	},
	{
		"name": "WEGOT",
		"latitude": "41-32-25.38 N",
		"longitude": "72-35-32.19 W",
		"state": "CONNECTICUT",
		"artcc": "ZBW",
		"type": "RP",
		"updated": "MAD*VOR/DME*031.33/14.31",
	},
	{
		"name": "WEIGH",
		"latitude": "44-1-39.48 N",
		"longitude": "73-14-59.71 W",
		"state": "VERMONT",
		"artcc": "ZBW",
		"type": "RP",
		"updated": "BTV*VOR/DME*202.49/22.36",
	},
	{
		"name": "WEJTI",
		"latitude": "41-28-21.77 N",
		"longitude": "74-22-9.04 W",
		"state": "NEW YORK",
		"artcc": "ZNY",
		"type": "RNAV",
		"updated": "02/09/2010",
	},
	{
		"name": "WEKOR",
		"latitude": "42-45-0.52 N",
		"longitude": "73-54-32.54 W",
		"state": "NEW YORK",
		"artcc": "ZBW",
		"type": "RNAV",
		"updated": "06/27/2011",
	},
	{
		"name": "WELSO",
		"latitude": "42-53-15.89 N",
		"longitude": "71-19-6.73 W",
		"state": "NEW HAMPSHIRE",
		"artcc": "ZBW",
		"type": "RNAV",
		"updated": "01/16/2013",
	},
	{
		"name": "WELUG",
		"latitude": "45-35-57.76 N",
		"longitude": "69-50-32.61 W",
		"state": "MAINE",
		"artcc": "ZBW",
		"type": "RNAV",
		"updated": "06/09/2016",
	},
	{
		"name": "WENGA",
		"latitude": "40-49-11.71 N",
		"longitude": "73-7-50.18 W",
		"state": "NEW YORK",
		"artcc": "ZBW",
		"type": "RNAV",
		"updated": "04/19/2011",
	},
	{
		"name": "WENKI",
		"latitude": "44-25-48.01 N",
		"longitude": "73-2-40.22 W",
		"state": "VERMONT",
		"artcc": "ZBW",
		"type": "RNAV",
		"updated": "03/11/2011",
	},
	{
		"name": "WEPKO",
		"latitude": "43-3-49.49 N",
		"longitude": "73-5-2.77 W",
		"state": "VERMONT",
		"artcc": "ZBW",
		"type": "RNAV",
		"updated": "01/16/2013",
	},
	{
		"name": "WEPSO",
		"latitude": "42-34-0.82 N",
		"longitude": "71-25-25.14 W",
		"state": "MASSACHUSETTS",
		"artcc": "ZBW",
		"type": "RNAV",
		"updated": "05/19/2011",
	},
	{
		"name": "WERID",
		"latitude": "41-13-6.59 N",
		"longitude": "70-46-38.64 W",
		"state": "MASSACHUSETTS",
		"artcc": "ZBW",
		"type": "RP",
		"updated": "MVY*VOR/DME*230.00/13.00",
	},
	{
		"name": "WERKI",
		"latitude": "44-50-38 N",
		"longitude": "75-5-29.84 W",
		"state": "NEW YORK",
		"artcc": "ZBW",
		"type": "RNAV",
		"updated": "08/17/2004",
	},
	{
		"name": "WESIE",
		"latitude": "42-15-59.96 N",
		"longitude": "72-41-21.75 W",
		"state": "MASSACHUSETTS",
		"artcc": "ZBW",
		"type": "RP",
		"updated": "BAF*VORTAC*024.77/6.39",
	},
	{
		"name": "WESOV",
		"latitude": "44-3-27.93 N",
		"longitude": "70-40-58.86 W",
		"state": "MAINE",
		"artcc": "ZBW",
		"type": "RNAV",
		"updated": "10/23/2014",
	},
	{
		"name": "WESPA",
		"latitude": "44-24-32.4 N",
		"longitude": "73-5-21 W",
		"state": "VERMONT",
		"artcc": "ZBW",
		"type": "RNAV",
		"updated": "11/06/2009",
	},
	{
		"name": "WESTO",
		"latitude": "41-9-28.86 N",
		"longitude": "72-56-0.43 W",
		"state": "CONNECTICUT",
		"artcc": "ZBW",
		"type": "RP",
		"updated": "BDR*VOR/DME*103.00/8.66",
	},
	{
		"name": "WESTS",
		"latitude": "42-47-13.69 N",
		"longitude": "73-48-23.12 W",
		"state": "NEW YORK",
		"artcc": "ZBW",
		"type": "RP",
		"updated": "ALB*LD*011.17/1.43",
	},
	{
		"name": "WETID",
		"latitude": "43-14-50.96 N",
		"longitude": "73-4-6.16 W",
		"state": "VERMONT",
		"artcc": "ZBW",
		"type": "RNAV",
		"updated": "01/27/2017",
	},
	{
		"name": "WETMU",
		"latitude": "42-33-21.2 N",
		"longitude": "72-8-9.42 W",
		"state": "MASSACHUSETTS",
		"artcc": "ZBW",
		"type": "RP",
		"updated": "GDM*VOR/DME*293.86/3.50",
	},
	{
		"name": "WETOX",
		"latitude": "43-32-59.61 N",
		"longitude": "72-31-29.04 W",
		"state": "VERMONT",
		"artcc": "ZBW",
		"type": "RNAV",
		"updated": "10/21/2008",
	},
	{
		"name": "WEVON",
		"latitude": "43-32-49 N",
		"longitude": "72-57-0.98 W",
		"state": "VERMONT",
		"artcc": "ZBW",
		"type": "RP",
		"updated": "RUT*LD*013.52/1.39",
	},
	{
		"name": "WEVOP",
		"latitude": "43-4-53.76 N",
		"longitude": "73-49-41.12 W",
		"state": "NEW YORK",
		"artcc": "ZBW",
		"type": "RNAV",
		"updated": "07/08/2009",
	},
	{
		"name": "WEXIR",
		"latitude": "41-33-24.91 N",
		"longitude": "73-59-52.62 W",
		"state": "NEW YORK",
		"artcc": "ZBW",
		"type": "RP",
		"updated": "CMK*VOR/DME*323.58",
	},
	{
		"name": "WEXNO",
		"latitude": "41-38-59.27 N",
		"longitude": "73-10-20.3 W",
		"state": "CONNECTICUT",
		"artcc": "ZBW",
		"type": "RNAV",
		"updated": "11/30/2015",
	},
	{
		"name": "WHALE",
		"latitude": "42-11-52 N",
		"longitude": "67-0-0 W",
		"state": "OFFSHORE ATLANTIC",
		"artcc": "ZBW",
		"type": "RP",
		"updated": "ACK*VOR/DME*082.00/146.62",
	},
	{
		"name": "WHAME",
		"latitude": "44-15-37.02 N",
		"longitude": "68-29-3.18 W",
		"state": "MAINE",
		"artcc": "ZBW",
		"type": "RNAV",
		"updated": "12/27/2010",
	},
	{
		"name": "WHATE",
		"latitude": "42-26-10.03 N",
		"longitude": "72-45-41.96 W",
		"state": "MASSACHUSETTS",
		"artcc": "ZBW",
		"type": "RP",
		"updated": "BAF*VORTAC*007.00/16.57",
	},
	{
		"name": "WHIPS",
		"latitude": "41-42-15.59 N",
		"longitude": "70-6-21.3 W",
		"state": "MASSACHUSETTS",
		"artcc": "ZBW",
		"type": "RP",
		"updated": "CQX*NDB*294.25",
	},
	{
		"name": "WHISL",
		"latitude": "41-50-32.31 N",
		"longitude": "72-47-22.1 W",
		"state": "CONNECTICUT",
		"artcc": "ZBW",
		"type": "RNAV",
		"updated": "02/22/2018",
	},
	{
		"name": "WHYBE",
		"latitude": "42-15-13.83 N",
		"longitude": "71-24-59.53 W",
		"state": "MASSACHUSETTS",
		"artcc": "ZBW",
		"type": "RP",
		"updated": "PUT*VOR/DME*060.72/26.17",
	},
	{
		"name": "WHYOO",
		"latitude": "43-34-25.08 N",
		"longitude": "70-6-43.02 W",
		"state": "MAINE",
		"artcc": "ZBW",
		"type": "RNAV",
		"updated": "06/01/2012",
	},
	{
		"name": "WIBAK",
		"latitude": "43-2-28.19 N",
		"longitude": "72-40-15.67 W",
		"state": "VERMONT",
		"artcc": "ZBW",
		"type": "RNAV",
		"updated": "01/16/2013",
	},
	{
		"name": "WIBAS",
		"latitude": "42-20-13.88 N",
		"longitude": "71-7-25.09 W",
		"state": "MASSACHUSETTS",
		"artcc": "ZBW",
		"type": "RNAV",
		"updated": "11/14/2013",
	},
	{
		"name": "WIDKA",
		"latitude": "42-26-27.15 N",
		"longitude": "71-29-41.16 W",
		"state": "MASSACHUSETTS",
		"artcc": "ZBW",
		"type": "RNAV",
		"updated": "08/13/2012",
	},
	{
		"name": "WIDLA",
		"latitude": "44-14-11.68 N",
		"longitude": "70-30-49.36 W",
		"state": "MAINE",
		"artcc": "ZBW",
		"type": "RNAV",
		"updated": "10/01/2009",
	},
	{
		"name": "WIDON",
		"latitude": "41-38-42.49 N",
		"longitude": "70-59-33.4 W",
		"state": "MASSACHUSETTS",
		"artcc": "ZBW",
		"type": "RP",
		"updated": "EWB*LD*234.45/2.98",
	},
	{
		"name": "WIDUP",
		"latitude": "42-28-51.99 N",
		"longitude": "71-9-41.58 W",
		"state": "MASSACHUSETTS",
		"artcc": "ZBW",
		"type": "RNAV",
		"updated": "11/01/2011",
	},
	{
		"name": "WIELD",
		"latitude": "43-24-36.25 N",
		"longitude": "76-18-1.18 W",
		"state": "NEW YORK",
		"artcc": "ZBW",
		"type": "RNAV",
		"updated": "06/16/2009",
	},
	{
		"name": "WIFFY",
		"latitude": "43-9-7.96 N",
		"longitude": "76-33-0.08 W",
		"state": "NEW YORK",
		"artcc": "ZBW",
		"type": "RP",
		"updated": "SYR*VORTAC*279.24/15.18",
	},
	{
		"name": "WIGAN",
		"latitude": "42-5-6.33 N",
		"longitude": "73-48-53.89 W",
		"state": "NEW YORK",
		"artcc": "ZBW",
		"type": "RP",
		"updated": "DNY*VOR/DME*106.87",
	},
	{
		"name": "WIGTU",
		"latitude": "44-21-34.63 N",
		"longitude": "72-59-26.13 W",
		"state": "VERMONT",
		"artcc": "ZBW",
		"type": "RP",
		"updated": "BJA*TACAN*149.51/10.03",
	},
	{
		"name": "WIKID",
		"latitude": "42-38-27.09 N",
		"longitude": "72-49-27.03 W",
		"state": "MASSACHUSETTS",
		"artcc": "ZBW",
		"type": "RP",
		"updated": "CTR*VOR/DME*027.81",
	},
	{
		"name": "WIKIT",
		"latitude": "41-38-53.42 N",
		"longitude": "71-29-23.94 W",
		"state": "RHODE ISLAND",
		"artcc": "ZBW",
		"type": "RNAV",
		"updated": "08/01/2012",
	},
	{
		"name": "WILAK",
		"latitude": "40-46-28.13 N",
		"longitude": "73-7-51.82 W",
		"state": "NEW YORK",
		"artcc": "ZBW",
		"type": "RP",
		"updated": "DPK*VOR/DME*109.45",
	},
	{
		"name": "WILAL",
		"latitude": "44-40-7.03 N",
		"longitude": "69-51-40.43 W",
		"state": "MAINE",
		"artcc": "ZBW",
		"type": "RP",
		"updated": "AUG*VOR/DME*010.46/21.10",
	},
	{
		"name": "WILET",
		"latitude": "42-33-31.75 N",
		"longitude": "75-53-17.41 W",
		"state": "NEW YORK",
		"artcc": "ZBW",
		"type": "RP",
		"updated": "RKA*VOR/DME*292.12",
	},
	{
		"name": "WILIM",
		"latitude": "41-36-59.1 N",
		"longitude": "72-47-22.78 W",
		"state": "CONNECTICUT",
		"artcc": "ZBW",
		"type": "RNAV",
		"updated": "02/04/2005",
	},
	{
		"name": "WILNO",
		"latitude": "43-10-28.32 N",
		"longitude": "72-41-9.19 W",
		"state": "VERMONT",
		"artcc": "ZBW",
		"type": "RP",
		"updated": "LEB*VOR/DME*229.34",
	},
	{
		"name": "WILRD",
		"latitude": "44-15-43.61 N",
		"longitude": "75-47-3.12 W",
		"state": "NEW YORK",
		"artcc": "ZBW",
		"type": "RP",
		"updated": "ART*VORTAC*045.00/22.20",
	},
	{
		"name": "WIMAK",
		"latitude": "41-11-6.33 N",
		"longitude": "73-5-48.46 W",
		"state": "CONNECTICUT",
		"artcc": "ZBW",
		"type": "RNAV",
		"updated": "04/25/2017",
	},
	{
		"name": "WIMPY",
		"latitude": "42-28-47.82 N",
		"longitude": "70-36-48.67 W",
		"state": "MASSACHUSETTS",
		"artcc": "ZBW",
		"type": "RP",
		"updated": "BOS*VOR/DME*082.14/18.26",
	},
	{
		"name": "WINDZ",
		"latitude": "42-22-43.32 N",
		"longitude": "71-2-43.44 W",
		"state": "MASSACHUSETTS",
		"artcc": "ZBW",
		"type": "RNAV",
		"updated": "10/23/2006",
	},
	{
		"name": "WINID",
		"latitude": "44-4-39.1 N",
		"longitude": "72-3-12.84 W",
		"state": "VERMONT",
		"artcc": "ZBW",
		"type": "RNAV",
		"updated": "01/16/2013",
	},
	{
		"name": "WINIR",
		"latitude": "43-13-27.33 N",
		"longitude": "70-52-4.63 W",
		"state": "NEW HAMPSHIRE",
		"artcc": "ZBW",
		"type": "RNAV",
		"updated": "01/16/2013",
	},
	{
		"name": "WINLA",
		"latitude": "44-17-31.58 N",
		"longitude": "73-12-6.66 W",
		"state": "VERMONT",
		"artcc": "ZBW",
		"type": "RP",
		"updated": "BTV*VOR/DME*202.49/6.35",
	},
	{
		"name": "WINNI",
		"latitude": "42-7-1.71 N",
		"longitude": "71-7-28.22 W",
		"state": "MASSACHUSETTS",
		"artcc": "ZBW",
		"type": "RP",
		"updated": "BOS*VOR/DME*218.70/15.62",
	},
	{
		"name": "WINPO",
		"latitude": "44-47-31.19 N",
		"longitude": "69-41-19.22 W",
		"state": "MAINE",
		"artcc": "ZBW",
		"type": "RNAV",
		"updated": "05/25/2007",
	},
	{
		"name": "WINTA",
		"latitude": "42-30-12.45 N",
		"longitude": "71-21-59.67 W",
		"state": "MASSACHUSETTS",
		"artcc": "ZBW",
		"type": "RNAV",
		"updated": "04/04/2016",
	},
	{
		"name": "WINVI",
		"latitude": "42-48-5.72 N",
		"longitude": "72-30-15.06 W",
		"state": "NEW HAMPSHIRE",
		"artcc": "ZBW",
		"type": "RNAV",
		"updated": "06/13/2008",
	},
	{
		"name": "WIPNO",
		"latitude": "42-58-57.32 N",
		"longitude": "71-4-56.1 W",
		"state": "NEW HAMPSHIRE",
		"artcc": "ZBW",
		"type": "RNAV",
		"updated": "05/19/2011",
	},
	{
		"name": "WIPOR",
		"latitude": "41-39-23.07 N",
		"longitude": "72-10-37.67 W",
		"state": "CONNECTICUT",
		"artcc": "ZBW",
		"type": "RP",
		"updated": "HFD*VOR/DME*099.72",
	},
	{
		"name": "WIRAX",
		"latitude": "43-23-59.46 N",
		"longitude": "72-59-26.18 W",
		"state": "VERMONT",
		"artcc": "ZBW",
		"type": "RNAV",
		"updated": "12/30/2016",
	},
	{
		"name": "WIREG",
		"latitude": "41-59-37.14 N",
		"longitude": "70-25-10.34 W",
		"state": "MASSACHUSETTS",
		"artcc": "ZBW",
		"type": "RNAV",
		"updated": "06/29/2011",
	},
	{
		"name": "WIROR",
		"latitude": "42-37-8.79 N",
		"longitude": "73-6-6.05 W",
		"state": "MASSACHUSETTS",
		"artcc": "ZBW",
		"type": "RNAV",
		"updated": "11/03/2014",
	},
	{
		"name": "WIRUB",
		"latitude": "45-8-25.43 N",
		"longitude": "68-41-33.89 W",
		"state": "MAINE",
		"artcc": "ZBW",
		"type": "RNAV",
		"updated": "07/27/2010",
	},
	{
		"name": "WISAS",
		"latitude": "42-12-34.32 N",
		"longitude": "72-31-6.42 W",
		"state": "MASSACHUSETTS",
		"artcc": "ZBW",
		"type": "MR",
		"updated": "CEF*VORTAC*040.00/0.80",
	},
	{
		"name": "WISIG",
		"latitude": "42-48-58.57 N",
		"longitude": "73-48-27.68 W",
		"state": "NEW YORK",
		"artcc": "ZBW",
		"type": "RNAV",
		"updated": "06/27/2011",
	},
	{
		"name": "WISPI",
		"latitude": "43-23-15.35 N",
		"longitude": "73-47-21.44 W",
		"state": "NEW YORK",
		"artcc": "ZBW",
		"type": "RNAV",
		"updated": "07/17/2007",
	},
	{
		"name": "WISUG",
		"latitude": "42-15-40.07 N",
		"longitude": "71-44-44.78 W",
		"state": "MASSACHUSETTS",
		"artcc": "ZBW",
		"type": "RNAV",
		"updated": "04/17/2012",
	},
	{
		"name": "WITCH",
		"latitude": "42-40-59.84 N",
		"longitude": "70-52-46.34 W",
		"state": "MASSACHUSETTS",
		"artcc": "ZBW",
		"type": "RP",
		"updated": "MHT*VOR/DME*132.00",
	},
	{
		"name": "WITED",
		"latitude": "44-18-52.92 N",
		"longitude": "75-37-6.19 W",
		"state": "NEW YORK",
		"artcc": "ZBW",
		"type": "MR",
		"updated": "GTB*LD*028.99/17.00",
	},
	{
		"name": "WITNY",
		"latitude": "42-2-57.82 N",
		"longitude": "72-14-11.96 W",
		"state": "MASSACHUSETTS",
		"artcc": "ZBW",
		"type": "RP",
		"updated": "PUT*VOR/DME*301.92",
	},
	{
		"name": "WITTE",
		"latitude": "44-58-41.62 N",
		"longitude": "69-19-11.35 W",
		"state": "MAINE",
		"artcc": "ZBW",
		"type": "RNAV",
		"updated": "04/23/2010",
	},
	{
		"name": "WIVPA",
		"latitude": "41-45-10.99 N",
		"longitude": "71-24-7.25 W",
		"state": "RHODE ISLAND",
		"artcc": "ZBW",
		"type": "RP",
		"updated": "ARJ*LD*047.17/1.48",
	},
	{
		"name": "WIXEL",
		"latitude": "44-25-4.4 N",
		"longitude": "70-47-55.26 W",
		"state": "MAINE",
		"artcc": "ZBW",
		"type": "RNAV",
		"updated": "05/11/2012",
	},
	{
		"name": "WIXIV",
		"latitude": "45-16-8.78 N",
		"longitude": "68-13-33.54 W",
		"state": "MAINE",
		"artcc": "ZBW",
		"type": "RNAV",
		"updated": "09/11/2014",
	},
	{
		"name": "WIXOR",
		"latitude": "44-38-10.51 N",
		"longitude": "70-9-2.48 W",
		"state": "MAINE",
		"artcc": "ZBW",
		"type": "RNAV",
		"updated": "04/24/2007",
	},
	{
		"name": "WOBDI",
		"latitude": "44-11-20.48 N",
		"longitude": "75-54-33.4 W",
		"state": "NEW YORK",
		"artcc": "ZBW",
		"type": "MW",
		"updated": "02/13/2017",
	},
	{
		"name": "WOBLY",
		"latitude": "42-45-30.08 N",
		"longitude": "73-29-55.81 W",
		"state": "NEW YORK",
		"artcc": "ZBW",
		"type": "RP",
		"updated": "CAM*VOR/DME*219.82",
	},
	{
		"name": "WOBMU",
		"latitude": "42-38-25.05 N",
		"longitude": "71-12-14.57 W",
		"state": "MASSACHUSETTS",
		"artcc": "ZBW",
		"type": "RP",
		"updated": "MHT*VOR/DME*166.83",
	},
	{
		"name": "WOBRI",
		"latitude": "43-37-33.11 N",
		"longitude": "72-18-43.16 W",
		"state": "NEW HAMPSHIRE",
		"artcc": "ZBW",
		"type": "RP",
		"updated": "LEB*VOR/DME*247.77/5.25",
	},
	{
		"name": "WOBUR",
		"latitude": "42-28-39.89 N",
		"longitude": "71-9-53.67 W",
		"state": "MASSACHUSETTS",
		"artcc": "ZBW",
		"type": "RP",
		"updated": "LWM*VOR/DME*206.17",
	},
	{
		"name": "WOBVU",
		"latitude": "42-10-13.62 N",
		"longitude": "73-56-47.11 W",
		"state": "NEW YORK",
		"artcc": "ZBW",
		"type": "RNAV",
		"updated": "05/13/2015",
	},
	{
		"name": "WODDE",
		"latitude": "42-46-25.26 N",
		"longitude": "71-1-8.97 W",
		"state": "MASSACHUSETTS",
		"artcc": "ZBW",
		"type": "RP",
		"updated": "LWM*VOR/DME*074.16",
	},
	{
		"name": "WODEG",
		"latitude": "44-0-16.35 N",
		"longitude": "75-44-31.36 W",
		"state": "NEW YORK",
		"artcc": "ZBW",
		"type": "MW",
		"updated": "06/28/2009",
	},
	{
		"name": "WODGI",
		"latitude": "44-6-27.18 N",
		"longitude": "69-57-52.06 W",
		"state": "MAINE",
		"artcc": "ZBW",
		"type": "RNAV",
		"updated": "01/17/2012",
	},
	{
		"name": "WODIT",
		"latitude": "42-22-53.33 N",
		"longitude": "75-15-6.84 W",
		"state": "NEW YORK",
		"artcc": "ZBW",
		"type": "RNAV",
		"updated": "08/13/2008",
	},
	{
		"name": "WODOV",
		"latitude": "44-40-4.83 N",
		"longitude": "73-31-52.05 W",
		"state": "NEW YORK",
		"artcc": "ZBW",
		"type": "RP",
		"updated": "BJA*TACAN*320.66/19.73",
	},
	{
		"name": "WODUL",
		"latitude": "45-11-30.54 N",
		"longitude": "69-15-24.25 W",
		"state": "MAINE",
		"artcc": "ZBW",
		"type": "RNAV",
		"updated": "08/06/2007",
	},
	{
		"name": "WOGOK",
		"latitude": "42-49-50.76 N",
		"longitude": "73-56-47.06 W",
		"state": "NEW YORK",
		"artcc": "ZBW",
		"type": "RNAV",
		"updated": "06/27/2011",
	},
	{
		"name": "WOLAD",
		"latitude": "41-48-15.21 N",
		"longitude": "71-18-55.13 W",
		"state": "MASSACHUSETTS",
		"artcc": "ZBW",
		"type": "RNAV",
		"updated": "04/07/2017",
	},
	{
		"name": "WOLLS",
		"latitude": "43-56-25.07 N",
		"longitude": "76-7-6.93 W",
		"state": "NEW YORK",
		"artcc": "ZBW",
		"type": "RNAV",
		"updated": "01/02/2018",
	},
	{
		"name": "WOLOL",
		"latitude": "41-33-54.1 N",
		"longitude": "70-32-8.58 W",
		"state": "MASSACHUSETTS",
		"artcc": "ZBW",
		"type": "RNAV",
		"updated": "05/24/2007",
	},
	{
		"name": "WOLVO",
		"latitude": "41-29-47.63 N",
		"longitude": "70-39-21.24 W",
		"state": "MASSACHUSETTS",
		"artcc": "ZBW",
		"type": "RNAV",
		"updated": "12/19/2001",
	},
	{
		"name": "WOMAL",
		"latitude": "41-21-20.33 N",
		"longitude": "73-32-39.26 W",
		"state": "CONNECTICUT",
		"artcc": "ZBW",
		"type": "RP",
		"updated": "DXR*LE*266.73/2.98",
	},
	{
		"name": "WOMEK",
		"latitude": "41-56-57.01 N",
		"longitude": "70-29-51.62 W",
		"state": "MASSACHUSETTS",
		"artcc": "ZBW",
		"type": "RP",
		"updated": "LFV*VOR/DME*274.95",
	},
	{
		"name": "WOMUL",
		"latitude": "41-33-17.24 N",
		"longitude": "72-55-50.01 W",
		"state": "CONNECTICUT",
		"artcc": "ZBW",
		"type": "RNAV",
		"updated": "01/28/2002",
	},
	{
		"name": "WONGI",
		"latitude": "43-41-34.4 N",
		"longitude": "72-19-33.73 W",
		"state": "VERMONT",
		"artcc": "ZBW",
		"type": "RNAV",
		"updated": "10/22/2008",
	},
	{
		"name": "WONPO",
		"latitude": "43-59-10.5 N",
		"longitude": "75-52-19.29 W",
		"state": "NEW YORK",
		"artcc": "ZBW",
		"type": "RNAV",
		"updated": "05/01/2017",
	},
	{
		"name": "WONUL",
		"latitude": "43-35-16.7 N",
		"longitude": "72-22-49.43 W",
		"state": "VERMONT",
		"artcc": "ZBW",
		"type": "RP",
		"updated": "LEB*VOR/DME*247.77/9.00",
	},
	{
		"name": "WOONS",
		"latitude": "41-57-2.07 N",
		"longitude": "71-30-25.34 W",
		"state": "RHODE ISLAND",
		"artcc": "ZBW",
		"type": "RP",
		"updated": "PUT*VOR/DME*105.00/15.09",
	},
	{
		"name": "WOPEP",
		"latitude": "44-45-59.79 N",
		"longitude": "68-46-18.14 W",
		"state": "MAINE",
		"artcc": "ZBW",
		"type": "MR",
		"updated": "BGR*VORTAC*154.89/6.28",
	},
	{
		"name": "WOPRA",
		"latitude": "44-54-59.52 N",
		"longitude": "74-54-22.53 W",
		"state": "NEW YORK",
		"artcc": "ZBW",
		"type": "RNAV",
		"updated": "08/24/2004",
	},
	{
		"name": "WORIA",
		"latitude": "42-29-47.18 N",
		"longitude": "72-4-4.95 W",
		"state": "MASSACHUSETTS",
		"artcc": "ZBW",
		"type": "RNAV",
		"updated": "09/23/2014",
	},
	{
		"name": "WORLD",
		"latitude": "41-59-7.63 N",
		"longitude": "74-39-32.79 W",
		"state": "NEW YORK",
		"artcc": "ZBW",
		"type": "RP",
		"updated": "HUO*VOR/DME*006.00/34.66",
	},
	{
		"name": "WORMY",
		"latitude": "41-2-21.34 N",
		"longitude": "73-12-4.69 W",
		"state": "NEW YORK",
		"artcc": "ZBW",
		"type": "RP",
		"updated": "DPK*VOR/DME*029.39",
	},
	{
		"name": "WOROS",
		"latitude": "44-41-42.78 N",
		"longitude": "75-23-24.37 W",
		"state": "NEW YORK",
		"artcc": "ZBW",
		"type": "RNAV",
		"updated": "07/19/2016",
	},
	{
		"name": "WORRN",
		"latitude": "42-19-11.22 N",
		"longitude": "70-56-41.67 W",
		"state": "MASSACHUSETTS",
		"artcc": "ZBW",
		"type": "RNAV",
		"updated": "02/14/2017",
	},
	{
		"name": "WOSAD",
		"latitude": "44-48-52.95 N",
		"longitude": "71-24-8.21 W",
		"state": "NEW HAMPSHIRE",
		"artcc": "ZBW",
		"type": "RNAV",
		"updated": "01/12/2011",
	},
	{
		"name": "WOSEM",
		"latitude": "45-38-3.53 N",
		"longitude": "70-14-16.76 W",
		"state": "MAINE",
		"artcc": "ZBW",
		"type": "RNAV",
		"updated": "04/06/2009",
	},
	{
		"name": "WOTAM",
		"latitude": "43-13-40.39 N",
		"longitude": "71-36-36.83 W",
		"state": "NEW HAMPSHIRE",
		"artcc": "ZBW",
		"type": "RNAV",
		"updated": "06/02/2005",
	},
	{
		"name": "WOTBU",
		"latitude": "42-41-28.39 N",
		"longitude": "71-51-6.05 W",
		"state": "MASSACHUSETTS",
		"artcc": "ZBW",
		"type": "RNAV",
		"updated": "11/06/2009",
	},
	{
		"name": "WOVAR",
		"latitude": "42-38-33.08 N",
		"longitude": "73-51-40.24 W",
		"state": "NEW YORK",
		"artcc": "ZBW",
		"type": "RNAV",
		"updated": "06/27/2011",
	},
	{
		"name": "WRAPT",
		"latitude": "45-31-36.95 N",
		"longitude": "69-21-0.09 W",
		"state": "MAINE",
		"artcc": "ZBW",
		"type": "RP",
		"updated": "MLT*VOR/DME*284.48/35.37",
	},
	{
		"name": "WREAD",
		"latitude": "42-51-6.82 N",
		"longitude": "73-48-33.3 W",
		"state": "NEW YORK",
		"artcc": "ZBW",
		"type": "RNAV",
		"updated": "03/16/2007",
	},
	{
		"name": "WUBAT",
		"latitude": "44-45-23.91 N",
		"longitude": "67-27-46.75 W",
		"state": "MAINE",
		"artcc": "ZBW",
		"type": "RNAV",
		"updated": "12/22/2008",
	},
	{
		"name": "WUBEP",
		"latitude": "44-8-8.75 N",
		"longitude": "70-15-15.51 W",
		"state": "MAINE",
		"artcc": "ZBW",
		"type": "RNAV",
		"updated": "05/23/2007",
	},
	{
		"name": "WUBEX",
		"latitude": "42-54-40.36 N",
		"longitude": "73-16-5.45 W",
		"state": "VERMONT",
		"artcc": "ZBW",
		"type": "RP",
		"updated": "CAM*VOR/DME*160.13/6.00",
	},
	{
		"name": "WUBIM",
		"latitude": "45-28-7.21 N",
		"longitude": "69-36-23.16 W",
		"state": "MAINE",
		"artcc": "ZBW",
		"type": "RNAV",
		"updated": "12/19/2008",
	},
	{
		"name": "WUBUM",
		"latitude": "43-27-15.6 N",
		"longitude": "72-41-22.8 W",
		"state": "VERMONT",
		"artcc": "ZBW",
		"type": "RNAV",
		"updated": "11/06/2009",
	},
	{
		"name": "WUDDE",
		"latitude": "44-14-12.61 N",
		"longitude": "70-9-55.17 W",
		"state": "MAINE",
		"artcc": "ZBW",
		"type": "RNAV",
		"updated": "06/21/2010",
	},
	{
		"name": "WUGAV",
		"latitude": "44-35-48.82 N",
		"longitude": "71-10-53.08 W",
		"state": "NEW HAMPSHIRE",
		"artcc": "ZBW",
		"type": "RP",
		"updated": "BML*VOR/DME*191.73/2.20",
	},
	{
		"name": "WUGES",
		"latitude": "44-43-52.35 N",
		"longitude": "69-4-19.24 W",
		"state": "MAINE",
		"artcc": "ZBW",
		"type": "RP",
		"updated": "BGR*VORTAC*250.97/10.75",
	},
	{
		"name": "WUGLA",
		"latitude": "42-3-17.15 N",
		"longitude": "70-43-57.17 W",
		"state": "MASSACHUSETTS",
		"artcc": "ZBW",
		"type": "RNAV",
		"updated": "10/02/2014",
	},
	{
		"name": "WUGNI",
		"latitude": "42-13-52.17 N",
		"longitude": "70-29-9.61 W",
		"state": "MASSACHUSETTS",
		"artcc": "ZBW",
		"type": "RNAV",
		"updated": "10/02/2014",
	},
	{
		"name": "WUJFE",
		"latitude": "43-25-6.39 N",
		"longitude": "76-7-13.08 W",
		"state": "NEW YORK",
		"artcc": "ZBW",
		"type": "RNAV",
		"updated": "06/16/2009",
	},
	{
		"name": "WUKBA",
		"latitude": "43-4-17.14 N",
		"longitude": "70-46-48.07 W",
		"state": "NEW HAMPSHIRE",
		"artcc": "ZBW",
		"type": "RNAV",
		"updated": "01/27/2016",
	},
	{
		"name": "WULEB",
		"latitude": "44-42-28.87 N",
		"longitude": "73-14-56.61 W",
		"state": "VERMONT",
		"artcc": "ZBW",
		"type": "RNAV",
		"updated": "03/25/2015",
	},
	{
		"name": "WULET",
		"latitude": "43-16-46.57 N",
		"longitude": "74-39-21.47 W",
		"state": "NEW YORK",
		"artcc": "ZBW",
		"type": "RNAV",
		"updated": "05/14/2012",
	},
	{
		"name": "WULGA",
		"latitude": "42-9-28.46 N",
		"longitude": "70-1-34.56 W",
		"state": "MASSACHUSETTS",
		"artcc": "ZBW",
		"type": "RNAV",
		"updated": "12/01/2015",
	},
	{
		"name": "WULUG",
		"latitude": "40-32-29.95 N",
		"longitude": "73-16-7.15 W",
		"state": "NEW YORK",
		"artcc": "ZBW",
		"type": "RNAV",
		"updated": "06/19/2012",
	},
	{
		"name": "WUMOG",
		"latitude": "42-39-36.44 N",
		"longitude": "72-16-35.41 W",
		"state": "MASSACHUSETTS",
		"artcc": "ZBW",
		"type": "RNAV",
		"updated": "01/22/2013",
	},
	{
		"name": "WUMSO",
		"latitude": "43-49-34.29 N",
		"longitude": "76-12-56.15 W",
		"state": "NEW YORK",
		"artcc": "ZBW",
		"type": "RP",
		"updated": "SYR*VORTAC*010.31",
	},
	{
		"name": "WUMUB",
		"latitude": "44-43-26.54 N",
		"longitude": "67-28-21.77 W",
		"state": "MAINE",
		"artcc": "ZBW",
		"type": "RNAV",
		"updated": "12/22/2008",
	},
	{
		"name": "WUMUP",
		"latitude": "42-46-11.05 N",
		"longitude": "71-3-57.98 W",
		"state": "MASSACHUSETTS",
		"artcc": "ZBW",
		"type": "RNAV",
		"updated": "08/28/2017",
	},
	{
		"name": "WUNKU",
		"latitude": "43-46-31.18 N",
		"longitude": "71-42-36.55 W",
		"state": "NEW HAMPSHIRE",
		"artcc": "ZBW",
		"type": "RNAV",
		"updated": "11/06/2009",
	},
	{
		"name": "WUPKO",
		"latitude": "43-24-42.27 N",
		"longitude": "76-27-56.9 W",
		"state": "NEW YORK",
		"artcc": "ZBW",
		"type": "RNAV",
		"updated": "04/12/2011",
	},
	{
		"name": "WUPUP",
		"latitude": "46-39-13.65 N",
		"longitude": "67-43-57.58 W",
		"state": "",
		"artcc": "ZBW",
		"type": "RNAV",
		"updated": "05/03/2016",
	},
	{
		"name": "WUPVA",
		"latitude": "42-55-34.38 N",
		"longitude": "72-17-1.12 W",
		"state": "NEW HAMPSHIRE",
		"artcc": "ZBW",
		"type": "RNAV",
		"updated": "11/06/2009",
	},
	{
		"name": "WURIP",
		"latitude": "44-47-46.13 N",
		"longitude": "74-47-8.16 W",
		"state": "NEW YORK",
		"artcc": "ZBW",
		"type": "RNAV",
		"updated": "10/05/2004",
	},
	{
		"name": "WURIV",
		"latitude": "42-48-28.03 N",
		"longitude": "70-46-52.72 W",
		"state": "MASSACHUSETTS",
		"artcc": "ZBW",
		"type": "RNAV",
		"updated": "05/19/2011",
	},
	{
		"name": "WURLA",
		"latitude": "41-4-32.75 N",
		"longitude": "72-47-24.07 W",
		"state": "NEW YORK",
		"artcc": "ZBW",
		"type": "RP",
		"updated": "04/12/2006",
	},
	{
		"name": "WUROS",
		"latitude": "44-4-33.64 N",
		"longitude": "69-56-10.23 W",
		"state": "MAINE",
		"artcc": "ZBW",
		"type": "RNAV",
		"updated": "05/17/2012",
	},
	{
		"name": "WURTS",
		"latitude": "43-6-29.45 N",
		"longitude": "75-30-35.13 W",
		"state": "NEW YORK",
		"artcc": "ZBW",
		"type": "RP",
		"updated": "GGT*VORTAC*046.90",
	},
	{
		"name": "WUSEK",
		"latitude": "42-47-16.94 N",
		"longitude": "72-30-55.26 W",
		"state": "VERMONT",
		"artcc": "ZBW",
		"type": "RNAV",
		"updated": "10/18/2010",
	},
	{
		"name": "WUSTI",
		"latitude": "44-44-52.09 N",
		"longitude": "69-55-5.5 W",
		"state": "MAINE",
		"artcc": "ZBW",
		"type": "RNAV",
		"updated": "03/10/2015",
	},
	{
		"name": "WUSUP",
		"latitude": "42-30-50.27 N",
		"longitude": "70-50-7.71 W",
		"state": "MASSACHUSETTS",
		"artcc": "ZBW",
		"type": "RNAV",
		"updated": "01/18/2013",
	},
	{
		"name": "WUTEG",
		"latitude": "44-38-29.25 N",
		"longitude": "69-5-25.49 W",
		"state": "MAINE",
		"artcc": "ZBW",
		"type": "RNAV",
		"updated": "10/23/2014",
	},
	{
		"name": "WUTIT",
		"latitude": "41-32-44.05 N",
		"longitude": "74-15-14.32 W",
		"state": "NEW YORK",
		"artcc": "ZBW",
		"type": "RNAV",
		"updated": "02/09/2010",
	},
	{
		"name": "WUTPI",
		"latitude": "44-27-50.47 N",
		"longitude": "69-44-58.46 W",
		"state": "MAINE",
		"artcc": "ZBW",
		"type": "RNAV",
		"updated": "03/10/2015",
	},
	{
		"name": "WUVES",
		"latitude": "44-36-8.86 N",
		"longitude": "74-25-4.74 W",
		"state": "NEW YORK",
		"artcc": "ZBW",
		"type": "RNAV",
		"updated": "09/14/2012",
	},
	{
		"name": "WYANE",
		"latitude": "42-31-49.4 N",
		"longitude": "70-55-29.31 W",
		"state": "MASSACHUSETTS",
		"artcc": "ZBW",
		"type": "RP",
		"updated": "LWM*VOR/DME*164.07",
	},
	{
		"name": "WYLIE",
		"latitude": "44-14-36.3 N",
		"longitude": "70-59-57.84 W",
		"state": "MAINE",
		"artcc": "ZBW",
		"type": "RP",
		"updated": "BML*VOR/DME*178.00",
	},
	{
		"name": "WYLOR",
		"latitude": "42-49-1.31 N",
		"longitude": "71-30-19.24 W",
		"state": "NEW HAMPSHIRE",
		"artcc": "ZBW",
		"type": "RP",
		"updated": "MHT*VOR/DME*257.80/6.70",
	},
	{
		"name": "WYLYY",
		"latitude": "42-18-2.96 N",
		"longitude": "71-6-2.4 W",
		"state": "MASSACHUSETTS",
		"artcc": "ZBW",
		"type": "RNAV",
		"updated": "09/04/2001",
	},
	{
		"name": "WYMTH",
		"latitude": "42-12-44.02 N",
		"longitude": "70-49-37.63 W",
		"state": "MASSACHUSETTS",
		"artcc": "ZBW",
		"type": "RNAV",
		"updated": "01/15/2013",
	},
