	{
		"name": "XALAC",
		"latitude": "42-40-49.72 N",
		"longitude": "73-51-13.67 W",
		"state": "NEW YORK",
		"artcc": "ZBW",
		"type": "CN",
		"updated": "06/27/2011",
	},
	{
		"name": "XANTY",
		"latitude": "43-2-27.72 N",
		"longitude": "75-59-56.42 W",
		"state": "NEW YORK",
		"artcc": "ZBW",
		"type": "RNAV",
		"updated": "07/11/2005",
	},
	{
		"name": "XAWFE",
		"latitude": "43-21-59.55 N",
		"longitude": "70-45-52.13 W",
		"state": "MAINE",
		"artcc": "ZBW",
		"type": "RP",
		"updated": "ENE*VOR/DME*/7.50",
	},
	{
		"name": "XCESS",
		"latitude": "41-10-1.14 N",
		"longitude": "73-48-35.75 W",
		"state": "NEW YORK",
		"artcc": "ZBW",
		"type": "RNAV",
		"updated": "08/17/2010",
	},
	{
		"name": "XIBUL",
		"latitude": "45-17-41.7835 N",
		"longitude": "67-27-16.0679 W",
		"state": "",
		"artcc": "ZBW",
		"type": "RNAV",
		"updated": "11/12/2016",
	},
	{
		"name": "XIJAF",
		"latitude": "43-23-12.53 N",
		"longitude": "76-26-1.55 W",
		"state": "NEW YORK",
		"artcc": "ZBW",
		"type": "RNAV",
		"updated": "04/12/2011",
	},
	{
		"name": "XIMKY",
		"latitude": "43-58-31.85 N",
		"longitude": "72-23-43.36 W",
		"state": "VERMONT",
		"artcc": "ZBW",
		"type": "RNAV",
		"updated": "08/14/2014",
	},
	{
		"name": "XIPAQ",
		"latitude": "42-58-51.98 N",
		"longitude": "73-56-13.49 W",
		"state": "NEW YORK",
		"artcc": "ZBW",
		"type": "RNAV",
		"updated": "06/27/2011",
	},
	{
		"name": "XOHWA",
		"latitude": "42-49-2.93 N",
		"longitude": "73-45-20.27 W",
		"state": "NEW YORK",
		"artcc": "ZBW",
		"type": "CN",
		"updated": "06/27/2011",
	},
	{
		"name": "XOHWI",
		"latitude": "42-53-29.66 N",
		"longitude": "71-24-35.71 W",
		"state": "NEW HAMPSHIRE",
		"artcc": "ZBW",
		"type": "RP",
		"updated": "MHT*LD*171.53/3.53",
	},
	{
		"name": "XOWVE",
		"latitude": "44-25-47.57 N",
		"longitude": "73-5-2.01 W",
		"state": "VERMONT",
		"artcc": "ZBW",
		"type": "RP",
		"updated": "VOE*LD*145.83/3.20",
	},
	{
		"name": "XUDAJ",
		"latitude": "41-36-30.02 N",
		"longitude": "71-24-47.34 W",
		"state": "RHODE ISLAND",
		"artcc": "ZBW",
		"type": "RP",
		"updated": "PVD*VOR/DME*187.91/7.00",
	},
