[
	{
		"name": "BAARY",
		"latitude": "26-35-0 N",
		"longitude": "82-14-0 W",
		"state": "FLORIDA",
		"artcc": "ZMA",
		"type": "RP",
		"updated": "CYY*VOR/DME*319.45/35.54"
	},
	{
		"name": "BAGGS",
		"latitude": "27-8-3.28 N",
		"longitude": "82-50-27.2 W",
		"state": "OFFSHORE GULF",
		"artcc": "ZMA",
		"type": "RNAV",
		"updated": "09/28/2017"
	},
	{
		"name": "BAGHO",
		"latitude": "24-15-42.95 N",
		"longitude": "81-50-39.51 W",
		"state": "OFFSHORE ATLANTIC",
		"artcc": "ZMA",
		"type": "MR",
		"updated": "NQX*TACAN*207.00/21.00"
	},
	{
		"name": "BAGZZ",
		"latitude": "27-14-37.58 N",
		"longitude": "80-11-49.14 W",
		"state": "FLORIDA",
		"artcc": "ZMA",
		"type": "RNAV",
		"updated": "10/26/2009"
	},
	{
		"name": "BAHMA",
		"latitude": "25-56-28.02 N",
		"longitude": "79-7-46.31 W",
		"state": "",
		"artcc": "ZMA",
		"type": "RP",
		"updated": "ZBV*VORTAC*036.17/16.75"
	},
	{
		"name": "BAIRN",
		"latitude": "27-56-52.37 N",
		"longitude": "81-6-54.35 W",
		"state": "FLORIDA",
		"artcc": "ZMA",
		"type": "RP",
		"updated": "ORL*VORTAC*161.82/37.45"
	},
	{
		"name": "BAITZ",
		"latitude": "25-0-14 N",
		"longitude": "81-57-43 W",
		"state": "OFFSHORE GULF",
		"artcc": "ZMA",
		"type": "RNAV",
		"updated": "05/06/2009"
	},
	{
		"name": "BALEW",
		"latitude": "26-27-54.37 N",
		"longitude": "79-46-33.7 W",
		"state": "OFFSHORE ATLANTIC",
		"artcc": "ZMA",
		"type": "RNAV",
		"updated": "09/01/2005"
	},
	{
		"name": "BARTS",
		"latitude": "25-59-1.37 N",
		"longitude": "77-30-20.47 W",
		"state": "",
		"artcc": "ZMA",
		"type": "RP",
		"updated": "ZFP*VOR/DME*120.75/72.82"
	},
	{
		"name": "BARTZ",
		"latitude": "27-57-42.52 N",
		"longitude": "81-53-6.06 W",
		"state": "FLORIDA",
		"artcc": "ZMA",
		"type": "RP",
		"updated": "LAL*VORTAC*101.00/7.00"
	},
	{
		"name": "BASHO",
		"latitude": "25-48-32.13 N",
		"longitude": "80-5-57.54 W",
		"state": "FLORIDA",
		"artcc": "ZMA",
		"type": "RP",
		"updated": "VKZ*VOR/DME*045.18"
	},
	{
		"name": "BAYBE",
		"latitude": "26-45-7.52 N",
		"longitude": "80-10-15.74 W",
		"state": "FLORIDA",
		"artcc": "ZMA",
		"type": "RNAV",
		"updated": "11/10/2009"
	},
	{
		"name": "BAYDA",
		"latitude": "27-14-33.41 N",
		"longitude": "82-41-12.77 W",
		"state": "FLORIDA",
		"artcc": "ZMA",
		"type": "RNAV",
		"updated": "05/15/2003"
	},
	{
		"name": "BAYRU",
		"latitude": "25-55-51.78 N",
		"longitude": "77-49-29.8 W",
		"state": "",
		"artcc": "ZMA",
		"type": "RP",
		"updated": "ZFP*VOR/DME*131.22/60.00"
	},
	{
		"name": "BAYZZ",
		"latitude": "27-51-43.96 N",
		"longitude": "82-37-16.93 W",
		"state": "FLORIDA",
		"artcc": "ZMA",
		"type": "RNAV",
		"updated": "03/16/2007"
	},
	{
		"name": "BECHE",
		"latitude": "26-23-51.55 N",
		"longitude": "82-4-33.85 W",
		"state": "FLORIDA",
		"artcc": "ZMA",
		"type": "MR",
		"updated": "RSW*VORTAC*246.00/18.00"
	},
	{
		"name": "BEECH",
		"latitude": "25-58-30.37 N",
		"longitude": "79-23-3.15 W",
		"state": "",
		"artcc": "ZMA",
		"type": "RP",
		"updated": "ZBV*VORTAC*347.33/16.92"
	},
	{
		"name": "BEERD",
		"latitude": "27-38-34 N",
		"longitude": "78-38-41 W",
		"state": "OFFSHORE ATLANTIC",
		"artcc": "ZMA",
		"type": "RNAV",
		"updated": "04/07/2008"
	},
	{
		"name": "BEETR",
		"latitude": "25-42-14.4 N",
		"longitude": "80-40-34.09 W",
		"state": "FLORIDA",
		"artcc": "ZMA",
		"type": "RNAV",
		"updated": "12/15/2015"
	},
	{
		"name": "BEKAH",
		"latitude": "26-35-46.1 N",
		"longitude": "80-12-4.61 W",
		"state": "FLORIDA",
		"artcc": "ZMA",
		"type": "RNAV",
		"updated": "12/20/2009"
	},
	{
		"name": "BENIE",
		"latitude": "23-34-27.5 N",
		"longitude": "73-34-22.3 W",
		"state": "",
		"artcc": "ZMA",
		"type": "RP",
		"updated": "GTK*VORTAC*321.74/186.08"
	},
	{
		"name": "BENWA",
		"latitude": "27-44-46.75 N",
		"longitude": "82-37-29.13 W",
		"state": "FLORIDA",
		"artcc": "ZMA",
		"type": "RNAV",
		"updated": "05/23/2007"
	},
	{
		"name": "BENZI",
		"latitude": "27-3-49.11 N",
		"longitude": "79-0-53.56 W",
		"state": "",
		"artcc": "ZMA",
		"type": "RP",
		"updated": "ZFP*VOR/DME*333.84/34.85"
	},
	{
		"name": "BEPAC",
		"latitude": "26-9-0.59 N",
		"longitude": "80-9-11.72 W",
		"state": "FLORIDA",
		"artcc": "ZMA",
		"type": "RNAV",
		"updated": "03/19/2013"
	},
	{
		"name": "BERBE",
		"latitude": "27-12-15.92 N",
		"longitude": "79-59-11.6 W",
		"state": "FLORIDA",
		"artcc": "ZMA",
		"type": "RNAV",
		"updated": "03/21/2013"
	},
	{
		"name": "BERDY",
		"latitude": "28-20-20.36 N",
		"longitude": "81-19-32.9 W",
		"state": "FLORIDA",
		"artcc": "ZMA",
		"type": "RNAV",
		"updated": "12/31/2014"
	},
	{
		"name": "BERTH",
		"latitude": "26-57-12.99 N",
		"longitude": "79-19-31.35 W",
		"state": "",
		"artcc": "ZMA",
		"type": "RP",
		"updated": "ZFP*VOR/DME*308.42/41.28"
	},
	{
		"name": "BESAS",
		"latitude": "20-20-13.4 N",
		"longitude": "70-20-36.4 W",
		"state": "",
		"artcc": "ZMA",
		"type": "RP",
		"updated": "PTA*VOR/DME*028.33/36.84"
	},
	{
		"name": "BESCA",
		"latitude": "26-36-45.06 N",
		"longitude": "81-53-42.22 W",
		"state": "FLORIDA",
		"artcc": "ZMA",
		"type": "RNAV",
		"updated": "07/15/2011"
	},
	{
		"name": "BEZDU",
		"latitude": "27-55-39.05 N",
		"longitude": "81-54-19.05 W",
		"state": "FLORIDA",
		"artcc": "ZMA",
		"type": "RNAV",
		"updated": "05/17/2010"
	},
	{
		"name": "BEZER",
		"latitude": "26-4-1.38 N",
		"longitude": "80-23-22.94 W",
		"state": "FLORIDA",
		"artcc": "ZMA",
		"type": "RP",
		"updated": "DHP*VORTAC*356.17"
	},
	{
		"name": "BGDOG",
		"latitude": "29-17-36.57 N",
		"longitude": "78-54-29.75 W",
		"state": "OFFSHORE ATLANTIC",
		"artcc": "ZMA",
		"type": "RNAV",
		"updated": "05/02/2008"
	},
	{
		"name": "BIGGR",
		"latitude": "28-14-30 N",
		"longitude": "81-32-58 W",
		"state": "FLORIDA",
		"artcc": "ZMA",
		"type": "RNAV",
		"updated": "10/24/2007"
	},
	{
		"name": "BIGOO",
		"latitude": "27-48-9.37 N",
		"longitude": "82-41-23.66 W",
		"state": "FLORIDA",
		"artcc": "ZMA",
		"type": "RP",
		"updated": "PIE*VORTAC*187.71/6.30"
	},
	{
		"name": "BIKIN",
		"latitude": "21-47-15.06 N",
		"longitude": "71-31-26.53 W",
		"state": "",
		"artcc": "ZMA",
		"type": "RP",
		"updated": "GTK*VORTAC*321.63/30.08"
	},
	{
		"name": "BIPIN",
		"latitude": "24-38-2.82 N",
		"longitude": "81-21-53.05 W",
		"state": "FLORIDA",
		"artcc": "ZMA",
		"type": "RP",
		"updated": "EYW*VORTAC*082.01/24.00"
	},
	{
		"name": "BIRDD",
		"latitude": "25-44-54.96 N",
		"longitude": "80-12-11.79 W",
		"state": "FLORIDA",
		"artcc": "ZMA",
		"type": "RP",
		"updated": "DCX*LD*124.47/6.25"
	},
	{
		"name": "BIWIK",
		"latitude": "27-31-41.17 N",
		"longitude": "80-29-1.75 W",
		"state": "FLORIDA",
		"artcc": "ZMA",
		"type": "RP",
		"updated": "TRV*VORTAC*184.99/9.00"
	},
	{
		"name": "BIYAK",
		"latitude": "26-15-58.17 N",
		"longitude": "79-39-2.5 W",
		"state": "OFFSHORE ATLANTIC",
		"artcc": "ZMA",
		"type": "RNAV",
		"updated": "08/01/2006"
	},
	{
		"name": "BIYAT",
		"latitude": "27-55-40.22 N",
		"longitude": "82-4-57.52 W",
		"state": "FLORIDA",
		"artcc": "ZMA",
		"type": "RNAV",
		"updated": "10/03/2007"
	},
	{
		"name": "BLAIM",
		"latitude": "26-4-0.44 N",
		"longitude": "80-19-49.72 W",
		"state": "FLORIDA",
		"artcc": "ZMA",
		"type": "RP",
		"updated": "DHP*VORTAC*007.59"
	},
	{
		"name": "BLDOG",
		"latitude": "27-38-28.06 N",
		"longitude": "80-38-44.62 W",
		"state": "FLORIDA",
		"artcc": "ZMA",
		"type": "RNAV",
		"updated": "01/06/2009"
	},
	{
		"name": "BLEED",
		"latitude": "26-40-23 N",
		"longitude": "80-58-52.79 W",
		"state": "FLORIDA",
		"artcc": "ZMA",
		"type": "RNAV",
		"updated": "12/29/2008"
	},
	{
		"name": "BLKHL",
		"latitude": "28-43-6.33 N",
		"longitude": "80-34-54.38 W",
		"state": "FLORIDA",
		"artcc": "ZMA",
		"type": "RNAV",
		"updated": "06/18/2010"
	},
	{
		"name": "BLNKT",
		"latitude": "26-37-11.77 N",
		"longitude": "80-4-56.3 W",
		"state": "FLORIDA",
		"artcc": "ZMA",
		"type": "RNAV",
		"updated": "11/10/2009"
	},
	{
		"name": "BLOND",
		"latitude": "27-54-51.77 N",
		"longitude": "83-9-48.77 W",
		"state": "FLORIDA",
		"artcc": "ZMA",
		"type": "RP",
		"updated": "PIE*VORTAC*276.00/25.48"
	},
	{
		"name": "BLOOP",
		"latitude": "27-52-9.71 N",
		"longitude": "82-41-10.87 W",
		"state": "FLORIDA",
		"artcc": "ZMA",
		"type": "RP",
		"updated": "PIE*VORTAC*187.71/2.30"
	},
	{
		"name": "BLUFI",
		"latitude": "26-53-37.86 N",
		"longitude": "79-49-53.06 W",
		"state": "FLORIDA",
		"artcc": "ZMA",
		"type": "RP",
		"updated": "VKZ*VOR/DME*018.23/70.50"
	},
	{
		"name": "BLUNE",
		"latitude": "25-37-28.16 N",
		"longitude": "80-13-27.44 W",
		"state": "FLORIDA",
		"artcc": "ZMA",
		"type": "RNAV",
		"updated": "08/04/2006"
	},
	{
		"name": "BLUWX",
		"latitude": "26-57-53 N",
		"longitude": "79-38-48 W",
		"state": "OFFSHORE ATLANTIC",
		"artcc": "ZMA",
		"type": "RNAV",
		"updated": "01/28/2016"
	},
	{
		"name": "BNTTZ",
		"latitude": "25-15-50 N",
		"longitude": "76-19-18 W",
		"state": "",
		"artcc": "ZMA",
		"type": "RP",
		"updated": "ZQA*VOR/DME*082.66/62.87"
	},
	{
		"name": "BOATR",
		"latitude": "27-24-28.56 N",
		"longitude": "79-48-21.99 W",
		"state": "OFFSHORE ATLANTIC",
		"artcc": "ZMA",
		"type": "RP",
		"updated": "ZBV*VORTAC*349.00/105.58"
	},
	{
		"name": "BOBIO",
		"latitude": "26-50-19.07 N",
		"longitude": "80-51-24.65 W",
		"state": "FLORIDA",
		"artcc": "ZMA",
		"type": "RNAV",
		"updated": "07/14/2011"
	},
	{
		"name": "BODLO",
		"latitude": "20-24-23.22 N",
		"longitude": "73-0-29.52 W",
		"state": "OFFSHORE ATLANTIC",
		"artcc": "ZMA",
		"type": "RP",
		"updated": "11/03/1993"
	},
	{
		"name": "BOMRR",
		"latitude": "27-53-27.67 N",
		"longitude": "82-14-9.51 W",
		"state": "FLORIDA",
		"artcc": "ZMA",
		"type": "RNAV",
		"updated": "01/25/2013"
	},
	{
		"name": "BONDI",
		"latitude": "26-3-58.61 N",
		"longitude": "79-46-11.2 W",
		"state": "FLORIDA",
		"artcc": "ZMA",
		"type": "RP",
		"updated": "PBI*VORTAC*158.00/40.49"
	},
	{
		"name": "BOONN",
		"latitude": "28-0-57.91 N",
		"longitude": "81-33-43.98 W",
		"state": "FLORIDA",
		"artcc": "ZMA",
		"type": "RNAV",
		"updated": "03/27/2009"
	},
	{
		"name": "BORDO",
		"latitude": "24-0-0.19 N",
		"longitude": "78-27-31.93 W",
		"state": "",
		"artcc": "ZMA",
		"type": "RP",
		"updated": "ZBV*VORTAC*159.72/111.66"
	},
	{
		"name": "BORLE",
		"latitude": "26-5-9.46 N",
		"longitude": "80-38-0.12 W",
		"state": "FLORIDA",
		"artcc": "ZMA",
		"type": "RNAV",
		"updated": "08/04/2006"
	},
	{
		"name": "BOSAR",
		"latitude": "24-38-13.24 N",
		"longitude": "76-50-59.76 W",
		"state": "",
		"artcc": "ZMA",
		"type": "RP",
		"updated": "ZQA*VOR/DME*131.39/40.00"
	},
	{
		"name": "BOTES",
		"latitude": "20-25-1.4 N",
		"longitude": "71-46-28.4 W",
		"state": "",
		"artcc": "ZMA",
		"type": "RP",
		"updated": "ZIN*NDB*112.46"
	},
	{
		"name": "BOXKR",
		"latitude": "27-35-9.57 N",
		"longitude": "83-17-55.64 W",
		"state": "OFFSHORE GULF",
		"artcc": "ZMA",
		"type": "RP",
		"updated": "LAL*VORTAC*250.00/72.45"
	},
	{
		"name": "BOYAB",
		"latitude": "28-8-18.64 N",
		"longitude": "81-28-0.31 W",
		"state": "FLORIDA",
		"artcc": "ZMA",
		"type": "RNAV",
		"updated": "07/09/2009"
	},
	{
		"name": "BOYUR",
		"latitude": "26-23-1.58 N",
		"longitude": "79-52-35.69 W",
		"state": "FLORIDA",
		"artcc": "ZMA",
		"type": "RNAV",
		"updated": "09/01/2005"
	},
	{
		"name": "BRBRA",
		"latitude": "25-58-2.23 N",
		"longitude": "80-27-10.87 W",
		"state": "FLORIDA",
		"artcc": "ZMA",
		"type": "RP",
		"updated": "DHP*VORTAC*334.68/11.48"
	},
	{
		"name": "BRDEE",
		"latitude": "27-12-3.89 N",
		"longitude": "80-10-30.7 W",
		"state": "FLORIDA",
		"artcc": "ZMA",
		"type": "WP",
		"updated": "10/28/2009"
	},
	{
		"name": "BRDGE",
		"latitude": "27-27-9.3 N",
		"longitude": "82-8-3.74 W",
		"state": "FLORIDA",
		"artcc": "ZMA",
		"type": "RP",
		"updated": "PIE*VORTAC*137.79/40.00"
	},
	{
		"name": "BREWT",
		"latitude": "28-24-14.96 N",
		"longitude": "80-47-41.39 W",
		"state": "FLORIDA",
		"artcc": "ZMA",
		"type": "RP",
		"updated": "ORL*VORTAC*106.06"
	},
	{
		"name": "BRIKL",
		"latitude": "26-8-16.86 N",
		"longitude": "80-23-18.24 W",
		"state": "FLORIDA",
		"artcc": "ZMA",
		"type": "RP",
		"updated": "PHK*VOR/DME*157.00/41.88"
	},
	{
		"name": "BRNGR",
		"latitude": "27-1-52.67 N",
		"longitude": "79-51-27.05 W",
		"state": "FLORIDA",
		"artcc": "ZMA",
		"type": "RNAV",
		"updated": "10/26/2009"
	},
	{
		"name": "BRONG",
		"latitude": "27-27-4.99 N",
		"longitude": "80-9-37.12 W",
		"state": "FLORIDA",
		"artcc": "ZMA",
		"type": "RNAV",
		"updated": "07/11/2012"
	},
	{
		"name": "BRONO",
		"latitude": "24-48-37 N",
		"longitude": "77-32-50.24 W",
		"state": "",
		"artcc": "ZMA",
		"type": "RP",
		"updated": "ZQA*VOR/DME*209.16/14.00"
	},
	{
		"name": "BROOM",
		"latitude": "27-50-0 N",
		"longitude": "75-25-24.85 W",
		"state": "OFFSHORE ATLANTIC",
		"artcc": "ZMA",
		"type": "RNAV",
		"updated": "09/16/2008"
	},
	{
		"name": "BRRGO",
		"latitude": "24-25-0 N",
		"longitude": "74-33-55.9 W",
		"state": "",
		"artcc": "ZMA",
		"type": "RP",
		"updated": "ZFP*VOR/DME*121.79/258.24"
	},
	{
		"name": "BRTHR",
		"latitude": "26-48-45.42 N",
		"longitude": "80-7-1.28 W",
		"state": "FLORIDA",
		"artcc": "ZMA",
		"type": "RNAV",
		"updated": "11/10/2009"
	},
	{
		"name": "BRUNG",
		"latitude": "27-54-1.45 N",
		"longitude": "82-47-15.58 W",
		"state": "FLORIDA",
		"artcc": "ZMA",
		"type": "RNAV",
		"updated": "11/11/2010"
	},
	{
		"name": "BRUSK",
		"latitude": "27-1-20.72 N",
		"longitude": "82-12-22.91 W",
		"state": "FLORIDA",
		"artcc": "ZMA",
		"type": "RNAV",
		"updated": "07/28/2015"
	},
	{
		"name": "BSTER",
		"latitude": "25-47-6.07 N",
		"longitude": "80-25-10.45 W",
		"state": "FLORIDA",
		"artcc": "ZMA",
		"type": "RNAV",
		"updated": "02/12/2012"
	},
	{
		"name": "BTLER",
		"latitude": "22-14-21 N",
		"longitude": "72-40-7 W",
		"state": "OFFSHORE ATLANTIC",
		"artcc": "ZMA",
		"type": "RP",
		"updated": "GTK*VORTAC*307.42/98.05"
	},
	{
		"name": "BTOGA",
		"latitude": "26-27-56.38 N",
		"longitude": "80-2-58.04 W",
		"state": "FLORIDA",
		"artcc": "ZMA",
		"type": "RNAV",
		"updated": "07/19/2012"
	},
	{
		"name": "BUBEB",
		"latitude": "23-59-43.15 N",
		"longitude": "74-43-33.71 W",
		"state": "",
		"artcc": "ZMA",
		"type": "RNAV",
		"updated": "11/26/2002"
	},
	{
		"name": "BUCMU",
		"latitude": "26-37-21.64 N",
		"longitude": "81-24-44.46 W",
		"state": "FLORIDA",
		"artcc": "ZMA",
		"type": "RNAV",
		"updated": "06/22/2009"
	},
	{
		"name": "BUEYE",
		"latitude": "27-43-10.93 N",
		"longitude": "80-36-45.75 W",
		"state": "FLORIDA",
		"artcc": "ZMA",
		"type": "RP",
		"updated": "MLB*VOR/DME*184.01"
	},
	{
		"name": "BUFIT",
		"latitude": "26-35-26.95 N",
		"longitude": "79-57-6.43 W",
		"state": "FLORIDA",
		"artcc": "ZMA",
		"type": "RNAV",
		"updated": "11/10/2009"
	},
	{
		"name": "BULOW",
		"latitude": "26-45-11.81 N",
		"longitude": "82-5-22.86 W",
		"state": "FLORIDA",
		"artcc": "ZMA",
		"type": "RNAV",
		"updated": "03/31/2008"
	},
	{
		"name": "BUNKR",
		"latitude": "26-4-2.97 N",
		"longitude": "80-30-16.05 W",
		"state": "FLORIDA",
		"artcc": "ZMA",
		"type": "RP",
		"updated": "DHP*VORTAC*336.32"
	},
	{
		"name": "BURBO",
		"latitude": "26-12-55.21 N",
		"longitude": "78-13-13.48 W",
		"state": "",
		"artcc": "ZMA",
		"type": "RP",
		"updated": "ZBV*VORTAC*066.00"
	},
	{
		"name": "BURPY",
		"latitude": "24-33-28.87 N",
		"longitude": "81-33-4.49 W",
		"state": "FLORIDA",
		"artcc": "ZMA",
		"type": "RNAV",
		"updated": "04/12/2006"
	},
	{
		"name": "BURRL",
		"latitude": "24-59-22.02 N",
		"longitude": "77-16-2.21 W",
		"state": "",
		"artcc": "ZMA",
		"type": "RP",
		"updated": "ZQA*VOR/DME*108.42/10.00"
	},
	{
		"name": "BURTZ",
		"latitude": "21-4-27.62 N",
		"longitude": "71-39-57.75 W",
		"state": "OFFSHORE ATLANTIC",
		"artcc": "ZMA",
		"type": "RP",
		"updated": "PTA*VOR/DME*331.05/99.96"
	},
	{
		"name": "BUSBY",
		"latitude": "24-33-18.75 N",
		"longitude": "81-50-58.77 W",
		"state": "FLORIDA",
		"artcc": "ZMA",
		"type": "RNAV",
		"updated": "09/25/2007"
	},
	{
		"name": "BUSCH",
		"latitude": "27-38-56.21 N",
		"longitude": "81-37-20.48 W",
		"state": "FLORIDA",
		"artcc": "ZMA",
		"type": "MR",
		"updated": "MCF*TACAN*104.00/49.00"
	},
	{
		"name": "BUTLY",
		"latitude": "26-21-17.25 N",
		"longitude": "81-57-49.49 W",
		"state": "FLORIDA",
		"artcc": "ZMA",
		"type": "RNAV",
		"updated": "07/15/2011"
	}
]
