[
	{
		"name": "DAAST",
		"latitude": "26-0-31.49 N",
		"longitude": "75-51-5.65 W",
		"state": "",
		"artcc": "ZMA",
		"type": "RNAV",
		"updated": "04/07/2008"
	},
	{
		"name": "DALOO",
		"latitude": "27-12-39.27 N",
		"longitude": "80-0-48.95 W",
		"state": "FLORIDA",
		"artcc": "ZMA",
		"type": "RP",
		"updated": "PBI*VORTAC*010.00/32.00"
	},
	{
		"name": "DAWNO",
		"latitude": "27-54-2 N",
		"longitude": "82-31-52.16 W",
		"state": "FLORIDA",
		"artcc": "ZMA",
		"type": "RP",
		"updated": "PIE*VORTAC*092.00"
	},
	{
		"name": "DEAKK",
		"latitude": "27-27-9.42 N",
		"longitude": "82-8-3.84 W",
		"state": "FLORIDA",
		"artcc": "ZMA",
		"type": "RNAV",
		"updated": "03/16/2007"
	},
	{
		"name": "DEARY",
		"latitude": "28-6-2.53 N",
		"longitude": "80-54-51.4 W",
		"state": "FLORIDA",
		"artcc": "ZMA",
		"type": "RP",
		"updated": "VKZ*VOR/DME*348.00/146.31"
	},
	{
		"name": "DEEDS",
		"latitude": "25-58-40.31 N",
		"longitude": "81-13-59.6 W",
		"state": "FLORIDA",
		"artcc": "ZMA",
		"type": "RP",
		"updated": "PHK*VOR/DME*211.35/56.31"
	},
	{
		"name": "DEEEP",
		"latitude": "25-34-50.81 N",
		"longitude": "80-23-56.85 W",
		"state": "FLORIDA",
		"artcc": "ZMA",
		"type": "RNAV",
		"updated": "02/12/2012"
	},
	{
		"name": "DEKAL",
		"latitude": "25-51-2.02 N",
		"longitude": "79-37-52.89 W",
		"state": "OFFSHORE ATLANTIC",
		"artcc": "ZMA",
		"type": "RP",
		"updated": "ZBV*VORTAC*299.71/20.24"
	},
	{
		"name": "DELDO",
		"latitude": "26-32-3.75 N",
		"longitude": "81-47-35.95 W",
		"state": "FLORIDA",
		"artcc": "ZMA",
		"type": "RNAV",
		"updated": "07/15/2011"
	},
	{
		"name": "DEMTE",
		"latitude": "24-31-17.68 N",
		"longitude": "81-52-55.32 W",
		"state": "FLORIDA",
		"artcc": "ZMA",
		"type": "MW",
		"updated": "01/13/2010"
	},
	{
		"name": "DEPAC",
		"latitude": "24-32-26.57 N",
		"longitude": "81-42-58.34 W",
		"state": "FLORIDA",
		"artcc": "ZMA",
		"type": "RP",
		"updated": "NQX*TACAN*220.00/3.00"
	},
	{
		"name": "DIAPR",
		"latitude": "26-51-48.42 N",
		"longitude": "80-19-56.64 W",
		"state": "FLORIDA",
		"artcc": "ZMA",
		"type": "RNAV",
		"updated": "11/10/2009"
	},
	{
		"name": "DIAZZ",
		"latitude": "24-51-17.64 N",
		"longitude": "75-22-8.41 W",
		"state": "OFFSHORE ATLANTIC",
		"artcc": "ZMA",
		"type": "RP",
		"updated": "ZQA*VOR/DME*101.71/113.75"
	},
	{
		"name": "DIBUF",
		"latitude": "26-14-17.03 N",
		"longitude": "81-23-51.29 W",
		"state": "FLORIDA",
		"artcc": "ZMA",
		"type": "RNAV",
		"updated": "06/22/2009"
	},
	{
		"name": "DICKI",
		"latitude": "25-33-17.59 N",
		"longitude": "80-10-28.34 W",
		"state": "FLORIDA",
		"artcc": "ZMA",
		"type": "RNAV",
		"updated": "08/07/2006"
	},
	{
		"name": "DIDDY",
		"latitude": "27-18-38.15 N",
		"longitude": "80-52-55.92 W",
		"state": "FLORIDA",
		"artcc": "ZMA",
		"type": "RP",
		"updated": "PHK*VOR/DME*342.11/33.19"
	},
	{
		"name": "DIINO",
		"latitude": "28-39-59.95 N",
		"longitude": "80-25-35.43 W",
		"state": "FLORIDA",
		"artcc": "ZMA",
		"type": "RP",
		"updated": "OMN*VORTAC*136.37/52.49"
	},
	{
		"name": "DIMND",
		"latitude": "27-33-18.66 N",
		"longitude": "79-12-34.63 W",
		"state": "FLORIDA",
		"artcc": "ZMA",
		"type": "RP",
		"updated": "VKZ*VOR/DME*029.00/119.24"
	},
	{
		"name": "DIMVE",
		"latitude": "24-33-50.57 N",
		"longitude": "81-43-49.18 W",
		"state": "FLORIDA",
		"artcc": "ZMA",
		"type": "MW",
		"updated": "01/12/2010"
	},
	{
		"name": "DIRAY",
		"latitude": "27-28-18.41 N",
		"longitude": "82-29-8.48 W",
		"state": "FLORIDA",
		"artcc": "ZMA",
		"type": "RNAV",
		"updated": "12/09/2010"
	},
	{
		"name": "DMGBD",
		"latitude": "26-29-25.1 N",
		"longitude": "81-58-52.36 W",
		"state": "FLORIDA",
		"artcc": "ZMA",
		"type": "CN",
		"updated": "07/15/2011"
	},
	{
		"name": "DODIK",
		"latitude": "26-50-28.71 N",
		"longitude": "81-56-39.87 W",
		"state": "FLORIDA",
		"artcc": "ZMA",
		"type": "RP",
		"updated": "02/15/2018"
	},
	{
		"name": "DOGLE",
		"latitude": "26-59-52 N",
		"longitude": "81-56-15.24 W",
		"state": "FLORIDA",
		"artcc": "ZMA",
		"type": "RNAV",
		"updated": "07/29/2015"
	},
	{
		"name": "DOLKE",
		"latitude": "27-23-16.94 N",
		"longitude": "81-38-38.66 W",
		"state": "FLORIDA",
		"artcc": "ZMA",
		"type": "RNAV",
		"updated": "05/10/2013"
	},
	{
		"name": "DOLPN",
		"latitude": "26-28-58.13 N",
		"longitude": "81-50-13.34 W",
		"state": "FLORIDA",
		"artcc": "ZMA",
		"type": "RP",
		"updated": "RSW*LD*238.10/6.60"
	},
	{
		"name": "DOMGE",
		"latitude": "28-12-46.79 N",
		"longitude": "80-37-0.02 W",
		"state": "FLORIDA",
		"artcc": "ZMA",
		"type": "MR",
		"updated": "COF*TACAN*197.00/1.50"
	},
	{
		"name": "DONEZ",
		"latitude": "24-15-46.62 N",
		"longitude": "76-16-56.97 W",
		"state": "OFFSHORE ATLANTIC",
		"artcc": "ZMA",
		"type": "RP",
		"updated": "ZQA*VOR/DME*131.39/78.28"
	},
	{
		"name": "DONVN",
		"latitude": "26-36-45.93 N",
		"longitude": "80-38-29.39 W",
		"state": "FLORIDA",
		"artcc": "ZMA",
		"type": "RNAV",
		"updated": "11/10/2009"
	},
	{
		"name": "DORMR",
		"latitude": "27-38-38.5 N",
		"longitude": "83-16-25.71 W",
		"state": "OFFSHORE GULF",
		"artcc": "ZMA",
		"type": "RNAV",
		"updated": "02/16/2010"
	},
	{
		"name": "DORWX",
		"latitude": "25-53-32.6 N",
		"longitude": "81-0-59.39 W",
		"state": "FLORIDA",
		"artcc": "ZMA",
		"type": "RNAV",
		"updated": "01/28/2016"
	},
	{
		"name": "DOUGZ",
		"latitude": "26-26-26 N",
		"longitude": "80-39-26 W",
		"state": "FLORIDA",
		"artcc": "ZMA",
		"type": "RNAV",
		"updated": "02/11/2010"
	},
	{
		"name": "DOWNN",
		"latitude": "27-30-38.76 N",
		"longitude": "81-45-23.68 W",
		"state": "FLORIDA",
		"artcc": "ZMA",
		"type": "RP",
		"updated": "RSW*VORTAC*003.00/58.70"
	},
	{
		"name": "DOXSI",
		"latitude": "25-46-58.06 N",
		"longitude": "80-23-38.14 W",
		"state": "FLORIDA",
		"artcc": "ZMA",
		"type": "RNAV",
		"updated": "09/12/2013"
	},
	{
		"name": "DRIVM",
		"latitude": "25-40-44.92 N",
		"longitude": "80-27-42.76 W",
		"state": "FLORIDA",
		"artcc": "ZMA",
		"type": "RNAV",
		"updated": "02/12/2012"
	},
	{
		"name": "DRMEE",
		"latitude": "25-55-59.59 N",
		"longitude": "81-5-45.06 W",
		"state": "FLORIDA",
		"artcc": "ZMA",
		"type": "RNAV",
		"updated": "09/20/2010"
	},
	{
		"name": "DROWN",
		"latitude": "24-43-4.04 N",
		"longitude": "80-34-45.45 W",
		"state": "FLORIDA",
		"artcc": "ZMA",
		"type": "RP",
		"updated": "EYW*VORTAC*082.00/67.22"
	},
	{
		"name": "DRUUM",
		"latitude": "25-49-40.87 N",
		"longitude": "80-14-38.36 W",
		"state": "FLORIDA",
		"artcc": "ZMA",
		"type": "RP",
		"updated": "PHK*VOR/DME*157.00/62.00"
	},
	{
		"name": "DUBBL",
		"latitude": "26-42-19.8 N",
		"longitude": "79-39-32.22 W",
		"state": "FLORIDA",
		"artcc": "ZMA",
		"type": "RP",
		"updated": "VKZ*VOR/DME*029.00/63.00"
	},
	{
		"name": "DUDGE",
		"latitude": "26-47-26.04 N",
		"longitude": "80-41-27.94 W",
		"state": "FLORIDA",
		"artcc": "ZMA",
		"type": "RP",
		"updated": "PHK*VOR/DME*002.15/0.47"
	},
	{
		"name": "DUFBO",
		"latitude": "26-4-58.06 N",
		"longitude": "81-51-2.97 W",
		"state": "FLORIDA",
		"artcc": "ZMA",
		"type": "RNAV",
		"updated": "09/28/2009"
	},
	{
		"name": "DUKKY",
		"latitude": "23-34-50 N",
		"longitude": "75-15-50 W",
		"state": "",
		"artcc": "ZMA",
		"type": "RP",
		"updated": "ZIN*NDB*339.90"
	},
	{
		"name": "DULEE",
		"latitude": "29-49-50.52 N",
		"longitude": "79-8-57.43 W",
		"state": "OFFSHORE ATLANTIC",
		"artcc": "ZMA",
		"type": "RNAV",
		"updated": "08/29/2005"
	},
	{
		"name": "DUMDE",
		"latitude": "27-40-23.62 N",
		"longitude": "82-40-32.7 W",
		"state": "FLORIDA",
		"artcc": "ZMA",
		"type": "MR",
		"updated": "MCF*TACAN*/14.18"
	},
	{
		"name": "DUNED",
		"latitude": "22-25-39.28 N",
		"longitude": "69-36-10.83 W",
		"state": "OFFSHORE ATLANTIC",
		"artcc": "ZMA",
		"type": "RP",
		"updated": "PTA*VOR/DME*026.62/168.50"
	},
	{
		"name": "DUNNO",
		"latitude": "22-55-42.26 N",
		"longitude": "75-55-52.6 W",
		"state": "",
		"artcc": "ZMA",
		"type": "RP",
		"updated": "ZIN*NDB*319.53"
	},
	{
		"name": "DUPNT",
		"latitude": "26-39-39.99 N",
		"longitude": "81-23-50.44 W",
		"state": "FLORIDA",
		"artcc": "ZMA",
		"type": "RP",
		"updated": "LBV*VORTAC*180.82/10.00"
	},
	{
		"name": "DVALL",
		"latitude": "25-30-52.87 N",
		"longitude": "80-59-56.24 W",
		"state": "FLORIDA",
		"artcc": "ZMA",
		"type": "RP",
		"updated": "EYW*VORTAC*037.00/70.66"
	},
	{
		"name": "DYLYN",
		"latitude": "26-41-29 N",
		"longitude": "81-10-28 W",
		"state": "FLORIDA",
		"artcc": "ZMA",
		"type": "RNAV",
		"updated": "02/15/2018"
	},
	{
		"name": "DYNAH",
		"latitude": "23-56-58.19 N",
		"longitude": "77-56-48.6 W",
		"state": "OFFSHORE ATLANTIC",
		"artcc": "ZMA",
		"type": "RP",
		"updated": "ZQA*VOR/DME*209.16/69.94"
	}
]
