	{
		"name": "EADEN",
		"latitude": "24-31-34.46 N",
		"longitude": "81-51-30.1 W",
		"state": "FLORIDA",
		"artcc": "ZMA",
		"type": "RNAV",
		"updated": "12/15/2015",
	},
	{
		"name": "EARTH",
		"latitude": "28-50-37.69 N",
		"longitude": "80-42-48.63 W",
		"state": "FLORIDA",
		"artcc": "ZMA",
		"type": "RNAV",
		"updated": "08/09/2013",
	},
	{
		"name": "EBAXE",
		"latitude": "26-36-48.68 N",
		"longitude": "81-49-47.6 W",
		"state": "FLORIDA",
		"artcc": "ZMA",
		"type": "RNAV",
		"updated": "07/15/2011",
	},
	{
		"name": "EBPAD",
		"latitude": "27-52-5.99 N",
		"longitude": "82-0-22.8 W",
		"state": "FLORIDA",
		"artcc": "ZMA",
		"type": "RNAV",
		"updated": "03/30/2009",
	},
	{
		"name": "ECADE",
		"latitude": "27-59-22.05 N",
		"longitude": "81-55-5.11 W",
		"state": "FLORIDA",
		"artcc": "ZMA",
		"type": "RNAV",
		"updated": "01/25/2013",
	},
	{
		"name": "ECAMO",
		"latitude": "26-26-2.25 N",
		"longitude": "81-30-13.32 W",
		"state": "FLORIDA",
		"artcc": "ZMA",
		"type": "RNAV",
		"updated": "07/09/2017",
	},
	{
		"name": "ECIPA",
		"latitude": "24-34-17.25 N",
		"longitude": "81-42-4.17 W",
		"state": "FLORIDA",
		"artcc": "ZMA",
		"type": "MR",
		"updated": "EYW*VORTAC*098.00/5.50",
	},
	{
		"name": "ECKOS",
		"latitude": "27-47-10.3 N",
		"longitude": "80-20-42.28 W",
		"state": "FLORIDA",
		"artcc": "ZMA",
		"type": "RP",
		"updated": "MLB*VOR/DME*148.00",
	},
	{
		"name": "ECOYI",
		"latitude": "26-13-43.53 N",
		"longitude": "80-8-19.14 W",
		"state": "FLORIDA",
		"artcc": "ZMA",
		"type": "RNAV",
		"updated": "06/01/2006",
	},
	{
		"name": "ECQUG",
		"latitude": "26-37-53.82 N",
		"longitude": "80-0-2.54 W",
		"state": "FLORIDA",
		"artcc": "ZMA",
		"type": "CN",
		"updated": "12/20/2009",
	},
	{
		"name": "ECUBE",
		"latitude": "26-6-43.67 N",
		"longitude": "80-13-3.38 W",
		"state": "FLORIDA",
		"artcc": "ZMA",
		"type": "RNAV",
		"updated": "07/19/2011",
	},
	{
		"name": "EGANN",
		"latitude": "22-1-16.7 N",
		"longitude": "72-14-2.19 W",
		"state": "",
		"artcc": "ZMA",
		"type": "RP",
		"updated": "GTK*VORTAC*307.68/70.56",
	},
	{
		"name": "EGBIJ",
		"latitude": "28-31-25.46 N",
		"longitude": "80-47-46.66 W",
		"state": "FLORIDA",
		"artcc": "ZMA",
		"type": "CN",
		"updated": "06/22/2009",
	},
	{
		"name": "EGEYA",
		"latitude": "26-6-35.04 N",
		"longitude": "80-11-39.99 W",
		"state": "FLORIDA",
		"artcc": "ZMA",
		"type": "RNAV",
		"updated": "07/19/2011",
	},
	{
		"name": "EGOTE",
		"latitude": "26-56-57.66 N",
		"longitude": "81-58-3.91 W",
		"state": "FLORIDA",
		"artcc": "ZMA",
		"type": "RNAV",
		"updated": "07/29/2015",
	},
	{
		"name": "EHAGU",
		"latitude": "28-3-42.57 N",
		"longitude": "81-47-57.99 W",
		"state": "FLORIDA",
		"artcc": "ZMA",
		"type": "RNAV",
		"updated": "10/03/2007",
	},
	{
		"name": "EHECU",
		"latitude": "28-16-8.97 N",
		"longitude": "81-28-33.91 W",
		"state": "FLORIDA",
		"artcc": "ZMA",
		"type": "RNAV",
		"updated": "08/02/2012",
	},
	{
		"name": "EHFAZ",
		"latitude": "26-47-43.63 N",
		"longitude": "82-19-37.63 W",
		"state": "FLORIDA",
		"artcc": "ZMA",
		"type": "RNAV",
		"updated": "08/11/2016",
	},
	{
		"name": "EJAMO",
		"latitude": "26-4-28.13 N",
		"longitude": "81-41-30.15 W",
		"state": "FLORIDA",
		"artcc": "ZMA",
		"type": "RNAV",
		"updated": "11/10/2009",
	},
	{
		"name": "ELBOW",
		"latitude": "26-25-34.22 N",
		"longitude": "76-43-35.43 W",
		"state": "",
		"artcc": "ZMA",
		"type": "RP",
		"updated": "ZQA*VOR/DME*030.81/92.42",
	},
	{
		"name": "ELDER",
		"latitude": "27-59-28.43 N",
		"longitude": "78-37-37.02 W",
		"state": "FLORIDA",
		"artcc": "ZMA",
		"type": "RP",
		"updated": "ZFP*VOR/DME*005.51/86.00",
	},
	{
		"name": "ELEBE",
		"latitude": "27-39-46.85 N",
		"longitude": "82-46-8.05 W",
		"state": "FLORIDA",
		"artcc": "ZMA",
		"type": "MW",
		"updated": "05/25/2007",
	},
	{
		"name": "ELJOM",
		"latitude": "25-39-15.74 N",
		"longitude": "80-23-56.84 W",
		"state": "FLORIDA",
		"artcc": "ZMA",
		"type": "RNAV",
		"updated": "09/14/2009",
	},
	{
		"name": "ELLEE",
		"latitude": "24-52-50.21 N",
		"longitude": "79-41-24.07 W",
		"state": "",
		"artcc": "ZMA",
		"type": "RP",
		"updated": "DHP*VORTAC*150.78/65.63",
	},
	{
		"name": "EMASE",
		"latitude": "27-46-28.94 N",
		"longitude": "82-35-15.7 W",
		"state": "FLORIDA",
		"artcc": "ZMA",
		"type": "MR",
		"updated": "MCF*TACAN*/6.51",
	},
	{
		"name": "EMBRA",
		"latitude": "25-48-16.76 N",
		"longitude": "80-12-17.88 W",
		"state": "FLORIDA",
		"artcc": "ZMA",
		"type": "RNAV",
		"updated": "07/26/2007",
	},
	{
		"name": "EMBRU",
		"latitude": "27-15-48.2 N",
		"longitude": "81-20-32.3 W",
		"state": "FLORIDA",
		"artcc": "ZMA",
		"type": "RNAV",
		"updated": "12/29/2008",
	},
	{
		"name": "EMDUJ",
		"latitude": "25-57-5.11 N",
		"longitude": "81-51-47.65 W",
		"state": "FLORIDA",
		"artcc": "ZMA",
		"type": "RNAV",
		"updated": "09/28/2009",
	},
	{
		"name": "EMGOR",
		"latitude": "24-9-42.86 N",
		"longitude": "74-42-37.08 W",
		"state": "",
		"artcc": "ZMA",
		"type": "RNAV",
		"updated": "11/26/2002",
	},
	{
		"name": "EMIPE",
		"latitude": "27-49-53.93 N",
		"longitude": "82-32-17.43 W",
		"state": "FLORIDA",
		"artcc": "ZMA",
		"type": "MR",
		"updated": "MCF*TACAN*/2.20",
	},
	{
		"name": "ENAMO",
		"latitude": "23-33-43.87 N",
		"longitude": "77-21-34.6 W",
		"state": "OFFSHORE ATLANTIC",
		"artcc": "ZMA",
		"type": "RP",
		"updated": "ZQA*VOR/DME*182.87/87.65",
	},
	{
		"name": "ENDUW",
		"latitude": "26-53-9.89 N",
		"longitude": "80-2-21.8 W",
		"state": "FLORIDA",
		"artcc": "ZMA",
		"type": "RNAV",
		"updated": "12/29/2009",
	},
	{
		"name": "ENVER",
		"latitude": "26-10-30.98 N",
		"longitude": "80-24-20.77 W",
		"state": "FLORIDA",
		"artcc": "ZMA",
		"type": "RP",
		"updated": "PHK*VOR/DME*157.00/39.46",
	},
	{
		"name": "EONNS",
		"latitude": "25-17-48.19 N",
		"longitude": "79-59-12.62 W",
		"state": "FLORIDA",
		"artcc": "ZMA",
		"type": "RP",
		"updated": "ZBV*VORTAC*241.19",
	},
	{
		"name": "EONWX",
		"latitude": "25-18-15 N",
		"longitude": "80-0-40 W",
		"state": "OFFSHORE ATLANTIC",
		"artcc": "ZMA",
		"type": "RNAV",
		"updated": "01/28/2016",
	},
	{
		"name": "EPENY",
		"latitude": "25-54-13.51 N",
		"longitude": "80-28-13.04 W",
		"state": "FLORIDA",
		"artcc": "ZMA",
		"type": "RNAV",
		"updated": "12/15/2015",
	},
	{
		"name": "EPLOW",
		"latitude": "27-33-27.92 N",
		"longitude": "80-37-5.27 W",
		"state": "FLORIDA",
		"artcc": "ZMA",
		"type": "RNAV",
		"updated": "01/06/2009",
	},
	{
		"name": "ERICO",
		"latitude": "27-33-7.17 N",
		"longitude": "82-24-54.13 W",
		"state": "FLORIDA",
		"artcc": "ZMA",
		"type": "RNAV",
		"updated": "05/15/2003",
	},
	{
		"name": "ERRCA",
		"latitude": "22-42-17 N",
		"longitude": "76-8-14 W",
		"state": "OFFSHORE ATLANTIC",
		"artcc": "ZMA",
		"type": "RNAV",
		"updated": "05/18/2011",
	},
	{
		"name": "ERRIN",
		"latitude": "26-48-28.62 N",
		"longitude": "81-58-56.38 W",
		"state": "FLORIDA",
		"artcc": "ZMA",
		"type": "RP",
		"updated": "LBV*VORTAC*266.95",
	},
	{
		"name": "ETAPY",
		"latitude": "26-47-47.91 N",
		"longitude": "80-16-38.03 W",
		"state": "FLORIDA",
		"artcc": "ZMA",
		"type": "RNAV",
		"updated": "12/29/2009",
	},
	{
		"name": "ETECK",
		"latitude": "29-29-8.4 N",
		"longitude": "78-29-14.19 W",
		"state": "OFFSHORE ATLANTIC",
		"artcc": "ZMA",
		"type": "RNAV",
		"updated": "05/02/2008",
	},
	{
		"name": "ETIGY",
		"latitude": "27-25-11.67 N",
		"longitude": "82-34-59.34 W",
		"state": "FLORIDA",
		"artcc": "ZMA",
		"type": "RP",
		"updated": "SRQ*VOR/DME*/1.30",
	},
	{
		"name": "ETONY",
		"latitude": "25-46-44.89 N",
		"longitude": "80-28-47.23 W",
		"state": "FLORIDA",
		"artcc": "ZMA",
		"type": "RP",
		"updated": "DHP*VORTAC*/7.19",
	},
	{
		"name": "EVETS",
		"latitude": "23-40-41.6 N",
		"longitude": "75-24-30.24 W",
		"state": "",
		"artcc": "ZMA",
		"type": "RP",
		"updated": "ZIN*NDB*335.70",
	},
	{
		"name": "EVFAM",
		"latitude": "27-46-33.64 N",
		"longitude": "81-36-42.19 W",
		"state": "FLORIDA",
		"artcc": "ZMA",
		"type": "RNAV",
		"updated": "02/12/2010",
	},
	{
		"name": "EWAKA",
		"latitude": "25-43-33.69 N",
		"longitude": "80-18-11 W",
		"state": "FLORIDA",
		"artcc": "ZMA",
		"type": "RNAV",
		"updated": "11/01/2017",
	},
	{
		"name": "EWKIF",
		"latitude": "25-48-10.74 N",
		"longitude": "80-14-45.91 W",
		"state": "FLORIDA",
		"artcc": "ZMA",
		"type": "RNAV",
		"updated": "08/03/2001",
	},
	{
		"name": "EXBAN",
		"latitude": "28-12-44.91 N",
		"longitude": "81-19-28.06 W",
		"state": "FLORIDA",
		"artcc": "ZMA",
		"type": "RNAV",
		"updated": "01/08/2015",
	},
	{
		"name": "EXHUD",
		"latitude": "27-54-50.12 N",
		"longitude": "81-56-8.37 W",
		"state": "FLORIDA",
		"artcc": "ZMA",
		"type": "RNAV",
		"updated": "06/13/2011",
	},
	{
		"name": "EXTER",
		"latitude": "25-46-28.47 N",
		"longitude": "76-16-16.5 W",
		"state": "OFFSHORE ATLANTIC",
		"artcc": "ZMA",
		"type": "RP",
		"updated": "ZQA*VOR/DME*060.69/78.00",
	},
	{
		"name": "EYAXO",
		"latitude": "25-38-4.27 N",
		"longitude": "80-38-5.59 W",
		"state": "FLORIDA",
		"artcc": "ZMA",
		"type": "CN",
		"updated": "02/28/2012",
	},
	{
		"name": "EYSEL",
		"latitude": "22-20-21.37 N",
		"longitude": "70-17-21.55 W",
		"state": "OFFSHORE ATLANTIC",
		"artcc": "ZMA",
		"type": "RNAV",
		"updated": "04/07/2008",
	},
	{
		"name": "EYWIM",
		"latitude": "27-59-24.89 N",
		"longitude": "82-0-46.19 W",
		"state": "FLORIDA",
		"artcc": "ZMA",
		"type": "RNAV",
		"updated": "10/07/2014",
	},
