	{
		"name": "GABEC",
		"latitude": "25-38-22.28 N",
		"longitude": "80-31-12.64 W",
		"state": "FLORIDA",
		"artcc": "ZMA",
		"type": "RP",
		"updated": "DHP*VORTAC*228.05",
	},
	{
		"name": "GALVE",
		"latitude": "26-33-45.96 N",
		"longitude": "81-42-51.59 W",
		"state": "FLORIDA",
		"artcc": "ZMA",
		"type": "RNAV",
		"updated": "07/13/2005",
	},
	{
		"name": "GANDY",
		"latitude": "27-46-5.25 N",
		"longitude": "82-34-26.99 W",
		"state": "FLORIDA",
		"artcc": "ZMA",
		"type": "RNAV",
		"updated": "02/15/2010",
	},
	{
		"name": "GASPR",
		"latitude": "27-31-31.94 N",
		"longitude": "83-10-14.16 W",
		"state": "FLORIDA",
		"artcc": "ZMA",
		"type": "RP",
		"updated": "CTY*VORTAC*185.00/124.25",
	},
	{
		"name": "GAVNE",
		"latitude": "27-35-25.03 N",
		"longitude": "82-39-51.55 W",
		"state": "FLORIDA",
		"artcc": "ZMA",
		"type": "MW",
		"updated": "06/15/2007",
	},
	{
		"name": "GECER",
		"latitude": "26-32-14.15 N",
		"longitude": "80-4-30.73 W",
		"state": "FLORIDA",
		"artcc": "ZMA",
		"type": "RNAV",
		"updated": "06/13/2014",
	},
	{
		"name": "GEGEY",
		"latitude": "26-0-16.5 N",
		"longitude": "80-25-59.43 W",
		"state": "FLORIDA",
		"artcc": "ZMA",
		"type": "RP",
		"updated": "DHP*VORTAC*343.62/13.06",
	},
	{
		"name": "GEPRE",
		"latitude": "28-12-47.82 N",
		"longitude": "80-37-5.7 W",
		"state": "FLORIDA",
		"artcc": "ZMA",
		"type": "MR",
		"updated": "COF*TACAN*/1.50",
	},
	{
		"name": "GEROT",
		"latitude": "24-2-39.05 N",
		"longitude": "75-57-13.12 W",
		"state": "OFFSHORE ATLANTIC",
		"artcc": "ZMA",
		"type": "RP",
		"updated": "ZQA*VOR/DME*131.39/100.57",
	},
	{
		"name": "GHANN",
		"latitude": "22-0-0 N",
		"longitude": "75-10-0 W",
		"state": "",
		"artcc": "ZMA",
		"type": "RNAV",
		"updated": "04/11/2008",
	},
	{
		"name": "GIBBS",
		"latitude": "27-34-27.24 N",
		"longitude": "82-16-50.27 W",
		"state": "FLORIDA",
		"artcc": "ZMA",
		"type": "RP",
		"updated": "PIE*VORTAC*137.79/29.33",
	},
	{
		"name": "GIGIH",
		"latitude": "25-1-17.61 N",
		"longitude": "81-47-41.88 W",
		"state": "OFFSHORE GULF",
		"artcc": "ZMA",
		"type": "RNAV",
		"updated": "11/20/2014",
	},
	{
		"name": "GIGLE",
		"latitude": "28-31-55.75 N",
		"longitude": "80-39-40.64 W",
		"state": "FLORIDA",
		"artcc": "ZMA",
		"type": "MW",
		"updated": "06/08/2016",
	},
	{
		"name": "GILBI",
		"latitude": "26-24-31.77 N",
		"longitude": "80-43-44.46 W",
		"state": "FLORIDA",
		"artcc": "ZMA",
		"type": "RP",
		"updated": "DHP*VORTAC*334.68/41.81",
	},
	{
		"name": "GILDE",
		"latitude": "27-59-22.51 N",
		"longitude": "81-48-11.68 W",
		"state": "FLORIDA",
		"artcc": "ZMA",
		"type": "RNAV",
		"updated": "01/25/2013",
	},
	{
		"name": "GINSE",
		"latitude": "27-21-10.5 N",
		"longitude": "82-30-23.34 W",
		"state": "FLORIDA",
		"artcc": "ZMA",
		"type": "RNAV",
		"updated": "05/12/2003",
	},
	{
		"name": "GISSH",
		"latitude": "26-27-40.32 N",
		"longitude": "79-49-16.46 W",
		"state": "OFFSHORE ATLANTIC",
		"artcc": "ZMA",
		"type": "RP",
		"updated": "ZFP*VOR/DME*267.93/60.73",
	},
	{
		"name": "GITVE",
		"latitude": "26-26-25.33 N",
		"longitude": "81-17-50.08 W",
		"state": "FLORIDA",
		"artcc": "ZMA",
		"type": "RNAV",
		"updated": "07/16/2009",
	},
	{
		"name": "GLRIA",
		"latitude": "25-55-24.22 N",
		"longitude": "80-32-44.39 W",
		"state": "FLORIDA",
		"artcc": "ZMA",
		"type": "RP",
		"updated": "GEM*LD*NW CRS/16.75",
	},
	{
		"name": "GLUMM",
		"latitude": "26-38-41.72 N",
		"longitude": "81-47-28.49 W",
		"state": "FLORIDA",
		"artcc": "ZMA",
		"type": "RNAV",
		"updated": "07/15/2011",
	},
	{
		"name": "GOLDY",
		"latitude": "27-31-31.2 N",
		"longitude": "80-23-25.45 W",
		"state": "FLORIDA",
		"artcc": "ZMA",
		"type": "RP",
		"updated": "TRV*VORTAC*156.95/10.58",
	},
	{
		"name": "GOLTY",
		"latitude": "27-31-55.38 N",
		"longitude": "83-1-21.99 W",
		"state": "FLORIDA",
		"artcc": "ZMA",
		"type": "RNAV",
		"updated": "11/11/2010",
	},
	{
		"name": "GOODY",
		"latitude": "25-58-33.7 N",
		"longitude": "81-38-3.59 W",
		"state": "FLORIDA",
		"artcc": "ZMA",
		"type": "RP",
		"updated": "RSW*VORTAC*169.00/34.00",
	},
	{
		"name": "GOZZO",
		"latitude": "25-48-19.46 N",
		"longitude": "80-11-11.46 W",
		"state": "FLORIDA",
		"artcc": "ZMA",
		"type": "RNAV",
		"updated": "08/09/2006",
	},
	{
		"name": "GRADI",
		"latitude": "20-31-16.31 N",
		"longitude": "69-37-55.29 W",
		"state": "",
		"artcc": "ZMA",
		"type": "RP",
		"updated": "GTK*VORTAC*130.82/100.68",
	},
	{
		"name": "GRAMS",
		"latitude": "26-30-45.87 N",
		"longitude": "81-57-13.31 W",
		"state": "FLORIDA",
		"artcc": "ZMA",
		"type": "RNAV",
		"updated": "07/15/2011",
	},
	{
		"name": "GRITT",
		"latitude": "25-46-45.35 N",
		"longitude": "80-28-34.86 W",
		"state": "FLORIDA",
		"artcc": "ZMA",
		"type": "RP",
		"updated": "BUL*LD*272.38/11.11",
	},
	{
		"name": "GROPP",
		"latitude": "28-9-46.7 N",
		"longitude": "81-27-18.01 W",
		"state": "FLORIDA",
		"artcc": "ZMA",
		"type": "RNAV",
		"updated": "10/24/2007",
	},
	{
		"name": "GRREG",
		"latitude": "26-32-6.94 N",
		"longitude": "77-52-44.15 W",
		"state": "",
		"artcc": "ZMA",
		"type": "RP",
		"updated": "ZFP*VOR/DME*094.37/44.08",
	},
	{
		"name": "GUANA",
		"latitude": "22-24-25.6 N",
		"longitude": "72-59-6.62 W",
		"state": "OFFSHORE ATLANTIC",
		"artcc": "ZMA",
		"type": "RP",
		"updated": "GTK*VORTAC*307.58/118.32",
	},
	{
		"name": "GUAVA",
		"latitude": "25-8-23.45 N",
		"longitude": "76-54-36.67 W",
		"state": "",
		"artcc": "ZMA",
		"type": "RP",
		"updated": "ZQA*VOR/DME*082.71/30.00",
	},
	{
		"name": "GUCEL",
		"latitude": "24-38-52.61 N",
		"longitude": "81-14-15.3 W",
		"state": "FLORIDA",
		"artcc": "ZMA",
		"type": "RP",
		"updated": "EYW*VORTAC*082.00/31.00",
	},
	{
		"name": "GUDME",
		"latitude": "25-43-17.89 N",
		"longitude": "80-23-42.74 W",
		"state": "FLORIDA",
		"artcc": "ZMA",
		"type": "RNAV",
		"updated": "11/01/2017",
	},
	{
		"name": "GULLF",
		"latitude": "24-42-47.82 N",
		"longitude": "80-51-58.57 W",
		"state": "FLORIDA",
		"artcc": "ZMA",
		"type": "RNAV",
		"updated": "06/28/2017",
	},
	{
		"name": "GULLO",
		"latitude": "26-42-2.59 N",
		"longitude": "80-28-39.81 W",
		"state": "FLORIDA",
		"artcc": "ZMA",
		"type": "RNAV",
		"updated": "12/19/2009",
	},
	{
		"name": "GULPE",
		"latitude": "25-18-59.31 N",
		"longitude": "80-36-12.8 W",
		"state": "FLORIDA",
		"artcc": "ZMA",
		"type": "MR",
		"updated": "HST*TACAN*/16.00",
	},
	{
		"name": "GUMMY",
		"latitude": "27-49-35.41 N",
		"longitude": "82-31-56.47 W",
		"state": "FLORIDA",
		"artcc": "ZMA",
		"type": "RP",
		"updated": "PIE*VORTAC*126.00/9.43",
	},
	{
		"name": "GURPE",
		"latitude": "26-54-42.28 N",
		"longitude": "82-10-41.93 W",
		"state": "FLORIDA",
		"artcc": "ZMA",
		"type": "RNAV",
		"updated": "08/11/2016",
	},
	{
		"name": "GUSHY",
		"latitude": "24-52-41.13 N",
		"longitude": "81-4-31.69 W",
		"state": "FLORIDA",
		"artcc": "ZMA",
		"type": "RNAV",
		"updated": "12/15/2015",
	},
	{
		"name": "GUVEQ",
		"latitude": "27-56-5.58 N",
		"longitude": "82-0-1.89 W",
		"state": "FLORIDA",
		"artcc": "ZMA",
		"type": "RNAV",
		"updated": "03/30/2009",
	},
