[
	{
		"name": "HAANA",
		"latitude": "26-43-52.83 N",
		"longitude": "77-22-10.7 W",
		"state": "",
		"artcc": "ZMA",
		"type": "RP",
		"updated": "ZFP*VOR/DME*084.31/72.17"
	},
	{
		"name": "HABED",
		"latitude": "28-27-55.26 N",
		"longitude": "80-33-10.48 W",
		"state": "FLORIDA",
		"artcc": "ZMA",
		"type": "MW",
		"updated": "03/05/2008"
	},
	{
		"name": "HADMO",
		"latitude": "26-33-30.32 N",
		"longitude": "81-53-51.42 W",
		"state": "FLORIDA",
		"artcc": "ZMA",
		"type": "RNAV",
		"updated": "07/15/2011"
	},
	{
		"name": "HALBI",
		"latitude": "26-40-36.39 N",
		"longitude": "79-8-35.6 W",
		"state": "",
		"artcc": "ZMA",
		"type": "RP",
		"updated": "ZBV*VORTAC*011.95"
	},
	{
		"name": "HALLR",
		"latitude": "27-32-40.81 N",
		"longitude": "81-35-55.77 W",
		"state": "FLORIDA",
		"artcc": "ZMA",
		"type": "RP",
		"updated": "LAL*VORTAC*139.00/34.44"
	},
	{
		"name": "HALOM",
		"latitude": "26-48-26.41 N",
		"longitude": "80-3-42.99 W",
		"state": "FLORIDA",
		"artcc": "ZMA",
		"type": "RNAV",
		"updated": "03/13/2014"
	},
	{
		"name": "HALSS",
		"latitude": "29-10-13.32 N",
		"longitude": "79-18-55.97 W",
		"state": "OFFSHORE ATLANTIC",
		"artcc": "ZMA",
		"type": "RNAV",
		"updated": "08/30/2005"
	},
	{
		"name": "HAMVA",
		"latitude": "27-45-8.94 N",
		"longitude": "80-13-32.38 W",
		"state": "FLORIDA",
		"artcc": "ZMA",
		"type": "RNAV",
		"updated": "01/06/2009"
	},
	{
		"name": "HANAX",
		"latitude": "27-59-17.74 N",
		"longitude": "82-2-2.39 W",
		"state": "FLORIDA",
		"artcc": "ZMA",
		"type": "RP",
		"updated": "LAL*VORTAC*275.65/1.08"
	},
	{
		"name": "HANKX",
		"latitude": "25-41-10.75 N",
		"longitude": "77-29-13.93 W",
		"state": "",
		"artcc": "ZMA",
		"type": "RP",
		"updated": "ZFP*VOR/DME*131.22/83.52"
	},
	{
		"name": "HAPOR",
		"latitude": "26-12-43.07 N",
		"longitude": "79-56-55.56 W",
		"state": "FLORIDA",
		"artcc": "ZMA",
		"type": "RNAV",
		"updated": "08/01/2006"
	},
	{
		"name": "HAPUG",
		"latitude": "25-43-8.4 N",
		"longitude": "80-27-1.77 W",
		"state": "FLORIDA",
		"artcc": "ZMA",
		"type": "RNAV",
		"updated": "11/01/2017"
	},
	{
		"name": "HARBG",
		"latitude": "19-52-2.14 N",
		"longitude": "68-56-51.07 W",
		"state": "OFFSHORE ATLANTIC",
		"artcc": "ZMA",
		"type": "RP",
		"updated": "BQN*VORTAC*318.38/132.69"
	},
	{
		"name": "HARKY",
		"latitude": "24-56-25.7 N",
		"longitude": "81-58-49.44 W",
		"state": "OFFSHORE GULF",
		"artcc": "ZMA",
		"type": "MR",
		"updated": "NQX*TACAN*325.00/27.00"
	},
	{
		"name": "HASBO",
		"latitude": "26-28-55.66 N",
		"longitude": "81-50-17.2 W",
		"state": "FLORIDA",
		"artcc": "ZMA",
		"type": "RNAV",
		"updated": "07/13/2005"
	},
	{
		"name": "HASDU",
		"latitude": "25-38-56.77 N",
		"longitude": "80-31-20.98 W",
		"state": "FLORIDA",
		"artcc": "ZMA",
		"type": "RNAV",
		"updated": "09/15/2009"
	},
	{
		"name": "HASOK",
		"latitude": "27-24-0.01 N",
		"longitude": "80-36-51.1 W",
		"state": "FLORIDA",
		"artcc": "ZMA",
		"type": "RNAV",
		"updated": "01/18/2017"
	},
	{
		"name": "HASUP",
		"latitude": "27-53-23.92 N",
		"longitude": "80-14-44.41 W",
		"state": "FLORIDA",
		"artcc": "ZMA",
		"type": "RNAV",
		"updated": "06/18/2012"
	},
	{
		"name": "HATVA",
		"latitude": "28-28-51.84 N",
		"longitude": "80-35-10.65 W",
		"state": "FLORIDA",
		"artcc": "ZMA",
		"type": "MW",
		"updated": "03/05/2008"
	},
	{
		"name": "HAUSR",
		"latitude": "25-57-12.65 N",
		"longitude": "80-21-54.95 W",
		"state": "FLORIDA",
		"artcc": "ZMA",
		"type": "RP",
		"updated": "DHP*VORTAC*358.54"
	},
	{
		"name": "HAXAM",
		"latitude": "25-38-3.98 N",
		"longitude": "80-38-12.22 W",
		"state": "FLORIDA",
		"artcc": "ZMA",
		"type": "RNAV",
		"updated": "09/22/2012"
	},
	{
		"name": "HAXIN",
		"latitude": "27-14-39.93 N",
		"longitude": "80-52-30.79 W",
		"state": "FLORIDA",
		"artcc": "ZMA",
		"type": "RNAV",
		"updated": "08/20/2007"
	},
	{
		"name": "HEATT",
		"latitude": "26-29-27.39 N",
		"longitude": "79-56-46.13 W",
		"state": "FLORIDA",
		"artcc": "ZMA",
		"type": "RP",
		"updated": "ZFP*VOR/DME*270.00/67.29"
	},
	{
		"name": "HEBNI",
		"latitude": "26-49-19 N",
		"longitude": "80-16-4 W",
		"state": "FLORIDA",
		"artcc": "ZMA",
		"type": "RNAV",
		"updated": "03/13/2014"
	},
	{
		"name": "HEDLY",
		"latitude": "26-34-57.61 N",
		"longitude": "80-35-49.24 W",
		"state": "FLORIDA",
		"artcc": "ZMA",
		"type": "RP",
		"updated": "PHK*VOR/DME*157.00/13.00"
	},
	{
		"name": "HEDWX",
		"latitude": "26-25-0 N",
		"longitude": "80-31-30 W",
		"state": "FLORIDA",
		"artcc": "ZMA",
		"type": "RNAV",
		"updated": "06/30/2016"
	},
	{
		"name": "HEGAV",
		"latitude": "27-38-44.72 N",
		"longitude": "81-27-57.43 W",
		"state": "FLORIDA",
		"artcc": "ZMA",
		"type": "RNAV",
		"updated": "03/03/2010"
	},
	{
		"name": "HEGIP",
		"latitude": "27-17-26.76 N",
		"longitude": "80-49-23.85 W",
		"state": "FLORIDA",
		"artcc": "ZMA",
		"type": "RNAV",
		"updated": "08/15/2012"
	},
	{
		"name": "HEKEM",
		"latitude": "24-36-14.4 N",
		"longitude": "81-35-13.96 W",
		"state": "FLORIDA",
		"artcc": "ZMA",
		"type": "MW",
		"updated": "05/07/2018"
	},
	{
		"name": "HEMAG",
		"latitude": "26-11-27.65 N",
		"longitude": "80-16-59.37 W",
		"state": "FLORIDA",
		"artcc": "ZMA",
		"type": "RNAV",
		"updated": "03/19/2013"
	},
	{
		"name": "HEMGO",
		"latitude": "27-32-15.02 N",
		"longitude": "80-25-0.72 W",
		"state": "FLORIDA",
		"artcc": "ZMA",
		"type": "RNAV",
		"updated": "02/22/2010"
	},
	{
		"name": "HEMOP",
		"latitude": "25-47-59.21 N",
		"longitude": "80-19-24.84 W",
		"state": "FLORIDA",
		"artcc": "ZMA",
		"type": "RP",
		"updated": "MFA*LD*272.38/3.07"
	},
	{
		"name": "HENDN",
		"latitude": "25-47-53.48 N",
		"longitude": "80-0-58.11 W",
		"state": "FLORIDA",
		"artcc": "ZMA",
		"type": "RP",
		"updated": "VKZ*VOR/DME*073.68"
	},
	{
		"name": "HERAL",
		"latitude": "28-24-40.69 N",
		"longitude": "80-29-54.09 W",
		"state": "FLORIDA",
		"artcc": "ZMA",
		"type": "MR",
		"updated": "COF*TACAN*037.00/12.00"
	},
	{
		"name": "HETES",
		"latitude": "28-24-25.32 N",
		"longitude": "80-47-15.9 W",
		"state": "FLORIDA",
		"artcc": "ZMA",
		"type": "RNAV",
		"updated": "06/22/2009"
	},
	{
		"name": "HETMO",
		"latitude": "26-48-10.47 N",
		"longitude": "79-57-11.62 W",
		"state": "FLORIDA",
		"artcc": "ZMA",
		"type": "RNAV",
		"updated": "12/29/2009"
	},
	{
		"name": "HEVEL",
		"latitude": "24-33-23.49 N",
		"longitude": "81-42-9.73 W",
		"state": "FLORIDA",
		"artcc": "ZMA",
		"type": "MR",
		"updated": "NQX*TACAN*220.00/1.80"
	},
	{
		"name": "HEWES",
		"latitude": "28-20-33.26 N",
		"longitude": "81-16-53.56 W",
		"state": "FLORIDA",
		"artcc": "ZMA",
		"type": "RP",
		"updated": "CER*LD*185.48/6.23"
	},
	{
		"name": "HHUGH",
		"latitude": "27-20-27 N",
		"longitude": "80-28-38 W",
		"state": "FLORIDA",
		"artcc": "ZMA",
		"type": "RNAV",
		"updated": "06/30/2016"
	},
	{
		"name": "HIBAC",
		"latitude": "29-5-38.63 N",
		"longitude": "79-34-4.65 W",
		"state": "OFFSHORE ATLANTIC",
		"artcc": "ZMA",
		"type": "RNAV",
		"updated": "11/29/2007"
	},
	{
		"name": "HIBDU",
		"latitude": "26-11-43.95 N",
		"longitude": "80-11-12.78 W",
		"state": "FLORIDA",
		"artcc": "ZMA",
		"type": "RNAV",
		"updated": "06/01/2006"
	},
	{
		"name": "HICUP",
		"latitude": "26-24-48.95 N",
		"longitude": "81-46-38.24 W",
		"state": "FLORIDA",
		"artcc": "ZMA",
		"type": "RP",
		"updated": "LBV*VORTAC*219.00"
	},
	{
		"name": "HIGIB",
		"latitude": "24-33-39.47 N",
		"longitude": "81-44-28.41 W",
		"state": "FLORIDA",
		"artcc": "ZMA",
		"type": "MW",
		"updated": "02/18/2016"
	},
	{
		"name": "HIILL",
		"latitude": "27-24-7.89 N",
		"longitude": "79-45-38.8 W",
		"state": "OFFSHORE ATLANTIC",
		"artcc": "ZMA",
		"type": "RNAV",
		"updated": "09/01/2005"
	},
	{
		"name": "HIJEG",
		"latitude": "26-2-14 N",
		"longitude": "81-38-36.42 W",
		"state": "FLORIDA",
		"artcc": "ZMA",
		"type": "RNAV",
		"updated": "07/07/2014"
	},
	{
		"name": "HIKZE",
		"latitude": "27-35-37.61 N",
		"longitude": "81-38-20.4 W",
		"state": "FLORIDA",
		"artcc": "ZMA",
		"type": "RNAV",
		"updated": "03/03/2010"
	},
	{
		"name": "HILEY",
		"latitude": "26-15-15.81 N",
		"longitude": "80-0-47.1 W",
		"state": "FLORIDA",
		"artcc": "ZMA",
		"type": "RP",
		"updated": "VKZ*VOR/DME*018.23"
	},
	{
		"name": "HILTI",
		"latitude": "28-0-3.77 N",
		"longitude": "83-8-35.05 W",
		"state": "OFFSHORE GULF",
		"artcc": "ZMA",
		"type": "RP",
		"updated": "CTY*VORTAC*185.00/95.76"
	},
	{
		"name": "HIMIX",
		"latitude": "25-59-53.95 N",
		"longitude": "80-15-43 W",
		"state": "FLORIDA",
		"artcc": "ZMA",
		"type": "RNAV",
		"updated": "08/03/2012"
	},
	{
		"name": "HINKU",
		"latitude": "25-48-39.84 N",
		"longitude": "80-6-3.88 W",
		"state": "FLORIDA",
		"artcc": "ZMA",
		"type": "RP",
		"updated": "CNV*LE*E CRS/11.03"
	},
	{
		"name": "HINZY",
		"latitude": "25-6-52.27 N",
		"longitude": "77-41-2.79 W",
		"state": "",
		"artcc": "ZMA",
		"type": "RP",
		"updated": "ZQA*VOR/DME*298.40/14.00"
	},
	{
		"name": "HIPWO",
		"latitude": "28-3-54.87 N",
		"longitude": "82-0-23.42 W",
		"state": "FLORIDA",
		"artcc": "ZMA",
		"type": "RNAV",
		"updated": "10/07/2014"
	},
	{
		"name": "HIROC",
		"latitude": "26-29-25.5 N",
		"longitude": "78-18-9.1 W",
		"state": "",
		"artcc": "ZMA",
		"type": "RNAV",
		"updated": "05/09/2011"
	},
	{
		"name": "HIRPU",
		"latitude": "26-34-8.4 N",
		"longitude": "81-31-13.65 W",
		"state": "FLORIDA",
		"artcc": "ZMA",
		"type": "RNAV",
		"updated": "02/27/2013"
	},
	{
		"name": "HITAG",
		"latitude": "25-51-52.72 N",
		"longitude": "80-3-24.08 W",
		"state": "FLORIDA",
		"artcc": "ZMA",
		"type": "RNAV",
		"updated": "02/12/2012"
	},
	{
		"name": "HITUX",
		"latitude": "28-19-28.22 N",
		"longitude": "80-33-18.37 W",
		"state": "FLORIDA",
		"artcc": "ZMA",
		"type": "MR",
		"updated": "COF*TACAN*037.00/6.00"
	},
	{
		"name": "HIVUR",
		"latitude": "26-26-15.64 N",
		"longitude": "80-2-36.36 W",
		"state": "FLORIDA",
		"artcc": "ZMA",
		"type": "RNAV",
		"updated": "06/13/2014"
	},
	{
		"name": "HOAGG",
		"latitude": "29-47-3.71 N",
		"longitude": "78-50-33.85 W",
		"state": "OFFSHORE ATLANTIC",
		"artcc": "ZMA",
		"type": "RNAV",
		"updated": "08/29/2005"
	},
	{
		"name": "HOBBL",
		"latitude": "28-12-0.19 N",
		"longitude": "81-19-27.44 W",
		"state": "FLORIDA",
		"artcc": "ZMA",
		"type": "RNAV",
		"updated": "ORL*VORTAC*178.41/20.51"
	},
	{
		"name": "HOBEE",
		"latitude": "29-13-20.59 N",
		"longitude": "79-9-4.5 W",
		"state": "FLORIDA",
		"artcc": "ZMA",
		"type": "RP",
		"updated": "ORL*VORTAC*070.00/122.00"
	},
	{
		"name": "HOCKI",
		"latitude": "27-43-9.81 N",
		"longitude": "80-36-46.21 W",
		"state": "FLORIDA",
		"artcc": "ZMA",
		"type": "RNAV",
		"updated": "01/13/2009"
	},
	{
		"name": "HODGY",
		"latitude": "24-9-37.8 N",
		"longitude": "77-23-41.2 W",
		"state": "",
		"artcc": "ZMA",
		"type": "RP",
		"updated": "ZBV*VORTAC*135.30/138.77"
	},
	{
		"name": "HODLE",
		"latitude": "25-46-44.81 N",
		"longitude": "80-28-51.35 W",
		"state": "FLORIDA",
		"artcc": "ZMA",
		"type": "RNAV",
		"updated": "09/09/2013"
	},
	{
		"name": "HODSO",
		"latitude": "27-43-57.49 N",
		"longitude": "80-44-54.09 W",
		"state": "FLORIDA",
		"artcc": "ZMA",
		"type": "RNAV",
		"updated": "06/18/2012"
	},
	{
		"name": "HODUB",
		"latitude": "28-35-36.03 N",
		"longitude": "80-45-4.52 W",
		"state": "FLORIDA",
		"artcc": "ZMA",
		"type": "MW",
		"updated": "06/08/2016"
	},
	{
		"name": "HODVU",
		"latitude": "41-40-45.56 N",
		"longitude": "71-27-35.67 W",
		"state": "RHODE ISLAND",
		"artcc": "ZMA",
		"type": "RP",
		"updated": "PVD*VOR/DME*220.75/3.02"
	},
	{
		"name": "HOJLO",
		"latitude": "27-54-15.5 N",
		"longitude": "82-21-55.38 W",
		"state": "FLORIDA",
		"artcc": "ZMA",
		"type": "RNAV",
		"updated": "12/10/2010"
	},
	{
		"name": "HOKTU",
		"latitude": "28-0-24.59 N",
		"longitude": "81-56-32.13 W",
		"state": "FLORIDA",
		"artcc": "ZMA",
		"type": "RP",
		"updated": "LAL*VORTAC*070.99/4.00"
	},
	{
		"name": "HOLID",
		"latitude": "26-4-42.92 N",
		"longitude": "80-31-20.57 W",
		"state": "FLORIDA",
		"artcc": "ZMA",
		"type": "RP",
		"updated": "DHP*VORTAC*334.68/19.12"
	},
	{
		"name": "HOLMU",
		"latitude": "25-30-5.89 N",
		"longitude": "80-45-5.93 W",
		"state": "FLORIDA",
		"artcc": "ZMA",
		"type": "RNAV",
		"updated": "06/10/2011"
	},
	{
		"name": "HOOKY",
		"latitude": "28-12-51.37 N",
		"longitude": "77-28-22.27 W",
		"state": "OFFSHORE ATLANTIC",
		"artcc": "ZMA",
		"type": "RNAV",
		"updated": "05/28/2008"
	},
	{
		"name": "HOREP",
		"latitude": "26-42-17.96 N",
		"longitude": "80-41-0 W",
		"state": "FLORIDA",
		"artcc": "ZMA",
		"type": "RNAV",
		"updated": "12/12/2017"
	},
	{
		"name": "HOSFU",
		"latitude": "25-59-55.24 N",
		"longitude": "80-20-9.38 W",
		"state": "FLORIDA",
		"artcc": "ZMA",
		"type": "RNAV",
		"updated": "02/13/2012"
	},
	{
		"name": "HOTMA",
		"latitude": "25-39-45.25 N",
		"longitude": "80-12-7.08 W",
		"state": "FLORIDA",
		"artcc": "ZMA",
		"type": "RNAV",
		"updated": "09/15/2009"
	},
	{
		"name": "HOVOM",
		"latitude": "28-6-20.24 N",
		"longitude": "81-57-50.45 W",
		"state": "FLORIDA",
		"artcc": "ZMA",
		"type": "RNAV",
		"updated": "10/04/2006"
	},
	{
		"name": "HOXIL",
		"latitude": "25-54-21.79 N",
		"longitude": "79-54-18.74 W",
		"state": "FLORIDA",
		"artcc": "ZMA",
		"type": "RNAV",
		"updated": "08/04/2006"
	},
	{
		"name": "HRBOR",
		"latitude": "27-42-7.29 N",
		"longitude": "80-33-35.94 W",
		"state": "FLORIDA",
		"artcc": "ZMA",
		"type": "RP",
		"updated": "MLB*VOR/DME*177.56"
	},
	{
		"name": "HUBOT",
		"latitude": "27-56-37.5 N",
		"longitude": "82-25-23.54 W",
		"state": "FLORIDA",
		"artcc": "ZMA",
		"type": "MR",
		"updated": "MCF*TACAN*/6.89"
	},
	{
		"name": "HUKDI",
		"latitude": "28-6-37.14 N",
		"longitude": "80-33-26.7 W",
		"state": "FLORIDA",
		"artcc": "ZMA",
		"type": "RNAV",
		"updated": "08/03/2012"
	},
	{
		"name": "HUKUK",
		"latitude": "26-11-43.09 N",
		"longitude": "80-24-34.3 W",
		"state": "FLORIDA",
		"artcc": "ZMA",
		"type": "RP",
		"updated": "DHP*VORTAC*356.14"
	},
	{
		"name": "HULLA",
		"latitude": "27-40-2.32 N",
		"longitude": "80-11-26.95 W",
		"state": "FLORIDA",
		"artcc": "ZMA",
		"type": "RNAV",
		"updated": "08/03/2012"
	},
	{
		"name": "HUMKI",
		"latitude": "27-44-13.06 N",
		"longitude": "82-22-26.01 W",
		"state": "FLORIDA",
		"artcc": "ZMA",
		"type": "RNAV",
		"updated": "12/10/2010"
	},
	{
		"name": "HUMKO",
		"latitude": "28-39-16.07 N",
		"longitude": "80-43-12.99 W",
		"state": "FLORIDA",
		"artcc": "ZMA",
		"type": "RNAV",
		"updated": "06/18/2010"
	},
	{
		"name": "HURDE",
		"latitude": "28-1-30.82 N",
		"longitude": "80-11-32.93 W",
		"state": "OFFSHORE ATLANTIC",
		"artcc": "ZMA",
		"type": "RP",
		"updated": "OMN*VORTAC*147.36/90.60"
	},
	{
		"name": "HURGI",
		"latitude": "26-25-45.85 N",
		"longitude": "80-13-46.7 W",
		"state": "FLORIDA",
		"artcc": "ZMA",
		"type": "RNAV",
		"updated": "12/11/2017"
	},
	{
		"name": "HUSMA",
		"latitude": "27-42-34.14 N",
		"longitude": "81-58-28.5 W",
		"state": "FLORIDA",
		"artcc": "ZMA",
		"type": "RNAV",
		"updated": "12/08/2006"
	},
	{
		"name": "HUTOX",
		"latitude": "26-43-5.26 N",
		"longitude": "80-39-41.76 W",
		"state": "FLORIDA",
		"artcc": "ZMA",
		"type": "RNAV",
		"updated": "12/29/2014"
	},
	{
		"name": "HUXIM",
		"latitude": "26-8-58.87 N",
		"longitude": "79-55-24.18 W",
		"state": "FLORIDA",
		"artcc": "ZMA",
		"type": "RNAV",
		"updated": "03/18/2013"
	},
	{
		"name": "HYRON",
		"latitude": "27-34-56.59 N",
		"longitude": "82-47-22.82 W",
		"state": "FLORIDA",
		"artcc": "ZMA",
		"type": "RNAV",
		"updated": "11/11/2010"
	}
]
