	{
		"name": "JABIT",
		"latitude": "27-23-59.84 N",
		"longitude": "80-42-2.69 W",
		"state": "FLORIDA",
		"artcc": "ZMA",
		"type": "RNAV",
		"updated": "08/20/2007",
	},
	{
		"name": "JABMA",
		"latitude": "26-37-31.93 N",
		"longitude": "81-19-9.9 W",
		"state": "FLORIDA",
		"artcc": "ZMA",
		"type": "RNAV",
		"updated": "07/16/2009",
	},
	{
		"name": "JACKT",
		"latitude": "27-49-47.1 N",
		"longitude": "82-39-2.25 W",
		"state": "FLORIDA",
		"artcc": "ZMA",
		"type": "RNAV",
		"updated": "10/01/2014",
	},
	{
		"name": "JADAK",
		"latitude": "25-47-50.14 N",
		"longitude": "80-23-2 W",
		"state": "FLORIDA",
		"artcc": "ZMA",
		"type": "RNAV",
		"updated": "08/04/2006",
	},
	{
		"name": "JAKEL",
		"latitude": "26-48-58.41 N",
		"longitude": "79-6-27.86 W",
		"state": "",
		"artcc": "ZMA",
		"type": "RP",
		"updated": "ZBV*VORTAC*012.57",
	},
	{
		"name": "JAKOR",
		"latitude": "28-20-20.72 N",
		"longitude": "81-19-16.11 W",
		"state": "FLORIDA",
		"artcc": "ZMA",
		"type": "RP",
		"updated": "OJP*LD*185.46/6.65",
	},
	{
		"name": "JAKTA",
		"latitude": "27-50-54.04 N",
		"longitude": "80-27-19.94 W",
		"state": "FLORIDA",
		"artcc": "ZMA",
		"type": "RNAV",
		"updated": "06/18/2012",
	},
	{
		"name": "JALOP",
		"latitude": "26-45-1.55 N",
		"longitude": "79-41-2.71 W",
		"state": "OFFSHORE ATLANTIC",
		"artcc": "ZMA",
		"type": "RP",
		"updated": "VKZ*VOR/DME*026.91/64.90",
	},
	{
		"name": "JAMAX",
		"latitude": "26-42-4.3 N",
		"longitude": "78-47-18.7 W",
		"state": "",
		"artcc": "ZMA",
		"type": "RP",
		"updated": "ZFP*VOR/DME*333.84/10.00",
	},
	{
		"name": "JAMMI",
		"latitude": "24-50-51 N",
		"longitude": "81-26-51 W",
		"state": "FLORIDA",
		"artcc": "ZMA",
		"type": "RNAV",
		"updated": "05/06/2009",
	},
	{
		"name": "JANGL",
		"latitude": "27-45-0.4 N",
		"longitude": "81-9-39.04 W",
		"state": "FLORIDA",
		"artcc": "ZMA",
		"type": "RP",
		"updated": "TRV*VORTAC*284.00/36.00",
	},
	{
		"name": "JANGO",
		"latitude": "27-58-35.97 N",
		"longitude": "81-44-39.62 W",
		"state": "FLORIDA",
		"artcc": "ZMA",
		"type": "RNAV",
		"updated": "03/30/2009",
	},
	{
		"name": "JANKA",
		"latitude": "24-38-43.1 N",
		"longitude": "81-15-44.47 W",
		"state": "FLORIDA",
		"artcc": "ZMA",
		"type": "RP",
		"updated": "EYW*VORTAC*082.00/29.64",
	},
	{
		"name": "JANTU",
		"latitude": "26-41-13.98 N",
		"longitude": "80-12-3.8 W",
		"state": "FLORIDA",
		"artcc": "ZMA",
		"type": "RNAV",
		"updated": "11/09/2009",
	},
	{
		"name": "JANUS",
		"latitude": "26-5-38.81 N",
		"longitude": "79-38-0.64 W",
		"state": "OFFSHORE ATLANTIC",
		"artcc": "ZMA",
		"type": "RP",
		"updated": "ZBV*VORTAC*325.89",
	},
	{
		"name": "JAPEK",
		"latitude": "28-7-30.61 N",
		"longitude": "80-39-15.37 W",
		"state": "FLORIDA",
		"artcc": "ZMA",
		"type": "MR",
		"updated": "COF*TACAN*205.52/7.10",
	},
	{
		"name": "JAPIT",
		"latitude": "28-27-32.98 N",
		"longitude": "80-33-15.55 W",
		"state": "FLORIDA",
		"artcc": "ZMA",
		"type": "RNAV",
		"updated": "03/05/2008",
	},
	{
		"name": "JAREM",
		"latitude": "26-5-22.54 N",
		"longitude": "80-45-14.89 W",
		"state": "FLORIDA",
		"artcc": "ZMA",
		"type": "RNAV",
		"updated": "05/30/2006",
	},
	{
		"name": "JARNO",
		"latitude": "25-59-51.09 N",
		"longitude": "80-26-37.94 W",
		"state": "FLORIDA",
		"artcc": "ZMA",
		"type": "RP",
		"updated": "DHP*VORTAC*340.55",
	},
	{
		"name": "JATAL",
		"latitude": "24-32-14.1 N",
		"longitude": "81-39-15.14 W",
		"state": "OFFSHORE ATLANTIC",
		"artcc": "ZMA",
		"type": "MW",
		"updated": "02/18/2016",
	},
	{
		"name": "JATEL",
		"latitude": "26-51-58.64 N",
		"longitude": "80-41-16.53 W",
		"state": "FLORIDA",
		"artcc": "ZMA",
		"type": "RP",
		"updated": "PHK*VOR/DME*002.15/5.00",
	},
	{
		"name": "JATSU",
		"latitude": "28-15-7.76 N",
		"longitude": "80-36-8.36 W",
		"state": "FLORIDA",
		"artcc": "ZMA",
		"type": "MR",
		"updated": "COF*TACAN*037.00/1.00",
	},
	{
		"name": "JAVUX",
		"latitude": "26-51-15.46 N",
		"longitude": "80-5-10.88 W",
		"state": "FLORIDA",
		"artcc": "ZMA",
		"type": "RNAV",
		"updated": "03/13/2014",
	},
	{
		"name": "JAXEK",
		"latitude": "25-51-42.38 N",
		"longitude": "81-6-0.18 W",
		"state": "FLORIDA",
		"artcc": "ZMA",
		"type": "RNAV",
		"updated": "11/01/2013",
	},
	{
		"name": "JAYBG",
		"latitude": "26-36-3.73 N",
		"longitude": "80-48-12.41 W",
		"state": "FLORIDA",
		"artcc": "ZMA",
		"type": "RNAV",
		"updated": "03/08/2018",
	},
	{
		"name": "JAYEE",
		"latitude": "24-25-55.78 N",
		"longitude": "77-43-24.63 W",
		"state": "",
		"artcc": "ZMA",
		"type": "RP",
		"updated": "ZBV*VORTAC*135.30/114.51",
	},
	{
		"name": "JAYMC",
		"latitude": "26-58-51 N",
		"longitude": "81-22-8 W",
		"state": "FLORIDA",
		"artcc": "ZMA",
		"type": "RNAV",
		"updated": "07/22/2008",
	},
	{
		"name": "JEBON",
		"latitude": "26-2-12.77 N",
		"longitude": "81-41-53.45 W",
		"state": "FLORIDA",
		"artcc": "ZMA",
		"type": "RP",
		"updated": "CYY*VOR/DME*151.23/8.20",
	},
	{
		"name": "JEFFO",
		"latitude": "22-6-42.68 N",
		"longitude": "71-21-22.8 W",
		"state": "OFFSHORE ATLANTIC",
		"artcc": "ZMA",
		"type": "RP",
		"updated": "GTK*VORTAC*350.88/42.00",
	},
	{
		"name": "JEFRY",
		"latitude": "24-35-2.03 N",
		"longitude": "77-39-10.66 W",
		"state": "",
		"artcc": "ZMA",
		"type": "RP",
		"updated": "ZQA*VOR/DME*209.16/28.72",
	},
	{
		"name": "JEKOL",
		"latitude": "27-41-11.82 N",
		"longitude": "80-38-16.06 W",
		"state": "FLORIDA",
		"artcc": "ZMA",
		"type": "RNAV",
		"updated": "06/18/2012",
	},
	{
		"name": "JEKPA",
		"latitude": "26-46-51.93 N",
		"longitude": "82-25-16.71 W",
		"state": "FLORIDA",
		"artcc": "ZMA",
		"type": "RNAV",
		"updated": "02/02/2006",
	},
	{
		"name": "JELSU",
		"latitude": "27-25-12.26 N",
		"longitude": "82-35-53.29 W",
		"state": "FLORIDA",
		"artcc": "ZMA",
		"type": "RP",
		"updated": "SRQ*VOR/DME*298.00/2.00",
	},
	{
		"name": "JEMAL",
		"latitude": "26-48-58.53 N",
		"longitude": "80-14-30.84 W",
		"state": "FLORIDA",
		"artcc": "ZMA",
		"type": "RNAV",
		"updated": "05/31/2005",
	},
	{
		"name": "JEMDO",
		"latitude": "28-5-53.42 N",
		"longitude": "80-41-28.7 W",
		"state": "FLORIDA",
		"artcc": "ZMA",
		"type": "RP",
		"updated": "MLB*VOR/DME*268.86/3.00",
	},
	{
		"name": "JENOV",
		"latitude": "28-6-24.23 N",
		"longitude": "80-32-51.02 W",
		"state": "FLORIDA",
		"artcc": "ZMA",
		"type": "RNAV",
		"updated": "08/06/2012",
	},
	{
		"name": "JEPIR",
		"latitude": "24-4-17.09 N",
		"longitude": "74-37-38.5 W",
		"state": "",
		"artcc": "ZMA",
		"type": "RNAV",
		"updated": "11/26/2002",
	},
	{
		"name": "JERII",
		"latitude": "26-44-37.57 N",
		"longitude": "80-0-5.25 W",
		"state": "FLORIDA",
		"artcc": "ZMA",
		"type": "RNAV",
		"updated": "04/17/2017",
	},
	{
		"name": "JERMA",
		"latitude": "26-44-13.56 N",
		"longitude": "79-56-25.33 W",
		"state": "FLORIDA",
		"artcc": "ZMA",
		"type": "RNAV",
		"updated": "12/29/2009",
	},
	{
		"name": "JEROX",
		"latitude": "26-32-48.47 N",
		"longitude": "81-44-27.1 W",
		"state": "FLORIDA",
		"artcc": "ZMA",
		"type": "RP",
		"updated": "RSW*VORTAC*063.67/2.13",
	},
	{
		"name": "JERRE",
		"latitude": "24-58-23.34 N",
		"longitude": "78-31-44.21 W",
		"state": "OFFSHORE ATLANTIC",
		"artcc": "ZMA",
		"type": "RP",
		"updated": "ZBV*VORTAC*140.26/60.36",
	},
	{
		"name": "JESSS",
		"latitude": "25-53-2.34 N",
		"longitude": "80-16-41.91 W",
		"state": "FLORIDA",
		"artcc": "ZMA",
		"type": "RNAV",
		"updated": "08/04/2006",
	},
	{
		"name": "JETUD",
		"latitude": "27-56-22.72 N",
		"longitude": "81-31-52.98 W",
		"state": "FLORIDA",
		"artcc": "ZMA",
		"type": "RNAV",
		"updated": "06/13/2011",
	},
	{
		"name": "JEVES",
		"latitude": "26-54-4.77 N",
		"longitude": "82-21-58.91 W",
		"state": "FLORIDA",
		"artcc": "ZMA",
		"type": "RP",
		"updated": "CYY*VOR/DME*327.85/54.81",
	},
	{
		"name": "JEVOD",
		"latitude": "27-49-52.82 N",
		"longitude": "82-24-52.16 W",
		"state": "FLORIDA",
		"artcc": "ZMA",
		"type": "RNAV",
		"updated": "12/09/2010",
	},
	{
		"name": "JEXQU",
		"latitude": "26-34-40.52 N",
		"longitude": "81-10-20 W",
		"state": "FLORIDA",
		"artcc": "ZMA",
		"type": "RNAV",
		"updated": "07/09/2017",
	},
	{
		"name": "JIBTO",
		"latitude": "26-48-59.23 N",
		"longitude": "81-12-20.15 W",
		"state": "FLORIDA",
		"artcc": "ZMA",
		"type": "RP",
		"updated": "LBV*VORTAC*092.98/10.00",
	},
	{
		"name": "JICTI",
		"latitude": "26-43-8.47 N",
		"longitude": "81-31-56.87 W",
		"state": "FLORIDA",
		"artcc": "ZMA",
		"type": "RP",
		"updated": "LBV*VORTAC*228.26/10.00",
	},
	{
		"name": "JIDBO",
		"latitude": "25-31-9 N",
		"longitude": "80-28-55.43 W",
		"state": "FLORIDA",
		"artcc": "ZMA",
		"type": "RNAV",
		"updated": "11/27/2013",
	},
	{
		"name": "JIDVA",
		"latitude": "26-8-59.1 N",
		"longitude": "80-4-42.24 W",
		"state": "FLORIDA",
		"artcc": "ZMA",
		"type": "RNAV",
		"updated": "03/18/2013",
	},
	{
		"name": "JIHMU",
		"latitude": "28-11-5.87 N",
		"longitude": "80-59-38.7 W",
		"state": "FLORIDA",
		"artcc": "ZMA",
		"type": "RP",
		"updated": "ORL*VORTAC*139.79/28.00",
	},
	{
		"name": "JIJCI",
		"latitude": "28-13-30.77 N",
		"longitude": "81-43-25.13 W",
		"state": "FLORIDA",
		"artcc": "ZMA",
		"type": "RP",
		"updated": "ORL*VORTAC*227.36/28.00",
	},
	{
		"name": "JILKO",
		"latitude": "27-28-2.03 N",
		"longitude": "80-20-21.45 W",
		"state": "FLORIDA",
		"artcc": "ZMA",
		"type": "RNAV",
		"updated": "01/04/2012",
	},
	{
		"name": "JIMEY",
		"latitude": "26-41-16.53 N",
		"longitude": "79-56-29.87 W",
		"state": "FLORIDA",
		"artcc": "ZMA",
		"type": "RNAV",
		"updated": "11/10/2009",
	},
	{
		"name": "JIMNY",
		"latitude": "26-20-3.77 N",
		"longitude": "80-10-59.08 W",
		"state": "FLORIDA",
		"artcc": "ZMA",
		"type": "RP",
		"updated": "PMP*LE*329.65/6.92",
	},
	{
		"name": "JINBA",
		"latitude": "28-5-48.95 N",
		"longitude": "80-45-2.02 W",
		"state": "FLORIDA",
		"artcc": "ZMA",
		"type": "RNAV",
		"updated": "08/06/2012",
	},
	{
		"name": "JINGI",
		"latitude": "25-38-42 N",
		"longitude": "80-23-29.71 W",
		"state": "FLORIDA",
		"artcc": "ZMA",
		"type": "RNAV",
		"updated": "09/15/2009",
	},
	{
		"name": "JINGL",
		"latitude": "26-6-16.28 N",
		"longitude": "80-58-4.85 W",
		"state": "FLORIDA",
		"artcc": "ZMA",
		"type": "RNAV",
		"updated": "05/30/2006",
	},
	{
		"name": "JINPI",
		"latitude": "27-56-47.55 N",
		"longitude": "82-41-40.87 W",
		"state": "FLORIDA",
		"artcc": "ZMA",
		"type": "RP",
		"updated": "PIE*VORTAC*/2.38",
	},
	{
		"name": "JINSO",
		"latitude": "27-30-30.62 N",
		"longitude": "80-32-32.64 W",
		"state": "FLORIDA",
		"artcc": "ZMA",
		"type": "RNAV",
		"updated": "01/14/2009",
	},
	{
		"name": "JIRAX",
		"latitude": "26-14-0.8 N",
		"longitude": "81-32-24.78 W",
		"state": "FLORIDA",
		"artcc": "ZMA",
		"type": "RNAV",
		"updated": "07/09/2017",
	},
	{
		"name": "JISAS",
		"latitude": "26-25-47.31 N",
		"longitude": "80-6-13.83 W",
		"state": "FLORIDA",
		"artcc": "ZMA",
		"type": "RP",
		"updated": "08/07/2006",
	},
	{
		"name": "JIVGA",
		"latitude": "27-8-0.52 N",
		"longitude": "82-30-37.8 W",
		"state": "FLORIDA",
		"artcc": "ZMA",
		"type": "RNAV",
		"updated": "05/19/2011",
	},
	{
		"name": "JIVLU",
		"latitude": "26-37-37.43 N",
		"longitude": "81-16-9.23 W",
		"state": "FLORIDA",
		"artcc": "ZMA",
		"type": "RNAV",
		"updated": "07/07/2017",
	},
	{
		"name": "JIXOM",
		"latitude": "26-46-50.15 N",
		"longitude": "80-3-44.86 W",
		"state": "FLORIDA",
		"artcc": "ZMA",
		"type": "RNAV",
		"updated": "05/03/2016",
	},
	{
		"name": "JIXOT",
		"latitude": "26-26-17.23 N",
		"longitude": "80-10-29.23 W",
		"state": "FLORIDA",
		"artcc": "ZMA",
		"type": "RNAV",
		"updated": "12/11/2017",
	},
	{
		"name": "JOBVA",
		"latitude": "27-42-34.77 N",
		"longitude": "81-47-12.48 W",
		"state": "FLORIDA",
		"artcc": "ZMA",
		"type": "RNAV",
		"updated": "12/08/2006",
	},
	{
		"name": "JOCKS",
		"latitude": "27-0-34.45 N",
		"longitude": "81-51-12.68 W",
		"state": "FLORIDA",
		"artcc": "ZMA",
		"type": "RP",
		"updated": "PGD*VOR*059.06",
	},
	{
		"name": "JODAX",
		"latitude": "25-48-26.38 N",
		"longitude": "80-11-37.32 W",
		"state": "FLORIDA",
		"artcc": "ZMA",
		"type": "RP",
		"updated": "CNV*LE*E CRS/6.01",
	},
	{
		"name": "JODPO",
		"latitude": "25-41-33.7 N",
		"longitude": "80-41-23.92 W",
		"state": "FLORIDA",
		"artcc": "ZMA",
		"type": "RNAV",
		"updated": "08/30/2013",
	},
	{
		"name": "JOEWY",
		"latitude": "27-1-58.43 N",
		"longitude": "79-27-6.42 W",
		"state": "OFFSHORE ATLANTIC",
		"artcc": "ZMA",
		"type": "RNAV",
		"updated": "10/26/2009",
	},
	{
		"name": "JOGNO",
		"latitude": "25-39-5.53 N",
		"longitude": "80-27-57.16 W",
		"state": "FLORIDA",
		"artcc": "ZMA",
		"type": "RNAV",
		"updated": "09/15/2009",
	},
	{
		"name": "JOKOB",
		"latitude": "27-25-24.4 N",
		"longitude": "80-56-52.5 W",
		"state": "FLORIDA",
		"artcc": "ZMA",
		"type": "RNAV",
		"updated": "08/15/2012",
	},
	{
		"name": "JOLTS",
		"latitude": "26-59-35.18 N",
		"longitude": "79-12-51.17 W",
		"state": "",
		"artcc": "ZMA",
		"type": "RP",
		"updated": "PBI*VORTAC*071.00/50.42",
	},
	{
		"name": "JOLYN",
		"latitude": "25-55-5.1 N",
		"longitude": "80-10-31.35 W",
		"state": "FLORIDA",
		"artcc": "ZMA",
		"type": "RP",
		"updated": "VKZ*VOR/DME*357.50",
	},
	{
		"name": "JOMDU",
		"latitude": "27-33-41.6 N",
		"longitude": "80-26-36.37 W",
		"state": "FLORIDA",
		"artcc": "ZMA",
		"type": "RNAV",
		"updated": "07/11/2012",
	},
	{
		"name": "JOMIN",
		"latitude": "25-13-26.23 N",
		"longitude": "80-20-55.23 W",
		"state": "FLORIDA",
		"artcc": "ZMA",
		"type": "MR",
		"updated": "HST*TACAN*180.00/16.00",
	},
	{
		"name": "JOMOV",
		"latitude": "28-31-57.12 N",
		"longitude": "80-38-25.88 W",
		"state": "FLORIDA",
		"artcc": "ZMA",
		"type": "RNAV",
		"updated": "06/18/2010",
	},
	{
		"name": "JONZI",
		"latitude": "25-46-54.93 N",
		"longitude": "80-12-22.91 W",
		"state": "FLORIDA",
		"artcc": "ZMA",
		"type": "RNAV",
		"updated": "02/12/2012",
	},
	{
		"name": "JOOOE",
		"latitude": "27-1-4.57 N",
		"longitude": "82-3-55.29 W",
		"state": "FLORIDA",
		"artcc": "ZMA",
		"type": "RNAV",
		"updated": "07/11/2008",
	},
	{
		"name": "JORAY",
		"latitude": "28-20-34.13 N",
		"longitude": "79-2-5.88 W",
		"state": "OFFSHORE ATLANTIC",
		"artcc": "ZMA",
		"type": "RNAV",
		"updated": "04/12/2012",
	},
	{
		"name": "JORGG",
		"latitude": "23-23-35.23 N",
		"longitude": "70-51-55.73 W",
		"state": "OFFSHORE ATLANTIC",
		"artcc": "ZMA",
		"type": "RNAV",
		"updated": "09/19/2008",
	},
	{
		"name": "JOSES",
		"latitude": "20-8-39.29 N",
		"longitude": "73-13-5.5 W",
		"state": "OFFSHORE ATLANTIC",
		"artcc": "ZMA",
		"type": "RNAV",
		"updated": "04/08/2008",
	},
	{
		"name": "JOSFF",
		"latitude": "27-1-35.32 N",
		"longitude": "82-27-56.71 W",
		"state": "FLORIDA",
		"artcc": "ZMA",
		"type": "RP",
		"updated": "RSW*VORTAC*310.88/47.49",
	},
	{
		"name": "JOSIR",
		"latitude": "28-4-57.12 N",
		"longitude": "81-51-7.37 W",
		"state": "FLORIDA",
		"artcc": "ZMA",
		"type": "RNAV",
		"updated": "10/04/2006",
	},
	{
		"name": "JOVCU",
		"latitude": "24-35-0 N",
		"longitude": "81-28-0 W",
		"state": "FLORIDA",
		"artcc": "ZMA",
		"type": "CN",
		"updated": "12/04/2014",
	},
	{
		"name": "JOVLI",
		"latitude": "26-32-18.48 N",
		"longitude": "80-1-17.39 W",
		"state": "FLORIDA",
		"artcc": "ZMA",
		"type": "RNAV",
		"updated": "07/17/2014",
	},
	{
		"name": "JOVMU",
		"latitude": "28-7-15.04 N",
		"longitude": "81-51-58.11 W",
		"state": "FLORIDA",
		"artcc": "ZMA",
		"type": "RNAV",
		"updated": "10/02/2007",
	},
	{
		"name": "JOVOX",
		"latitude": "26-33-1.84 N",
		"longitude": "80-14-18.16 W",
		"state": "FLORIDA",
		"artcc": "ZMA",
		"type": "RNAV",
		"updated": "03/13/2014",
	},
	{
		"name": "JOXOB",
		"latitude": "27-19-11.7 N",
		"longitude": "81-58-25.66 W",
		"state": "FLORIDA",
		"artcc": "ZMA",
		"type": "RNAV",
		"updated": "12/08/2006",
	},
	{
		"name": "JRGAL",
		"latitude": "27-35-12.48 N",
		"longitude": "82-36-24.61 W",
		"state": "FLORIDA",
		"artcc": "ZMA",
		"type": "RP",
		"updated": "LAL*VORTAC*232.00",
	},
	{
		"name": "JSTIN",
		"latitude": "21-21-40.14 N",
		"longitude": "69-47-50.54 W",
		"state": "OFFSHORE ATLANTIC",
		"artcc": "ZMA",
		"type": "RNAV",
		"updated": "10/05/2011",
	},
	{
		"name": "JSTRM",
		"latitude": "27-41-30.57 N",
		"longitude": "82-25-21.07 W",
		"state": "FLORIDA",
		"artcc": "ZMA",
		"type": "RP",
		"updated": "PIE*VORTAC*131.79/19.00",
	},
	{
		"name": "JUDUD",
		"latitude": "27-20-47.46 N",
		"longitude": "80-11-31.51 W",
		"state": "FLORIDA",
		"artcc": "ZMA",
		"type": "RNAV",
		"updated": "07/11/2012",
	},
	{
		"name": "JUELE",
		"latitude": "20-25-3.5 N",
		"longitude": "71-7-6.63 W",
		"state": "OFFSHORE ATLANTIC",
		"artcc": "ZMA",
		"type": "RP",
		"updated": "PTA*VOR/DME*330.92/50.07",
	},
	{
		"name": "JUKIG",
		"latitude": "26-10-22.47 N",
		"longitude": "82-0-37.2 W",
		"state": "FLORIDA",
		"artcc": "ZMA",
		"type": "RNAV",
		"updated": "07/07/2014",
	},
	{
		"name": "JULED",
		"latitude": "25-38-39.17 N",
		"longitude": "80-38-5.32 W",
		"state": "FLORIDA",
		"artcc": "ZMA",
		"type": "RNAV",
		"updated": "09/15/2009",
	},
	{
		"name": "JULSO",
		"latitude": "27-51-58.46 N",
		"longitude": "82-42-57.34 W",
		"state": "FLORIDA",
		"artcc": "ZMA",
		"type": "RP",
		"updated": "PIE*VORTAC*219.09/3.50",
	},
	{
		"name": "JUMAR",
		"latitude": "26-4-31.16 N",
		"longitude": "79-55-1.21 W",
		"state": "FLORIDA",
		"artcc": "ZMA",
		"type": "RP",
		"updated": "UDL*LD*096.37/13.52",
	},
	{
		"name": "JUMDV",
		"latitude": "26-41-57.06 N",
		"longitude": "80-37-35.42 W",
		"state": "FLORIDA",
		"artcc": "ZMA",
		"type": "RNAV",
		"updated": "12/29/2014",
	},
	{
		"name": "JUMUV",
		"latitude": "26-0-7.88 N",
		"longitude": "80-13-49.92 W",
		"state": "FLORIDA",
		"artcc": "ZMA",
		"type": "RNAV",
		"updated": "08/06/2012",
	},
	{
		"name": "JUNLO",
		"latitude": "27-20-38.51 N",
		"longitude": "81-51-1.67 W",
		"state": "FLORIDA",
		"artcc": "ZMA",
		"type": "RNAV",
		"updated": "07/15/2008",
	},
	{
		"name": "JUNUR",
		"latitude": "25-23-16.43 N",
		"longitude": "79-43-19.8 W",
		"state": "FLORIDA",
		"artcc": "ZMA",
		"type": "RP",
		"updated": "ZBV*VORTAC*234.91/29.94",
	},
	{
		"name": "JUPEM",
		"latitude": "26-59-12.27 N",
		"longitude": "80-27-45.53 W",
		"state": "FLORIDA",
		"artcc": "ZMA",
		"type": "RP",
		"updated": "PHK*VOR/DME*045.11/17.31",
	},
	{
		"name": "JURER",
		"latitude": "25-39-4.55 N",
		"longitude": "80-14-29.86 W",
		"state": "FLORIDA",
		"artcc": "ZMA",
		"type": "RP",
		"updated": "DHP*VORTAC*150.78/10.63",
	},
	{
		"name": "JUSAB",
		"latitude": "27-46-6.7 N",
		"longitude": "82-37-29.69 W",
		"state": "FLORIDA",
		"artcc": "ZMA",
		"type": "RP",
		"updated": "PIE*VORTAC*164.22/8.91",
	},
	{
		"name": "JUSTA",
		"latitude": "24-36-42.93 N",
		"longitude": "81-58-52 W",
		"state": "FLORIDA",
		"artcc": "ZMA",
		"type": "MR",
		"updated": "EYW*VORTAC*278.00/10.00",
	},
	{
		"name": "JUTAS",
		"latitude": "26-40-40.45 N",
		"longitude": "79-59-11.93 W",
		"state": "FLORIDA",
		"artcc": "ZMA",
		"type": "RNAV",
		"updated": "05/31/2005",
	},
	{
		"name": "JUULI",
		"latitude": "27-57-0 N",
		"longitude": "82-44-30 W",
		"state": "FLORIDA",
		"artcc": "ZMA",
		"type": "RNAV",
		"updated": "07/02/2008",
	},
	{
		"name": "JUXUP",
		"latitude": "27-59-41.16 N",
		"longitude": "82-4-52.22 W",
		"state": "FLORIDA",
		"artcc": "ZMA",
		"type": "RNAV",
		"updated": "10/07/2014",
	},
