[
	{
		"name": "KACDE",
		"latitude": "25-47-57.98 N",
		"longitude": "80-23-4.12 W",
		"state": "FLORIDA",
		"artcc": "ZMA",
		"type": "RNAV",
		"updated": "11/01/2013"
	},
	{
		"name": "KADTE",
		"latitude": "26-31-14.67 N",
		"longitude": "81-24-30.32 W",
		"state": "FLORIDA",
		"artcc": "ZMA",
		"type": "RNAV",
		"updated": "07/09/2017"
	},
	{
		"name": "KAINS",
		"latitude": "25-57-46.89 N",
		"longitude": "80-5-42.76 W",
		"state": "FLORIDA",
		"artcc": "ZMA",
		"type": "RP",
		"updated": "VKZ*VOR/DME*018.23/13.03"
	},
	{
		"name": "KARRL",
		"latitude": "26-44-33.14 N",
		"longitude": "79-56-45.37 W",
		"state": "FLORIDA",
		"artcc": "ZMA",
		"type": "RNAV",
		"updated": "12/29/2009"
	},
	{
		"name": "KARRN",
		"latitude": "20-35-16.32 N",
		"longitude": "69-44-20.93 W",
		"state": "OFFSHORE ATLANTIC",
		"artcc": "ZMA",
		"type": "RP",
		"updated": "PTA*VOR/DME*051.31/68.22"
	},
	{
		"name": "KARTR",
		"latitude": "25-29-45.76 N",
		"longitude": "81-30-46.24 W",
		"state": "FLORIDA",
		"artcc": "ZMA",
		"type": "RP",
		"updated": "EYW*VORTAC*015.00/56.66"
	},
	{
		"name": "KASAR",
		"latitude": "28-19-18.04 N",
		"longitude": "71-55-9.57 W",
		"state": "OFFSHORE ATLANTIC",
		"artcc": "ZMA",
		"type": "RNAV",
		"updated": "04/08/2008"
	},
	{
		"name": "KATSS",
		"latitude": "25-47-36.09 N",
		"longitude": "80-28-34.04 W",
		"state": "FLORIDA",
		"artcc": "ZMA",
		"type": "RNAV",
		"updated": "08/03/2001"
	},
	{
		"name": "KAYWY",
		"latitude": "28-10-12 N",
		"longitude": "81-25-10 W",
		"state": "FLORIDA",
		"artcc": "ZMA",
		"type": "RNAV",
		"updated": "10/24/2007"
	},
	{
		"name": "KENVE",
		"latitude": "27-49-38.95 N",
		"longitude": "82-38-17.68 W",
		"state": "FLORIDA",
		"artcc": "ZMA",
		"type": "RNAV",
		"updated": "05/22/2007"
	},
	{
		"name": "KERRN",
		"latitude": "26-0-47.24 N",
		"longitude": "79-35-11.58 W",
		"state": "OFFSHORE ATLANTIC",
		"artcc": "ZMA",
		"type": "RNAV",
		"updated": "07/25/2014"
	},
	{
		"name": "KEVBE",
		"latitude": "27-18-55.29 N",
		"longitude": "80-54-22.08 W",
		"state": "FLORIDA",
		"artcc": "ZMA",
		"type": "RNAV",
		"updated": "04/06/2010"
	},
	{
		"name": "KEVEY",
		"latitude": "25-59-15.59 N",
		"longitude": "79-57-8.68 W",
		"state": "FLORIDA",
		"artcc": "ZMA",
		"type": "RNAV",
		"updated": "05/30/2006"
	},
	{
		"name": "KEVYN",
		"latitude": "27-40-14.19 N",
		"longitude": "81-57-31.99 W",
		"state": "FLORIDA",
		"artcc": "ZMA",
		"type": "RNAV",
		"updated": "11/19/2008"
	},
	{
		"name": "KEYCY",
		"latitude": "24-33-25.1 N",
		"longitude": "81-40-12.16 W",
		"state": "FLORIDA",
		"artcc": "ZMA",
		"type": "RNAV",
		"updated": "04/12/2006"
	},
	{
		"name": "KEYES",
		"latitude": "25-47-26.47 N",
		"longitude": "80-11-39.14 W",
		"state": "FLORIDA",
		"artcc": "ZMA",
		"type": "RP",
		"updated": "VKZ*VOR/DME*321.40"
	},
	{
		"name": "KEYYS",
		"latitude": "24-0-0.22 N",
		"longitude": "80-43-47.09 W",
		"state": "FLORIDA",
		"artcc": "ZMA",
		"type": "RP",
		"updated": "DHP*VORTAC*195.00/109.64"
	},
	{
		"name": "KFFER",
		"latitude": "23-46-10.87 N",
		"longitude": "77-2-35.11 W",
		"state": "OFFSHORE ATLANTIC",
		"artcc": "ZMA",
		"type": "RNAV",
		"updated": "04/08/2008"
	},
	{
		"name": "KICKZ",
		"latitude": "26-11-12.05 N",
		"longitude": "80-17-29.04 W",
		"state": "FLORIDA",
		"artcc": "ZMA",
		"type": "RNAV",
		"updated": "02/18/2004"
	},
	{
		"name": "KIQTU",
		"latitude": "28-33-55.88 N",
		"longitude": "80-47-47.17 W",
		"state": "FLORIDA",
		"artcc": "ZMA",
		"type": "RNAV",
		"updated": "04/18/2018"
	},
	{
		"name": "KISEC",
		"latitude": "26-30-39.61 N",
		"longitude": "79-57-49.29 W",
		"state": "FLORIDA",
		"artcc": "ZMA",
		"type": "RNAV",
		"updated": "08/07/2006"
	},
	{
		"name": "KIXAL",
		"latitude": "26-51-3.53 N",
		"longitude": "79-36-46.21 W",
		"state": "OFFSHORE ATLANTIC",
		"artcc": "ZMA",
		"type": "RP",
		"updated": "ZFP*VOR/DME*292.99/52.26"
	},
	{
		"name": "KIZIZ",
		"latitude": "27-23-34.82 N",
		"longitude": "82-41-11.98 W",
		"state": "FLORIDA",
		"artcc": "ZMA",
		"type": "RNAV",
		"updated": "11/11/2010"
	},
	{
		"name": "KLMAN",
		"latitude": "27-56-40.73 N",
		"longitude": "81-29-19.42 W",
		"state": "FLORIDA",
		"artcc": "ZMA",
		"type": "RNAV",
		"updated": "01/08/2014"
	},
	{
		"name": "KNDLL",
		"latitude": "21-32-38.33 N",
		"longitude": "68-15-38.4 W",
		"state": "OFFSHORE ATLANTIC",
		"artcc": "ZMA",
		"type": "RNAV",
		"updated": "04/08/2008"
	},
	{
		"name": "KNEEL",
		"latitude": "26-4-0 N",
		"longitude": "79-15-28 W",
		"state": "OFFSHORE ATLANTIC",
		"artcc": "ZMA",
		"type": "RNAV",
		"updated": "07/13/2010"
	},
	{
		"name": "KNOST",
		"latitude": "28-0-2.55 N",
		"longitude": "83-25-23.99 W",
		"state": "OFFSHORE GULF",
		"artcc": "ZMA",
		"type": "RNAV",
		"updated": "02/13/2012"
	},
	{
		"name": "KOCHE",
		"latitude": "26-31-14.78 N",
		"longitude": "81-24-8.26 W",
		"state": "FLORIDA",
		"artcc": "ZMA",
		"type": "RP",
		"updated": "LBV*VORTAC*180.82/18.40"
	},
	{
		"name": "KOKEY",
		"latitude": "26-12-27.12 N",
		"longitude": "80-4-45.05 W",
		"state": "FLORIDA",
		"artcc": "ZMA",
		"type": "RNAV",
		"updated": "08/14/2014"
	},
	{
		"name": "KOLMN",
		"latitude": "26-3-14.43 N",
		"longitude": "82-8-21.98 W",
		"state": "OFFSHORE GULF",
		"artcc": "ZMA",
		"type": "RNAV",
		"updated": "07/01/2008"
	},
	{
		"name": "KONDE",
		"latitude": "28-5-13.85 N",
		"longitude": "81-48-11.98 W",
		"state": "FLORIDA",
		"artcc": "ZMA",
		"type": "RNAV",
		"updated": "01/25/2013"
	},
	{
		"name": "KOYEP",
		"latitude": "27-44-50.43 N",
		"longitude": "80-28-32.59 W",
		"state": "FLORIDA",
		"artcc": "ZMA",
		"type": "RNAV",
		"updated": "01/04/2012"
	},
	{
		"name": "KR57S",
		"latitude": "24-30-0 N",
		"longitude": "82-0-0 W",
		"state": "OFFSHORE GULF",
		"artcc": "ZMA",
		"type": "NRS",
		"updated": "03/05/2005"
	},
	{
		"name": "KR57U",
		"latitude": "24-30-0 N",
		"longitude": "80-0-0 W",
		"state": "OFFSHORE ATLANTIC",
		"artcc": "ZMA",
		"type": "NRS",
		"updated": "03/05/2005"
	},
	{
		"name": "KR60S",
		"latitude": "25-0-0 N",
		"longitude": "82-0-0 W",
		"state": "OFFSHORE GULF",
		"artcc": "ZMA",
		"type": "NRS",
		"updated": "03/05/2005"
	},
	{
		"name": "KR60U",
		"latitude": "25-0-0 N",
		"longitude": "80-0-0 W",
		"state": "OFFSHORE ATLANTIC",
		"artcc": "ZMA",
		"type": "NRS",
		"updated": "03/05/2005"
	},
	{
		"name": "KR63S",
		"latitude": "25-30-0 N",
		"longitude": "82-0-0 W",
		"state": "OFFSHORE GULF",
		"artcc": "ZMA",
		"type": "NRS",
		"updated": "03/05/2005"
	},
	{
		"name": "KR63U",
		"latitude": "25-30-0 N",
		"longitude": "80-0-0 W",
		"state": "OFFSHORE ATLANTIC",
		"artcc": "ZMA",
		"type": "NRS",
		"updated": "03/05/2005"
	},
	{
		"name": "KR66S",
		"latitude": "26-0-0 N",
		"longitude": "82-0-0 W",
		"state": "OFFSHORE GULF",
		"artcc": "ZMA",
		"type": "NRS",
		"updated": "03/05/2005"
	},
	{
		"name": "KR66U",
		"latitude": "26-0-0 N",
		"longitude": "80-0-0 W",
		"state": "FLORIDA",
		"artcc": "ZMA",
		"type": "NRS",
		"updated": "03/05/2005"
	},
	{
		"name": "KR69Q",
		"latitude": "26-30-0 N",
		"longitude": "84-0-0 W",
		"state": "OFFSHORE GULF",
		"artcc": "ZMA",
		"type": "NRS",
		"updated": "03/05/2005"
	},
	{
		"name": "KR69S",
		"latitude": "26-30-0 N",
		"longitude": "82-0-0 W",
		"state": "FLORIDA",
		"artcc": "ZMA",
		"type": "NRS",
		"updated": "03/05/2005"
	},
	{
		"name": "KR69U",
		"latitude": "26-30-0 N",
		"longitude": "80-0-0 W",
		"state": "FLORIDA",
		"artcc": "ZMA",
		"type": "NRS",
		"updated": "03/05/2005"
	},
	{
		"name": "KR72Q",
		"latitude": "27-0-0 N",
		"longitude": "84-0-0 W",
		"state": "OFFSHORE GULF",
		"artcc": "ZMA",
		"type": "NRS",
		"updated": "03/05/2005"
	},
	{
		"name": "KR72S",
		"latitude": "27-0-0 N",
		"longitude": "82-0-0 W",
		"state": "FLORIDA",
		"artcc": "ZMA",
		"type": "NRS",
		"updated": "03/05/2005"
	},
	{
		"name": "KR72U",
		"latitude": "27-0-0 N",
		"longitude": "80-0-0 W",
		"state": "FLORIDA",
		"artcc": "ZMA",
		"type": "NRS",
		"updated": "03/05/2005"
	},
	{
		"name": "KR75Q",
		"latitude": "27-30-0 N",
		"longitude": "84-0-0 W",
		"state": "OFFSHORE GULF",
		"artcc": "ZMA",
		"type": "NRS",
		"updated": "03/05/2005"
	},
	{
		"name": "KR75S",
		"latitude": "27-30-0 N",
		"longitude": "82-0-0 W",
		"state": "FLORIDA",
		"artcc": "ZMA",
		"type": "NRS",
		"updated": "03/05/2005"
	},
	{
		"name": "KR75U",
		"latitude": "27-30-0 N",
		"longitude": "80-0-0 W",
		"state": "OFFSHORE ATLANTIC",
		"artcc": "ZMA",
		"type": "NRS",
		"updated": "03/05/2005"
	},
	{
		"name": "KR78Q",
		"latitude": "28-0-0 N",
		"longitude": "84-0-0 W",
		"state": "OFFSHORE GULF",
		"artcc": "ZMA",
		"type": "NRS",
		"updated": "03/05/2005"
	},
	{
		"name": "KR78S",
		"latitude": "28-0-0 N",
		"longitude": "82-0-0 W",
		"state": "FLORIDA",
		"artcc": "ZMA",
		"type": "NRS",
		"updated": "03/05/2005"
	},
	{
		"name": "KR78U",
		"latitude": "28-0-0 N",
		"longitude": "80-0-0 W",
		"state": "OFFSHORE ATLANTIC",
		"artcc": "ZMA",
		"type": "NRS",
		"updated": "03/05/2005"
	},
	{
		"name": "KR81Q",
		"latitude": "28-30-0 N",
		"longitude": "84-0-0 W",
		"state": "OFFSHORE GULF",
		"artcc": "ZMA",
		"type": "NRS",
		"updated": "03/05/2005"
	},
	{
		"name": "KR81U",
		"latitude": "28-30-0 N",
		"longitude": "80-0-0 W",
		"state": "OFFSHORE ATLANTIC",
		"artcc": "ZMA",
		"type": "NRS",
		"updated": "03/05/2005"
	},
	{
		"name": "KR81W",
		"latitude": "28-30-0 N",
		"longitude": "78-0-0 W",
		"state": "OFFSHORE ATLANTIC",
		"artcc": "ZMA",
		"type": "NRS",
		"updated": "03/05/2005"
	},
	{
		"name": "KR84U",
		"latitude": "29-0-0 N",
		"longitude": "80-0-0 W",
		"state": "OFFSHORE ATLANTIC",
		"artcc": "ZMA",
		"type": "NRS",
		"updated": "03/05/2005"
	},
	{
		"name": "KR84W",
		"latitude": "29-0-0 N",
		"longitude": "78-0-0 W",
		"state": "OFFSHORE ATLANTIC",
		"artcc": "ZMA",
		"type": "NRS",
		"updated": "03/05/2005"
	},
	{
		"name": "KR87W",
		"latitude": "29-30-0 N",
		"longitude": "78-0-0 W",
		"state": "OFFSHORE ATLANTIC",
		"artcc": "ZMA",
		"type": "NRS",
		"updated": "03/05/2005"
	},
	{
		"name": "KR90W",
		"latitude": "30-0-0 N",
		"longitude": "78-0-0 W",
		"state": "OFFSHORE ATLANTIC",
		"artcc": "ZMA",
		"type": "NRS",
		"updated": "03/05/2005"
	},
	{
		"name": "KRMIT",
		"latitude": "26-13-22 N",
		"longitude": "80-18-16.69 W",
		"state": "FLORIDA",
		"artcc": "ZMA",
		"type": "RNAV",
		"updated": "08/02/2006"
	},
	{
		"name": "KROME",
		"latitude": "25-47-25.53 N",
		"longitude": "80-32-40.4 W",
		"state": "FLORIDA",
		"artcc": "ZMA",
		"type": "RP",
		"updated": "MFA*LD*272.38/15.05"
	},
	{
		"name": "KRSTY",
		"latitude": "25-53-0 N",
		"longitude": "80-33-0 W",
		"state": "FLORIDA",
		"artcc": "ZMA",
		"type": "RNAV",
		"updated": "10/22/2009"
	},
	{
		"name": "KRTIS",
		"latitude": "25-3-3.17 N",
		"longitude": "75-4-21.8 W",
		"state": "OFFSHORE ATLANTIC",
		"artcc": "ZMA",
		"type": "RNAV",
		"updated": "04/09/2008"
	},
	{
		"name": "KUBIC",
		"latitude": "26-5-51.57 N",
		"longitude": "80-56-58.27 W",
		"state": "FLORIDA",
		"artcc": "ZMA",
		"type": "RP",
		"updated": "PHK*VOR/DME*198.79"
	},
	{
		"name": "KUCEP",
		"latitude": "26-9-49.51 N",
		"longitude": "80-2-19.3 W",
		"state": "FLORIDA",
		"artcc": "ZMA",
		"type": "RNAV",
		"updated": "08/14/2014"
	},
	{
		"name": "KURAY",
		"latitude": "25-15-33.16 N",
		"longitude": "77-27-38.86 W",
		"state": "",
		"artcc": "ZMA",
		"type": "RP",
		"updated": "ZQA*VOR/DME*002.80/14.00"
	},
	{
		"name": "KUVBE",
		"latitude": "26-35-42.31 N",
		"longitude": "80-12-57.57 W",
		"state": "FLORIDA",
		"artcc": "ZMA",
		"type": "RNAV",
		"updated": "07/16/2013"
	},
	{
		"name": "KYTEE",
		"latitude": "28-40-28.76 N",
		"longitude": "80-54-5.28 W",
		"state": "FLORIDA",
		"artcc": "ZMA",
		"type": "RNAV",
		"updated": "06/09/2009"
	}
]
