	{
		"name": "MABJE",
		"latitude": "28-17-6.55 N",
		"longitude": "81-26-27.26 W",
		"state": "FLORIDA",
		"artcc": "ZMA",
		"type": "RP",
		"updated": "ORL*VORTAC*200.00/16.40",
	},
	{
		"name": "MABVD",
		"latitude": "26-23-5.97 N",
		"longitude": "80-6-24.96 W",
		"state": "FLORIDA",
		"artcc": "ZMA",
		"type": "RP",
		"updated": "PBI*VORTAC*186.57/17.69",
	},
	{
		"name": "MACKI",
		"latitude": "20-26-36.73 N",
		"longitude": "69-43-42.2 W",
		"state": "OFFSHORE ATLANTIC",
		"artcc": "ZMA",
		"type": "RP",
		"updated": "GTK*VORTAC*134.79/98.93",
	},
	{
		"name": "MADCY",
		"latitude": "27-53-41.03 N",
		"longitude": "81-37-27.04 W",
		"state": "FLORIDA",
		"artcc": "ZMA",
		"type": "RP",
		"updated": "LAL*VORTAC*103.71/21.42",
	},
	{
		"name": "MAGCV",
		"latitude": "28-24-52.34 N",
		"longitude": "81-19-20.39 W",
		"state": "FLORIDA",
		"artcc": "ZMA",
		"type": "CN",
		"updated": "09/12/2002",
	},
	{
		"name": "MAGLS",
		"latitude": "28-31-17.28 N",
		"longitude": "80-47-51.58 W",
		"state": "FLORIDA",
		"artcc": "ZMA",
		"type": "CN",
		"updated": "09/12/2002",
	},
	{
		"name": "MAHAR",
		"latitude": "27-41-47.52 N",
		"longitude": "82-53-53.64 W",
		"state": "FLORIDA",
		"artcc": "ZMA",
		"type": "RNAV",
		"updated": "11/21/2010",
	},
	{
		"name": "MAINR",
		"latitude": "27-12-34.92 N",
		"longitude": "80-18-54.57 W",
		"state": "FLORIDA",
		"artcc": "ZMA",
		"type": "RNAV",
		"updated": "03/21/2013",
	},
	{
		"name": "MAJIK",
		"latitude": "29-48-26.56 N",
		"longitude": "78-59-30.83 W",
		"state": "OFFSHORE ATLANTIC",
		"artcc": "ZMA",
		"type": "RNAV",
		"updated": "08/29/2005",
	},
	{
		"name": "MAJUR",
		"latitude": "25-19-48.2 N",
		"longitude": "77-51-39.61 W",
		"state": "OFFSHORE ATLANTIC",
		"artcc": "ZMA",
		"type": "RP",
		"updated": "ZQA*VOR/DME*315.00/29.00",
	},
	{
		"name": "MALET",
		"latitude": "28-41-29.9 N",
		"longitude": "80-52-4.3 W",
		"state": "FLORIDA",
		"artcc": "ZMA",
		"type": "RP",
		"updated": "OMN*VORTAC*160.55/38.80",
	},
	{
		"name": "MALVN",
		"latitude": "20-25-0 N",
		"longitude": "71-23-33.67 W",
		"state": "OFFSHORE ATLANTIC",
		"artcc": "ZMA",
		"type": "RP",
		"updated": "PTA*VOR/DME*319.25/60.92",
	},
	{
		"name": "MAMML",
		"latitude": "25-32-11.97 N",
		"longitude": "76-38-51.61 W",
		"state": "",
		"artcc": "ZMA",
		"type": "RP",
		"updated": "ZQA*VOR/DME*060.69/53.12",
	},
	{
		"name": "MANII",
		"latitude": "22-9-43.47 N",
		"longitude": "70-0-38.29 W",
		"state": "OFFSHORE ATLANTIC",
		"artcc": "ZMA",
		"type": "RNAV",
		"updated": "04/08/2008",
	},
	{
		"name": "MANNN",
		"latitude": "25-29-43.45 N",
		"longitude": "80-7-47.41 W",
		"state": "FLORIDA",
		"artcc": "ZMA",
		"type": "RNAV",
		"updated": "02/12/2012",
	},
	{
		"name": "MANTY",
		"latitude": "25-56-55.99 N",
		"longitude": "79-49-32.31 W",
		"state": "OFFSHORE ATLANTIC",
		"artcc": "ZMA",
		"type": "RNAV",
		"updated": "07/17/2007",
	},
	{
		"name": "MAPUL",
		"latitude": "26-29-56.53 N",
		"longitude": "81-48-43.76 W",
		"state": "FLORIDA",
		"artcc": "ZMA",
		"type": "RNAV",
		"updated": "01/22/2007",
	},
	{
		"name": "MAPYL",
		"latitude": "27-50-0 N",
		"longitude": "75-59-0.17 W",
		"state": "OFFSHORE ATLANTIC",
		"artcc": "ZMA",
		"type": "RNAV",
		"updated": "04/23/2008",
	},
	{
		"name": "MARCI",
		"latitude": "25-53-27.84 N",
		"longitude": "81-47-2.37 W",
		"state": "FLORIDA",
		"artcc": "ZMA",
		"type": "RP",
		"updated": "DHP*VORTAC*278.33/77.86",
	},
	{
		"name": "MARKG",
		"latitude": "27-56-9.35 N",
		"longitude": "80-21-23.31 W",
		"state": "FLORIDA",
		"artcc": "ZMA",
		"type": "RNAV",
		"updated": "06/18/2012",
	},
	{
		"name": "MARTS",
		"latitude": "26-5-21.61 N",
		"longitude": "79-59-52.02 W",
		"state": "FLORIDA",
		"artcc": "ZMA",
		"type": "RP",
		"updated": "DHP*VORTAC*051.58/25.70",
	},
	{
		"name": "MARYD",
		"latitude": "25-54-0 N",
		"longitude": "80-16-0 W",
		"state": "FLORIDA",
		"artcc": "ZMA",
		"type": "RNAV",
		"updated": "05/11/2009",
	},
	{
		"name": "MAXIM",
		"latitude": "24-0-0 N",
		"longitude": "82-31-7.73 W",
		"state": "FLORIDA",
		"artcc": "ZMA",
		"type": "RP",
		"updated": "FIS*NDB*234.91",
	},
	{
		"name": "MAYAG",
		"latitude": "21-42-17.69 N",
		"longitude": "71-37-55.14 W",
		"state": "",
		"artcc": "ZMA",
		"type": "RP",
		"updated": "GTK*VORTAC*307.68/32.00",
	},
	{
		"name": "MAYKO",
		"latitude": "26-12-8.76 N",
		"longitude": "78-56-47.33 W",
		"state": "OFFSHORE ATLANTIC",
		"artcc": "ZMA",
		"type": "RP",
		"updated": "ZFP*VOR/DME*215.46/25.00",
	},
	{
		"name": "MAZZY",
		"latitude": "27-7-2.28 N",
		"longitude": "81-32-1.9 W",
		"state": "FLORIDA",
		"artcc": "ZMA",
		"type": "RNAV",
		"updated": "07/15/2008",
	},
	{
		"name": "MCLAW",
		"latitude": "24-33-49 N",
		"longitude": "81-1-0 W",
		"state": "FLORIDA",
		"artcc": "ZMA",
		"type": "RNAV",
		"updated": "09/09/2016",
	},
	{
		"name": "MEAGN",
		"latitude": "26-14-17.2 N",
		"longitude": "80-47-23.64 W",
		"state": "FLORIDA",
		"artcc": "ZMA",
		"type": "RNAV",
		"updated": "08/04/2006",
	},
	{
		"name": "MEDAC",
		"latitude": "24-29-48.61 N",
		"longitude": "81-44-31.61 W",
		"state": "FLORIDA",
		"artcc": "ZMA",
		"type": "MW",
		"updated": "02/10/2016",
	},
	{
		"name": "MEKBE",
		"latitude": "26-7-23.62 N",
		"longitude": "81-44-28.07 W",
		"state": "FLORIDA",
		"artcc": "ZMA",
		"type": "RNAV",
		"updated": "07/07/2014",
	},
	{
		"name": "MELON",
		"latitude": "25-31-10.35 N",
		"longitude": "77-28-36.7 W",
		"state": "",
		"artcc": "ZMA",
		"type": "RP",
		"updated": "ZBV*VORTAC*100.00",
	},
	{
		"name": "MEMXI",
		"latitude": "26-28-5.14 N",
		"longitude": "81-42-25.98 W",
		"state": "FLORIDA",
		"artcc": "ZMA",
		"type": "RNAV",
		"updated": "07/15/2011",
	},
	{
		"name": "MENDL",
		"latitude": "24-27-9.22 N",
		"longitude": "78-40-42.13 W",
		"state": "",
		"artcc": "ZMA",
		"type": "RP",
		"updated": "ZBV*VORTAC*159.72/82.85",
	},
	{
		"name": "MERCS",
		"latitude": "28-5-43.36 N",
		"longitude": "80-46-51.59 W",
		"state": "FLORIDA",
		"artcc": "ZMA",
		"type": "RP",
		"updated": "MLB*VOR/DME*267.65/7.75",
	},
	{
		"name": "MEROE",
		"latitude": "25-9-48.48 N",
		"longitude": "80-47-53.86 W",
		"state": "FLORIDA",
		"artcc": "ZMA",
		"type": "MR",
		"updated": "HST*TACAN*/30.00",
	},
	{
		"name": "METTS",
		"latitude": "25-50-54.31 N",
		"longitude": "80-23-54.55 W",
		"state": "FLORIDA",
		"artcc": "ZMA",
		"type": "RNAV",
		"updated": "08/04/2006",
	},
	{
		"name": "MICAS",
		"latitude": "22-7-53.39 N",
		"longitude": "72-26-42.88 W",
		"state": "",
		"artcc": "ZMA",
		"type": "RP",
		"updated": "ZIN*NDB*053.31",
	},
	{
		"name": "MICKX",
		"latitude": "28-23-29.61 N",
		"longitude": "81-11-15 W",
		"state": "FLORIDA",
		"artcc": "ZMA",
		"type": "RNAV",
		"updated": "10/24/2007",
	},
	{
		"name": "MILEJ",
		"latitude": "27-44-29.51 N",
		"longitude": "82-11-1.78 W",
		"state": "FLORIDA",
		"artcc": "ZMA",
		"type": "RNAV",
		"updated": "02/16/2010",
	},
	{
		"name": "MILES",
		"latitude": "26-14-59.35 N",
		"longitude": "81-42-14.68 W",
		"state": "FLORIDA",
		"artcc": "ZMA",
		"type": "RP",
		"updated": "LBV*VORTAC*205.00",
	},
	{
		"name": "MILME",
		"latitude": "28-7-15 N",
		"longitude": "80-38-5.99 W",
		"state": "FLORIDA",
		"artcc": "ZMA",
		"type": "MR",
		"updated": "COF*TACAN*197.00/7.10",
	},
	{
		"name": "MILNE",
		"latitude": "27-39-29.71 N",
		"longitude": "82-40-44.38 W",
		"state": "FLORIDA",
		"artcc": "ZMA",
		"type": "MR",
		"updated": "MCF*TACAN*220.00/15.00",
	},
	{
		"name": "MILSY",
		"latitude": "26-28-2.67 N",
		"longitude": "79-43-50.98 W",
		"state": "OFFSHORE ATLANTIC",
		"artcc": "ZMA",
		"type": "RNAV",
		"updated": "09/01/2005",
	},
	{
		"name": "MIMBE",
		"latitude": "27-35-55 N",
		"longitude": "80-36-11 W",
		"state": "FLORIDA",
		"artcc": "ZMA",
		"type": "RNAV",
		"updated": "04/08/2014",
	},
	{
		"name": "MIMMI",
		"latitude": "28-1-46.55 N",
		"longitude": "79-18-59.39 W",
		"state": "OFFSHORE ATLANTIC",
		"artcc": "ZMA",
		"type": "RNAV",
		"updated": "09/01/2005",
	},
	{
		"name": "MINEE",
		"latitude": "28-7-6.02 N",
		"longitude": "81-44-40.18 W",
		"state": "FLORIDA",
		"artcc": "ZMA",
		"type": "RP",
		"updated": "RSW*VORTAC*003.00/95.06",
	},
	{
		"name": "MINOW",
		"latitude": "26-2-47.27 N",
		"longitude": "85-58-58.64 W",
		"state": "OFFSHORE GULF",
		"artcc": "ZMA",
		"type": "RP",
		"updated": "08/01/2006",
	},
	{
		"name": "MIREE",
		"latitude": "28-0-56.53 N",
		"longitude": "82-9-16.53 W",
		"state": "FLORIDA",
		"artcc": "ZMA",
		"type": "RNAV",
		"updated": "10/02/2007",
	},
	{
		"name": "MISSL",
		"latitude": "28-41-10.55 N",
		"longitude": "80-42-33.58 W",
		"state": "FLORIDA",
		"artcc": "ZMA",
		"type": "RNAV",
		"updated": "06/18/2010",
	},
	{
		"name": "MIXAE",
		"latitude": "26-40-43.37 N",
		"longitude": "79-29-27.93 W",
		"state": "",
		"artcc": "ZMA",
		"type": "RP",
		"updated": "PBI*VORTAC*093.01/32.00",
	},
	{
		"name": "MKLEE",
		"latitude": "27-9-45.01 N",
		"longitude": "80-17-26.22 W",
		"state": "FLORIDA",
		"artcc": "ZMA",
		"type": "RNAV",
		"updated": "10/26/2009",
	},
	{
		"name": "MKYDG",
		"latitude": "26-36-48.98 N",
		"longitude": "80-47-3.93 W",
		"state": "FLORIDA",
		"artcc": "ZMA",
		"type": "RNAV",
		"updated": "04/11/2018",
	},
	{
		"name": "MLBSO",
		"latitude": "27-47-25.31 N",
		"longitude": "80-31-40.08 W",
		"state": "FLORIDA",
		"artcc": "ZMA",
		"type": "RP",
		"updated": "TRV*VORTAC*350.17/7.00",
	},
	{
		"name": "MLLER",
		"latitude": "23-56-4.9 N",
		"longitude": "68-14-56.1 W",
		"state": "OFFSHORE ATLANTIC",
		"artcc": "ZMA",
		"type": "RNAV",
		"updated": "04/11/2008",
	},
	{
		"name": "MMALL",
		"latitude": "26-23-38.85 N",
		"longitude": "81-48-52.66 W",
		"state": "FLORIDA",
		"artcc": "ZMA",
		"type": "RNAV",
		"updated": "04/10/2014",
	},
	{
		"name": "MMDUQ",
		"latitude": "27-15-45.95 N",
		"longitude": "81-54-25.68 W",
		"state": "FLORIDA",
		"artcc": "ZMA",
		"type": "CN",
		"updated": "03/22/2002",
	},
	{
		"name": "MNATE",
		"latitude": "24-58-45.54 N",
		"longitude": "80-31-26.5 W",
		"state": "FLORIDA",
		"artcc": "ZMA",
		"type": "RP",
		"updated": "DHP*VORTAC*195.00/50.00",
	},
	{
		"name": "MNAWX",
		"latitude": "25-5-0 N",
		"longitude": "80-30-0 W",
		"state": "FLORIDA",
		"artcc": "ZMA",
		"type": "RNAV",
		"updated": "01/28/2016",
	},
	{
		"name": "MNDEZ",
		"latitude": "23-34-51.78 N",
		"longitude": "68-44-46.61 W",
		"state": "OFFSHORE ATLANTIC",
		"artcc": "ZMA",
		"type": "RNAV",
		"updated": "04/08/2008",
	},
	{
		"name": "MNNDY",
		"latitude": "25-35-27.35 N",
		"longitude": "80-48-52.55 W",
		"state": "FLORIDA",
		"artcc": "ZMA",
		"type": "RNAV",
		"updated": "12/15/2015",
	},
	{
		"name": "MOANS",
		"latitude": "27-54-49.97 N",
		"longitude": "81-44-54.89 W",
		"state": "FLORIDA",
		"artcc": "ZMA",
		"type": "RP",
		"updated": "RSW*VORTAC*003.00/82.82",
	},
	{
		"name": "MOBUE",
		"latitude": "27-55-9.76 N",
		"longitude": "82-26-56.25 W",
		"state": "FLORIDA",
		"artcc": "ZMA",
		"type": "MR",
		"updated": "MCF*TACAN*/4.89",
	},
	{
		"name": "MODOE",
		"latitude": "26-56-59.29 N",
		"longitude": "80-41-3.92 W",
		"state": "FLORIDA",
		"artcc": "ZMA",
		"type": "RP",
		"updated": "PHK*VOR/DME*002.15/10.00",
	},
	{
		"name": "MOEMO",
		"latitude": "27-0-35.01 N",
		"longitude": "81-28-56.03 W",
		"state": "FLORIDA",
		"artcc": "ZMA",
		"type": "RNAV",
		"updated": "07/15/2008",
	},
	{
		"name": "MOLTS",
		"latitude": "25-54-28 N",
		"longitude": "80-23-19.17 W",
		"state": "FLORIDA",
		"artcc": "ZMA",
		"type": "RP",
		"updated": "DHP*VORTAC*345.62",
	},
	{
		"name": "MONAD",
		"latitude": "27-1-15.86 N",
		"longitude": "80-3-45.18 W",
		"state": "FLORIDA",
		"artcc": "ZMA",
		"type": "RNAV",
		"updated": "03/21/2013",
	},
	{
		"name": "MONAY",
		"latitude": "27-54-49.29 N",
		"longitude": "81-42-16.34 W",
		"state": "FLORIDA",
		"artcc": "ZMA",
		"type": "RP",
		"updated": "LAL*VORTAC*103.71/17.00",
	},
	{
		"name": "MOOKY",
		"latitude": "26-6-23 N",
		"longitude": "82-21-50 W",
		"state": "OFFSHORE ATLANTIC",
		"artcc": "ZMA",
		"type": "RNAV",
		"updated": "07/31/2008",
	},
	{
		"name": "MOONS",
		"latitude": "28-22-35.23 N",
		"longitude": "80-21-12.26 W",
		"state": "FLORIDA",
		"artcc": "ZMA",
		"type": "RNAV",
		"updated": "06/18/2010",
	},
	{
		"name": "MORGA",
		"latitude": "26-57-36.78 N",
		"longitude": "80-11-55.87 W",
		"state": "FLORIDA",
		"artcc": "ZMA",
		"type": "RP",
		"updated": "PHK*VOR/DME*068.00",
	},
	{
		"name": "MORGN",
		"latitude": "26-35-7.26 N",
		"longitude": "81-39-40.42 W",
		"state": "FLORIDA",
		"artcc": "ZMA",
		"type": "RP",
		"updated": "RSW*VORTAC*063.67/7.00",
	},
	{
		"name": "MOSIE",
		"latitude": "26-26-45.07 N",
		"longitude": "79-49-42.59 W",
		"state": "OFFSHORE ATLANTIC",
		"artcc": "ZMA",
		"type": "RNAV",
		"updated": "05/30/2006",
	},
	{
		"name": "MOSTE",
		"latitude": "28-12-46.26 N",
		"longitude": "80-37-5.78 W",
		"state": "FLORIDA",
		"artcc": "ZMA",
		"type": "MR",
		"updated": "MLB*VOR/DME*015.00/6.50",
	},
	{
		"name": "MRINO",
		"latitude": "27-47-51.53 N",
		"longitude": "80-34-47.63 W",
		"state": "FLORIDA",
		"artcc": "ZMA",
		"type": "RNAV",
		"updated": "01/14/2009",
	},
	{
		"name": "MRLIN",
		"latitude": "26-30-3.36 N",
		"longitude": "79-45-57.64 W",
		"state": "FLORIDA",
		"artcc": "ZMA",
		"type": "RP",
		"updated": "ZFP*VOR/DME*270.00/57.57",
	},
	{
		"name": "MRRSH",
		"latitude": "26-30-40.78 N",
		"longitude": "77-4-59.39 W",
		"state": "",
		"artcc": "ZMA",
		"type": "RP",
		"updated": "ZFP*VOR/DME*094.37/86.93",
	},
	{
		"name": "MRTEE",
		"latitude": "21-14-22.48 N",
		"longitude": "70-34-54.19 W",
		"state": "OFFSHORE ATLANTIC",
		"artcc": "ZMA",
		"type": "RP",
		"updated": "PTA*VOR/DME*008.60/88.50",
	},
	{
		"name": "MUDDS",
		"latitude": "27-41-3.65 N",
		"longitude": "80-30-28.09 W",
		"state": "FLORIDA",
		"artcc": "ZMA",
		"type": "RNAV",
		"updated": "08/06/2012",
	},
	{
		"name": "MUNRO",
		"latitude": "26-32-24.05 N",
		"longitude": "79-0-49.74 W",
		"state": "",
		"artcc": "ZMA",
		"type": "RP",
		"updated": "ZBV*VORTAC*020.80",
	},
	{
		"name": "MURDO",
		"latitude": "27-19-7.45 N",
		"longitude": "82-19-45.91 W",
		"state": "FLORIDA",
		"artcc": "ZMA",
		"type": "RP",
		"updated": "PIE*VORTAC*156.70/40.00",
	},
	{
		"name": "MUSSH",
		"latitude": "25-12-28.83 N",
		"longitude": "74-16-24.49 W",
		"state": "OFFSHORE ATLANTIC",
		"artcc": "ZMA",
		"type": "RNAV",
		"updated": "06/11/2008",
	},
	{
		"name": "MUVOD",
		"latitude": "24-39-23.98 N",
		"longitude": "75-40-0.66 W",
		"state": "",
		"artcc": "ZMA",
		"type": "RP",
		"updated": "ZQA*VOR/DME*108.42/99.60",
	},
	{
		"name": "MUVPY",
		"latitude": "27-14-18.58 N",
		"longitude": "80-49-12.76 W",
		"state": "FLORIDA",
		"artcc": "ZMA",
		"type": "RNAV",
		"updated": "02/22/2010",
	},
	{
		"name": "MUWTY",
		"latitude": "27-45-1.17 N",
		"longitude": "82-32-10.52 W",
		"state": "FLORIDA",
		"artcc": "ZMA",
		"type": "RP",
		"updated": "LAL*VORTAC*242.19/31.16",
	},
	{
		"name": "MYNRD",
		"latitude": "26-5-0 N",
		"longitude": "80-3-0 W",
		"state": "FLORIDA",
		"artcc": "ZMA",
		"type": "RNAV",
		"updated": "10/22/2009",
	},
	{
		"name": "MYSTR",
		"latitude": "21-18-41.52 N",
		"longitude": "68-33-57.11 W",
		"state": "OFFSHORE ATLANTIC",
		"artcc": "ZMA",
		"type": "RNAV",
		"updated": "04/08/2008",
	},
