[
	{
		"name": "NABAC",
		"latitude": "26-34-47.46 N",
		"longitude": "81-31-44.96 W",
		"state": "FLORIDA",
		"artcc": "ZMA",
		"type": "RNAV",
		"updated": "07/15/2008"
	},
	{
		"name": "NAJBE",
		"latitude": "28-0-28.2 N",
		"longitude": "80-51-58.81 W",
		"state": "FLORIDA",
		"artcc": "ZMA",
		"type": "RNAV",
		"updated": "08/06/2012"
	},
	{
		"name": "NAMHO",
		"latitude": "27-45-5.57 N",
		"longitude": "80-33-53.01 W",
		"state": "FLORIDA",
		"artcc": "ZMA",
		"type": "RNAV",
		"updated": "06/18/2012"
	},
	{
		"name": "NATHY",
		"latitude": "26-35-4 N",
		"longitude": "76-48-43 W",
		"state": "OFFSHORE ATLANTIC",
		"artcc": "ZMA",
		"type": "RNAV",
		"updated": "04/08/2008"
	},
	{
		"name": "NATLE",
		"latitude": "26-1-10.11 N",
		"longitude": "84-52-0.59 W",
		"state": "OFFSHORE GULF",
		"artcc": "ZMA",
		"type": "RNAV",
		"updated": "10/31/2012"
	},
	{
		"name": "NAYIB",
		"latitude": "25-48-42.63 N",
		"longitude": "80-4-54.15 W",
		"state": "FLORIDA",
		"artcc": "ZMA",
		"type": "RNAV",
		"updated": "11/01/2013"
	},
	{
		"name": "NELSR",
		"latitude": "22-41-24.24 N",
		"longitude": "70-48-23.14 W",
		"state": "OFFSHORE ATLANTIC",
		"artcc": "ZMA",
		"type": "RNAV",
		"updated": "09/19/2008"
	},
	{
		"name": "NEPOE",
		"latitude": "27-19-40.25 N",
		"longitude": "80-46-54.21 W",
		"state": "FLORIDA",
		"artcc": "ZMA",
		"type": "RNAV",
		"updated": "08/15/2012"
	},
	{
		"name": "NETTA",
		"latitude": "21-49-23 N",
		"longitude": "70-48-11 W",
		"state": "OFFSHORE ATLANTIC",
		"artcc": "ZMA",
		"type": "RP",
		"updated": "GTK*VORTAC*046.95/29.42"
	},
	{
		"name": "NETTM",
		"latitude": "27-59-44.37 N",
		"longitude": "82-16-40.58 W",
		"state": "FLORIDA",
		"artcc": "ZMA",
		"type": "MW",
		"updated": "06/15/2007"
	},
	{
		"name": "NEUBE",
		"latitude": "27-29-12 N",
		"longitude": "79-24-56 W",
		"state": "OFFSHORE ATLANTIC",
		"artcc": "ZMA",
		"type": "RNAV",
		"updated": "09/01/2005"
	},
	{
		"name": "NEWER",
		"latitude": "26-13-54.98 N",
		"longitude": "80-37-5.49 W",
		"state": "FLORIDA",
		"artcc": "ZMA",
		"type": "RP",
		"updated": "DHP*VORTAC*334.68/29.66"
	},
	{
		"name": "NICHE",
		"latitude": "26-58-2.29 N",
		"longitude": "81-11-12.25 W",
		"state": "FLORIDA",
		"artcc": "ZMA",
		"type": "RNAV",
		"updated": "12/29/2008"
	},
	{
		"name": "NICKO",
		"latitude": "24-59-27.33 N",
		"longitude": "78-10-45.56 W",
		"state": "",
		"artcc": "ZMA",
		"type": "RP",
		"updated": "ZQA*VOR/DME*273.19/40.00"
	},
	{
		"name": "NICYI",
		"latitude": "25-59-55.24 N",
		"longitude": "80-20-10 W",
		"state": "FLORIDA",
		"artcc": "ZMA",
		"type": "RNAV",
		"updated": "08/05/2012"
	},
	{
		"name": "NITNY",
		"latitude": "26-40-48.62 N",
		"longitude": "80-27-2.9 W",
		"state": "FLORIDA",
		"artcc": "ZMA",
		"type": "RP",
		"updated": "PHK*VOR/DME*115.34/14.31"
	},
	{
		"name": "NOBBS",
		"latitude": "28-9-52 N",
		"longitude": "81-11-15 W",
		"state": "FLORIDA",
		"artcc": "ZMA",
		"type": "RNAV",
		"updated": "10/24/2007"
	},
	{
		"name": "NODBE",
		"latitude": "28-24-29.09 N",
		"longitude": "80-28-46.27 W",
		"state": "FLORIDA",
		"artcc": "ZMA",
		"type": "MW",
		"updated": "03/05/2008"
	},
	{
		"name": "NOGGI",
		"latitude": "28-9-48.59 N",
		"longitude": "81-17-34.94 W",
		"state": "FLORIDA",
		"artcc": "ZMA",
		"type": "RP",
		"updated": "ORL*VORTAC*174.40/22.80"
	},
	{
		"name": "NOLBE",
		"latitude": "27-35-19.65 N",
		"longitude": "80-28-35.82 W",
		"state": "FLORIDA",
		"artcc": "ZMA",
		"type": "RNAV",
		"updated": "08/06/2012"
	},
	{
		"name": "NOLEE",
		"latitude": "24-33-31.48 N",
		"longitude": "81-40-5.95 W",
		"state": "FLORIDA",
		"artcc": "ZMA",
		"type": "MR",
		"updated": "NQX*TACAN*155.00/1.50"
	},
	{
		"name": "NONLE",
		"latitude": "26-5-44.08 N",
		"longitude": "81-42-34.93 W",
		"state": "FLORIDA",
		"artcc": "ZMA",
		"type": "RNAV",
		"updated": "07/07/2014"
	},
	{
		"name": "NOPIT",
		"latitude": "20-46-14.52 N",
		"longitude": "69-17-51.44 W",
		"state": "OFFSHORE ATLANTIC",
		"artcc": "ZMA",
		"type": "RNAV",
		"updated": "04/08/2008"
	},
	{
		"name": "NOSTE",
		"latitude": "28-1-44.31 N",
		"longitude": "81-47-28.21 W",
		"state": "FLORIDA",
		"artcc": "ZMA",
		"type": "RNAV",
		"updated": "07/29/2002"
	},
	{
		"name": "NOVAE",
		"latitude": "26-4-38.99 N",
		"longitude": "80-15-58.68 W",
		"state": "FLORIDA",
		"artcc": "ZMA",
		"type": "RP",
		"updated": "DHP*VORTAC*019.07"
	},
	{
		"name": "NOYEM",
		"latitude": "27-14-56.86 N",
		"longitude": "80-16-50.22 W",
		"state": "FLORIDA",
		"artcc": "ZMA",
		"type": "RNAV",
		"updated": "01/04/2012"
	},
	{
		"name": "NREQZ",
		"latitude": "25-14-48.34 N",
		"longitude": "80-28-2.31 W",
		"state": "FLORIDA",
		"artcc": "ZMA",
		"type": "RNAV",
		"updated": "02/12/2012"
	},
	{
		"name": "NUCAR",
		"latitude": "28-7-33.7 N",
		"longitude": "77-37-58.8 W",
		"state": "",
		"artcc": "ZMA",
		"type": "RP",
		"updated": "PBI*VORTAC*059.00/157.02"
	},
	{
		"name": "NUYIT",
		"latitude": "26-34-57.76 N",
		"longitude": "80-4-34.2 W",
		"state": "FLORIDA",
		"artcc": "ZMA",
		"type": "RNAV",
		"updated": "07/17/2014"
	}
]
