	{
		"name": "OBADE",
		"latitude": "24-30-49.52 N",
		"longitude": "81-36-35.81 W",
		"state": "FLORIDA",
		"artcc": "ZMA",
		"type": "MW",
		"updated": "02/10/2016",
	},
	{
		"name": "OBBIN",
		"latitude": "24-32-21.86 N",
		"longitude": "81-46-57.48 W",
		"state": "FLORIDA",
		"artcc": "ZMA",
		"type": "MR",
		"updated": "NQX*TACAN*252.00/6.00",
	},
	{
		"name": "OBBIX",
		"latitude": "28-0-18.91 N",
		"longitude": "82-14-29.9 W",
		"state": "FLORIDA",
		"artcc": "ZMA",
		"type": "RNAV",
		"updated": "12/09/2010",
	},
	{
		"name": "OBEYS",
		"latitude": "28-10-30.31 N",
		"longitude": "80-17-56.41 W",
		"state": "OFFSHORE ATLANTIC",
		"artcc": "ZMA",
		"type": "RP",
		"updated": "OMN*VORTAC*147.36/80.00",
	},
	{
		"name": "OBMEE",
		"latitude": "26-20-0.91 N",
		"longitude": "81-36-27.06 W",
		"state": "FLORIDA",
		"artcc": "ZMA",
		"type": "RNAV",
		"updated": "07/09/2017",
	},
	{
		"name": "OBTEE",
		"latitude": "26-54-21.91 N",
		"longitude": "80-1-19.42 W",
		"state": "FLORIDA",
		"artcc": "ZMA",
		"type": "RNAV",
		"updated": "12/29/2009",
	},
	{
		"name": "OBTOQ",
		"latitude": "28-2-54.97 N",
		"longitude": "81-56-50.31 W",
		"state": "FLORIDA",
		"artcc": "ZMA",
		"type": "RNAV",
		"updated": "10/02/2007",
	},
	{
		"name": "OCETA",
		"latitude": "24-37-55.63 N",
		"longitude": "81-45-33.79 W",
		"state": "FLORIDA",
		"artcc": "ZMA",
		"type": "MW",
		"updated": "01/12/2010",
	},
	{
		"name": "ODDEL",
		"latitude": "28-5-45.51 N",
		"longitude": "81-10-10.24 W",
		"state": "FLORIDA",
		"artcc": "ZMA",
		"type": "RP",
		"updated": "ORL*VORTAC*161.81/28.13",
	},
	{
		"name": "ODERY",
		"latitude": "26-42-55.45 N",
		"longitude": "81-38-16.77 W",
		"state": "FLORIDA",
		"artcc": "ZMA",
		"type": "RNAV",
		"updated": "04/09/2013",
	},
	{
		"name": "ODKEY",
		"latitude": "26-31-41.39 N",
		"longitude": "79-58-48.07 W",
		"state": "FLORIDA",
		"artcc": "ZMA",
		"type": "RNAV",
		"updated": "12/06/2011",
	},
	{
		"name": "ODNAE",
		"latitude": "27-12-22.12 N",
		"longitude": "80-47-2.67 W",
		"state": "FLORIDA",
		"artcc": "ZMA",
		"type": "RNAV",
		"updated": "02/22/2010",
	},
	{
		"name": "OFDOY",
		"latitude": "26-17-17.2 N",
		"longitude": "81-37-44.86 W",
		"state": "FLORIDA",
		"artcc": "ZMA",
		"type": "MW",
		"updated": "11/05/2009",
	},
	{
		"name": "OGGAN",
		"latitude": "26-43-2.98 N",
		"longitude": "80-16-39.48 W",
		"state": "FLORIDA",
		"artcc": "ZMA",
		"type": "RNAV",
		"updated": "12/29/2009",
	},
	{
		"name": "OGIHI",
		"latitude": "26-9-3.4 N",
		"longitude": "80-16-54.64 W",
		"state": "FLORIDA",
		"artcc": "ZMA",
		"type": "RNAV",
		"updated": "03/18/2013",
	},
	{
		"name": "OGOYY",
		"latitude": "26-24-50.47 N",
		"longitude": "80-15-2.47 W",
		"state": "FLORIDA",
		"artcc": "ZMA",
		"type": "RP",
		"updated": "PMP*LE*329.65/12.92",
	},
	{
		"name": "OHBEE",
		"latitude": "25-26-9.7 N",
		"longitude": "76-47-45.7 W",
		"state": "",
		"artcc": "ZMA",
		"type": "RP",
		"updated": "ZQA*VOR/DME*061.11/43.07",
	},
	{
		"name": "OHOFO",
		"latitude": "25-51-29.17 N",
		"longitude": "80-30-2.24 W",
		"state": "FLORIDA",
		"artcc": "ZMA",
		"type": "RP",
		"updated": "DHP*VORTAC*297.00/8.91",
	},
	{
		"name": "OJEMY",
		"latitude": "27-48-6.81 N",
		"longitude": "80-18-5.14 W",
		"state": "FLORIDA",
		"artcc": "ZMA",
		"type": "RNAV",
		"updated": "01/14/2009",
	},
	{
		"name": "OJHEC",
		"latitude": "26-52-39.48 N",
		"longitude": "81-59-40.99 W",
		"state": "FLORIDA",
		"artcc": "ZMA",
		"type": "RNAV",
		"updated": "08/11/2016",
	},
	{
		"name": "OJWIP",
		"latitude": "26-50-45.82 N",
		"longitude": "82-15-44.75 W",
		"state": "FLORIDA",
		"artcc": "ZMA",
		"type": "RNAV",
		"updated": "08/11/2016",
	},
	{
		"name": "OKANE",
		"latitude": "25-54-11.6 N",
		"longitude": "80-28-51.57 W",
		"state": "FLORIDA",
		"artcc": "ZMA",
		"type": "RP",
		"updated": "DHP*VORTAC*314.88",
	},
	{
		"name": "OLADY",
		"latitude": "27-16-22.07 N",
		"longitude": "80-21-49.58 W",
		"state": "FLORIDA",
		"artcc": "ZMA",
		"type": "RNAV",
		"updated": "10/26/2009",
	},
	{
		"name": "OLDDE",
		"latitude": "25-42-44.6 N",
		"longitude": "80-7-57.59 W",
		"state": "FLORIDA",
		"artcc": "ZMA",
		"type": "RP",
		"updated": "DCX*LD*124.47/10.64",
	},
	{
		"name": "OMALY",
		"latitude": "27-3-44.85 N",
		"longitude": "76-23-35.01 W",
		"state": "OFFSHORE ATLANTIC",
		"artcc": "ZMA",
		"type": "RP",
		"updated": "04/24/2002",
	},
	{
		"name": "OMIGE",
		"latitude": "27-35-38.18 N",
		"longitude": "81-45-34.55 W",
		"state": "FLORIDA",
		"artcc": "ZMA",
		"type": "RNAV",
		"updated": "03/03/2010",
	},
	{
		"name": "OMITE",
		"latitude": "26-21-16.39 N",
		"longitude": "80-8-1.19 W",
		"state": "FLORIDA",
		"artcc": "ZMA",
		"type": "RNAV",
		"updated": "08/28/2015",
	},
	{
		"name": "OMLOF",
		"latitude": "28-30-43.79 N",
		"longitude": "81-0-52.44 W",
		"state": "FLORIDA",
		"artcc": "ZMA",
		"type": "RNAV",
		"updated": "06/09/2009",
	},
	{
		"name": "OMOKY",
		"latitude": "26-35-20 N",
		"longitude": "81-40-26.64 W",
		"state": "FLORIDA",
		"artcc": "ZMA",
		"type": "RNAV",
		"updated": "04/09/2013",
	},
	{
		"name": "ONICO",
		"latitude": "25-39-27.09 N",
		"longitude": "79-54-59.09 W",
		"state": "FLORIDA",
		"artcc": "ZMA",
		"type": "RNAV",
		"updated": "08/28/2008",
	},
	{
		"name": "ONSAW",
		"latitude": "25-48-54.07 N",
		"longitude": "81-37-44.99 W",
		"state": "FLORIDA",
		"artcc": "ZMA",
		"type": "RNAV",
		"updated": "11/10/2009",
	},
	{
		"name": "OPTOZ",
		"latitude": "28-1-45.54 N",
		"longitude": "80-25-17.01 W",
		"state": "FLORIDA",
		"artcc": "ZMA",
		"type": "RNAV",
		"updated": "08/06/2012",
	},
	{
		"name": "OREDE",
		"latitude": "22-36-14.89 N",
		"longitude": "72-26-42.92 W",
		"state": "",
		"artcc": "ZMA",
		"type": "RNAV",
		"updated": "11/26/2002",
	},
	{
		"name": "ORRBT",
		"latitude": "28-19-0.4 N",
		"longitude": "80-35-22.27 W",
		"state": "FLORIDA",
		"artcc": "ZMA",
		"type": "RNAV",
		"updated": "06/19/2010",
	},
	{
		"name": "OSAXE",
		"latitude": "27-21-6.65 N",
		"longitude": "82-35-28.18 W",
		"state": "FLORIDA",
		"artcc": "ZMA",
		"type": "RNAV",
		"updated": "12/10/2010",
	},
	{
		"name": "OSKIE",
		"latitude": "25-45-41.65 N",
		"longitude": "80-13-42.92 W",
		"state": "FLORIDA",
		"artcc": "ZMA",
		"type": "RNAV",
		"updated": "07/24/2007",
	},
	{
		"name": "OSOGY",
		"latitude": "27-8-39.21 N",
		"longitude": "79-24-0.45 W",
		"state": "OFFSHORE ATLANTIC",
		"artcc": "ZMA",
		"type": "RNAV",
		"updated": "09/01/2005",
	},
	{
		"name": "OTABE",
		"latitude": "24-30-4.23 N",
		"longitude": "81-44-59.79 W",
		"state": "FLORIDA",
		"artcc": "ZMA",
		"type": "MR",
		"updated": "NQX*TACAN*224.00/6.00",
	},
	{
		"name": "OTAGE",
		"latitude": "27-17-19.81 N",
		"longitude": "80-52-35.44 W",
		"state": "FLORIDA",
		"artcc": "ZMA",
		"type": "RNAV",
		"updated": "08/15/2012",
	},
	{
		"name": "OTWUR",
		"latitude": "27-54-40.62 N",
		"longitude": "81-35-8.25 W",
		"state": "FLORIDA",
		"artcc": "ZMA",
		"type": "RNAV",
		"updated": "06/13/2011",
	},
	{
		"name": "OVIKE",
		"latitude": "28-4-23.12 N",
		"longitude": "81-48-22.97 W",
		"state": "FLORIDA",
		"artcc": "ZMA",
		"type": "RNAV",
		"updated": "10/04/2006",
	},
	{
		"name": "OWGAF",
		"latitude": "26-41-49.93 N",
		"longitude": "81-59-22.47 W",
		"state": "FLORIDA",
		"artcc": "ZMA",
		"type": "RNAV",
		"updated": "07/29/2015",
	},
	{
		"name": "OWZIJ",
		"latitude": "28-6-12.24 N",
		"longitude": "80-37-1.95 W",
		"state": "FLORIDA",
		"artcc": "ZMA",
		"type": "RP",
		"updated": "MLB*VOR/DME*/0.97",
	},
	{
		"name": "OYAYA",
		"latitude": "25-51-42.54 N",
		"longitude": "81-0-27.61 W",
		"state": "FLORIDA",
		"artcc": "ZMA",
		"type": "RNAV",
		"updated": "11/01/2013",
	},
	{
		"name": "OYIVO",
		"latitude": "27-13-8.78 N",
		"longitude": "81-48-11.14 W",
		"state": "FLORIDA",
		"artcc": "ZMA",
		"type": "RNAV",
		"updated": "04/02/2014",
	},
	{
		"name": "OYOKI",
		"latitude": "26-43-42.25 N",
		"longitude": "82-24-45.67 W",
		"state": "FLORIDA",
		"artcc": "ZMA",
		"type": "RNAV",
		"updated": "08/11/2016",
	},
	{
		"name": "OYSTA",
		"latitude": "25-43-42.42 N",
		"longitude": "78-24-32.28 W",
		"state": "",
		"artcc": "ZMA",
		"type": "RP",
		"updated": "DHP*VORTAC*095.91/105.17",
	},
