	{
		"name": "PAARR",
		"latitude": "23-14-42 N",
		"longitude": "74-18-25 W",
		"state": "OFFSHORE ATLANTIC",
		"artcc": "ZMA",
		"type": "RNAV",
		"updated": "04/08/2008",
	},
	{
		"name": "PABOY",
		"latitude": "25-47-44.06 N",
		"longitude": "80-28-33.12 W",
		"state": "FLORIDA",
		"artcc": "ZMA",
		"type": "RP",
		"updated": "ROY*LE*W CRS/11.03",
	},
	{
		"name": "PACIB",
		"latitude": "27-45-16.77 N",
		"longitude": "82-14-4.49 W",
		"state": "FLORIDA",
		"artcc": "ZMA",
		"type": "RP",
		"updated": "PIE*VORTAC*115.85",
	},
	{
		"name": "PADDS",
		"latitude": "26-11-11.54 N",
		"longitude": "80-17-33.58 W",
		"state": "FLORIDA",
		"artcc": "ZMA",
		"type": "RP",
		"updated": "FLL*VOR/DME*320.69",
	},
	{
		"name": "PADUS",
		"latitude": "26-21-14.43 N",
		"longitude": "79-6-30.9 W",
		"state": "",
		"artcc": "ZMA",
		"type": "RP",
		"updated": "ZFP*VOR/DME*244.52/25.18",
	},
	{
		"name": "PAIRS",
		"latitude": "27-34-9.09 N",
		"longitude": "82-28-47.24 W",
		"state": "FLORIDA",
		"artcc": "ZMA",
		"type": "RP",
		"updated": "PIE*VORTAC*156.70/23.00",
	},
	{
		"name": "PAKEE",
		"latitude": "26-4-37.6 N",
		"longitude": "80-11-39.84 W",
		"state": "FLORIDA",
		"artcc": "ZMA",
		"type": "RP",
		"updated": "LHI*LD*276.37/3.06",
	},
	{
		"name": "PALCY",
		"latitude": "28-28-36.44 N",
		"longitude": "80-50-10 W",
		"state": "FLORIDA",
		"artcc": "ZMA",
		"type": "RNAV",
		"updated": "02/17/2006",
	},
	{
		"name": "PALLM",
		"latitude": "26-40-2.53 N",
		"longitude": "79-56-12.71 W",
		"state": "FLORIDA",
		"artcc": "ZMA",
		"type": "RNAV",
		"updated": "12/29/2009",
	},
	{
		"name": "PAMMS",
		"latitude": "20-59-49.64 N",
		"longitude": "70-48-51.88 W",
		"state": "",
		"artcc": "ZMA",
		"type": "RP",
		"updated": "GTK*VORTAC*153.92/32.00",
	},
	{
		"name": "PANDA",
		"latitude": "24-30-19.17 N",
		"longitude": "81-51-57.86 W",
		"state": "FLORIDA",
		"artcc": "ZMA",
		"type": "MR",
		"updated": "NQX*TACAN*252.00/11.00",
	},
	{
		"name": "PAPDE",
		"latitude": "26-31-38.5 N",
		"longitude": "81-36-55.06 W",
		"state": "FLORIDA",
		"artcc": "ZMA",
		"type": "RNAV",
		"updated": "07/09/2017",
	},
	{
		"name": "PARYE",
		"latitude": "25-54-52.57 N",
		"longitude": "81-39-11.29 W",
		"state": "FLORIDA",
		"artcc": "ZMA",
		"type": "RNAV",
		"updated": "11/10/2009",
	},
	{
		"name": "PASAE",
		"latitude": "26-36-16.7 N",
		"longitude": "80-40-14.91 W",
		"state": "FLORIDA",
		"artcc": "ZMA",
		"type": "RNAV",
		"updated": "07/08/2008",
	},
	{
		"name": "PASOE",
		"latitude": "27-32-33.62 N",
		"longitude": "82-43-26.46 W",
		"state": "FLORIDA",
		"artcc": "ZMA",
		"type": "RP",
		"updated": "PIE*VORTAC*190.54",
	},
	{
		"name": "PASTE",
		"latitude": "26-41-2.79 N",
		"longitude": "80-7-44.29 W",
		"state": "FLORIDA",
		"artcc": "ZMA",
		"type": "RP",
		"updated": "PBI*LD*278.77/2.92",
	},
	{
		"name": "PASTR",
		"latitude": "26-26-24.99 N",
		"longitude": "82-0-9.33 W",
		"state": "FLORIDA",
		"artcc": "ZMA",
		"type": "RP",
		"updated": "RSW*VORTAC*248.35",
	},
	{
		"name": "PATLY",
		"latitude": "25-48-20.6 N",
		"longitude": "80-13-58.79 W",
		"state": "FLORIDA",
		"artcc": "ZMA",
		"type": "RNAV",
		"updated": "06/16/2016",
	},
	{
		"name": "PCMAN",
		"latitude": "28-32-52.71 N",
		"longitude": "80-48-37.54 W",
		"state": "FLORIDA",
		"artcc": "ZMA",
		"type": "RP",
		"updated": "OMN*VORTAC*160.53/47.92",
	},
	{
		"name": "PEACH",
		"latitude": "25-25-46.67 N",
		"longitude": "77-46-22.84 W",
		"state": "",
		"artcc": "ZMA",
		"type": "RP",
		"updated": "ZQA*VOR/DME*329.75/30.00",
	},
	{
		"name": "PEAKY",
		"latitude": "24-35-23.72 N",
		"longitude": "81-8-53.91 W",
		"state": "FLORIDA",
		"artcc": "ZMA",
		"type": "RNAV",
		"updated": "09/09/2016",
	},
	{
		"name": "PECOT",
		"latitude": "25-46-5.35 N",
		"longitude": "80-14-29.21 W",
		"state": "FLORIDA",
		"artcc": "ZMA",
		"type": "RP",
		"updated": "DCX*LD*124.47/3.87",
	},
	{
		"name": "PEGYY",
		"latitude": "22-10-26 N",
		"longitude": "72-24-5 W",
		"state": "OFFSHORE ATLANTIC",
		"artcc": "ZMA",
		"type": "RNAV",
		"updated": "04/08/2008",
	},
	{
		"name": "PEKRE",
		"latitude": "24-44-16.03 N",
		"longitude": "78-5-45.99 W",
		"state": "",
		"artcc": "ZMA",
		"type": "RP",
		"updated": "ZBV*VORTAC*135.30/87.13",
	},
	{
		"name": "PERMT",
		"latitude": "27-24-51.11 N",
		"longitude": "78-56-50.16 W",
		"state": "FLORIDA",
		"artcc": "ZMA",
		"type": "RP",
		"updated": "PBI*VORTAC*057.00/75.19",
	},
	{
		"name": "PETEE",
		"latitude": "28-55-30.97 N",
		"longitude": "80-7-15.98 W",
		"state": "OFFSHORE ATLANTIC",
		"artcc": "ZMA",
		"type": "RNAV",
		"updated": "10/23/2013",
	},
	{
		"name": "PETNE",
		"latitude": "27-14-39.73 N",
		"longitude": "80-25-13.52 W",
		"state": "FLORIDA",
		"artcc": "ZMA",
		"type": "RNAV",
		"updated": "03/21/2013",
	},
	{
		"name": "PETSE",
		"latitude": "26-45-16 N",
		"longitude": "81-53-12.25 W",
		"state": "FLORIDA",
		"artcc": "ZMA",
		"type": "RNAV",
		"updated": "03/31/2008",
	},
	{
		"name": "PHIEL",
		"latitude": "27-41-2.79 N",
		"longitude": "82-48-4.42 W",
		"state": "FLORIDA",
		"artcc": "ZMA",
		"type": "RNAV",
		"updated": "01/25/2013",
	},
	{
		"name": "PHORD",
		"latitude": "27-18-4.64 N",
		"longitude": "80-20-11.06 W",
		"state": "FLORIDA",
		"artcc": "ZMA",
		"type": "RP",
		"updated": "TRV*VORTAC*167.04/24.00",
	},
	{
		"name": "PIANA",
		"latitude": "25-52-27.09 N",
		"longitude": "80-26-56.47 W",
		"state": "FLORIDA",
		"artcc": "ZMA",
		"type": "RP",
		"updated": "GEM*LD*NW CRS/10.75",
	},
	{
		"name": "PIBDE",
		"latitude": "24-35-57.13 N",
		"longitude": "81-43-4 W",
		"state": "OFFSHORE ATLANTIC",
		"artcc": "ZMA",
		"type": "MW",
		"updated": "02/10/2016",
	},
	{
		"name": "PICOL",
		"latitude": "27-46-36.3 N",
		"longitude": "82-37-29.9 W",
		"state": "FLORIDA",
		"artcc": "ZMA",
		"type": "RNAV",
		"updated": "05/22/2007",
	},
	{
		"name": "PIKKR",
		"latitude": "26-56-24.43 N",
		"longitude": "82-41-25.28 W",
		"state": "OFFSHORE GULF",
		"artcc": "ZMA",
		"type": "RNAV",
		"updated": "07/01/2008",
	},
	{
		"name": "PINGL",
		"latitude": "27-9-41.94 N",
		"longitude": "80-9-22.48 W",
		"state": "FLORIDA",
		"artcc": "ZMA",
		"type": "RNAV",
		"updated": "10/26/2009",
	},
	{
		"name": "PINTS",
		"latitude": "26-48-10.41 N",
		"longitude": "82-8-9.09 W",
		"state": "FLORIDA",
		"artcc": "ZMA",
		"type": "RP",
		"updated": "LBV*VORTAC*267.00",
	},
	{
		"name": "PIONN",
		"latitude": "26-4-40.96 N",
		"longitude": "80-22-53.04 W",
		"state": "FLORIDA",
		"artcc": "ZMA",
		"type": "RP",
		"updated": "DHP*VORTAC*358.00",
	},
	{
		"name": "PIPER",
		"latitude": "28-15-53.66 N",
		"longitude": "80-9-35.5 W",
		"state": "OFFSHORE ATLANTIC",
		"artcc": "ZMA",
		"type": "RNAV",
		"updated": "07/01/2014",
	},
	{
		"name": "PIVVV",
		"latitude": "28-50-50.64 N",
		"longitude": "79-41-6.19 W",
		"state": "FLORIDA",
		"artcc": "ZMA",
		"type": "RNAV",
		"updated": "11/10/2009",
	},
	{
		"name": "POBCI",
		"latitude": "27-38-29.99 N",
		"longitude": "80-31-55.56 W",
		"state": "FLORIDA",
		"artcc": "ZMA",
		"type": "RNAV",
		"updated": "01/04/2012",
	},
	{
		"name": "POJHY",
		"latitude": "26-20-47.29 N",
		"longitude": "81-41-43.87 W",
		"state": "FLORIDA",
		"artcc": "ZMA",
		"type": "RNAV",
		"updated": "11/05/2009",
	},
	{
		"name": "POKME",
		"latitude": "27-52-24.56 N",
		"longitude": "80-25-37.64 W",
		"state": "FLORIDA",
		"artcc": "ZMA",
		"type": "RNAV",
		"updated": "06/18/2012",
	},
	{
		"name": "PONTY",
		"latitude": "26-21-24.31 N",
		"longitude": "81-52-19.28 W",
		"state": "FLORIDA",
		"artcc": "ZMA",
		"type": "RNAV",
		"updated": "07/15/2008",
	},
	{
		"name": "POPHY",
		"latitude": "28-34-17.54 N",
		"longitude": "80-47-59.88 W",
		"state": "FLORIDA",
		"artcc": "ZMA",
		"type": "RNAV",
		"updated": "06/22/2009",
	},
	{
		"name": "POPMM",
		"latitude": "27-21-54.04 N",
		"longitude": "81-20-33.73 W",
		"state": "FLORIDA",
		"artcc": "ZMA",
		"type": "RNAV",
		"updated": "03/21/2013",
	},
	{
		"name": "POROC",
		"latitude": "27-15-3.32 N",
		"longitude": "82-36-20.72 W",
		"state": "FLORIDA",
		"artcc": "ZMA",
		"type": "RNAV",
		"updated": "11/11/2010",
	},
	{
		"name": "POSEL",
		"latitude": "27-50-12.54 N",
		"longitude": "82-32-7.29 W",
		"state": "FLORIDA",
		"artcc": "ZMA",
		"type": "MW",
		"updated": "07/11/2008",
	},
	{
		"name": "POTTR",
		"latitude": "25-48-29.47 N",
		"longitude": "80-10-24.43 W",
		"state": "FLORIDA",
		"artcc": "ZMA",
		"type": "RP",
		"updated": "VKZ*VOR/DME*347.00",
	},
	{
		"name": "PRAIZ",
		"latitude": "26-11-8.32 N",
		"longitude": "80-17-54.6 W",
		"state": "FLORIDA",
		"artcc": "ZMA",
		"type": "RP",
		"updated": "DHP*VORTAC*010.74",
	},
	{
		"name": "PREDA",
		"latitude": "26-21-28.69 N",
		"longitude": "79-30-42.3 W",
		"state": "FLORIDA",
		"artcc": "ZMA",
		"type": "RP",
		"updated": "ZBV*VORTAC*347.33/40.84",
	},
	{
		"name": "PRESK",
		"latitude": "28-20-10.33 N",
		"longitude": "81-8-16.22 W",
		"state": "FLORIDA",
		"artcc": "ZMA",
		"type": "RP",
		"updated": "ORL*VORTAC*139.79/16.17",
	},
	{
		"name": "PRHIB",
		"latitude": "26-5-11.67 N",
		"longitude": "79-59-20.37 W",
		"state": "FLORIDA",
		"artcc": "ZMA",
		"type": "RNAV",
		"updated": "03/18/2013",
	},
	{
		"name": "PRRDO",
		"latitude": "22-26-57 N",
		"longitude": "71-49-3 W",
		"state": "OFFSHORE ATLANTIC",
		"artcc": "ZMA",
		"type": "RNAV",
		"updated": "10/02/2006",
	},
	{
		"name": "PRRIE",
		"latitude": "26-49-1.87 N",
		"longitude": "81-5-3.77 W",
		"state": "FLORIDA",
		"artcc": "ZMA",
		"type": "RNAV",
		"updated": "07/11/2008",
	},
	{
		"name": "PRUNE",
		"latitude": "25-12-56.77 N",
		"longitude": "77-57-22.2 W",
		"state": "",
		"artcc": "ZMA",
		"type": "RP",
		"updated": "ZQA*VOR/DME*298.40/30.00",
	},
	{
		"name": "PSTOL",
		"latitude": "27-33-29 N",
		"longitude": "84-9-55 W",
		"state": "OFFSHORE GULF",
		"artcc": "ZMA",
		"type": "RNAV",
		"updated": "05/14/2007",
	},
	{
		"name": "PTBUL",
		"latitude": "24-19-53.5 N",
		"longitude": "81-26-17.83 W",
		"state": "OFFSHORE ATLANTIC",
		"artcc": "ZMA",
		"type": "RNAV",
		"updated": "01/29/2016",
	},
	{
		"name": "PUBPO",
		"latitude": "27-31-10.5 N",
		"longitude": "81-36-29.85 W",
		"state": "FLORIDA",
		"artcc": "ZMA",
		"type": "RNAV",
		"updated": "03/03/2010",
	},
	{
		"name": "PULEC",
		"latitude": "27-46-45.95 N",
		"longitude": "82-0-25.7 W",
		"state": "FLORIDA",
		"artcc": "ZMA",
		"type": "RNAV",
		"updated": "11/18/2009",
	},
	{
		"name": "PULME",
		"latitude": "27-31-14.26 N",
		"longitude": "80-23-53.58 W",
		"state": "FLORIDA",
		"artcc": "ZMA",
		"type": "RNAV",
		"updated": "01/04/2012",
	},
	{
		"name": "PUNAE",
		"latitude": "26-48-51.91 N",
		"longitude": "81-30-20.6 W",
		"state": "FLORIDA",
		"artcc": "ZMA",
		"type": "RNAV",
		"updated": "12/04/2007",
	},
	{
		"name": "PUTVE",
		"latitude": "28-17-42.1 N",
		"longitude": "81-4-45.01 W",
		"state": "FLORIDA",
		"artcc": "ZMA",
		"type": "MR",
		"updated": "03/17/2016",
	},
	{
		"name": "PUUMA",
		"latitude": "27-35-20.94 N",
		"longitude": "80-13-26.44 W",
		"state": "FLORIDA",
		"artcc": "ZMA",
		"type": "RNAV",
		"updated": "01/14/2009",
	},
	{
		"name": "PYRUT",
		"latitude": "26-48-45.54 N",
		"longitude": "80-8-33.95 W",
		"state": "FLORIDA",
		"artcc": "ZMA",
		"type": "RNAV",
		"updated": "11/10/2009",
	},
