	{
		"name": "QATHY",
		"latitude": "26-33-19.68 N",
		"longitude": "80-5-1.12 W",
		"state": "FLORIDA",
		"artcc": "ZMA",
		"type": "RNAV",
		"updated": "12/29/2009",
	},
	{
		"name": "QEEZY",
		"latitude": "25-38-29.97 N",
		"longitude": "80-30-17.36 W",
		"state": "FLORIDA",
		"artcc": "ZMA",
		"type": "RP",
		"updated": "DHP*VORTAC*225.75",
	},
	{
		"name": "QELAH",
		"latitude": "26-44-23.43 N",
		"longitude": "80-11-16.62 W",
		"state": "FLORIDA",
		"artcc": "ZMA",
		"type": "RNAV",
		"updated": "12/29/2009",
	},
	{
		"name": "QEPRO",
		"latitude": "26-2-26.86 N",
		"longitude": "80-4-24.02 W",
		"state": "FLORIDA",
		"artcc": "ZMA",
		"type": "RP",
		"updated": "VKZ*VOR/DME*018.23/17.83",
	},
	{
		"name": "QUASH",
		"latitude": "28-21-29.92 N",
		"longitude": "80-5-54.53 W",
		"state": "OFFSHORE ATLANTIC",
		"artcc": "ZMA",
		"type": "RP",
		"updated": "OMN*VORTAC*136.37/77.81",
	},
	{
		"name": "QUASI",
		"latitude": "26-41-47.92 N",
		"longitude": "80-3-56.88 W",
		"state": "FLORIDA",
		"artcc": "ZMA",
		"type": "RNAV",
		"updated": "01/24/2017",
	},
	{
		"name": "QUAZR",
		"latitude": "27-50-27.41 N",
		"longitude": "81-19-16.38 W",
		"state": "FLORIDA",
		"artcc": "ZMA",
		"type": "RP",
		"updated": "ORL*VORTAC*179.00/42.00",
	},
	{
		"name": "QUNCY",
		"latitude": "27-2-13.01 N",
		"longitude": "81-38-18.21 W",
		"state": "FLORIDA",
		"artcc": "ZMA",
		"type": "RP",
		"updated": "LBV*VORTAC*312.38",
	},
	{
		"name": "QUZSY",
		"latitude": "26-42-33.29 N",
		"longitude": "82-1-16.82 W",
		"state": "FLORIDA",
		"artcc": "ZMA",
		"type": "RNAV",
		"updated": "07/15/2011",
	},
	{
		"name": "QWARY",
		"latitude": "26-27-58.88 N",
		"longitude": "81-42-14.2 W",
		"state": "FLORIDA",
		"artcc": "ZMA",
		"type": "RNAV",
		"updated": "04/10/2014",
	},
