[
	{
		"name": "SAAKO",
		"latitude": "21-3-39.58 N",
		"longitude": "71-23-20.72 W",
		"state": "",
		"artcc": "ZMA",
		"type": "RP",
		"updated": "GTK*VORTAC*218.00/27.00"
	},
	{
		"name": "SABEE",
		"latitude": "27-5-16.2 N",
		"longitude": "82-11-29.33 W",
		"state": "FLORIDA",
		"artcc": "ZMA",
		"type": "RP",
		"updated": "PIE*VORTAC*156.70/55.66"
	},
	{
		"name": "SABOT",
		"latitude": "28-15-5.1 N",
		"longitude": "81-13-37.16 W",
		"state": "FLORIDA",
		"artcc": "ZMA",
		"type": "RP",
		"updated": "ORL*VORTAC*161.82/18.35"
	},
	{
		"name": "SABRA",
		"latitude": "25-45-4.32 N",
		"longitude": "80-12-30.04 W",
		"state": "FLORIDA",
		"artcc": "ZMA",
		"type": "RNAV",
		"updated": "08/04/2006"
	},
	{
		"name": "SABRE",
		"latitude": "20-48-33 N",
		"longitude": "73-49-56 W",
		"state": "OFFSHORE ATLANTIC",
		"artcc": "ZMA",
		"type": "RNAV",
		"updated": "04/08/2008"
	},
	{
		"name": "SACCK",
		"latitude": "26-12-12.66 N",
		"longitude": "80-7-13.08 W",
		"state": "FLORIDA",
		"artcc": "ZMA",
		"type": "RNAV",
		"updated": "08/14/2014"
	},
	{
		"name": "SACRA",
		"latitude": "27-8-7.9 N",
		"longitude": "81-59-56.82 W",
		"state": "FLORIDA",
		"artcc": "ZMA",
		"type": "RNAV",
		"updated": "08/03/2015"
	},
	{
		"name": "SAGLE",
		"latitude": "24-27-16.28 N",
		"longitude": "81-32-7.21 W",
		"state": "FLORIDA",
		"artcc": "ZMA",
		"type": "MW",
		"updated": "01/12/2010"
	},
	{
		"name": "SAMPY",
		"latitude": "28-36-15.87 N",
		"longitude": "80-49-13.31 W",
		"state": "FLORIDA",
		"artcc": "ZMA",
		"type": "RNAV",
		"updated": "06/09/2009"
	},
	{
		"name": "SANNS",
		"latitude": "24-48-2.56 N",
		"longitude": "77-57-17.41 W",
		"state": "",
		"artcc": "ZMA",
		"type": "RP",
		"updated": "ZQA*VOR/DME*250.24/30.82"
	},
	{
		"name": "SANOY",
		"latitude": "27-47-47.94 N",
		"longitude": "82-5-48.38 W",
		"state": "FLORIDA",
		"artcc": "ZMA",
		"type": "RNAV",
		"updated": "10/02/2007"
	},
	{
		"name": "SANZZ",
		"latitude": "26-48-23.51 N",
		"longitude": "80-6-29.59 W",
		"state": "FLORIDA",
		"artcc": "ZMA",
		"type": "RNAV",
		"updated": "12/20/2009"
	},
	{
		"name": "SAPPO",
		"latitude": "20-26-15.63 N",
		"longitude": "68-24-0.25 W",
		"state": "OFFSHORE ATLANTIC",
		"artcc": "ZMA",
		"type": "RNAV",
		"updated": "10/22/2009"
	},
	{
		"name": "SARCO",
		"latitude": "25-47-40.72 N",
		"longitude": "80-6-19.28 W",
		"state": "FLORIDA",
		"artcc": "ZMA",
		"type": "RP",
		"updated": "VKZ*VOR/DME*050.11"
	},
	{
		"name": "SAWGA",
		"latitude": "27-51-53.27 N",
		"longitude": "82-40-50.24 W",
		"state": "FLORIDA",
		"artcc": "ZMA",
		"type": "RP",
		"updated": "PIE*VORTAC*180.64/2.58"
	},
	{
		"name": "SAXNN",
		"latitude": "24-29-32.3 N",
		"longitude": "81-57-7.03 W",
		"state": "FLORIDA",
		"artcc": "ZMA",
		"type": "MR",
		"updated": "EYW*VORTAC*235.00/10.00"
	},
	{
		"name": "SAZBO",
		"latitude": "25-54-29.88 N",
		"longitude": "80-22-40.95 W",
		"state": "FLORIDA",
		"artcc": "ZMA",
		"type": "RP",
		"updated": "DHP*VORTAC*350.39"
	},
	{
		"name": "SCATE",
		"latitude": "25-54-53.59 N",
		"longitude": "80-27-48.1 W",
		"state": "FLORIDA",
		"artcc": "ZMA",
		"type": "RNAV",
		"updated": "02/12/2012"
	},
	{
		"name": "SCHUZ",
		"latitude": "27-41-19.96 N",
		"longitude": "83-45-8.25 W",
		"state": "OFFSHORE GULF",
		"artcc": "ZMA",
		"type": "RNAV",
		"updated": "06/30/2011"
	},
	{
		"name": "SCOBY",
		"latitude": "29-55-47.79 N",
		"longitude": "77-43-29.81 W",
		"state": "OFFSHORE ATLANTIC",
		"artcc": "ZMA",
		"type": "RNAV",
		"updated": "05/28/2008"
	},
	{
		"name": "SEAAN",
		"latitude": "24-54-33.65 N",
		"longitude": "76-52-24.68 W",
		"state": "",
		"artcc": "ZMA",
		"type": "RP",
		"updated": "ZQA*VOR/DME*108.42/32.00"
	},
	{
		"name": "SEAMO",
		"latitude": "27-29-39.81 N",
		"longitude": "81-20-35.55 W",
		"state": "FLORIDA",
		"artcc": "ZMA",
		"type": "RNAV",
		"updated": "11/10/2009"
	},
	{
		"name": "SEBLE",
		"latitude": "24-26-6.94 N",
		"longitude": "81-48-22.06 W",
		"state": "FLORIDA",
		"artcc": "ZMA",
		"type": "MR",
		"updated": "NQX*TACAN*224.00/11.00"
	},
	{
		"name": "SEBUG",
		"latitude": "20-53-51.84 N",
		"longitude": "70-14-31.57 W",
		"state": "OFFSHORE ATLANTIC",
		"artcc": "ZMA",
		"type": "RP",
		"updated": "PTA*VOR/DME*023.16/70.53"
	},
	{
		"name": "SECOR",
		"latitude": "26-14-27.18 N",
		"longitude": "80-11-20.4 W",
		"state": "FLORIDA",
		"artcc": "ZMA",
		"type": "RNAV",
		"updated": "08/01/2006"
	},
	{
		"name": "SEGLE",
		"latitude": "24-41-11.25 N",
		"longitude": "81-9-18.47 W",
		"state": "FLORIDA",
		"artcc": "ZMA",
		"type": "RNAV",
		"updated": "10/29/2007"
	},
	{
		"name": "SEKAR",
		"latitude": "20-25-0 N",
		"longitude": "70-47-42 W",
		"state": "",
		"artcc": "ZMA",
		"type": "RP",
		"updated": "ZIN*NDB*106.81"
	},
	{
		"name": "SELMN",
		"latitude": "27-49-49.17 N",
		"longitude": "82-32-48.74 W",
		"state": "FLORIDA",
		"artcc": "ZMA",
		"type": "RP",
		"updated": "PIE*VORTAC*127.34"
	},
	{
		"name": "SENOY",
		"latitude": "25-48-35.38 N",
		"longitude": "80-9-3.85 W",
		"state": "FLORIDA",
		"artcc": "ZMA",
		"type": "RNAV",
		"updated": "08/04/2006"
	},
	{
		"name": "SERAY",
		"latitude": "28-12-58.47 N",
		"longitude": "81-16-48.9 W",
		"state": "FLORIDA",
		"artcc": "ZMA",
		"type": "RP",
		"updated": "CER*LD*185.48/13.79"
	},
	{
		"name": "SERFS",
		"latitude": "26-48-2.35 N",
		"longitude": "81-49-10.47 W",
		"state": "FLORIDA",
		"artcc": "ZMA",
		"type": "RP",
		"updated": "LBV*VORTAC*265.00"
	},
	{
		"name": "SESOC",
		"latitude": "27-29-49.34 N",
		"longitude": "80-21-0.34 W",
		"state": "FLORIDA",
		"artcc": "ZMA",
		"type": "RNAV",
		"updated": "07/11/2012"
	},
	{
		"name": "SETME",
		"latitude": "28-4-16 N",
		"longitude": "81-50-26 W",
		"state": "FLORIDA",
		"artcc": "ZMA",
		"type": "RNAV",
		"updated": "10/24/2007"
	},
	{
		"name": "SETUE",
		"latitude": "26-51-53.74 N",
		"longitude": "80-42-12.14 W",
		"state": "FLORIDA",
		"artcc": "ZMA",
		"type": "RNAV",
		"updated": "12/12/2017"
	},
	{
		"name": "SHALW",
		"latitude": "26-0-50 N",
		"longitude": "79-45-20.41 W",
		"state": "FLORIDA",
		"artcc": "ZMA",
		"type": "RNAV",
		"updated": "08/07/2006"
	},
	{
		"name": "SHANC",
		"latitude": "26-18-51.14 N",
		"longitude": "80-20-0.16 W",
		"state": "FLORIDA",
		"artcc": "ZMA",
		"type": "RP",
		"updated": "VKZ*VOR/DME*348.00/35.00"
	},
	{
		"name": "SHANN",
		"latitude": "25-39-44.77 N",
		"longitude": "80-2-7.59 W",
		"state": "FLORIDA",
		"artcc": "ZMA",
		"type": "RP",
		"updated": "DCX*LD*124.47/16.70"
	},
	{
		"name": "SHAQQ",
		"latitude": "25-57-46 N",
		"longitude": "83-30-30 W",
		"state": "FLORIDA",
		"artcc": "ZMA",
		"type": "RNAV",
		"updated": "01/20/2006"
	},
	{
		"name": "SHBAG",
		"latitude": "28-20-53 N",
		"longitude": "81-25-27 W",
		"state": "FLORIDA",
		"artcc": "ZMA",
		"type": "RNAV",
		"updated": "10/24/2007"
	},
	{
		"name": "SHDEE",
		"latitude": "26-46-48.37 N",
		"longitude": "80-13-39.19 W",
		"state": "FLORIDA",
		"artcc": "ZMA",
		"type": "RNAV",
		"updated": "12/06/2011"
	},
	{
		"name": "SHEDS",
		"latitude": "27-18-4.61 N",
		"longitude": "80-35-13.45 W",
		"state": "FLORIDA",
		"artcc": "ZMA",
		"type": "RP",
		"updated": "PHK*VOR/DME*010.19/31.52"
	},
	{
		"name": "SHFTY",
		"latitude": "27-42-23.99 N",
		"longitude": "81-45-57.72 W",
		"state": "FLORIDA",
		"artcc": "ZMA",
		"type": "RNAV",
		"updated": "02/08/2012"
	},
	{
		"name": "SHIRL",
		"latitude": "28-33-34.65 N",
		"longitude": "80-48-21.38 W",
		"state": "FLORIDA",
		"artcc": "ZMA",
		"type": "RNAV",
		"updated": "06/09/2009"
	},
	{
		"name": "SHOEZ",
		"latitude": "21-20-1.99 N",
		"longitude": "72-15-37.5 W",
		"state": "OFFSHORE ATLANTIC",
		"artcc": "ZMA",
		"type": "RP",
		"updated": "ZIN*NDB*080.03"
	},
	{
		"name": "SHOWW",
		"latitude": "27-35-32.98 N",
		"longitude": "83-34-28.94 W",
		"state": "OFFSHORE GULF",
		"artcc": "ZMA",
		"type": "RNAV",
		"updated": "05/07/2013"
	},
	{
		"name": "SHRKY",
		"latitude": "26-32-2.24 N",
		"longitude": "80-3-16.29 W",
		"state": "FLORIDA",
		"artcc": "ZMA",
		"type": "RNAV",
		"updated": "11/10/2009"
	},
	{
		"name": "SHULA",
		"latitude": "25-22-27.32 N",
		"longitude": "80-2-14.92 W",
		"state": "FLORIDA",
		"artcc": "ZMA",
		"type": "RNAV",
		"updated": "08/07/2006"
	},
	{
		"name": "SHUTE",
		"latitude": "26-2-34.88 N",
		"longitude": "80-25-10.79 W",
		"state": "FLORIDA",
		"artcc": "ZMA",
		"type": "RNAV",
		"updated": "02/12/2012"
	},
	{
		"name": "SIGNL",
		"latitude": "27-2-0.4 N",
		"longitude": "81-7-25.74 W",
		"state": "FLORIDA",
		"artcc": "ZMA",
		"type": "RP",
		"updated": "DHP*VORTAC*334.68/84.78"
	},
	{
		"name": "SIKOY",
		"latitude": "26-54-29.17 N",
		"longitude": "80-26-15.25 W",
		"state": "FLORIDA",
		"artcc": "ZMA",
		"type": "RP",
		"updated": "SYK*LD*274.99/6.47"
	},
	{
		"name": "SILIE",
		"latitude": "27-54-45.51 N",
		"longitude": "81-49-9.16 W",
		"state": "FLORIDA",
		"artcc": "ZMA",
		"type": "RNAV",
		"updated": "03/30/2009"
	},
	{
		"name": "SILKY",
		"latitude": "28-15-55.04 N",
		"longitude": "81-19-13.29 W",
		"state": "FLORIDA",
		"artcc": "ZMA",
		"type": "RP",
		"updated": "OJP*LD*185.46/11.07"
	},
	{
		"name": "SIMMR",
		"latitude": "27-47-2.1 N",
		"longitude": "84-12-15.8 W",
		"state": "OFFSHORE GULF",
		"artcc": "ZMA",
		"type": "RNAV",
		"updated": "05/14/2007"
	},
	{
		"name": "SIMPL",
		"latitude": "24-0-0 N",
		"longitude": "84-25-43 W",
		"state": "FLORIDA",
		"artcc": "ZMA",
		"type": "RNAV",
		"updated": "01/20/2006"
	},
	{
		"name": "SINGL",
		"latitude": "24-23-47.95 N",
		"longitude": "68-56-46.79 W",
		"state": "OFFSHORE ATLANTIC",
		"artcc": "ZMA",
		"type": "RNAV",
		"updated": "04/08/2008"
	},
	{
		"name": "SIVHO",
		"latitude": "27-20-18.2 N",
		"longitude": "80-53-58.55 W",
		"state": "FLORIDA",
		"artcc": "ZMA",
		"type": "RNAV",
		"updated": "02/22/2010"
	},
	{
		"name": "SIVYO",
		"latitude": "27-29-51.09 N",
		"longitude": "80-25-0.69 W",
		"state": "FLORIDA",
		"artcc": "ZMA",
		"type": "RP",
		"updated": "FJD*LD*277.47/3.23"
	},
	{
		"name": "SIYOL",
		"latitude": "26-4-39.34 N",
		"longitude": "80-17-22.34 W",
		"state": "FLORIDA",
		"artcc": "ZMA",
		"type": "RNAV",
		"updated": "03/18/2013"
	},
	{
		"name": "SKHOT",
		"latitude": "21-2-24 N",
		"longitude": "73-15-57 W",
		"state": "OFFSHORE ATLANTIC",
		"artcc": "ZMA",
		"type": "RNAV",
		"updated": "04/08/2008"
	},
	{
		"name": "SKIPP",
		"latitude": "24-36-5.42 N",
		"longitude": "81-54-31.18 W",
		"state": "FLORIDA",
		"artcc": "ZMA",
		"type": "MR",
		"updated": "EYW*VORTAC*278.00/5.99"
	},
	{
		"name": "SKIPS",
		"latitude": "25-33-14.01 N",
		"longitude": "79-16-27.72 W",
		"state": "",
		"artcc": "ZMA",
		"type": "RP",
		"updated": "ZBV*VORTAC*177.09/9.05"
	},
	{
		"name": "SKIWX",
		"latitude": "25-36-30 N",
		"longitude": "79-30-0 W",
		"state": "OFFSHORE ATLANTIC",
		"artcc": "ZMA",
		"type": "RNAV",
		"updated": "01/28/2016"
	},
	{
		"name": "SKORE",
		"latitude": "25-58-53.86 N",
		"longitude": "80-21-28.33 W",
		"state": "FLORIDA",
		"artcc": "ZMA",
		"type": "RNAV",
		"updated": "02/12/2012"
	},
	{
		"name": "SLEMA",
		"latitude": "26-57-53.32 N",
		"longitude": "76-16-51.75 W",
		"state": "OFFSHORE ATLANTIC",
		"artcc": "ZMA",
		"type": "RNAV",
		"updated": "04/08/2008"
	},
	{
		"name": "SLIDZ",
		"latitude": "26-55-25.11 N",
		"longitude": "79-42-30.69 W",
		"state": "OFFSHORE ATLANTIC",
		"artcc": "ZMA",
		"type": "RNAV",
		"updated": "08/13/2015"
	},
	{
		"name": "SLUKA",
		"latitude": "24-7-36.38 N",
		"longitude": "70-55-24.57 W",
		"state": "OFFSHORE ATLANTIC",
		"artcc": "ZMA",
		"type": "RNAV",
		"updated": "04/08/2008"
	},
	{
		"name": "SMERE",
		"latitude": "27-44-53.5 N",
		"longitude": "80-39-2.22 W",
		"state": "FLORIDA",
		"artcc": "ZMA",
		"type": "RP",
		"updated": "MLB*VOR/DME*189.18/21.38"
	},
	{
		"name": "SMGLR",
		"latitude": "26-44-3.58 N",
		"longitude": "79-59-32.19 W",
		"state": "FLORIDA",
		"artcc": "ZMA",
		"type": "RNAV",
		"updated": "11/10/2009"
	},
	{
		"name": "SMTTY",
		"latitude": "23-47-21 N",
		"longitude": "74-0-31 W",
		"state": "OFFSHORE ATLANTIC",
		"artcc": "ZMA",
		"type": "RNAV",
		"updated": "04/09/2008"
	},
	{
		"name": "SMUGS",
		"latitude": "27-11-33.07 N",
		"longitude": "80-17-33.05 W",
		"state": "FLORIDA",
		"artcc": "ZMA",
		"type": "RP",
		"updated": "PHK*VOR/DME*041.00"
	},
	{
		"name": "SNAPE",
		"latitude": "26-4-33.96 N",
		"longitude": "80-1-40.32 W",
		"state": "FLORIDA",
		"artcc": "ZMA",
		"type": "RP",
		"updated": "UDL*LD*096.37/7.53"
	},
	{
		"name": "SNDLR",
		"latitude": "27-15-57.51 N",
		"longitude": "80-29-40.3 W",
		"state": "FLORIDA",
		"artcc": "ZMA",
		"type": "RNAV",
		"updated": "10/26/2009"
	},
	{
		"name": "SNOKE",
		"latitude": "26-29-48.12 N",
		"longitude": "81-50-57.19 W",
		"state": "FLORIDA",
		"artcc": "ZMA",
		"type": "RNAV",
		"updated": "02/20/2008"
	},
	{
		"name": "SNOMN",
		"latitude": "26-39-6.47 N",
		"longitude": "85-29-8.89 W",
		"state": "OFFSHORE GULF",
		"artcc": "ZMA",
		"type": "RNAV",
		"updated": "08/01/2006"
	},
	{
		"name": "SNORK",
		"latitude": "27-49-50.15 N",
		"longitude": "82-32-48.71 W",
		"state": "FLORIDA",
		"artcc": "ZMA",
		"type": "RNAV",
		"updated": "03/23/2015"
	},
	{
		"name": "SNSBK",
		"latitude": "26-30-27.91 N",
		"longitude": "79-26-21.37 W",
		"state": "OFFSHORE ATLANTIC",
		"artcc": "ZMA",
		"type": "RP",
		"updated": "ZFP*VOR/DME*269.08/40.00"
	},
	{
		"name": "SOBAY",
		"latitude": "27-47-8.19 N",
		"longitude": "82-32-9.64 W",
		"state": "FLORIDA",
		"artcc": "ZMA",
		"type": "RP",
		"updated": "PIE*VORTAC*132.00/11.00"
	},
	{
		"name": "SOBPO",
		"latitude": "26-34-36.16 N",
		"longitude": "80-2-18.01 W",
		"state": "FLORIDA",
		"artcc": "ZMA",
		"type": "RNAV",
		"updated": "06/13/2014"
	},
	{
		"name": "SOKIE",
		"latitude": "26-29-31.76 N",
		"longitude": "81-58-51.19 W",
		"state": "FLORIDA",
		"artcc": "ZMA",
		"type": "RNAV",
		"updated": "07/13/2005"
	},
	{
		"name": "SOLEI",
		"latitude": "21-49-4 N",
		"longitude": "73-0-34 W",
		"state": "OFFSHORE ATLANTIC",
		"artcc": "ZMA",
		"type": "RP",
		"updated": "GTK*VORTAC*290.48/107.22"
	},
	{
		"name": "SOMMY",
		"latitude": "24-43-34.11 N",
		"longitude": "81-3-4.96 W",
		"state": "FLORIDA",
		"artcc": "ZMA",
		"type": "RP",
		"updated": "EYW*VORTAC*077.26/41.80"
	},
	{
		"name": "SONES",
		"latitude": "27-47-56.78 N",
		"longitude": "82-40-9.61 W",
		"state": "FLORIDA",
		"artcc": "ZMA",
		"type": "RP",
		"updated": "PIE*VORTAC*178.01/6.55"
	},
	{
		"name": "SOPHA",
		"latitude": "27-48-18 N",
		"longitude": "80-1-11 W",
		"state": "OFFSHORE ATLANTIC",
		"artcc": "ZMA",
		"type": "RNAV",
		"updated": "05/11/2016"
	},
	{
		"name": "SORGO",
		"latitude": "28-1-57.28 N",
		"longitude": "81-51-9.64 W",
		"state": "FLORIDA",
		"artcc": "ZMA",
		"type": "RP",
		"updated": "LAL*VORTAC*070.99/9.00"
	},
	{
		"name": "SOUBY",
		"latitude": "25-46-35.17 N",
		"longitude": "80-11-8.22 W",
		"state": "FLORIDA",
		"artcc": "ZMA",
		"type": "RP",
		"updated": "VKZ*VOR/DME*315.00"
	},
	{
		"name": "SPAAD",
		"latitude": "24-25-21.2 N",
		"longitude": "81-34-44.35 W",
		"state": "FLORIDA",
		"artcc": "ZMA",
		"type": "MR",
		"updated": "NQX*TACAN*155.00/11.00"
	},
	{
		"name": "SPACS",
		"latitude": "28-31-31.69 N",
		"longitude": "80-39-25.53 W",
		"state": "FLORIDA",
		"artcc": "ZMA",
		"type": "RNAV",
		"updated": "06/19/2010"
	},
	{
		"name": "SPECO",
		"latitude": "27-54-57.47 N",
		"longitude": "82-26-33.05 W",
		"state": "FLORIDA",
		"artcc": "ZMA",
		"type": "MR",
		"updated": "MCF*TACAN*053.00/5.00"
	},
	{
		"name": "SPNKE",
		"latitude": "26-24-18.9 N",
		"longitude": "81-47-50.77 W",
		"state": "FLORIDA",
		"artcc": "ZMA",
		"type": "RNAV",
		"updated": "07/15/2008"
	},
	{
		"name": "SPOUN",
		"latitude": "26-58-30.18 N",
		"longitude": "80-21-54.23 W",
		"state": "FLORIDA",
		"artcc": "ZMA",
		"type": "RNAV",
		"updated": "01/22/2009"
	},
	{
		"name": "SPURR",
		"latitude": "28-19-54.09 N",
		"longitude": "81-17-41.26 W",
		"state": "FLORIDA",
		"artcc": "ZMA",
		"type": "RP",
		"updated": "DDO*LD*185.47/6.39"
	},
	{
		"name": "SPYKS",
		"latitude": "27-8-54.3 N",
		"longitude": "80-22-32.34 W",
		"state": "FLORIDA",
		"artcc": "ZMA",
		"type": "RNAV",
		"updated": "10/26/2009"
	},
	{
		"name": "SRKUS",
		"latitude": "27-28-5.61 N",
		"longitude": "82-47-36.9 W",
		"state": "FLORIDA",
		"artcc": "ZMA",
		"type": "RNAV",
		"updated": "11/11/2010"
	},
	{
		"name": "SSCOT",
		"latitude": "25-53-25.48 N",
		"longitude": "80-57-56.02 W",
		"state": "FLORIDA",
		"artcc": "ZMA",
		"type": "RNAV",
		"updated": "08/07/2006"
	},
	{
		"name": "STANL",
		"latitude": "21-6-0 N",
		"longitude": "71-50-50 W",
		"state": "OFFSHORE ATLANTIC",
		"artcc": "ZMA",
		"type": "RNAV",
		"updated": "10/02/2006"
	},
	{
		"name": "STAPL",
		"latitude": "26-31-51.52 N",
		"longitude": "79-37-14.01 W",
		"state": "OFFSHORE ATLANTIC",
		"artcc": "ZMA",
		"type": "RNAV",
		"updated": "04/10/2012"
	},
	{
		"name": "STARK",
		"latitude": "27-47-41 N",
		"longitude": "80-39-44 W",
		"state": "FLORIDA",
		"artcc": "ZMA",
		"type": "RNAV",
		"updated": "06/30/2016"
	},
	{
		"name": "STARS",
		"latitude": "28-41-52.9 N",
		"longitude": "80-44-55.77 W",
		"state": "FLORIDA",
		"artcc": "ZMA",
		"type": "RNAV",
		"updated": "08/09/2013"
	},
	{
		"name": "STIFF",
		"latitude": "27-36-18.66 N",
		"longitude": "78-38-46.02 W",
		"state": "",
		"artcc": "ZMA",
		"type": "RP",
		"updated": "ZFP*VOR/DME*005.51/62.88"
	},
	{
		"name": "STING",
		"latitude": "24-52-53.72 N",
		"longitude": "81-47-46.65 W",
		"state": "FLORIDA",
		"artcc": "ZMA",
		"type": "RP",
		"updated": "EYW*VORTAC*359.74/17.69"
	},
	{
		"name": "STOOP",
		"latitude": "27-15-11.33 N",
		"longitude": "80-7-53.03 W",
		"state": "FLORIDA",
		"artcc": "ZMA",
		"type": "RP",
		"updated": "PHK*VOR/DME*046.71"
	},
	{
		"name": "STRAP",
		"latitude": "24-49-55.04 N",
		"longitude": "81-35-22.85 W",
		"state": "FLORIDA",
		"artcc": "ZMA",
		"type": "RP",
		"updated": "EYW*VORTAC*037.00/18.69"
	},
	{
		"name": "STRUD",
		"latitude": "22-11-55.13 N",
		"longitude": "71-59-2.73 W",
		"state": "OFFSHORE ATLANTIC",
		"artcc": "ZMA",
		"type": "RP",
		"updated": "GTK*VORTAC*321.85/65.61"
	},
	{
		"name": "STRUG",
		"latitude": "28-31-55.13 N",
		"longitude": "80-47-49.31 W",
		"state": "FLORIDA",
		"artcc": "ZMA",
		"type": "RNAV",
		"updated": "06/09/2009"
	},
	{
		"name": "STUUU",
		"latitude": "26-57-9.67 N",
		"longitude": "82-6-17.33 W",
		"state": "FLORIDA",
		"artcc": "ZMA",
		"type": "RNAV",
		"updated": "07/11/2008"
	},
	{
		"name": "SUMEE",
		"latitude": "27-12-25.56 N",
		"longitude": "80-15-44.82 W",
		"state": "FLORIDA",
		"artcc": "ZMA",
		"type": "RNAV",
		"updated": "10/26/2009"
	},
	{
		"name": "SUNDY",
		"latitude": "27-30-39.51 N",
		"longitude": "80-15-25.7 W",
		"state": "FLORIDA",
		"artcc": "ZMA",
		"type": "RNAV",
		"updated": "01/14/2009"
	},
	{
		"name": "SUNFN",
		"latitude": "27-59-20.93 N",
		"longitude": "82-4-10.7 W",
		"state": "FLORIDA",
		"artcc": "ZMA",
		"type": "RP",
		"updated": "LAL*LD*273.85/3.46"
	},
	{
		"name": "SURFN",
		"latitude": "27-15-45.4 N",
		"longitude": "79-49-4.82 W",
		"state": "FLORIDA",
		"artcc": "ZMA",
		"type": "RP",
		"updated": "PBI*VORTAC*025.38/37.71"
	},
	{
		"name": "SUROY",
		"latitude": "28-5-28.87 N",
		"longitude": "80-51-48.28 W",
		"state": "FLORIDA",
		"artcc": "ZMA",
		"type": "RNAV",
		"updated": "08/10/2012"
	},
	{
		"name": "SUZEN",
		"latitude": "28-14-31.92 N",
		"longitude": "80-58-54.4 W",
		"state": "FLORIDA",
		"artcc": "ZMA",
		"type": "RNAV",
		"updated": "08/09/2012"
	},
	{
		"name": "SWAGS",
		"latitude": "26-10-37.07 N",
		"longitude": "81-5-59.93 W",
		"state": "FLORIDA",
		"artcc": "ZMA",
		"type": "RP",
		"updated": "PHK*VOR/DME*211.35/42.39"
	},
	{
		"name": "SWIMM",
		"latitude": "25-29-59.2 N",
		"longitude": "79-2-18.09 W",
		"state": "",
		"artcc": "ZMA",
		"type": "RP",
		"updated": "ZBV*VORTAC*135.30/18.50"
	},
	{
		"name": "SWOMP",
		"latitude": "27-8-36.71 N",
		"longitude": "79-52-23.2 W",
		"state": "FLORIDA",
		"artcc": "ZMA",
		"type": "RNAV",
		"updated": "10/20/2009"
	},
	{
		"name": "SYDNY",
		"latitude": "25-33-45.33 N",
		"longitude": "77-52-51.87 W",
		"state": "",
		"artcc": "ZMA",
		"type": "RP",
		"updated": "ZQA*VOR/DME*329.75/39.88"
	},
	{
		"name": "SYKES",
		"latitude": "27-39-52.96 N",
		"longitude": "83-2-59.22 W",
		"state": "FLORIDA",
		"artcc": "ZMA",
		"type": "RP",
		"updated": "LAL*VORTAC*250.00/58.37"
	},
	{
		"name": "SYRIL",
		"latitude": "24-3-33.32 N",
		"longitude": "74-28-31.54 W",
		"state": "",
		"artcc": "ZMA",
		"type": "RNAV",
		"updated": "11/26/2002"
	}
]
