[
	{
		"name": "TAANA",
		"latitude": "20-56-34.81 N",
		"longitude": "70-58-25.89 W",
		"state": "",
		"artcc": "ZMA",
		"type": "RP",
		"updated": "PTA*VOR/DME*351.13/74.33"
	},
	{
		"name": "TACUY",
		"latitude": "26-19-51.86 N",
		"longitude": "80-9-32.94 W",
		"state": "FLORIDA",
		"artcc": "ZMA",
		"type": "RNAV",
		"updated": "06/13/2014"
	},
	{
		"name": "TADPO",
		"latitude": "24-0-1.58 N",
		"longitude": "81-13-1.19 W",
		"state": "FLORIDA",
		"artcc": "ZMA",
		"type": "RP",
		"updated": "FIS*NDB*140.27"
	},
	{
		"name": "TAGJO",
		"latitude": "25-49-57.97 N",
		"longitude": "81-32-20.1 W",
		"state": "FLORIDA",
		"artcc": "ZMA",
		"type": "RNAV",
		"updated": "11/10/2009"
	},
	{
		"name": "TANAH",
		"latitude": "26-19-9.47 N",
		"longitude": "80-10-18.8 W",
		"state": "FLORIDA",
		"artcc": "ZMA",
		"type": "RNAV",
		"updated": "08/28/2015"
	},
	{
		"name": "TANIA",
		"latitude": "24-1-48.34 N",
		"longitude": "79-31-39.28 W",
		"state": "OFFSHORE ATLANTIC",
		"artcc": "ZMA",
		"type": "RP",
		"updated": "VKZ*VOR/DME*165.49/108.51"
	},
	{
		"name": "TANUY",
		"latitude": "24-31-34.13 N",
		"longitude": "82-5-55.35 W",
		"state": "FLORIDA",
		"artcc": "ZMA",
		"type": "MR",
		"updated": "NQX*TACAN*268.00/23.00"
	},
	{
		"name": "TARPO",
		"latitude": "27-47-6.16 N",
		"longitude": "79-34-28.49 W",
		"state": "FLORIDA",
		"artcc": "ZMA",
		"type": "RP",
		"updated": "VKZ*VOR/DME*018.23/125.56"
	},
	{
		"name": "TARTY",
		"latitude": "26-47-49.7 N",
		"longitude": "80-45-44.54 W",
		"state": "FLORIDA",
		"artcc": "ZMA",
		"type": "RNAV",
		"updated": "09/01/2005"
	},
	{
		"name": "TATUW",
		"latitude": "27-43-17.72 N",
		"longitude": "80-22-3.16 W",
		"state": "FLORIDA",
		"artcc": "ZMA",
		"type": "RNAV",
		"updated": "08/09/2012"
	},
	{
		"name": "TAVDE",
		"latitude": "24-25-32.05 N",
		"longitude": "81-47-23.51 W",
		"state": "FLORIDA",
		"artcc": "ZMA",
		"type": "MW",
		"updated": "02/10/2016"
	},
	{
		"name": "TAZER",
		"latitude": "24-47-38.43 N",
		"longitude": "80-45-4.24 W",
		"state": "FLORIDA",
		"artcc": "ZMA",
		"type": "RNAV",
		"updated": "08/15/2017"
	},
	{
		"name": "TBIRD",
		"latitude": "27-9-22.25 N",
		"longitude": "80-28-9.74 W",
		"state": "FLORIDA",
		"artcc": "ZMA",
		"type": "RP",
		"updated": "PHK*VOR/DME*028.00"
	},
	{
		"name": "TBIWX",
		"latitude": "27-9-19 N",
		"longitude": "80-29-9 W",
		"state": "FLORIDA",
		"artcc": "ZMA",
		"type": "RNAV",
		"updated": "01/28/2016"
	},
	{
		"name": "TEDAE",
		"latitude": "28-12-54.03 N",
		"longitude": "80-8-26.71 W",
		"state": "OFFSHORE ATLANTIC",
		"artcc": "ZMA",
		"type": "MR",
		"updated": "COF*TACAN*100.00/25.00"
	},
	{
		"name": "TEFDU",
		"latitude": "26-12-54.37 N",
		"longitude": "81-42-29.15 W",
		"state": "FLORIDA",
		"artcc": "ZMA",
		"type": "RNAV",
		"updated": "11/05/2009"
	},
	{
		"name": "TEGUC",
		"latitude": "27-29-18.08 N",
		"longitude": "80-18-50.04 W",
		"state": "FLORIDA",
		"artcc": "ZMA",
		"type": "RNAV",
		"updated": "07/11/2012"
	},
	{
		"name": "TEMDE",
		"latitude": "24-33-28.08 N",
		"longitude": "81-34-36.62 W",
		"state": "FLORIDA",
		"artcc": "ZMA",
		"type": "RNAV",
		"updated": "02/10/2016"
	},
	{
		"name": "TEMPE",
		"latitude": "28-6-10.48 N",
		"longitude": "81-30-55.78 W",
		"state": "FLORIDA",
		"artcc": "ZMA",
		"type": "RP",
		"updated": "ORL*VORTAC*200.00/28.00"
	},
	{
		"name": "TENBE",
		"latitude": "28-15-7.78 N",
		"longitude": "80-36-8.4 W",
		"state": "FLORIDA",
		"artcc": "ZMA",
		"type": "MR",
		"updated": "COF*TACAN*036.96/1.00"
	},
	{
		"name": "TEYUK",
		"latitude": "26-17-30.11 N",
		"longitude": "80-19-34.25 W",
		"state": "FLORIDA",
		"artcc": "ZMA",
		"type": "RP",
		"updated": "VKZ*VOR/DME*348.00/33.60"
	},
	{
		"name": "THNDR",
		"latitude": "26-37-38.36 N",
		"longitude": "80-51-59.71 W",
		"state": "FLORIDA",
		"artcc": "ZMA",
		"type": "RP",
		"updated": "LBV*VORTAC*111.97"
	},
	{
		"name": "THNWX",
		"latitude": "26-25-0 N",
		"longitude": "80-43-45 W",
		"state": "FLORIDA",
		"artcc": "ZMA",
		"type": "RNAV",
		"updated": "01/28/2016"
	},
	{
		"name": "THUMP",
		"latitude": "24-25-48.8 N",
		"longitude": "82-2-58.09 W",
		"state": "FLORIDA",
		"artcc": "ZMA",
		"type": "RP",
		"updated": "EYW*VORTAC*234.71/16.50"
	},
	{
		"name": "TICCO",
		"latitude": "28-31-0.5 N",
		"longitude": "80-47-52.8 W",
		"state": "FLORIDA",
		"artcc": "ZMA",
		"type": "RP",
		"updated": "ORL*VORTAC*093.00"
	},
	{
		"name": "TICOG",
		"latitude": "26-17-34.01 N",
		"longitude": "80-33-34.52 W",
		"state": "FLORIDA",
		"artcc": "ZMA",
		"type": "RNAV",
		"updated": "08/01/2006"
	},
	{
		"name": "TIGAR",
		"latitude": "24-56-45.63 N",
		"longitude": "81-29-29.8 W",
		"state": "FLORIDA",
		"artcc": "ZMA",
		"type": "RP",
		"updated": "EYW*VORTAC*037.00/27.36"
	},
	{
		"name": "TIKIY",
		"latitude": "27-29-52.66 N",
		"longitude": "80-28-51.94 W",
		"state": "FLORIDA",
		"artcc": "ZMA",
		"type": "RP",
		"updated": "TRV*VORTAC*184.56"
	},
	{
		"name": "TILDE",
		"latitude": "26-12-38.16 N",
		"longitude": "81-50-26.17 W",
		"state": "FLORIDA",
		"artcc": "ZMA",
		"type": "RNAV",
		"updated": "07/07/2014"
	},
	{
		"name": "TINKE",
		"latitude": "25-47-26.34 N",
		"longitude": "80-12-15.03 W",
		"state": "FLORIDA",
		"artcc": "ZMA",
		"type": "RP",
		"updated": "VKZ*VOR/DME*314.72"
	},
	{
		"name": "TINKR",
		"latitude": "28-19-23 N",
		"longitude": "81-25-27 W",
		"state": "FLORIDA",
		"artcc": "ZMA",
		"type": "RNAV",
		"updated": "10/24/2007"
	},
	{
		"name": "TINKY",
		"latitude": "24-58-48.43 N",
		"longitude": "78-23-37.26 W",
		"state": "OFFSHORE ATLANTIC",
		"artcc": "ZMA",
		"type": "RP",
		"updated": "ZBV*VORTAC*135.30/65.37"
	},
	{
		"name": "TIOFF",
		"latitude": "26-4-55.97 N",
		"longitude": "81-43-46.73 W",
		"state": "FLORIDA",
		"artcc": "ZMA",
		"type": "RNAV",
		"updated": "11/11/2009"
	},
	{
		"name": "TIRTE",
		"latitude": "26-35-6.9 N",
		"longitude": "81-15-57.27 W",
		"state": "FLORIDA",
		"artcc": "ZMA",
		"type": "RP",
		"updated": "RSW*VORTAC*085.00/27.63"
	},
	{
		"name": "TOMAZ",
		"latitude": "21-18-32.19 N",
		"longitude": "71-50-50.08 W",
		"state": "",
		"artcc": "ZMA",
		"type": "RP",
		"updated": "PTA*VOR/DME*331.41/117.26"
	},
	{
		"name": "TOMEE",
		"latitude": "27-6-0 N",
		"longitude": "79-25-0 W",
		"state": "OFFSHORE ATLANTIC",
		"artcc": "ZMA",
		"type": "RNAV",
		"updated": "05/11/2009"
	},
	{
		"name": "TONYJ",
		"latitude": "27-43-41.5 N",
		"longitude": "82-42-28.3 W",
		"state": "FLORIDA",
		"artcc": "ZMA",
		"type": "RNAV",
		"updated": "01/25/2013"
	},
	{
		"name": "TOOMR",
		"latitude": "26-50-59.98 N",
		"longitude": "79-38-12.49 W",
		"state": "OFFSHORE ATLANTIC",
		"artcc": "ZMA",
		"type": "RP",
		"updated": "ZBV*VORTAC*349.00/70.99"
	},
	{
		"name": "TOPPR",
		"latitude": "27-7-34.71 N",
		"longitude": "80-1-30.94 W",
		"state": "FLORIDA",
		"artcc": "ZMA",
		"type": "RP",
		"updated": "PBI*VORTAC*010.00/26.90"
	},
	{
		"name": "TOTNY",
		"latitude": "28-14-35.14 N",
		"longitude": "81-31-23.72 W",
		"state": "FLORIDA",
		"artcc": "ZMA",
		"type": "RNAV",
		"updated": "08/05/2012"
	},
	{
		"name": "TOUCH",
		"latitude": "27-52-43.59 N",
		"longitude": "83-9-0.64 W",
		"state": "FLORIDA",
		"artcc": "ZMA",
		"type": "RP",
		"updated": "CTY*VORTAC*185.00/103.09"
	},
	{
		"name": "TOWES",
		"latitude": "25-59-48.87 N",
		"longitude": "80-2-26.47 W",
		"state": "FLORIDA",
		"artcc": "ZMA",
		"type": "RNAV",
		"updated": "10/05/2011"
	},
	{
		"name": "TPSTR",
		"latitude": "27-50-7.07 N",
		"longitude": "80-38-48.84 W",
		"state": "FLORIDA",
		"artcc": "ZMA",
		"type": "RP",
		"updated": "MLB*VOR/DME*189.18/16.17"
	},
	{
		"name": "TRAMP",
		"latitude": "28-10-13.17 N",
		"longitude": "81-19-9.71 W",
		"state": "FLORIDA",
		"artcc": "ZMA",
		"type": "RP",
		"updated": "OJP*LD*185.46/16.75"
	},
	{
		"name": "TRIPL",
		"latitude": "27-2-58.71 N",
		"longitude": "79-28-40.36 W",
		"state": "FLORIDA",
		"artcc": "ZMA",
		"type": "RP",
		"updated": "OMN*VORTAC*146.88/160.31"
	},
	{
		"name": "TRITN",
		"latitude": "26-25-1.12 N",
		"longitude": "79-48-35.37 W",
		"state": "FLORIDA",
		"artcc": "ZMA",
		"type": "RP",
		"updated": "VKZ*VOR/DME*029.00/43.93"
	},
	{
		"name": "TROPC",
		"latitude": "26-25-26.16 N",
		"longitude": "81-55-38.06 W",
		"state": "FLORIDA",
		"artcc": "ZMA",
		"type": "RP",
		"updated": "RSW*LD*238.10/12.60"
	},
	{
		"name": "TROTR",
		"latitude": "21-48-10 N",
		"longitude": "72-47-49 W",
		"state": "OFFSHORE ATLANTIC",
		"artcc": "ZMA",
		"type": "RP",
		"updated": "GTK*VORTAC*291.42/95.43"
	},
	{
		"name": "TRPPL",
		"latitude": "26-1-18.39 N",
		"longitude": "80-5-25.44 W",
		"state": "FLORIDA",
		"artcc": "ZMA",
		"type": "RNAV",
		"updated": "07/19/2011"
	},
	{
		"name": "TRUBE",
		"latitude": "26-11-31.67 N",
		"longitude": "80-14-10.05 W",
		"state": "FLORIDA",
		"artcc": "ZMA",
		"type": "RP",
		"updated": "FLL*VOR/DME*337.99"
	},
	{
		"name": "TUHWU",
		"latitude": "25-47-2.13 N",
		"longitude": "80-22-0.53 W",
		"state": "FLORIDA",
		"artcc": "ZMA",
		"type": "RNAV",
		"updated": "06/16/2016"
	},
	{
		"name": "TUNNE",
		"latitude": "26-50-46.48 N",
		"longitude": "80-4-25.16 W",
		"state": "FLORIDA",
		"artcc": "ZMA",
		"type": "RNAV",
		"updated": "01/22/2007"
	},
	{
		"name": "TUNPY",
		"latitude": "28-30-49.9 N",
		"longitude": "80-53-50.44 W",
		"state": "FLORIDA",
		"artcc": "ZMA",
		"type": "RNAV",
		"updated": "04/24/2014"
	},
	{
		"name": "TURBO",
		"latitude": "26-10-31.14 N",
		"longitude": "79-47-15.02 W",
		"state": "OFFSHORE ATLANTIC",
		"artcc": "ZMA",
		"type": "RP",
		"updated": "DHP*VORTAC*057.39/37.76"
	},
	{
		"name": "TURKE",
		"latitude": "25-30-12.25 N",
		"longitude": "80-21-46.75 W",
		"state": "FLORIDA",
		"artcc": "ZMA",
		"type": "MR",
		"updated": "HST*TACAN*054.00/1.20"
	},
	{
		"name": "TURPS",
		"latitude": "26-40-46.64 N",
		"longitude": "79-44-48.2 W",
		"state": "FLORIDA",
		"artcc": "ZMA",
		"type": "RP",
		"updated": "PBI*VORTAC*093.00/18.26"
	},
	{
		"name": "TURWX",
		"latitude": "26-31-20 N",
		"longitude": "79-30-41 W",
		"state": "OFFSHORE ATLANTIC",
		"artcc": "ZMA",
		"type": "RNAV",
		"updated": "06/30/2016"
	},
	{
		"name": "TUXXI",
		"latitude": "27-19-4.71 N",
		"longitude": "80-8-11.18 W",
		"state": "FLORIDA",
		"artcc": "ZMA",
		"type": "RP",
		"updated": "PBI*VORTAC*359.00/38.26"
	},
	{
		"name": "TUYVO",
		"latitude": "26-22-20.29 N",
		"longitude": "79-55-46.74 W",
		"state": "FLORIDA",
		"artcc": "ZMA",
		"type": "RNAV",
		"updated": "06/01/2006"
	},
	{
		"name": "TWNKY",
		"latitude": "24-29-39.27 N",
		"longitude": "81-37-33.53 W",
		"state": "FLORIDA",
		"artcc": "ZMA",
		"type": "MR",
		"updated": "NQX*TACAN*155.00/6.00"
	},
	{
		"name": "TWNNS",
		"latitude": "24-48-58.59 N",
		"longitude": "80-33-30.35 W",
		"state": "FLORIDA",
		"artcc": "ZMA",
		"type": "RP",
		"updated": "EYW*VORTAC*077.26"
	},
	{
		"name": "TYNEE",
		"latitude": "26-47-50.66 N",
		"longitude": "82-17-2.65 W",
		"state": "FLORIDA",
		"artcc": "ZMA",
		"type": "RP",
		"updated": "LBV*VORTAC*267.00"
	}
]
