	{
		"name": "YADDU",
		"latitude": "27-28-42.19 N",
		"longitude": "80-16-20.61 W",
		"state": "FLORIDA",
		"artcc": "ZMA",
		"type": "RNAV",
		"updated": "07/11/2012",
	},
	{
		"name": "YADUD",
		"latitude": "26-47-19.78 N",
		"longitude": "80-9-35.07 W",
		"state": "FLORIDA",
		"artcc": "ZMA",
		"type": "RNAV",
		"updated": "12/05/2008",
	},
	{
		"name": "YALOO",
		"latitude": "26-55-35.85 N",
		"longitude": "81-47-56.89 W",
		"state": "FLORIDA",
		"artcc": "ZMA",
		"type": "RNAV",
		"updated": "02/20/2008",
	},
	{
		"name": "YANBU",
		"latitude": "26-41-36.73 N",
		"longitude": "79-50-34.05 W",
		"state": "FLORIDA",
		"artcc": "ZMA",
		"type": "RNAV",
		"updated": "07/16/2013",
	},
	{
		"name": "YARDS",
		"latitude": "26-11-51.27 N",
		"longitude": "80-10-51.13 W",
		"state": "FLORIDA",
		"artcc": "ZMA",
		"type": "RP",
		"updated": "DHP*VORTAC*024.88/25.46",
	},
	{
		"name": "YARTU",
		"latitude": "28-14-22.22 N",
		"longitude": "81-24-6.44 W",
		"state": "FLORIDA",
		"artcc": "ZMA",
		"type": "RNAV",
		"updated": "02/08/2005",
	},
	{
		"name": "YATUR",
		"latitude": "27-11-23.66 N",
		"longitude": "80-36-34.49 W",
		"state": "FLORIDA",
		"artcc": "ZMA",
		"type": "RP",
		"updated": "PHK*VOR/DME*010.19/24.75",
	},
	{
		"name": "YAYUV",
		"latitude": "26-10-50.49 N",
		"longitude": "81-48-23.49 W",
		"state": "FLORIDA",
		"artcc": "ZMA",
		"type": "RNAV",
		"updated": "07/07/2014",
	},
	{
		"name": "YEGUP",
		"latitude": "26-35-34.03 N",
		"longitude": "80-8-21.43 W",
		"state": "FLORIDA",
		"artcc": "ZMA",
		"type": "RNAV",
		"updated": "07/16/2013",
	},
	{
		"name": "YEHAW",
		"latitude": "27-36-1.11 N",
		"longitude": "81-6-9.53 W",
		"state": "FLORIDA",
		"artcc": "ZMA",
		"type": "RP",
		"updated": "TRV*VORTAC*269.00/33.00",
	},
	{
		"name": "YELUY",
		"latitude": "26-9-2.22 N",
		"longitude": "80-13-34.59 W",
		"state": "FLORIDA",
		"artcc": "ZMA",
		"type": "RNAV",
		"updated": "03/18/2013",
	},
	{
		"name": "YENCU",
		"latitude": "26-52-56.58 N",
		"longitude": "82-0-33.98 W",
		"state": "FLORIDA",
		"artcc": "ZMA",
		"type": "RNAV",
		"updated": "08/03/2015",
	},
	{
		"name": "YENNE",
		"latitude": "25-43-14.43 N",
		"longitude": "84-27-15.25 W",
		"state": "OFFSHORE GULF",
		"artcc": "ZMA",
		"type": "RNAV",
		"updated": "10/31/2012",
	},
	{
		"name": "YENUT",
		"latitude": "26-58-42.96 N",
		"longitude": "82-5-33.1 W",
		"state": "FLORIDA",
		"artcc": "ZMA",
		"type": "RNAV",
		"updated": "08/11/2016",
	},
	{
		"name": "YERRU",
		"latitude": "28-32-52.55 N",
		"longitude": "80-47-50.28 W",
		"state": "FLORIDA",
		"artcc": "ZMA",
		"type": "RNAV",
		"updated": "05/11/2009",
	},
	{
		"name": "YIBUD",
		"latitude": "28-3-33.96 N",
		"longitude": "81-45-32.41 W",
		"state": "FLORIDA",
		"artcc": "ZMA",
		"type": "RP",
		"updated": "LAL*VORTAC*070.99/14.23",
	},
	{
		"name": "YIDUN",
		"latitude": "27-14-59.41 N",
		"longitude": "81-45-30.3 W",
		"state": "FLORIDA",
		"artcc": "ZMA",
		"type": "RNAV",
		"updated": "04/09/2014",
	},
	{
		"name": "YIGBO",
		"latitude": "26-49-32.09 N",
		"longitude": "80-27-23.11 W",
		"state": "FLORIDA",
		"artcc": "ZMA",
		"type": "RP",
		"updated": "TRV*VORTAC*184.99/51.06",
	},
	{
		"name": "YIYNU",
		"latitude": "25-30-8.97 N",
		"longitude": "80-36-10.77 W",
		"state": "FLORIDA",
		"artcc": "ZMA",
		"type": "RNAV",
		"updated": "06/10/2011",
	},
	{
		"name": "YOBUS",
		"latitude": "26-3-54.16 N",
		"longitude": "80-1-28.64 W",
		"state": "FLORIDA",
		"artcc": "ZMA",
		"type": "RP",
		"updated": "ADI*LD*096.38/7.38",
	},
	{
		"name": "YOHOR",
		"latitude": "27-18-52.75 N",
		"longitude": "81-10-51.95 W",
		"state": "FLORIDA",
		"artcc": "ZMA",
		"type": "RNAV",
		"updated": "10/05/2011",
	},
	{
		"name": "YOJIX",
		"latitude": "28-2-44.04 N",
		"longitude": "81-33-45.34 W",
		"state": "FLORIDA",
		"artcc": "ZMA",
		"type": "RP",
		"updated": "LAL*VORTAC*080.46/24.23",
	},
	{
		"name": "YONLI",
		"latitude": "28-41-3.22 N",
		"longitude": "80-52-38.13 W",
		"state": "FLORIDA",
		"artcc": "ZMA",
		"type": "RNAV",
		"updated": "04/19/2018",
	},
	{
		"name": "YONMA",
		"latitude": "28-3-55.68 N",
		"longitude": "81-24-31.18 W",
		"state": "FLORIDA",
		"artcc": "ZMA",
		"type": "RP",
		"updated": "LAL*VORTAC*080.46/32.48",
	},
	{
		"name": "YONUS",
		"latitude": "28-19-7.92 N",
		"longitude": "80-36-44.51 W",
		"state": "FLORIDA",
		"artcc": "ZMA",
		"type": "RNAV",
		"updated": "02/17/2006",
	},
	{
		"name": "YOPUN",
		"latitude": "27-45-25.93 N",
		"longitude": "82-38-46.73 W",
		"state": "FLORIDA",
		"artcc": "ZMA",
		"type": "RNAV",
		"updated": "05/29/2007",
	},
	{
		"name": "YOURS",
		"latitude": "26-42-30.64 N",
		"longitude": "80-0-19.68 W",
		"state": "FLORIDA",
		"artcc": "ZMA",
		"type": "RNAV",
		"updated": "04/17/2017",
	},
