[
	{
		"name": "ZABQO",
		"latitude": "27-15-18.64 N",
		"longitude": "82-23-41.41 W",
		"state": "FLORIDA",
		"artcc": "ZMA",
		"type": "CN",
		"updated": "12/09/2010"
	},
	{
		"name": "ZABTA",
		"latitude": "26-43-47.66 N",
		"longitude": "80-8-46.19 W",
		"state": "FLORIDA",
		"artcc": "ZMA",
		"type": "RNAV",
		"updated": "06/09/2014"
	},
	{
		"name": "ZADIL",
		"latitude": "26-3-48.99 N",
		"longitude": "79-49-50.97 W",
		"state": "FLORIDA",
		"artcc": "ZMA",
		"type": "RP",
		"updated": "ADI*LD*096.38/17.85"
	},
	{
		"name": "ZAGGA",
		"latitude": "27-37-9.53 N",
		"longitude": "80-18-50.62 W",
		"state": "FLORIDA",
		"artcc": "ZMA",
		"type": "RP",
		"updated": "TRV*VORTAC*117.66/10.01"
	},
	{
		"name": "ZAGUN",
		"latitude": "25-38-54.24 N",
		"longitude": "80-18-37.97 W",
		"state": "FLORIDA",
		"artcc": "ZMA",
		"type": "RNAV",
		"updated": "02/27/2013"
	},
	{
		"name": "ZAHZA",
		"latitude": "27-29-55.18 N",
		"longitude": "80-35-38.29 W",
		"state": "FLORIDA",
		"artcc": "ZMA",
		"type": "RP",
		"updated": "FPR*NDB*280.42"
	},
	{
		"name": "ZAKKS",
		"latitude": "26-21-12.4 N",
		"longitude": "82-10-33.65 W",
		"state": "FLORIDA",
		"artcc": "ZMA",
		"type": "MR",
		"updated": "RSW*VORTAC*246.00/24.00"
	},
	{
		"name": "ZAKLO",
		"latitude": "26-26-38.15 N",
		"longitude": "80-8-17.57 W",
		"state": "FLORIDA",
		"artcc": "ZMA",
		"type": "RNAV",
		"updated": "12/11/2017"
	},
	{
		"name": "ZALAL",
		"latitude": "26-3-57.8 N",
		"longitude": "80-11-16.67 W",
		"state": "FLORIDA",
		"artcc": "ZMA",
		"type": "RP",
		"updated": "FLL*LD*276.37/3.02"
	},
	{
		"name": "ZALDI",
		"latitude": "27-22-15.68 N",
		"longitude": "82-31-37.86 W",
		"state": "FLORIDA",
		"artcc": "ZMA",
		"type": "RP",
		"updated": "SRQ*VOR/DME*/2.90"
	},
	{
		"name": "ZALVO",
		"latitude": "24-34-21.96 N",
		"longitude": "81-42-2.94 W",
		"state": "FLORIDA",
		"artcc": "ZMA",
		"type": "MR",
		"updated": "NQX*TACAN*252.00/1.10"
	},
	{
		"name": "ZAPES",
		"latitude": "27-39-57.94 N",
		"longitude": "80-27-11.58 W",
		"state": "FLORIDA",
		"artcc": "ZMA",
		"type": "RNAV",
		"updated": "08/09/2012"
	},
	{
		"name": "ZAPIT",
		"latitude": "27-59-27.78 N",
		"longitude": "82-14-17.92 W",
		"state": "FLORIDA",
		"artcc": "ZMA",
		"type": "RNAV",
		"updated": "05/14/2007"
	},
	{
		"name": "ZAPPA",
		"latitude": "26-37-48.01 N",
		"longitude": "79-5-52.52 W",
		"state": "",
		"artcc": "ZMA",
		"type": "RP",
		"updated": "ZFP*VOR/DME*284.82/21.98"
	},
	{
		"name": "ZAPWX",
		"latitude": "26-21-29 N",
		"longitude": "79-30-42 W",
		"state": "OFFSHORE ATLANTIC",
		"artcc": "ZMA",
		"type": "RNAV",
		"updated": "01/28/2016"
	},
	{
		"name": "ZARER",
		"latitude": "25-48-26.56 N",
		"longitude": "80-11-32.91 W",
		"state": "FLORIDA",
		"artcc": "ZMA",
		"type": "RNAV",
		"updated": "11/01/2013"
	},
	{
		"name": "ZARLA",
		"latitude": "26-4-41.44 N",
		"longitude": "80-25-29.55 W",
		"state": "FLORIDA",
		"artcc": "ZMA",
		"type": "RNAV",
		"updated": "03/18/2013"
	},
	{
		"name": "ZARNA",
		"latitude": "26-8-2.89 N",
		"longitude": "80-16-33.16 W",
		"state": "FLORIDA",
		"artcc": "ZMA",
		"type": "RP",
		"updated": "VKZ*VOR/DME*348.00/23.79"
	},
	{
		"name": "ZARUK",
		"latitude": "27-2-33.6 N",
		"longitude": "82-24-35.16 W",
		"state": "FLORIDA",
		"artcc": "ZMA",
		"type": "RNAV",
		"updated": "05/19/2011"
	},
	{
		"name": "ZATOP",
		"latitude": "27-46-40.82 N",
		"longitude": "80-32-5.68 W",
		"state": "FLORIDA",
		"artcc": "ZMA",
		"type": "RNAV",
		"updated": "06/04/2012"
	},
	{
		"name": "ZATUB",
		"latitude": "27-13-49.42 N",
		"longitude": "82-15-37.7 W",
		"state": "FLORIDA",
		"artcc": "ZMA",
		"type": "RNAV",
		"updated": "08/12/2013"
	},
	{
		"name": "ZAWRI",
		"latitude": "26-14-32.75 N",
		"longitude": "81-15-17.77 W",
		"state": "FLORIDA",
		"artcc": "ZMA",
		"type": "RNAV",
		"updated": "07/09/2017"
	},
	{
		"name": "ZEBAM",
		"latitude": "27-19-12.28 N",
		"longitude": "81-35-27.26 W",
		"state": "FLORIDA",
		"artcc": "ZMA",
		"type": "RNAV",
		"updated": "05/10/2013"
	},
	{
		"name": "ZEBMO",
		"latitude": "27-19-35.74 N",
		"longitude": "80-55-7.66 W",
		"state": "FLORIDA",
		"artcc": "ZMA",
		"type": "RNAV",
		"updated": "08/15/2012"
	},
	{
		"name": "ZEBOV",
		"latitude": "26-40-38.6 N",
		"longitude": "80-34-12.27 W",
		"state": "FLORIDA",
		"artcc": "ZMA",
		"type": "RNAV",
		"updated": "12/29/2014"
	},
	{
		"name": "ZEGIS",
		"latitude": "26-43-32.93 N",
		"longitude": "82-11-49.6 W",
		"state": "FLORIDA",
		"artcc": "ZMA",
		"type": "RNAV",
		"updated": "04/17/2012"
	},
	{
		"name": "ZEILR",
		"latitude": "26-38-13.17 N",
		"longitude": "82-22-27.71 W",
		"state": "FLORIDA",
		"artcc": "ZMA",
		"type": "RP",
		"updated": "LBV*VORTAC*257.00"
	},
	{
		"name": "ZELTO",
		"latitude": "27-54-32.9 N",
		"longitude": "82-31-51.12 W",
		"state": "FLORIDA",
		"artcc": "ZMA",
		"type": "RP",
		"updated": "LAL*VORTAC*259.59"
	},
	{
		"name": "ZEMOR",
		"latitude": "28-45-38 N",
		"longitude": "80-56-14 W",
		"state": "FLORIDA",
		"artcc": "ZMA",
		"type": "RNAV",
		"updated": "10/24/2007"
	},
	{
		"name": "ZEMUT",
		"latitude": "26-37-39.58 N",
		"longitude": "82-18-53.28 W",
		"state": "FLORIDA",
		"artcc": "ZMA",
		"type": "RNAV",
		"updated": "08/11/2016"
	},
	{
		"name": "ZENAX",
		"latitude": "25-30-10.24 N",
		"longitude": "80-31-56.53 W",
		"state": "FLORIDA",
		"artcc": "ZMA",
		"type": "RNAV",
		"updated": "12/03/2013"
	},
	{
		"name": "ZEPIG",
		"latitude": "26-45-47.79 N",
		"longitude": "82-5-0.38 W",
		"state": "FLORIDA",
		"artcc": "ZMA",
		"type": "RP",
		"updated": "RSW*VORTAC*312.24"
	},
	{
		"name": "ZERUR",
		"latitude": "27-56-17.66 N",
		"longitude": "82-32-35.55 W",
		"state": "FLORIDA",
		"artcc": "ZMA",
		"type": "RP",
		"updated": "PIE*VORTAC*081.30"
	},
	{
		"name": "ZETAP",
		"latitude": "26-54-9.23 N",
		"longitude": "80-17-6.15 W",
		"state": "FLORIDA",
		"artcc": "ZMA",
		"type": "RNAV",
		"updated": "12/05/2008"
	},
	{
		"name": "ZETOK",
		"latitude": "27-47-42.1 N",
		"longitude": "81-48-26.24 W",
		"state": "FLORIDA",
		"artcc": "ZMA",
		"type": "RNAV",
		"updated": "06/13/2011"
	},
	{
		"name": "ZEVEX",
		"latitude": "28-11-32.62 N",
		"longitude": "80-23-28.37 W",
		"state": "FLORIDA",
		"artcc": "ZMA",
		"type": "MR",
		"updated": "COF*TACAN*110.00/12.00"
	},
	{
		"name": "ZEVIK",
		"latitude": "25-56-29.28 N",
		"longitude": "81-44-48.29 W",
		"state": "FLORIDA",
		"artcc": "ZMA",
		"type": "RNAV",
		"updated": "07/07/2014"
	},
	{
		"name": "ZEVPU",
		"latitude": "27-11-27.26 N",
		"longitude": "80-15-29.27 W",
		"state": "FLORIDA",
		"artcc": "ZMA",
		"type": "RNAV",
		"updated": "03/21/2013"
	},
	{
		"name": "ZEVSO",
		"latitude": "26-33-41.72 N",
		"longitude": "81-42-37.16 W",
		"state": "FLORIDA",
		"artcc": "ZMA",
		"type": "RP",
		"updated": "RSW*VORTAC*063.67/4.00"
	},
	{
		"name": "ZIKNA",
		"latitude": "25-57-17.37 N",
		"longitude": "80-22-3.27 W",
		"state": "FLORIDA",
		"artcc": "ZMA",
		"type": "RP",
		"updated": "DHP*VORTAC*357.82"
	},
	{
		"name": "ZIKSA",
		"latitude": "27-6-14.98 N",
		"longitude": "82-24-10.54 W",
		"state": "FLORIDA",
		"artcc": "ZMA",
		"type": "RNAV",
		"updated": "08/12/2013"
	},
	{
		"name": "ZILBI",
		"latitude": "25-48-47.26 N",
		"longitude": "79-59-34.02 W",
		"state": "FLORIDA",
		"artcc": "ZMA",
		"type": "RP",
		"updated": "VKZ*VOR/DME*071.26"
	},
	{
		"name": "ZILKI",
		"latitude": "26-19-19.73 N",
		"longitude": "80-13-32.44 W",
		"state": "FLORIDA",
		"artcc": "ZMA",
		"type": "RNAV",
		"updated": "06/13/2014"
	},
	{
		"name": "ZIMAV",
		"latitude": "26-11-1.13 N",
		"longitude": "79-54-59.98 W",
		"state": "FLORIDA",
		"artcc": "ZMA",
		"type": "RP",
		"updated": "DHP*VORTAC*049.43/32.76"
	},
	{
		"name": "ZINAS",
		"latitude": "25-16-22.03 N",
		"longitude": "80-39-33.28 W",
		"state": "FLORIDA",
		"artcc": "ZMA",
		"type": "MR",
		"updated": "HST*TACAN*/20.00"
	},
	{
		"name": "ZISMU",
		"latitude": "27-8-28.45 N",
		"longitude": "81-54-58.04 W",
		"state": "FLORIDA",
		"artcc": "ZMA",
		"type": "RNAV",
		"updated": "04/09/2014"
	},
	{
		"name": "ZISUR",
		"latitude": "26-41-16.53 N",
		"longitude": "80-13-3 W",
		"state": "FLORIDA",
		"artcc": "ZMA",
		"type": "RP",
		"updated": "PBI*LD*278.77/7.68"
	},
	{
		"name": "ZITPO",
		"latitude": "26-8-36.86 N",
		"longitude": "80-0-0.49 W",
		"state": "FLORIDA",
		"artcc": "ZMA",
		"type": "RNAV",
		"updated": "03/18/2013"
	},
	{
		"name": "ZOGVO",
		"latitude": "26-50-46.74 N",
		"longitude": "80-10-28.98 W",
		"state": "FLORIDA",
		"artcc": "ZMA",
		"type": "RNAV",
		"updated": "09/30/2016"
	},
	{
		"name": "ZOLLA",
		"latitude": "24-14-34.93 N",
		"longitude": "79-6-5.32 W",
		"state": "OFFSHORE ATLANTIC",
		"artcc": "ZMA",
		"type": "RP",
		"updated": "ZBV*VORTAC*177.09/88.02"
	},
	{
		"name": "ZOLTA",
		"latitude": "25-54-40.7 N",
		"longitude": "80-18-58.89 W",
		"state": "FLORIDA",
		"artcc": "ZMA",
		"type": "RP",
		"updated": "DHP*VORTAC*018.87"
	},
	{
		"name": "ZOMOV",
		"latitude": "28-4-34.93 N",
		"longitude": "81-37-38.76 W",
		"state": "FLORIDA",
		"artcc": "ZMA",
		"type": "RNAV",
		"updated": "03/30/2009"
	},
	{
		"name": "ZOREK",
		"latitude": "26-34-34.09 N",
		"longitude": "80-6-37.54 W",
		"state": "FLORIDA",
		"artcc": "ZMA",
		"type": "RNAV",
		"updated": "06/13/2014"
	},
	{
		"name": "ZOROE",
		"latitude": "27-37-28.08 N",
		"longitude": "80-19-44.53 W",
		"state": "FLORIDA",
		"artcc": "ZMA",
		"type": "RNAV",
		"updated": "08/09/2012"
	},
	{
		"name": "ZOTUB",
		"latitude": "26-35-49.08 N",
		"longitude": "80-16-47.03 W",
		"state": "FLORIDA",
		"artcc": "ZMA",
		"type": "RNAV",
		"updated": "07/15/2013"
	},
	{
		"name": "ZOVLU",
		"latitude": "28-15-18.23 N",
		"longitude": "81-41-14.37 W",
		"state": "FLORIDA",
		"artcc": "ZMA",
		"type": "RP",
		"updated": "LAL*VORTAC*046.04/23.64"
	},
	{
		"name": "ZUGAX",
		"latitude": "28-30-52.62 N",
		"longitude": "80-50-34.18 W",
		"state": "FLORIDA",
		"artcc": "ZMA",
		"type": "RNAV",
		"updated": "04/02/2014"
	},
	{
		"name": "ZUGDU",
		"latitude": "26-26-39.38 N",
		"longitude": "81-10-2.42 W",
		"state": "FLORIDA",
		"artcc": "ZMA",
		"type": "RNAV",
		"updated": "07/09/2017"
	},
	{
		"name": "ZUKED",
		"latitude": "26-4-33.69 N",
		"longitude": "80-0-58.48 W",
		"state": "FLORIDA",
		"artcc": "ZMA",
		"type": "RNAV",
		"updated": "03/18/2013"
	},
	{
		"name": "ZUKVO",
		"latitude": "27-55-20.41 N",
		"longitude": "82-40-55.27 W",
		"state": "FLORIDA",
		"artcc": "ZMA",
		"type": "RP",
		"updated": "PIE*VORTAC*012.94/0.88"
	},
	{
		"name": "ZUMGO",
		"latitude": "25-33-3.6 N",
		"longitude": "79-48-21.61 W",
		"state": "FLORIDA",
		"artcc": "ZMA",
		"type": "RNAV",
		"updated": "08/04/2006"
	},
	{
		"name": "ZURBU",
		"latitude": "25-31-57.58 N",
		"longitude": "80-26-25.56 W",
		"state": "FLORIDA",
		"artcc": "ZMA",
		"type": "RNAV",
		"updated": "11/27/2013"
	},
	{
		"name": "ZUVOM",
		"latitude": "28-6-43.41 N",
		"longitude": "80-26-4.31 W",
		"state": "FLORIDA",
		"artcc": "ZMA",
		"type": "RNAV",
		"updated": "08/11/2012"
	},
	{
		"name": "ZUWXO",
		"latitude": "26-39-43.04 N",
		"longitude": "79-59-32.46 W",
		"state": "FLORIDA",
		"artcc": "ZMA",
		"type": "CN",
		"updated": "12/29/2009"
	},
	{
		"name": "ZUXON",
		"latitude": "27-51-19.89 N",
		"longitude": "82-9-48.5 W",
		"state": "FLORIDA",
		"artcc": "ZMA",
		"type": "RNAV",
		"updated": "10/17/2007"
	},
	{
		"name": "ZWICK",
		"latitude": "23-39-39.16 N",
		"longitude": "77-12-33.52 W",
		"state": "OFFSHORE ATLANTIC",
		"artcc": "ZMA",
		"type": "RNAV",
		"updated": "04/09/2008"
	}
]
