	{
		"name": "AADEN",
		"latitude": "31-32-28.08 N",
		"longitude": "82-55-42.71 W",
		"state": "GEORGIA",
		"artcc": "ZJX",
		"type": "RNAV",
		"updated": "11/21/2017",
	},
	{
		"name": "AALEX",
		"latitude": "33-3-12.77 N",
		"longitude": "80-20-26.77 W",
		"state": "SOUTH CAROLINA",
		"artcc": "ZJX",
		"type": "RNAV",
		"updated": "06/02/2011",
	},
	{
		"name": "ACAPU",
		"latitude": "30-44-9.19 N",
		"longitude": "81-39-53.88 W",
		"state": "FLORIDA",
		"artcc": "ZJX",
		"type": "RNAV",
		"updated": "08/14/2013",
	},
	{
		"name": "ACEJU",
		"latitude": "29-35-41.56 N",
		"longitude": "82-54-53.93 W",
		"state": "FLORIDA",
		"artcc": "ZJX",
		"type": "CN",
		"updated": "09/12/2002",
	},
	{
		"name": "ACENE",
		"latitude": "30-32-3.76 N",
		"longitude": "81-37-16.7 W",
		"state": "FLORIDA",
		"artcc": "ZJX",
		"type": "RNAV",
		"updated": "08/26/2013",
	},
	{
		"name": "ACETI",
		"latitude": "30-6-45.16 N",
		"longitude": "81-52-22.89 W",
		"state": "FLORIDA",
		"artcc": "ZJX",
		"type": "RP",
		"updated": "VQQ*LD*184.56/7.50",
	},
	{
		"name": "ACHAV",
		"latitude": "29-28-57.06 N",
		"longitude": "83-3-37.33 W",
		"state": "FLORIDA",
		"artcc": "ZJX",
		"type": "CN",
		"updated": "09/12/2002",
	},
	{
		"name": "ACMOF",
		"latitude": "28-53-5.81 N",
		"longitude": "81-53-33.46 W",
		"state": "FLORIDA",
		"artcc": "ZJX",
		"type": "RNAV",
		"updated": "11/03/2011",
	},
	{
		"name": "ADAVE",
		"latitude": "33-48-26.21 N",
		"longitude": "81-3-29.13 W",
		"state": "SOUTH CAROLINA",
		"artcc": "ZJX",
		"type": "MR",
		"updated": "CAE*VORTAC*186.00/3.00",
	},
	{
		"name": "ADCOM",
		"latitude": "33-43-57.73 N",
		"longitude": "80-55-14.53 W",
		"state": "SOUTH CAROLINA",
		"artcc": "ZJX",
		"type": "RP",
		"updated": "ALD*VOR*024.30",
	},
	{
		"name": "ADDAX",
		"latitude": "29-58-52.02 N",
		"longitude": "83-59-53.91 W",
		"state": "FLORIDA",
		"artcc": "ZJX",
		"type": "RP",
		"updated": "CTY*VORTAC*297.00/54.59",
	},
	{
		"name": "ADEPT",
		"latitude": "34-42-25 N",
		"longitude": "80-9-21 W",
		"state": "SOUTH CAROLINA",
		"artcc": "ZJX",
		"type": "RNAV",
		"updated": "11/18/2016",
	},
	{
		"name": "ADERR",
		"latitude": "30-16-6.65 N",
		"longitude": "81-25-56.46 W",
		"state": "FLORIDA",
		"artcc": "ZJX",
		"type": "RP",
		"updated": "CRG*VORTAC*/5.83",
	},
	{
		"name": "ADERY",
		"latitude": "32-56-52.79 N",
		"longitude": "80-7-23.79 W",
		"state": "SOUTH CAROLINA",
		"artcc": "ZJX",
		"type": "RNAV",
		"updated": "06/13/2012",
	},
	{
		"name": "ADOMS",
		"latitude": "32-42-56.44 N",
		"longitude": "80-30-36.27 W",
		"state": "SOUTH CAROLINA",
		"artcc": "ZJX",
		"type": "RP",
		"updated": "ALD*VOR*115.00",
	},
	{
		"name": "ADUYA",
		"latitude": "30-35-44.59 N",
		"longitude": "81-38-27.65 W",
		"state": "FLORIDA",
		"artcc": "ZJX",
		"type": "RNAV",
		"updated": "10/16/2013",
	},
	{
		"name": "ADWEL",
		"latitude": "31-15-23 N",
		"longitude": "85-57-50.88 W",
		"state": "ALABAMA",
		"artcc": "ZJX",
		"type": "RNAV",
		"updated": "07/07/2009",
	},
	{
		"name": "AFARR",
		"latitude": "30-25-12.87 N",
		"longitude": "81-36-37.24 W",
		"state": "FLORIDA",
		"artcc": "ZJX",
		"type": "RP",
		"updated": "CRG*VORTAC*316.09/7.13",
	},
	{
		"name": "AFLUC",
		"latitude": "31-23-2.69 N",
		"longitude": "85-31-43.75 W",
		"state": "ALABAMA",
		"artcc": "ZJX",
		"type": "RNAV",
		"updated": "04/11/2013",
	},
	{
		"name": "AFUFI",
		"latitude": "31-46-18.07 N",
		"longitude": "83-15-4.24 W",
		"state": "GEORGIA",
		"artcc": "ZJX",
		"type": "RNAV",
		"updated": "07/19/2011",
	},
	{
		"name": "AFXEW",
		"latitude": "30-32-7.07 N",
		"longitude": "81-48-37.46 W",
		"state": "FLORIDA",
		"artcc": "ZJX",
		"type": "RNAV",
		"updated": "11/28/2012",
	},
	{
		"name": "AGASE",
		"latitude": "28-3-41.02 N",
		"longitude": "82-49-56.26 W",
		"state": "FLORIDA",
		"artcc": "ZJX",
		"type": "RNAV",
		"updated": "03/16/2007",
	},
	{
		"name": "AGLUY",
		"latitude": "31-20-4.52 N",
		"longitude": "82-23-58.58 W",
		"state": "GEORGIA",
		"artcc": "ZJX",
		"type": "RP",
		"updated": "AYS*VORTAC*064.14",
	},
	{
		"name": "AGMEQ",
		"latitude": "31-9-16 N",
		"longitude": "82-23-48.58 W",
		"state": "GEORGIA",
		"artcc": "ZJX",
		"type": "RNAV",
		"updated": "10/23/2012",
	},
	{
		"name": "AGOMY",
		"latitude": "31-49-52.44 N",
		"longitude": "81-38-48.08 W",
		"state": "GEORGIA",
		"artcc": "ZJX",
		"type": "RNAV",
		"updated": "05/08/2009",
	},
	{
		"name": "AGOZE",
		"latitude": "34-3-54.75 N",
		"longitude": "80-16-59.3 W",
		"state": "SOUTH CAROLINA",
		"artcc": "ZJX",
		"type": "RP",
		"updated": "SMS*LD*050.17/6.33",
	},
	{
		"name": "AGUME",
		"latitude": "31-59-57.7 N",
		"longitude": "83-52-54.3 W",
		"state": "GEORGIA",
		"artcc": "ZJX",
		"type": "RNAV",
		"updated": "03/23/2017",
	},
	{
		"name": "AGUVE",
		"latitude": "33-58-4 N",
		"longitude": "81-14-47 W",
		"state": "SOUTH CAROLINA",
		"artcc": "ZJX",
		"type": "RNAV",
		"updated": "07/14/2009",
	},
	{
		"name": "AHEFY",
		"latitude": "32-45-19.92 N",
		"longitude": "80-29-26.48 W",
		"state": "SOUTH CAROLINA",
		"artcc": "ZJX",
		"type": "RNAV",
		"updated": "01/01/2010",
	},
	{
		"name": "AHIDO",
		"latitude": "32-11-55.38 N",
		"longitude": "81-38-59.6 W",
		"state": "GEORGIA",
		"artcc": "ZJX",
		"type": "RNAV",
		"updated": "09/10/2009",
	},
	{
		"name": "AHJUN",
		"latitude": "30-54-11.3 N",
		"longitude": "81-24-30.25 W",
		"state": "GEORGIA",
		"artcc": "ZJX",
		"type": "RNAV",
		"updated": "08/25/2009",
	},
	{
		"name": "AHMIV",
		"latitude": "30-30-57.72 N",
		"longitude": "81-48-56.11 W",
		"state": "FLORIDA",
		"artcc": "ZJX",
		"type": "RNAV",
		"updated": "11/28/2012",
	},
	{
		"name": "AILEY",
		"latitude": "32-17-49.85 N",
		"longitude": "82-40-5.53 W",
		"state": "GEORGIA",
		"artcc": "ZJX",
		"type": "RP",
		"updated": "DBN*VORTAC*157.69/17.94",
	},
	{
		"name": "AIMER",
		"latitude": "28-9-50.34 N",
		"longitude": "82-13-35.05 W",
		"state": "FLORIDA",
		"artcc": "ZJX",
		"type": "RNAV",
		"updated": "08/13/2014",
	},
	{
		"name": "AJLIP",
		"latitude": "30-15-21.88 N",
		"longitude": "86-20-33.34 W",
		"state": "FLORIDA",
		"artcc": "ZJX",
		"type": "RNAV",
		"updated": "06/09/2011",
	},
	{
		"name": "AKEME",
		"latitude": "30-55-10.92 N",
		"longitude": "84-52-55.07 W",
		"state": "GEORGIA",
		"artcc": "ZJX",
		"type": "RNAV",
		"updated": "10/24/2011",
	},
	{
		"name": "AKETE",
		"latitude": "32-58-45.23 N",
		"longitude": "79-59-41.19 W",
		"state": "SOUTH CAROLINA",
		"artcc": "ZJX",
		"type": "RNAV",
		"updated": "06/02/2011",
	},
	{
		"name": "AKOJO",
		"latitude": "28-45-44.01 N",
		"longitude": "81-43-31.54 W",
		"state": "FLORIDA",
		"artcc": "ZJX",
		"type": "RNAV",
		"updated": "11/03/2011",
	},
	{
		"name": "AKTUF",
		"latitude": "33-54-53.75 N",
		"longitude": "79-3-28.11 W",
		"state": "SOUTH CAROLINA",
		"artcc": "ZJX",
		"type": "RNAV",
		"updated": "09/21/2011",
	},
	{
		"name": "ALADN",
		"latitude": "29-4-5.46 N",
		"longitude": "82-4-17.49 W",
		"state": "FLORIDA",
		"artcc": "ZJX",
		"type": "RP",
		"updated": "OCF*VORTAC*128.76/10.44",
	},
	{
		"name": "ALANE",
		"latitude": "31-15-12.45 N",
		"longitude": "86-10-45.16 W",
		"state": "ALABAMA",
		"artcc": "ZJX",
		"type": "RNAV",
		"updated": "06/02/2011",
	},
	{
		"name": "ALANS",
		"latitude": "30-46-18.81 N",
		"longitude": "87-5-50.36 W",
		"state": "FLORIDA",
		"artcc": "ZJX",
		"type": "MR",
		"updated": "NSE*TACAN*307.00/5.00",
	},
	{
		"name": "ALBEN",
		"latitude": "28-34-47.38 N",
		"longitude": "82-7-7.2 W",
		"state": "FLORIDA",
		"artcc": "ZJX",
		"type": "RP",
		"updated": "CRG*VORTAC*200.00/110.00",
	},
	{
		"name": "ALCOT",
		"latitude": "34-10-26.92 N",
		"longitude": "79-51-9.17 W",
		"state": "SOUTH CAROLINA",
		"artcc": "ZJX",
		"type": "RP",
		"updated": "FLO*LS*W CRS",
	},
	{
		"name": "ALEWU",
		"latitude": "30-55-6.23 N",
		"longitude": "85-36-4.75 W",
		"state": "FLORIDA",
		"artcc": "ZJX",
		"type": "CN",
		"updated": "01/26/2001",
	},
	{
		"name": "ALFEM",
		"latitude": "30-34-57.17 N",
		"longitude": "84-29-23.02 W",
		"state": "FLORIDA",
		"artcc": "ZJX",
		"type": "RP",
		"updated": "SZW*VORTAC*282.75/6.20",
	},
	{
		"name": "ALICO",
		"latitude": "30-30-55.66 N",
		"longitude": "87-11-57.64 W",
		"state": "FLORIDA",
		"artcc": "ZJX",
		"type": "RP",
		"updated": "NUN*VOR*068.85",
	},
	{
		"name": "ALICS",
		"latitude": "28-59-11.22 N",
		"longitude": "82-27-55.41 W",
		"state": "FLORIDA",
		"artcc": "ZJX",
		"type": "RP",
		"updated": "OCF*VORTAC*227.77/16.99",
	},
	{
		"name": "ALIVY",
		"latitude": "30-36-21.94 N",
		"longitude": "84-22-44.44 W",
		"state": "FLORIDA",
		"artcc": "ZJX",
		"type": "CN",
		"updated": "01/26/2001",
	},
	{
		"name": "ALJEL",
		"latitude": "29-1-32.42 N",
		"longitude": "81-12-54.26 W",
		"state": "FLORIDA",
		"artcc": "ZJX",
		"type": "CN",
		"updated": "01/26/2001",
	},
	{
		"name": "ALTUR",
		"latitude": "31-29-9 N",
		"longitude": "77-7-17 W",
		"state": "OFFSHORE ATLANTIC",
		"artcc": "ZJX",
		"type": "WP",
		"updated": "03/26/2002",
	},
	{
		"name": "ALURE",
		"latitude": "30-13-38.47 N",
		"longitude": "86-28-46.57 W",
		"state": "FLORIDA",
		"artcc": "ZJX",
		"type": "MW",
		"updated": "12/06/2010",
	},
	{
		"name": "ALVAH",
		"latitude": "34-12-46.09 N",
		"longitude": "80-17-43.7 W",
		"state": "SOUTH CAROLINA",
		"artcc": "ZJX",
		"type": "RNAV",
		"updated": "12/14/2017",
	},
	{
		"name": "ALVAS",
		"latitude": "30-24-7.32 N",
		"longitude": "81-35-58.9 W",
		"state": "FLORIDA",
		"artcc": "ZJX",
		"type": "RP",
		"updated": "CRG*VORTAC*312.08/6.00",
	},
	{
		"name": "ALVIN",
		"latitude": "30-9-0.43 N",
		"longitude": "83-4-15.1 W",
		"state": "FLORIDA",
		"artcc": "ZJX",
		"type": "RP",
		"updated": "CTY*VORTAC*360.00",
	},
	{
		"name": "AMBAC",
		"latitude": "28-56-36.37 N",
		"longitude": "82-19-3.79 W",
		"state": "FLORIDA",
		"artcc": "ZJX",
		"type": "RNAV",
		"updated": "10/29/2008",
	},
	{
		"name": "AMBEY",
		"latitude": "33-54-15.11 N",
		"longitude": "78-34-50.14 W",
		"state": "SOUTH CAROLINA",
		"artcc": "ZJX",
		"type": "RP",
		"updated": "CRE*VORTAC*056.00/9.00",
	},
	{
		"name": "AMESY",
		"latitude": "29-20-17.11 N",
		"longitude": "81-7-33.93 W",
		"state": "FLORIDA",
		"artcc": "ZJX",
		"type": "RP",
		"updated": "OMN*VORTAC*341.38/2.20",
	},
	{
		"name": "AMGEJ",
		"latitude": "30-24-27.87 N",
		"longitude": "81-35-33.69 W",
		"state": "FLORIDA",
		"artcc": "ZJX",
		"type": "RNAV",
		"updated": "01/25/2013",
	},
	{
		"name": "AMICO",
		"latitude": "32-0-45.28 N",
		"longitude": "81-13-32.13 W",
		"state": "GEORGIA",
		"artcc": "ZJX",
		"type": "MW",
		"updated": "04/16/2009",
	},
	{
		"name": "AMIDS",
		"latitude": "28-56-7.07 N",
		"longitude": "80-55-9.42 W",
		"state": "FLORIDA",
		"artcc": "ZJX",
		"type": "RNAV",
		"updated": "02/27/2015",
	},
	{
		"name": "AMLAW",
		"latitude": "29-45-55.65 N",
		"longitude": "82-16-7.96 W",
		"state": "FLORIDA",
		"artcc": "ZJX",
		"type": "RNAV",
		"updated": "12/11/2008",
	},
	{
		"name": "AMLIA",
		"latitude": "30-33-34 N",
		"longitude": "81-47-30.52 W",
		"state": "FLORIDA",
		"artcc": "ZJX",
		"type": "RNAV",
		"updated": "11/28/2012",
	},
	{
		"name": "AMUVY",
		"latitude": "30-15-2.08 N",
		"longitude": "85-36-53.62 W",
		"state": "FLORIDA",
		"artcc": "ZJX",
		"type": "CN",
		"updated": "01/26/2001",
	},
	{
		"name": "AMXUQ",
		"latitude": "30-25-39.34 N",
		"longitude": "81-47-10.08 W",
		"state": "FLORIDA",
		"artcc": "ZJX",
		"type": "RNAV",
		"updated": "11/28/2012",
	},
	{
		"name": "AMYLU",
		"latitude": "33-47-15.5 N",
		"longitude": "79-14-16.16 W",
		"state": "SOUTH CAROLINA",
		"artcc": "ZJX",
		"type": "RNAV",
		"updated": "06/30/2011",
	},
	{
		"name": "ANDAL",
		"latitude": "31-15-46.54 N",
		"longitude": "86-28-36.02 W",
		"state": "ALABAMA",
		"artcc": "ZJX",
		"type": "MR",
		"updated": "OZR*VOR/DME*267.65",
	},
	{
		"name": "ANDYS",
		"latitude": "34-22-14.7 N",
		"longitude": "81-8-37.81 W",
		"state": "SOUTH CAROLINA",
		"artcc": "ZJX",
		"type": "RP",
		"updated": "CLT*VOR/DME*196.00/50.01",
	},
	{
		"name": "ANGIE",
		"latitude": "32-57-28.22 N",
		"longitude": "80-0-47.98 W",
		"state": "SOUTH CAROLINA",
		"artcc": "ZJX",
		"type": "RP",
		"updated": "CHS*VORTAC*023.00/4.00",
	},
	{
		"name": "ANGRE",
		"latitude": "32-56-13.34 N",
		"longitude": "79-55-50 W",
		"state": "SOUTH CAROLINA",
		"artcc": "ZJX",
		"type": "RNAV",
		"updated": "07/01/2011",
	},
	{
		"name": "ANKOR",
		"latitude": "31-51-34 N",
		"longitude": "81-12-13.68 W",
		"state": "GEORGIA",
		"artcc": "ZJX",
		"type": "RP",
		"updated": "SAV*VORTAC*186.80/17.17",
	},
	{
		"name": "ANNDI",
		"latitude": "33-9-22.87 N",
		"longitude": "79-53-54.71 W",
		"state": "SOUTH CAROLINA",
		"artcc": "ZJX",
		"type": "RNAV",
		"updated": "06/02/2011",
	},
	{
		"name": "ANNVA",
		"latitude": "33-3-41.42 N",
		"longitude": "78-36-20.29 W",
		"state": "OFFSHORE ATLANTIC",
		"artcc": "ZJX",
		"type": "RNAV",
		"updated": "10/20/2009",
	},
	{
		"name": "ANTUA",
		"latitude": "30-52-12.28 N",
		"longitude": "86-55-27.12 W",
		"state": "FLORIDA",
		"artcc": "ZJX",
		"type": "MR",
		"updated": "NSE*TACAN*031.00/10.00",
	},
	{
		"name": "ANURE",
		"latitude": "32-58-46.61 N",
		"longitude": "80-5-55.08 W",
		"state": "SOUTH CAROLINA",
		"artcc": "ZJX",
		"type": "RNAV",
		"updated": "06/02/2011",
	},
	{
		"name": "APAYI",
		"latitude": "32-18-48.71 N",
		"longitude": "81-46-56.17 W",
		"state": "GEORGIA",
		"artcc": "ZJX",
		"type": "RNAV",
		"updated": "09/10/2009",
	},
	{
		"name": "APEAK",
		"latitude": "28-53-52.35 N",
		"longitude": "80-54-52.47 W",
		"state": "FLORIDA",
		"artcc": "ZJX",
		"type": "RNAV",
		"updated": "02/27/2015",
	},
	{
		"name": "APMEH",
		"latitude": "31-56-14.79 N",
		"longitude": "82-41-15.76 W",
		"state": "GEORGIA",
		"artcc": "ZJX",
		"type": "CN",
		"updated": "04/12/2001",
	},
	{
		"name": "APTIF",
		"latitude": "33-9-38.06 N",
		"longitude": "81-20-1.05 W",
		"state": "SOUTH CAROLINA",
		"artcc": "ZJX",
		"type": "RNAV",
		"updated": "08/21/2013",
	},
	{
		"name": "APTUW",
		"latitude": "32-7-26.61 N",
		"longitude": "83-9-30.73 W",
		"state": "GEORGIA",
		"artcc": "ZJX",
		"type": "RP",
		"updated": "VNA*VORTAC*106.15",
	},
	{
		"name": "APULE",
		"latitude": "32-12-57.23 N",
		"longitude": "83-12-9.33 W",
		"state": "GEORGIA",
		"artcc": "ZJX",
		"type": "RP",
		"updated": "VNA*VORTAC*088.36/15.00",
	},
	{
		"name": "AQUQU",
		"latitude": "30-15-24.46 N",
		"longitude": "83-40-42.43 W",
		"state": "FLORIDA",
		"artcc": "ZJX",
		"type": "RNAV",
		"updated": "07/15/2010",
	},
	{
		"name": "ARESS",
		"latitude": "30-8-47 N",
		"longitude": "85-39-44.19 W",
		"state": "FLORIDA",
		"artcc": "ZJX",
		"type": "MR",
		"updated": "PAM*TACAN*/6.38",
	},
	{
		"name": "ARETY",
		"latitude": "31-34-6.89 N",
		"longitude": "81-57-46.99 W",
		"state": "GEORGIA",
		"artcc": "ZJX",
		"type": "CN",
		"updated": "08/08/2001",
	},
	{
		"name": "AREXY",
		"latitude": "31-33-0.3 N",
		"longitude": "81-48-33.71 W",
		"state": "GEORGIA",
		"artcc": "ZJX",
		"type": "CN",
		"updated": "04/13/2001",
	},
	{
		"name": "ARGYL",
		"latitude": "31-0-3.67 N",
		"longitude": "83-37-26.9 W",
		"state": "GEORGIA",
		"artcc": "ZJX",
		"type": "RNAV",
		"updated": "12/28/2007",
	},
	{
		"name": "ARIAL",
		"latitude": "31-6-24.7 N",
		"longitude": "82-43-26.25 W",
		"state": "GEORGIA",
		"artcc": "ZJX",
		"type": "RP",
		"updated": "AYS*VORTAC*221.58/13.00",
	},
	{
		"name": "ARIGE",
		"latitude": "30-52-37.86 N",
		"longitude": "83-12-18.9 W",
		"state": "GEORGIA",
		"artcc": "ZJX",
		"type": "MR",
		"updated": "VAD*TACAN*190.00/5.00",
	},
	{
		"name": "ARNEY",
		"latitude": "30-58-46.27 N",
		"longitude": "81-58-3.42 W",
		"state": "GEORGIA",
		"artcc": "ZJX",
		"type": "RNAV",
		"updated": "08/26/2013",
	},
	{
		"name": "ARSUF",
		"latitude": "29-15-52.78 N",
		"longitude": "81-20-7.74 W",
		"state": "FLORIDA",
		"artcc": "ZJX",
		"type": "RNAV",
		"updated": "09/05/2013",
	},
	{
		"name": "ARTTS",
		"latitude": "31-18-13.52 N",
		"longitude": "85-38-49.47 W",
		"state": "ALABAMA",
		"artcc": "ZJX",
		"type": "MR",
		"updated": "OZR*VOR/DME*065.89/4.58",
	},
	{
		"name": "ARUYY",
		"latitude": "31-8-55.58 N",
		"longitude": "87-16-11.96 W",
		"state": "ALABAMA",
		"artcc": "ZJX",
		"type": "RNAV",
		"updated": "02/01/2010",
	},
	{
		"name": "ASBEY",
		"latitude": "32-5-14.04 N",
		"longitude": "82-13-21.73 W",
		"state": "GEORGIA",
		"artcc": "ZJX",
		"type": "CN",
		"updated": "04/13/2001",
	},
	{
		"name": "ASHES",
		"latitude": "34-4-48.11 N",
		"longitude": "78-32-8.74 W",
		"state": "NORTH CAROLINA",
		"artcc": "ZJX",
		"type": "RP",
		"updated": "FLO*VORTAC*102.00",
	},
	{
		"name": "ASHLY",
		"latitude": "32-58-37.04 N",
		"longitude": "80-5-47.82 W",
		"state": "SOUTH CAROLINA",
		"artcc": "ZJX",
		"type": "RP",
		"updated": "CHS*VORTAC*334.05/5.77",
	},
	{
		"name": "ASKEH",
		"latitude": "28-28-30.27 N",
		"longitude": "82-41-8.99 W",
		"state": "FLORIDA",
		"artcc": "ZJX",
		"type": "RNAV",
		"updated": "05/18/2009",
	},
	{
		"name": "ASMUC",
		"latitude": "30-43-58.91 N",
		"longitude": "83-15-20.21 W",
		"state": "GEORGIA",
		"artcc": "ZJX",
		"type": "RP",
		"updated": "OTK*VOR/DME*158.28/3.10",
	},
	{
		"name": "ASPNN",
		"latitude": "30-26-7.16 N",
		"longitude": "87-18-35.31 W",
		"state": "FLORIDA",
		"artcc": "ZJX",
		"type": "MW",
		"updated": "04/30/2008",
	},
	{
		"name": "ASTOR",
		"latitude": "29-47-55.3 N",
		"longitude": "81-18-6.11 W",
		"state": "FLORIDA",
		"artcc": "ZJX",
		"type": "RP",
		"updated": "OMN*VORTAC*341.60/31.26",
	},
	{
		"name": "ASVOY",
		"latitude": "29-51-43.05 N",
		"longitude": "85-10-52.98 W",
		"state": "FLORIDA",
		"artcc": "ZJX",
		"type": "RNAV",
		"updated": "04/12/2012",
	},
	{
		"name": "ATBUY",
		"latitude": "32-23-45.55 N",
		"longitude": "80-48-32.93 W",
		"state": "SOUTH CAROLINA",
		"artcc": "ZJX",
		"type": "RNAV",
		"updated": "08/24/2015",
	},
	{
		"name": "ATEYO",
		"latitude": "32-2-27.59 N",
		"longitude": "80-58-3.65 W",
		"state": "GEORGIA",
		"artcc": "ZJX",
		"type": "RNAV",
		"updated": "08/26/2010",
	},
	{
		"name": "ATUYU",
		"latitude": "30-11-38.14 N",
		"longitude": "87-28-49.9 W",
		"state": "FLORIDA",
		"artcc": "ZJX",
		"type": "MR",
		"updated": "NPA*TACAN*220.00/13.00",
	},
	{
		"name": "ATYIP",
		"latitude": "30-12-41.91 N",
		"longitude": "84-28-41.07 W",
		"state": "FLORIDA",
		"artcc": "ZJX",
		"type": "RNAV",
		"updated": "04/14/2016",
	},
	{
		"name": "AUSSE",
		"latitude": "30-18-51.85 N",
		"longitude": "86-12-5.62 W",
		"state": "FLORIDA",
		"artcc": "ZJX",
		"type": "MW",
		"updated": "04/02/2007",
	},
	{
		"name": "AUXAL",
		"latitude": "29-39-9.1 N",
		"longitude": "82-27-51.31 W",
		"state": "FLORIDA",
		"artcc": "ZJX",
		"type": "RNAV",
		"updated": "12/05/2007",
	},
	{
		"name": "AVEGE",
		"latitude": "32-37-8.06 N",
		"longitude": "80-3-34.4 W",
		"state": "SOUTH CAROLINA",
		"artcc": "ZJX",
		"type": "RNAV",
		"updated": "06/19/2009",
	},
	{
		"name": "AVIGY",
		"latitude": "34-0-52.5 N",
		"longitude": "81-46-43.06 W",
		"state": "SOUTH CAROLINA",
		"artcc": "ZJX",
		"type": "RNAV",
		"updated": "01/07/2010",
	},
	{
		"name": "AVTAR",
		"latitude": "28-20-47.57 N",
		"longitude": "83-7-38.63 W",
		"state": "FLORIDA",
		"artcc": "ZJX",
		"type": "RNAV",
		"updated": "09/12/2011",
	},
	{
		"name": "AWAGE",
		"latitude": "30-21-0.8 N",
		"longitude": "87-42-3.69 W",
		"state": "ALABAMA",
		"artcc": "ZJX",
		"type": "RNAV",
		"updated": "05/16/2016",
	},
	{
		"name": "AWNED",
		"latitude": "31-3-24.71 N",
		"longitude": "82-14-24.43 W",
		"state": "GEORGIA",
		"artcc": "ZJX",
		"type": "RNAV",
		"updated": "12/28/2015",
	},
	{
		"name": "AWPUN",
		"latitude": "33-36-30.7 N",
		"longitude": "79-16-47.84 W",
		"state": "SOUTH CAROLINA",
		"artcc": "ZJX",
		"type": "RNAV",
		"updated": "09/15/2005",
	},
	{
		"name": "AXEWO",
		"latitude": "33-43-29.39 N",
		"longitude": "81-13-27.44 W",
		"state": "SOUTH CAROLINA",
		"artcc": "ZJX",
		"type": "RNAV",
		"updated": "08/02/2005",
	},
	{
		"name": "AXEZI",
		"latitude": "31-20-26.23 N",
		"longitude": "84-58-21.06 W",
		"state": "GEORGIA",
		"artcc": "ZJX",
		"type": "RNAV",
		"updated": "02/11/2011",
	},
	{
		"name": "AXNUP",
		"latitude": "32-47-56.02 N",
		"longitude": "81-19-12.06 W",
		"state": "SOUTH CAROLINA",
		"artcc": "ZJX",
		"type": "RNAV",
		"updated": "08/21/2013",
	},
	{
		"name": "AXOPE",
		"latitude": "28-36-8 N",
		"longitude": "81-10-58.81 W",
		"state": "FLORIDA",
		"artcc": "ZJX",
		"type": "CN",
		"updated": "06/10/2002",
	},
	{
		"name": "AXXEG",
		"latitude": "30-24-1.99 N",
		"longitude": "81-37-20.74 W",
		"state": "FLORIDA",
		"artcc": "ZJX",
		"type": "RNAV",
		"updated": "09/10/2013",
	},
	{
		"name": "AYMAY",
		"latitude": "33-46-57.78 N",
		"longitude": "80-37-55.83 W",
		"state": "SOUTH CAROLINA",
		"artcc": "ZJX",
		"type": "MR",
		"updated": "MMT*VORTAC*/12.00",
	},
	{
		"name": "AYOSI",
		"latitude": "31-55-37.05 N",
		"longitude": "83-51-43.62 W",
		"state": "GEORGIA",
		"artcc": "ZJX",
		"type": "RNAV",
		"updated": "03/23/2017",
	},
	{
		"name": "AYUVO",
		"latitude": "31-45-50.73 N",
		"longitude": "84-35-58.47 W",
		"state": "GEORGIA",
		"artcc": "ZJX",
		"type": "RP",
		"updated": "PZD*VOR/DME*294.65/17.01",
	},
	{
		"name": "AZAHE",
		"latitude": "30-37-36.94 N",
		"longitude": "83-24-40 W",
		"state": "FLORIDA",
		"artcc": "ZJX",
		"type": "RNAV",
		"updated": "09/21/2010",
	},
	{
		"name": "AZBOG",
		"latitude": "28-28-35.17 N",
		"longitude": "82-14-1.64 W",
		"state": "FLORIDA",
		"artcc": "ZJX",
		"type": "RNAV",
		"updated": "05/19/2009",
	},
	{
		"name": "AZEBE",
		"latitude": "31-0-37.36 N",
		"longitude": "87-9-55.84 W",
		"state": "ALABAMA",
		"artcc": "ZJX",
		"type": "RNAV",
		"updated": "02/01/2010",
	},
	{
		"name": "AZELO",
		"latitude": "30-18-3.17 N",
		"longitude": "81-32-21.55 W",
		"state": "FLORIDA",
		"artcc": "ZJX",
		"type": "MR",
		"updated": "NRB*TACAN*235.00/8.00",
	},
	{
		"name": "AZGOP",
		"latitude": "29-44-2.79 N",
		"longitude": "82-11-30.11 W",
		"state": "FLORIDA",
		"artcc": "ZJX",
		"type": "RNAV",
		"updated": "06/18/2007",
	},
	{
		"name": "AZNEL",
		"latitude": "30-17-13.82 N",
		"longitude": "82-46-4.96 W",
		"state": "FLORIDA",
		"artcc": "ZJX",
		"type": "RNAV",
		"updated": "02/29/2000",
	},
	{
		"name": "AZYUJ",
		"latitude": "30-28-1.84 N",
		"longitude": "81-33-44.2 W",
		"state": "FLORIDA",
		"artcc": "ZJX",
		"type": "RNAV",
		"updated": "09/10/2013",
	},
