	{
		"name": "BAARD",
		"latitude": "31-49-20.44 N",
		"longitude": "81-29-39.28 W",
		"state": "GEORGIA",
		"artcc": "ZJX",
		"type": "RNAV",
		"updated": "06/27/2017",
	},
	{
		"name": "BACCA",
		"latitude": "27-35-30.53 N",
		"longitude": "85-20-39.6 W",
		"state": "OFFSHORE GULF",
		"artcc": "ZJX",
		"type": "RNAV",
		"updated": "07/11/2001",
	},
	{
		"name": "BAGGY",
		"latitude": "32-36-53.66 N",
		"longitude": "80-27-2.67 W",
		"state": "SOUTH CAROLINA",
		"artcc": "ZJX",
		"type": "RP",
		"updated": "SAV*VORTAC*059.37/47.26",
	},
	{
		"name": "BAHAA",
		"latitude": "30-25-22.8 N",
		"longitude": "78-59-40.77 W",
		"state": "OFFSHORE ATLANTIC",
		"artcc": "ZJX",
		"type": "RNAV",
		"updated": "05/02/2008",
	},
	{
		"name": "BAIZE",
		"latitude": "31-46-33.42 N",
		"longitude": "85-12-34.96 W",
		"state": "ALABAMA",
		"artcc": "ZJX",
		"type": "RP",
		"updated": "EUF*VORTAC*199.21/11.19",
	},
	{
		"name": "BAKKE",
		"latitude": "29-50-27.56 N",
		"longitude": "86-45-18.93 W",
		"state": "FLORIDA",
		"artcc": "ZJX",
		"type": "MR",
		"updated": "HRT*TACAN*186.00/35.00",
	},
	{
		"name": "BAKOS",
		"latitude": "30-49-8.15 N",
		"longitude": "86-48-51.97 W",
		"state": "FLORIDA",
		"artcc": "ZJX",
		"type": "RP",
		"updated": "MVC*VORTAC*140.00",
	},
	{
		"name": "BALKE",
		"latitude": "27-57-35.9 N",
		"longitude": "82-30-45.5 W",
		"state": "FLORIDA",
		"artcc": "ZJX",
		"type": "RNAV",
		"updated": "07/14/2008",
	},
	{
		"name": "BAMDE",
		"latitude": "33-4-57.54 N",
		"longitude": "79-56-20.25 W",
		"state": "SOUTH CAROLINA",
		"artcc": "ZJX",
		"type": "RNAV",
		"updated": "06/02/2011",
	},
	{
		"name": "BANNR",
		"latitude": "29-12-20.32 N",
		"longitude": "80-59-45.74 W",
		"state": "FLORIDA",
		"artcc": "ZJX",
		"type": "RP",
		"updated": "OMN*VORTAC*133.63",
	},
	{
		"name": "BAPNE",
		"latitude": "33-59-36.16 N",
		"longitude": "81-21-52.72 W",
		"state": "SOUTH CAROLINA",
		"artcc": "ZJX",
		"type": "RNAV",
		"updated": "07/14/2009",
	},
	{
		"name": "BAQAV",
		"latitude": "31-3-18.82 N",
		"longitude": "82-23-43.2 W",
		"state": "GEORGIA",
		"artcc": "ZJX",
		"type": "RNAV",
		"updated": "02/03/2005",
	},
	{
		"name": "BARBS",
		"latitude": "29-18-26.84 N",
		"longitude": "81-24-31.52 W",
		"state": "FLORIDA",
		"artcc": "ZJX",
		"type": "RP",
		"updated": "OMN*VORTAC*271.00",
	},
	{
		"name": "BARTL",
		"latitude": "34-18-11.44 N",
		"longitude": "78-39-5.38 W",
		"state": "NORTH CAROLINA",
		"artcc": "ZJX",
		"type": "RP",
		"updated": "ILM*VORTAC*272.92/38.73",
	},
	{
		"name": "BARWU",
		"latitude": "31-43-44.21 N",
		"longitude": "81-47-30.68 W",
		"state": "GEORGIA",
		"artcc": "ZJX",
		"type": "RP",
		"updated": "AMG*VORTAC*072.38/38.45",
	},
	{
		"name": "BASDE",
		"latitude": "30-32-31.45 N",
		"longitude": "86-41-52.83 W",
		"state": "FLORIDA",
		"artcc": "ZJX",
		"type": "MW",
		"updated": "11/02/2009",
	},
	{
		"name": "BASLE",
		"latitude": "32-9-43.36 N",
		"longitude": "80-45-48.53 W",
		"state": "SOUTH CAROLINA",
		"artcc": "ZJX",
		"type": "RNAV",
		"updated": "08/26/2013",
	},
	{
		"name": "BASME",
		"latitude": "31-14-55.66 N",
		"longitude": "85-21-58.64 W",
		"state": "ALABAMA",
		"artcc": "ZJX",
		"type": "RNAV",
		"updated": "06/19/2012",
	},
	{
		"name": "BASSO",
		"latitude": "32-32-55.92 N",
		"longitude": "80-18-45.68 W",
		"state": "SOUTH CAROLINA",
		"artcc": "ZJX",
		"type": "RP",
		"updated": "CHS*VORTAC*219.00/24.93",
	},
	{
		"name": "BASSS",
		"latitude": "29-40-50.2 N",
		"longitude": "81-32-44.28 W",
		"state": "FLORIDA",
		"artcc": "ZJX",
		"type": "RP",
		"updated": "OMN*VORTAC*315.00/32.00",
	},
	{
		"name": "BATEH",
		"latitude": "30-11-44.59 N",
		"longitude": "82-56-53.76 W",
		"state": "FLORIDA",
		"artcc": "ZJX",
		"type": "RNAV",
		"updated": "02/07/2008",
	},
	{
		"name": "BAURR",
		"latitude": "32-20-54.49 N",
		"longitude": "80-34-22.29 W",
		"state": "SOUTH CAROLINA",
		"artcc": "ZJX",
		"type": "RNAV",
		"updated": "08/24/2015",
	},
	{
		"name": "BAVCA",
		"latitude": "32-1-11.74 N",
		"longitude": "84-4-3.56 W",
		"state": "GEORGIA",
		"artcc": "ZJX",
		"type": "RP",
		"updated": "PZD*VOR/DME*029.76/24.69",
	},
	{
		"name": "BAWAG",
		"latitude": "30-18-2.49 N",
		"longitude": "82-39-53.17 W",
		"state": "FLORIDA",
		"artcc": "ZJX",
		"type": "RNAV",
		"updated": "02/12/2008",
	},
	{
		"name": "BAWDI",
		"latitude": "30-43-44 N",
		"longitude": "86-49-30 W",
		"state": "FLORIDA",
		"artcc": "ZJX",
		"type": "RNAV",
		"updated": "11/21/2013",
	},
	{
		"name": "BAXLY",
		"latitude": "31-44-50.32 N",
		"longitude": "82-20-14.72 W",
		"state": "GEORGIA",
		"artcc": "ZJX",
		"type": "RP",
		"updated": "AMG*VORTAC*034.67",
	},
	{
		"name": "BAYAV",
		"latitude": "33-46-31.8 N",
		"longitude": "78-45-47.27 W",
		"state": "SOUTH CAROLINA",
		"artcc": "ZJX",
		"type": "RP",
		"updated": "CRE*VORTAC*223.05/3.00",
	},
	{
		"name": "BAYPO",
		"latitude": "28-21-46.37 N",
		"longitude": "82-34-50.71 W",
		"state": "FLORIDA",
		"artcc": "ZJX",
		"type": "RP",
		"updated": "PIE*VORTAC*016.38/27.78",
	},
	{
		"name": "BDUBB",
		"latitude": "28-6-7.07 N",
		"longitude": "82-41-46.5 W",
		"state": "FLORIDA",
		"artcc": "ZJX",
		"type": "RNAV",
		"updated": "10/29/2007",
	},
	{
		"name": "BEANS",
		"latitude": "33-11-5.64 N",
		"longitude": "81-48-9.91 W",
		"state": "GEORGIA",
		"artcc": "ZJX",
		"type": "RP",
		"updated": "ALD*VOR*293.00",
	},
	{
		"name": "BEARD",
		"latitude": "29-57-24.05 N",
		"longitude": "87-35-35.33 W",
		"state": "FLORIDA",
		"artcc": "ZJX",
		"type": "MR",
		"updated": "NPA*TACAN*210.00/28.00",
	},
	{
		"name": "BEARS",
		"latitude": "33-39-43.31 N",
		"longitude": "81-47-11.28 W",
		"state": "SOUTH CAROLINA",
		"artcc": "ZJX",
		"type": "RP",
		"updated": "IRQ*VORTAC*102.11/19.00",
	},
	{
		"name": "BEBDE",
		"latitude": "30-32-41.91 N",
		"longitude": "86-41-25.04 W",
		"state": "FLORIDA",
		"artcc": "ZJX",
		"type": "MR",
		"updated": "HRT*TACAN*003.00/7.00",
	},
	{
		"name": "BEEDE",
		"latitude": "30-56-54.52 N",
		"longitude": "83-11-42.37 W",
		"state": "GEORGIA",
		"artcc": "ZJX",
		"type": "MR",
		"updated": "VAD*TACAN*190.00/0.70",
	},
	{
		"name": "BEEFE",
		"latitude": "33-35-23.29 N",
		"longitude": "81-47-13.25 W",
		"state": "SOUTH CAROLINA",
		"artcc": "ZJX",
		"type": "RNAV",
		"updated": "07/01/2011",
	},
	{
		"name": "BEENO",
		"latitude": "30-38-21.69 N",
		"longitude": "81-9-9.4 W",
		"state": "FLORIDA",
		"artcc": "ZJX",
		"type": "RP",
		"updated": "OMN*VORTAC*358.52/80.00",
	},
	{
		"name": "BEFTY",
		"latitude": "34-8-24.75 N",
		"longitude": "81-1-56.98 W",
		"state": "SOUTH CAROLINA",
		"artcc": "ZJX",
		"type": "RP",
		"updated": "CAE*VORTAC*005.60/16.98",
	},
	{
		"name": "BEHRN",
		"latitude": "33-57-9.33 N",
		"longitude": "81-10-35.47 W",
		"state": "SOUTH CAROLINA",
		"artcc": "ZJX",
		"type": "RNAV",
		"updated": "07/09/2009",
	},
	{
		"name": "BEKAC",
		"latitude": "33-24-57.71 N",
		"longitude": "81-40-55.16 W",
		"state": "SOUTH CAROLINA",
		"artcc": "ZJX",
		"type": "RNAV",
		"updated": "06/12/2012",
	},
	{
		"name": "BELLE",
		"latitude": "31-13-36.11 N",
		"longitude": "83-10-18.32 W",
		"state": "GEORGIA",
		"artcc": "ZJX",
		"type": "MR",
		"updated": "VAD*TACAN*007.00/16.00",
	},
	{
		"name": "BELSE",
		"latitude": "31-9-36.16 N",
		"longitude": "83-10-37.89 W",
		"state": "GEORGIA",
		"artcc": "ZJX",
		"type": "MR",
		"updated": "VAD*TACAN*007.00/12.00",
	},
	{
		"name": "BEMNO",
		"latitude": "32-33-16.68 N",
		"longitude": "80-38-22.96 W",
		"state": "SOUTH CAROLINA",
		"artcc": "ZJX",
		"type": "MR",
		"updated": "NBC*TACAN*046.00/6.00",
	},
	{
		"name": "BENBE",
		"latitude": "30-38-55.68 N",
		"longitude": "87-7-18.1 W",
		"state": "FLORIDA",
		"artcc": "ZJX",
		"type": "MR",
		"updated": "NSE*TACAN*232.00/7.00",
	},
	{
		"name": "BENGE",
		"latitude": "30-26-9.66 N",
		"longitude": "81-13-5.63 W",
		"state": "FLORIDA",
		"artcc": "ZJX",
		"type": "MR",
		"updated": "NRB*TACAN*081.00/11.00",
	},
	{
		"name": "BENTZ",
		"latitude": "31-52-13.64 N",
		"longitude": "81-0-26.36 W",
		"state": "GEORGIA",
		"artcc": "ZJX",
		"type": "RNAV",
		"updated": "08/26/2013",
	},
	{
		"name": "BERTT",
		"latitude": "31-10-2.12 N",
		"longitude": "81-41-53.99 W",
		"state": "GEORGIA",
		"artcc": "ZJX",
		"type": "RP",
		"updated": "SSI*VORTAC*302.33/14.76",
	},
	{
		"name": "BETLE",
		"latitude": "30-11-42.39 N",
		"longitude": "81-41-55.81 W",
		"state": "FLORIDA",
		"artcc": "ZJX",
		"type": "RNAV",
		"updated": "08/26/2013",
	},
	{
		"name": "BEVET",
		"latitude": "33-46-14.97 N",
		"longitude": "78-57-3.93 W",
		"state": "SOUTH CAROLINA",
		"artcc": "ZJX",
		"type": "RP",
		"updated": "MYR*LD*357.21/6.59",
	},
	{
		"name": "BEVLY",
		"latitude": "32-50-58.79 N",
		"longitude": "79-59-3.74 W",
		"state": "SOUTH CAROLINA",
		"artcc": "ZJX",
		"type": "RP",
		"updated": "CHS*VORTAC*139.70/3.80",
	},
	{
		"name": "BEVOE",
		"latitude": "33-16-52.39 N",
		"longitude": "79-21-21.69 W",
		"state": "SOUTH CAROLINA",
		"artcc": "ZJX",
		"type": "RNAV",
		"updated": "08/11/2014",
	},
	{
		"name": "BFMCA",
		"latitude": "30-0-0 N",
		"longitude": "88-0-0 W",
		"state": "OFFSHORE GULF",
		"artcc": "ZJX",
		"type": "RNAV",
		"updated": "07/28/2014",
	},
	{
		"name": "BFMCB",
		"latitude": "29-40-0 N",
		"longitude": "88-0-0 W",
		"state": "OFFSHORE GULF",
		"artcc": "ZJX",
		"type": "RNAV",
		"updated": "06/23/2013",
	},
	{
		"name": "BFMCC",
		"latitude": "29-20-0 N",
		"longitude": "88-0-0 W",
		"state": "OFFSHORE GULF",
		"artcc": "ZJX",
		"type": "RNAV",
		"updated": "06/23/2013",
	},
	{
		"name": "BFMCD",
		"latitude": "29-0-0 N",
		"longitude": "88-0-0 W",
		"state": "OFFSHORE GULF",
		"artcc": "ZJX",
		"type": "RNAV",
		"updated": "07/28/2014",
	},
	{
		"name": "BFMCE",
		"latitude": "28-40-0 N",
		"longitude": "88-0-0 W",
		"state": "OFFSHORE GULF",
		"artcc": "ZJX",
		"type": "RNAV",
		"updated": "06/23/2013",
	},
	{
		"name": "BFMCF",
		"latitude": "28-20-0 N",
		"longitude": "88-0-0 W",
		"state": "OFFSHORE GULF",
		"artcc": "ZJX",
		"type": "RNAV",
		"updated": "06/23/2013",
	},
	{
		"name": "BGDAD",
		"latitude": "30-30-25.96 N",
		"longitude": "87-1-52.35 W",
		"state": "FLORIDA",
		"artcc": "ZJX",
		"type": "MR",
		"updated": "NSE*TACAN*182.00/13.00",
	},
	{
		"name": "BICAY",
		"latitude": "31-22-45.56 N",
		"longitude": "86-46-55.78 W",
		"state": "ALABAMA",
		"artcc": "ZJX",
		"type": "RNAV",
		"updated": "02/13/2013",
	},
	{
		"name": "BIDRY",
		"latitude": "31-13-2.52 N",
		"longitude": "83-19-33.52 W",
		"state": "GEORGIA",
		"artcc": "ZJX",
		"type": "WP",
		"updated": "12/28/2015",
	},
	{
		"name": "BIECH",
		"latitude": "30-19-8.92 N",
		"longitude": "86-47-32.13 W",
		"state": "FLORIDA",
		"artcc": "ZJX",
		"type": "RP",
		"updated": "DWG*TACAN*236.00/17.00",
	},
	{
		"name": "BIGGS",
		"latitude": "30-48-53.2 N",
		"longitude": "82-6-20.83 W",
		"state": "GEORGIA",
		"artcc": "ZJX",
		"type": "MR",
		"updated": "CRG*VORTAC*315.86/42.00",
	},
	{
		"name": "BIJUV",
		"latitude": "31-26-2.37 N",
		"longitude": "82-24-3.98 W",
		"state": "GEORGIA",
		"artcc": "ZJX",
		"type": "RP",
		"updated": "AYS*VORTAC*038.97",
	},
	{
		"name": "BIMSE",
		"latitude": "30-44-13.76 N",
		"longitude": "87-0-34.73 W",
		"state": "FLORIDA",
		"artcc": "ZJX",
		"type": "MR",
		"updated": "NSE*TACAN*031.00/0.90",
	},
	{
		"name": "BINYY",
		"latitude": "28-34-12.67 N",
		"longitude": "81-4-57.53 W",
		"state": "FLORIDA",
		"artcc": "ZJX",
		"type": "RNAV",
		"updated": "06/09/2009",
	},
	{
		"name": "BISNY",
		"latitude": "29-3-5.64 N",
		"longitude": "82-0-12.42 W",
		"state": "FLORIDA",
		"artcc": "ZJX",
		"type": "RNAV",
		"updated": "12/05/2007",
	},
	{
		"name": "BITHO",
		"latitude": "28-37-51.39 N",
		"longitude": "81-3-33.87 W",
		"state": "FLORIDA",
		"artcc": "ZJX",
		"type": "RP",
		"updated": "OMN*VORTAC*176.00/40.33",
	},
	{
		"name": "BITZY",
		"latitude": "31-24-11.6 N",
		"longitude": "85-30-35.27 W",
		"state": "ALABAMA",
		"artcc": "ZJX",
		"type": "RP",
		"updated": "OZR*VOR/DME*057.09",
	},
	{
		"name": "BIVSE",
		"latitude": "32-37-48.66 N",
		"longitude": "80-33-43.05 W",
		"state": "SOUTH CAROLINA",
		"artcc": "ZJX",
		"type": "MR",
		"updated": "NBC*TACAN*046.00/12.00",
	},
	{
		"name": "BJETS",
		"latitude": "33-54-56.62 N",
		"longitude": "81-26-22.47 W",
		"state": "SOUTH CAROLINA",
		"artcc": "ZJX",
		"type": "RNAV",
		"updated": "11/10/2016",
	},
	{
		"name": "BJLEW",
		"latitude": "30-47-44.93 N",
		"longitude": "85-26-22.78 W",
		"state": "FLORIDA",
		"artcc": "ZJX",
		"type": "RP",
		"updated": "MAI*VORTAC*272.10/16.30",
	},
	{
		"name": "BLAAN",
		"latitude": "33-51-9.38 N",
		"longitude": "80-53-32.78 W",
		"state": "SOUTH CAROLINA",
		"artcc": "ZJX",
		"type": "RNAV",
		"updated": "01/16/2014",
	},
	{
		"name": "BLALY",
		"latitude": "31-16-52.06 N",
		"longitude": "85-2-47 W",
		"state": "GEORGIA",
		"artcc": "ZJX",
		"type": "RP",
		"updated": "EUF*VORTAC*171.84",
	},
	{
		"name": "BLOTS",
		"latitude": "34-16-59.68 N",
		"longitude": "81-1-17.83 W",
		"state": "SOUTH CAROLINA",
		"artcc": "ZJX",
		"type": "RP",
		"updated": "CTF*VOR/DME*242.51/43.08",
	},
	{
		"name": "BLOYD",
		"latitude": "33-40-11.91 N",
		"longitude": "80-59-5.76 W",
		"state": "SOUTH CAROLINA",
		"artcc": "ZJX",
		"type": "MW",
		"updated": "09/29/2014",
	},
	{
		"name": "BLRNE",
		"latitude": "29-13-55.09 N",
		"longitude": "83-8-18.31 W",
		"state": "FLORIDA",
		"artcc": "ZJX",
		"type": "RP",
		"updated": "GNV*VORTAC*242.93",
	},
	{
		"name": "BOATS",
		"latitude": "28-22-52.32 N",
		"longitude": "83-4-25.47 W",
		"state": "FLORIDA",
		"artcc": "ZJX",
		"type": "RP",
		"updated": "SRQ*VOR/DME*340.17/64.29",
	},
	{
		"name": "BOCAC",
		"latitude": "31-45-47.58 N",
		"longitude": "82-10-45.04 W",
		"state": "GEORGIA",
		"artcc": "ZJX",
		"type": "RNAV",
		"updated": "10/02/2007",
	},
	{
		"name": "BOCAP",
		"latitude": "30-11-11.14 N",
		"longitude": "82-7-56.72 W",
		"state": "FLORIDA",
		"artcc": "ZJX",
		"type": "RP",
		"updated": "VQQ*VOR*265.84",
	},
	{
		"name": "BOGDE",
		"latitude": "34-20-15.31 N",
		"longitude": "78-37-45.84 W",
		"state": "NORTH CAROLINA",
		"artcc": "ZJX",
		"type": "RNAV",
		"updated": "02/29/2016",
	},
	{
		"name": "BOGII",
		"latitude": "33-45-3.91 N",
		"longitude": "81-50-47.91 W",
		"state": "SOUTH CAROLINA",
		"artcc": "ZJX",
		"type": "RNAV",
		"updated": "12/20/2007",
	},
	{
		"name": "BOLEZ",
		"latitude": "30-24-52.24 N",
		"longitude": "81-18-40.92 W",
		"state": "FLORIDA",
		"artcc": "ZJX",
		"type": "MR",
		"updated": "NRB*TACAN*081.00/6.00",
	},
	{
		"name": "BOLNE",
		"latitude": "30-17-9.51 N",
		"longitude": "87-30-59.7 W",
		"state": "ALABAMA",
		"artcc": "ZJX",
		"type": "RNAV",
		"updated": "05/01/2008",
	},
	{
		"name": "BOLSE",
		"latitude": "31-31-23.45 N",
		"longitude": "82-49-9.57 W",
		"state": "GEORGIA",
		"artcc": "ZJX",
		"type": "RNAV",
		"updated": "07/10/2011",
	},
	{
		"name": "BOPDE",
		"latitude": "30-39-23.97 N",
		"longitude": "86-31-53.26 W",
		"state": "FLORIDA",
		"artcc": "ZJX",
		"type": "MR",
		"updated": "CEW*VORTAC*140.05/12.70",
	},
	{
		"name": "BORAE",
		"latitude": "30-15-0.29 N",
		"longitude": "81-42-44.09 W",
		"state": "FLORIDA",
		"artcc": "ZJX",
		"type": "RNAV",
		"updated": "07/11/2017",
	},
	{
		"name": "BOSRE",
		"latitude": "33-4-3.84 N",
		"longitude": "80-9-56.25 W",
		"state": "SOUTH CAROLINA",
		"artcc": "ZJX",
		"type": "RNAV",
		"updated": "07/07/2005",
	},
	{
		"name": "BOWMA",
		"latitude": "33-19-1.83 N",
		"longitude": "80-44-18.63 W",
		"state": "SOUTH CAROLINA",
		"artcc": "ZJX",
		"type": "RP",
		"updated": "CAE*VORTAC*155.87/36.00",
	},
	{
		"name": "BOWSK",
		"latitude": "28-42-49.88 N",
		"longitude": "82-19-42.93 W",
		"state": "FLORIDA",
		"artcc": "ZJX",
		"type": "RNAV",
		"updated": "02/27/2012",
	},
	{
		"name": "BOYAP",
		"latitude": "29-40-23.89 N",
		"longitude": "82-19-3.14 W",
		"state": "FLORIDA",
		"artcc": "ZJX",
		"type": "RNAV",
		"updated": "06/18/2007",
	},
	{
		"name": "BRAAG",
		"latitude": "30-41-57.62 N",
		"longitude": "86-25-57.92 W",
		"state": "FLORIDA",
		"artcc": "ZJX",
		"type": "MR",
		"updated": "DWG*TACAN*019.00/14.00",
	},
	{
		"name": "BRADO",
		"latitude": "29-55-21.88 N",
		"longitude": "81-28-7.89 W",
		"state": "FLORIDA",
		"artcc": "ZJX",
		"type": "RP",
		"updated": "CRG*VORTAC*178.09/25.00",
	},
	{
		"name": "BRAET",
		"latitude": "30-25-0.44 N",
		"longitude": "81-59-28.73 W",
		"state": "FLORIDA",
		"artcc": "ZJX",
		"type": "RNAV",
		"updated": "10/07/2014",
	},
	{
		"name": "BRATT",
		"latitude": "30-46-9.88 N",
		"longitude": "87-40-33.26 W",
		"state": "ALABAMA",
		"artcc": "ZJX",
		"type": "RP",
		"updated": "NUN*VOR*314.40",
	},
	{
		"name": "BRAYS",
		"latitude": "32-31-55.53 N",
		"longitude": "80-49-3.51 W",
		"state": "SOUTH CAROLINA",
		"artcc": "ZJX",
		"type": "MR",
		"updated": "NBC*TACAN*307.00",
	},
	{
		"name": "BRENT",
		"latitude": "30-33-39.67 N",
		"longitude": "87-12-41.45 W",
		"state": "FLORIDA",
		"artcc": "ZJX",
		"type": "RP",
		"updated": "NUN*VOR*049.44",
	},
	{
		"name": "BREZZ",
		"latitude": "30-42-36.21 N",
		"longitude": "87-5-25.68 W",
		"state": "FLORIDA",
		"artcc": "ZJX",
		"type": "MR",
		"updated": "NPA*TACAN*028.00/24.00",
	},
	{
		"name": "BRITS",
		"latitude": "30-26-51.1 N",
		"longitude": "84-48-29.79 W",
		"state": "FLORIDA",
		"artcc": "ZJX",
		"type": "RP",
		"updated": "MAI*VORTAC*141.00/26.06",
	},
	{
		"name": "BRNDE",
		"latitude": "30-15-20.5 N",
		"longitude": "86-23-15.44 W",
		"state": "FLORIDA",
		"artcc": "ZJX",
		"type": "MW",
		"updated": "01/26/2010",
	},
	{
		"name": "BROAD",
		"latitude": "28-28-30.58 N",
		"longitude": "82-39-35.11 W",
		"state": "FLORIDA",
		"artcc": "ZJX",
		"type": "RP",
		"updated": "PIE*VORTAC*007.19",
	},
	{
		"name": "BRONN",
		"latitude": "31-48-46.91 N",
		"longitude": "84-18-15.18 W",
		"state": "GEORGIA",
		"artcc": "ZJX",
		"type": "RP",
		"updated": "PZD*VOR/DME*358.55/9.47",
	},
	{
		"name": "BROSE",
		"latitude": "32-17-12.69 N",
		"longitude": "81-40-56.56 W",
		"state": "GEORGIA",
		"artcc": "ZJX",
		"type": "RP",
		"updated": "SAV*VORTAC*295.02/26.00",
	},
	{
		"name": "BROUN",
		"latitude": "31-27-36.31 N",
		"longitude": "81-19-25.94 W",
		"state": "GEORGIA",
		"artcc": "ZJX",
		"type": "RP",
		"updated": "AMG*VORTAC*094.00",
	},
	{
		"name": "BRUNS",
		"latitude": "33-50-52.06 N",
		"longitude": "78-17-32.46 W",
		"state": "NORTH CAROLINA",
		"artcc": "ZJX",
		"type": "RNAV",
		"updated": "06/07/2011",
	},
	{
		"name": "BRUNT",
		"latitude": "28-6-9.12 N",
		"longitude": "82-17-24.98 W",
		"state": "FLORIDA",
		"artcc": "ZJX",
		"type": "RNAV",
		"updated": "08/14/2014",
	},
	{
		"name": "BRUSE",
		"latitude": "30-25-36.65 N",
		"longitude": "85-50-19.76 W",
		"state": "FLORIDA",
		"artcc": "ZJX",
		"type": "RNAV",
		"updated": "09/26/2011",
	},
	{
		"name": "BRUTS",
		"latitude": "29-30-58 N",
		"longitude": "82-58-57 W",
		"state": "FLORIDA",
		"artcc": "ZJX",
		"type": "RNAV",
		"updated": "07/07/2005",
	},
	{
		"name": "BRYSE",
		"latitude": "32-57-0.01 N",
		"longitude": "80-8-10.09 W",
		"state": "SOUTH CAROLINA",
		"artcc": "ZJX",
		"type": "RNAV",
		"updated": "07/01/2011",
	},
	{
		"name": "BUBBA",
		"latitude": "34-20-11.52 N",
		"longitude": "81-24-21.86 W",
		"state": "SOUTH CAROLINA",
		"artcc": "ZJX",
		"type": "RP",
		"updated": "GRD*VORTAC*083.00/37.53",
	},
	{
		"name": "BUBBE",
		"latitude": "30-37-42.89 N",
		"longitude": "86-31-20.47 W",
		"state": "FLORIDA",
		"artcc": "ZJX",
		"type": "MR",
		"updated": "DWG*TACAN*359.51/9.00",
	},
	{
		"name": "BUBIE",
		"latitude": "31-3-36.62 N",
		"longitude": "83-11-24.16 W",
		"state": "GEORGIA",
		"artcc": "ZJX",
		"type": "MW",
		"updated": "04/22/2015",
	},
	{
		"name": "BUBOO",
		"latitude": "33-15-23.73 N",
		"longitude": "80-44-52.03 W",
		"state": "SOUTH CAROLINA",
		"artcc": "ZJX",
		"type": "RNAV",
		"updated": "11/10/2016",
	},
	{
		"name": "BUCCS",
		"latitude": "28-8-25.63 N",
		"longitude": "82-31-22.76 W",
		"state": "FLORIDA",
		"artcc": "ZJX",
		"type": "RNAV",
		"updated": "11/15/2010",
	},
	{
		"name": "BUCKL",
		"latitude": "34-31-30.13 N",
		"longitude": "80-52-53.14 W",
		"state": "SOUTH CAROLINA",
		"artcc": "ZJX",
		"type": "RP",
		"updated": "CLT*VOR/DME*180.00/40.00",
	},
	{
		"name": "BUGGZ",
		"latitude": "28-58-53 N",
		"longitude": "81-48-57 W",
		"state": "FLORIDA",
		"artcc": "ZJX",
		"type": "RNAV",
		"updated": "10/24/2007",
	},
	{
		"name": "BUHAR",
		"latitude": "29-38-50.72 N",
		"longitude": "82-8-0.35 W",
		"state": "FLORIDA",
		"artcc": "ZJX",
		"type": "RNAV",
		"updated": "11/21/2008",
	},
	{
		"name": "BULBE",
		"latitude": "30-15-36.97 N",
		"longitude": "87-20-32.92 W",
		"state": "FLORIDA",
		"artcc": "ZJX",
		"type": "MR",
		"updated": "NPA*TACAN*192.00/6.00",
	},
	{
		"name": "BULCA",
		"latitude": "31-58-47.4 N",
		"longitude": "80-55-43 W",
		"state": "GEORGIA",
		"artcc": "ZJX",
		"type": "MR",
		"updated": "SVN*VOR/DME*102.00/11.00",
	},
	{
		"name": "BULLI",
		"latitude": "29-34-2.12 N",
		"longitude": "81-12-47.4 W",
		"state": "FLORIDA",
		"artcc": "ZJX",
		"type": "RP",
		"updated": "OMN*VORTAC*341.60/16.65",
	},
	{
		"name": "BULZI",
		"latitude": "30-22-24.93 N",
		"longitude": "84-4-34.47 W",
		"state": "FLORIDA",
		"artcc": "ZJX",
		"type": "RNAV",
		"updated": "10/30/2007",
	},
	{
		"name": "BUNDE",
		"latitude": "30-4-10.69 N",
		"longitude": "81-24-20.99 W",
		"state": "FLORIDA",
		"artcc": "ZJX",
		"type": "RP",
		"updated": "CRG*VORTAC*164.41/17.00",
	},
	{
		"name": "BUNIE",
		"latitude": "28-47-29 N",
		"longitude": "81-32-4 W",
		"state": "FLORIDA",
		"artcc": "ZJX",
		"type": "RNAV",
		"updated": "10/24/2007",
	},
	{
		"name": "BUNNZ",
		"latitude": "28-0-34.91 N",
		"longitude": "86-45-45.52 W",
		"state": "OFFSHORE GULF",
		"artcc": "ZJX",
		"type": "RNAV",
		"updated": "07/11/2001",
	},
	{
		"name": "BUPAW",
		"latitude": "32-11-48.36 N",
		"longitude": "81-46-10.75 W",
		"state": "GEORGIA",
		"artcc": "ZJX",
		"type": "RNAV",
		"updated": "09/10/2009",
	},
	{
		"name": "BUPYA",
		"latitude": "30-18-52.62 N",
		"longitude": "84-21-28.66 W",
		"state": "FLORIDA",
		"artcc": "ZJX",
		"type": "RP",
		"updated": "SZW*VORTAC*174.72",
	},
	{
		"name": "BURRD",
		"latitude": "29-14-53 N",
		"longitude": "82-1-20 W",
		"state": "FLORIDA",
		"artcc": "ZJX",
		"type": "RNAV",
		"updated": "10/24/2007",
	},
	{
		"name": "BUSJY",
		"latitude": "29-33-57.94 N",
		"longitude": "82-4-34.93 W",
		"state": "FLORIDA",
		"artcc": "ZJX",
		"type": "RNAV",
		"updated": "05/31/2005",
	},
	{
		"name": "BUTOW",
		"latitude": "30-14-49.91 N",
		"longitude": "85-46-51.02 W",
		"state": "FLORIDA",
		"artcc": "ZJX",
		"type": "MR",
		"updated": "PAM*TACAN*317.77/15.00",
	},
	{
		"name": "BUXSE",
		"latitude": "31-36-21 N",
		"longitude": "77-14-0 W",
		"state": "OFFSHORE ATLANTIC",
		"artcc": "ZJX",
		"type": "WP",
		"updated": "03/26/2002",
	},
	{
		"name": "BUYAG",
		"latitude": "31-15-24.56 N",
		"longitude": "82-27-37.2 W",
		"state": "GEORGIA",
		"artcc": "ZJX",
		"type": "RP",
		"updated": "AYS*VORTAC*098.66/5.00",
	},
	{
		"name": "BUYAK",
		"latitude": "31-51-39.35 N",
		"longitude": "83-57-11.02 W",
		"state": "GEORGIA",
		"artcc": "ZJX",
		"type": "RNAV",
		"updated": "03/23/2017",
	},
	{
		"name": "BUYDA",
		"latitude": "32-42-26.13 N",
		"longitude": "81-30-49.76 W",
		"state": "GEORGIA",
		"artcc": "ZJX",
		"type": "RNAV",
		"updated": "07/20/2007",
	},
	{
		"name": "BYNUM",
		"latitude": "33-50-50.38 N",
		"longitude": "80-43-30.59 W",
		"state": "SOUTH CAROLINA",
		"artcc": "ZJX",
		"type": "MR",
		"updated": "MMT*VORTAC*148.00/6.00",
	},
