[
	{
		"name": "DAALE",
		"latitude": "32-50-13.38 N",
		"longitude": "80-4-42.83 W",
		"state": "SOUTH CAROLINA",
		"artcc": "ZJX",
		"type": "RP",
		"updated": "CHS*VORTAC*216.00/4.00"
	},
	{
		"name": "DAASY",
		"latitude": "32-38-17.37 N",
		"longitude": "80-1-40.19 W",
		"state": "SOUTH CAROLINA",
		"artcc": "ZJX",
		"type": "RNAV",
		"updated": "06/02/2011"
	},
	{
		"name": "DABBI",
		"latitude": "30-35-29.39 N",
		"longitude": "81-36-5.93 W",
		"state": "FLORIDA",
		"artcc": "ZJX",
		"type": "RNAV",
		"updated": "10/16/2013"
	},
	{
		"name": "DACAR",
		"latitude": "30-18-53.19 N",
		"longitude": "84-21-5.41 W",
		"state": "FLORIDA",
		"artcc": "ZJX",
		"type": "MR",
		"updated": "SZW*VORTAC*173.53/14.50"
	},
	{
		"name": "DADES",
		"latitude": "28-21-45.62 N",
		"longitude": "82-15-7.8 W",
		"state": "FLORIDA",
		"artcc": "ZJX",
		"type": "RP",
		"updated": "PIE*VORTAC*045.00/35.59"
	},
	{
		"name": "DADPE",
		"latitude": "28-0-20.13 N",
		"longitude": "82-36-53.99 W",
		"state": "FLORIDA",
		"artcc": "ZJX",
		"type": "RNAV",
		"updated": "03/16/2007"
	},
	{
		"name": "DAFIE",
		"latitude": "28-55-4.47 N",
		"longitude": "81-43-28.84 W",
		"state": "FLORIDA",
		"artcc": "ZJX",
		"type": "RNAV",
		"updated": "10/24/2007"
	},
	{
		"name": "DAGBE",
		"latitude": "33-7-58.21 N",
		"longitude": "80-3-51.83 W",
		"state": "SOUTH CAROLINA",
		"artcc": "ZJX",
		"type": "RNAV",
		"updated": "06/02/2011"
	},
	{
		"name": "DALME",
		"latitude": "33-57-11.78 N",
		"longitude": "80-29-13.17 W",
		"state": "SOUTH CAROLINA",
		"artcc": "ZJX",
		"type": "MR",
		"updated": "SSC*TACAN*223.12/1.80"
	},
	{
		"name": "DALTN",
		"latitude": "30-31-42.32 N",
		"longitude": "81-35-40.27 W",
		"state": "FLORIDA",
		"artcc": "ZJX",
		"type": "RP",
		"updated": "CRG*VORTAC*341.88"
	},
	{
		"name": "DALTY",
		"latitude": "28-38-15.48 N",
		"longitude": "81-17-52.8 W",
		"state": "FLORIDA",
		"artcc": "ZJX",
		"type": "RP",
		"updated": "DIZ*LD*005.47/13.91"
	},
	{
		"name": "DANTE",
		"latitude": "29-38-54.47 N",
		"longitude": "82-3-35.85 W",
		"state": "FLORIDA",
		"artcc": "ZJX",
		"type": "RP",
		"updated": "OCF*VORTAC*017.15"
	},
	{
		"name": "DARBS",
		"latitude": "28-11-59.97 N",
		"longitude": "82-51-57.11 W",
		"state": "FLORIDA",
		"artcc": "ZJX",
		"type": "RP",
		"updated": "PIE*VORTAC*336.18/19.97"
	},
	{
		"name": "DARED",
		"latitude": "31-0-5.35 N",
		"longitude": "85-51-2.37 W",
		"state": "ALABAMA",
		"artcc": "ZJX",
		"type": "RP",
		"updated": "RRS*VORTAC*229.99/27.45"
	},
	{
		"name": "DARPE",
		"latitude": "28-2-45.29 N",
		"longitude": "82-13-15.56 W",
		"state": "FLORIDA",
		"artcc": "ZJX",
		"type": "RNAV",
		"updated": "08/14/2014"
	},
	{
		"name": "DATRY",
		"latitude": "28-10-39.48 N",
		"longitude": "82-9-13.07 W",
		"state": "FLORIDA",
		"artcc": "ZJX",
		"type": "RNAV",
		"updated": "08/14/2014"
	},
	{
		"name": "DAWWN",
		"latitude": "31-28-49.96 N",
		"longitude": "84-36-46.69 W",
		"state": "GEORGIA",
		"artcc": "ZJX",
		"type": "RNAV",
		"updated": "07/25/2016"
	},
	{
		"name": "DAYWU",
		"latitude": "30-43-52.41 N",
		"longitude": "85-56-27.04 W",
		"state": "FLORIDA",
		"artcc": "ZJX",
		"type": "RNAV",
		"updated": "11/15/2011"
	},
	{
		"name": "DBLNC",
		"latitude": "32-31-9.09 N",
		"longitude": "80-46-18.42 W",
		"state": "SOUTH CAROLINA",
		"artcc": "ZJX",
		"type": "MW",
		"updated": "12/28/2017"
	},
	{
		"name": "DDAWN",
		"latitude": "30-18-58.94 N",
		"longitude": "86-42-51.34 W",
		"state": "FLORIDA",
		"artcc": "ZJX",
		"type": "MW",
		"updated": "01/26/2010"
	},
	{
		"name": "DDENA",
		"latitude": "32-41-8.8 N",
		"longitude": "80-20-38.88 W",
		"state": "SOUTH CAROLINA",
		"artcc": "ZJX",
		"type": "RNAV",
		"updated": "06/02/2011"
	},
	{
		"name": "DDUNE",
		"latitude": "30-20-40.52 N",
		"longitude": "86-31-15.12 W",
		"state": "FLORIDA",
		"artcc": "ZJX",
		"type": "MR",
		"updated": "DWG*TACAN*180.00/8.00"
	},
	{
		"name": "DEBTS",
		"latitude": "30-57-15.57 N",
		"longitude": "84-56-9.43 W",
		"state": "GEORGIA",
		"artcc": "ZJX",
		"type": "RP",
		"updated": "MAI*VORTAC*044.00/14.00"
	},
	{
		"name": "DEDDA",
		"latitude": "30-38-54.58 N",
		"longitude": "81-43-3.05 W",
		"state": "FLORIDA",
		"artcc": "ZJX",
		"type": "RNAV",
		"updated": "08/26/2013"
	},
	{
		"name": "DEFUN",
		"latitude": "30-48-51.27 N",
		"longitude": "86-7-53.09 W",
		"state": "FLORIDA",
		"artcc": "ZJX",
		"type": "RP",
		"updated": "CEW*VORTAC*088.31/28.31"
	},
	{
		"name": "DEKKE",
		"latitude": "31-21-59.07 N",
		"longitude": "85-31-3.4 W",
		"state": "ALABAMA",
		"artcc": "ZJX",
		"type": "RNAV",
		"updated": "03/26/2012"
	},
	{
		"name": "DELLL",
		"latitude": "32-51-6.89 N",
		"longitude": "80-0-6.65 W",
		"state": "SOUTH CAROLINA",
		"artcc": "ZJX",
		"type": "RNAV",
		"updated": "06/13/2012"
	},
	{
		"name": "DEMIC",
		"latitude": "34-23-25.02 N",
		"longitude": "79-26-55.7 W",
		"state": "SOUTH CAROLINA",
		"artcc": "ZJX",
		"type": "RP",
		"updated": "FLO*VORTAC*050.63/14.00"
	},
	{
		"name": "DEQUE",
		"latitude": "32-25-35.05 N",
		"longitude": "81-31-6.78 W",
		"state": "GEORGIA",
		"artcc": "ZJX",
		"type": "RP",
		"updated": "SAV*VORTAC*322.00"
	},
	{
		"name": "DERDE",
		"latitude": "30-31-2.49 N",
		"longitude": "86-37-38.77 W",
		"state": "FLORIDA",
		"artcc": "ZJX",
		"type": "MR",
		"updated": "DWG*TACAN*293.00/6.00"
	},
	{
		"name": "DERRA",
		"latitude": "31-51-22 N",
		"longitude": "77-28-1 W",
		"state": "OFFSHORE ATLANTIC",
		"artcc": "ZJX",
		"type": "WP",
		"updated": "03/26/2002"
	},
	{
		"name": "DERTE",
		"latitude": "34-2-36.64 N",
		"longitude": "80-24-48.11 W",
		"state": "SOUTH CAROLINA",
		"artcc": "ZJX",
		"type": "MR",
		"updated": "SSC*TACAN*/4.74"
	},
	{
		"name": "DESEE",
		"latitude": "30-59-18.39 N",
		"longitude": "83-11-42.63 W",
		"state": "GEORGIA",
		"artcc": "ZJX",
		"type": "MR",
		"updated": "VAD*TACAN*360.00/1.70"
	},
	{
		"name": "DESKS",
		"latitude": "31-49-59.21 N",
		"longitude": "84-11-0.17 W",
		"state": "GEORGIA",
		"artcc": "ZJX",
		"type": "RP",
		"updated": "PZD*VOR/DME*029.76/12.04"
	},
	{
		"name": "DESNE",
		"latitude": "33-8-50.4 N",
		"longitude": "80-2-15.82 W",
		"state": "SOUTH CAROLINA",
		"artcc": "ZJX",
		"type": "RNAV",
		"updated": "06/02/2011"
	},
	{
		"name": "DESTN",
		"latitude": "30-23-38.84 N",
		"longitude": "86-32-13.56 W",
		"state": "FLORIDA",
		"artcc": "ZJX",
		"type": "RP",
		"updated": "CEW*VORTAC*161.09/26.89"
	},
	{
		"name": "DETOO",
		"latitude": "30-56-54.31 N",
		"longitude": "83-17-21.87 W",
		"state": "GEORGIA",
		"artcc": "ZJX",
		"type": "MR",
		"updated": "VAD*TACAN*265.00/5.00"
	},
	{
		"name": "DETSE",
		"latitude": "28-6-4.85 N",
		"longitude": "82-43-16.95 W",
		"state": "FLORIDA",
		"artcc": "ZJX",
		"type": "RNAV",
		"updated": "07/25/2005"
	},
	{
		"name": "DEWEL",
		"latitude": "32-59-51.37 N",
		"longitude": "79-59-8.16 W",
		"state": "SOUTH CAROLINA",
		"artcc": "ZJX",
		"type": "RNAV",
		"updated": "07/01/2011"
	},
	{
		"name": "DEWIX",
		"latitude": "28-33-31.06 N",
		"longitude": "82-41-10.77 W",
		"state": "FLORIDA",
		"artcc": "ZJX",
		"type": "RNAV",
		"updated": "05/19/2009"
	},
	{
		"name": "DEWUN",
		"latitude": "30-56-12.07 N",
		"longitude": "83-23-7.25 W",
		"state": "GEORGIA",
		"artcc": "ZJX",
		"type": "MR",
		"updated": "VAD*TACAN*265.00/10.00"
	},
	{
		"name": "DEWYY",
		"latitude": "30-45-35.63 N",
		"longitude": "83-25-34.51 W",
		"state": "GEORGIA",
		"artcc": "ZJX",
		"type": "RNAV",
		"updated": "03/02/2009"
	},
	{
		"name": "DEXBU",
		"latitude": "31-11-14.46 N",
		"longitude": "82-55-30.38 W",
		"state": "GEORGIA",
		"artcc": "ZJX",
		"type": "RNAV",
		"updated": "05/01/2015"
	},
	{
		"name": "DEYER",
		"latitude": "30-32-23.63 N",
		"longitude": "81-33-24.7 W",
		"state": "FLORIDA",
		"artcc": "ZJX",
		"type": "RNAV",
		"updated": "11/28/2012"
	},
	{
		"name": "DFOUR",
		"latitude": "30-42-23.07 N",
		"longitude": "83-24-52.22 W",
		"state": "GEORGIA",
		"artcc": "ZJX",
		"type": "MR",
		"updated": "VAD*TACAN*220.00/19.00"
	},
	{
		"name": "DIGGR",
		"latitude": "29-3-25.96 N",
		"longitude": "81-10-1.66 W",
		"state": "FLORIDA",
		"artcc": "ZJX",
		"type": "RP",
		"updated": "OMN*VORTAC*191.00/15.00"
	},
	{
		"name": "DIMON",
		"latitude": "32-5-40.75 N",
		"longitude": "80-20-20.39 W",
		"state": "SOUTH CAROLINA",
		"artcc": "ZJX",
		"type": "RP",
		"updated": "NBC*TACAN*145.00/30.00"
	},
	{
		"name": "DINNS",
		"latitude": "30-27-54.43 N",
		"longitude": "81-48-5.18 W",
		"state": "FLORIDA",
		"artcc": "ZJX",
		"type": "RP",
		"updated": "JAX*LS*256.54"
	},
	{
		"name": "DIOLS",
		"latitude": "32-8-51.33 N",
		"longitude": "82-28-14.44 W",
		"state": "GEORGIA",
		"artcc": "ZJX",
		"type": "RNAV",
		"updated": "07/07/2015"
	},
	{
		"name": "DIPAY",
		"latitude": "28-16-22.8 N",
		"longitude": "82-54-41.13 W",
		"state": "FLORIDA",
		"artcc": "ZJX",
		"type": "RNAV",
		"updated": "02/15/2010"
	},
	{
		"name": "DIPDE",
		"latitude": "30-32-29.04 N",
		"longitude": "81-52-26.42 W",
		"state": "FLORIDA",
		"artcc": "ZJX",
		"type": "RNAV",
		"updated": "08/26/2013"
	},
	{
		"name": "DIPHY",
		"latitude": "32-0-45 N",
		"longitude": "81-13-23.11 W",
		"state": "GEORGIA",
		"artcc": "ZJX",
		"type": "MW",
		"updated": "04/16/2009"
	},
	{
		"name": "DIPZI",
		"latitude": "29-46-43.03 N",
		"longitude": "82-7-6.68 W",
		"state": "FLORIDA",
		"artcc": "ZJX",
		"type": "RNAV",
		"updated": "11/21/2008"
	},
	{
		"name": "DITME",
		"latitude": "34-4-36.69 N",
		"longitude": "81-21-52.72 W",
		"state": "SOUTH CAROLINA",
		"artcc": "ZJX",
		"type": "RNAV",
		"updated": "07/14/2009"
	},
	{
		"name": "DIXYN",
		"latitude": "30-27-54.86 N",
		"longitude": "81-41-22.99 W",
		"state": "FLORIDA",
		"artcc": "ZJX",
		"type": "RP",
		"updated": "CRG*VORTAC*312.08/12.01"
	},
	{
		"name": "DIYAK",
		"latitude": "29-13-4.33 N",
		"longitude": "80-57-56.83 W",
		"state": "FLORIDA",
		"artcc": "ZJX",
		"type": "RP",
		"updated": "OMN*VORTAC*123.50"
	},
	{
		"name": "DMAIP",
		"latitude": "31-12-18.96 N",
		"longitude": "81-27-42.16 W",
		"state": "GEORGIA",
		"artcc": "ZJX",
		"type": "RP",
		"updated": "SSI*VORTAC*359.00/9.30"
	},
	{
		"name": "DMFBJ",
		"latitude": "28-54-19.28 N",
		"longitude": "82-13-21.66 W",
		"state": "FLORIDA",
		"artcc": "ZJX",
		"type": "CN",
		"updated": "10/29/2008"
	},
	{
		"name": "DNAHU",
		"latitude": "32-25-50.51 N",
		"longitude": "80-40-6.7 W",
		"state": "SOUTH CAROLINA",
		"artcc": "ZJX",
		"type": "MW",
		"updated": "08/24/2015"
	},
	{
		"name": "DNESS",
		"latitude": "30-22-10.78 N",
		"longitude": "86-38-40.87 W",
		"state": "FLORIDA",
		"artcc": "ZJX",
		"type": "MW",
		"updated": "05/16/2013"
	},
	{
		"name": "DNMOR",
		"latitude": "28-30-16.33 N",
		"longitude": "81-26-23.38 W",
		"state": "FLORIDA",
		"artcc": "ZJX",
		"type": "RP",
		"updated": "ORL*VORTAC*247.61/5.99"
	},
	{
		"name": "DOBOY",
		"latitude": "31-15-50.42 N",
		"longitude": "81-17-54.84 W",
		"state": "GEORGIA",
		"artcc": "ZJX",
		"type": "WP",
		"updated": "SSI*VORTAC*034.70/14.90"
	},
	{
		"name": "DOCGA",
		"latitude": "30-58-23.9 N",
		"longitude": "84-31-18.26 W",
		"state": "GEORGIA",
		"artcc": "ZJX",
		"type": "RNAV",
		"updated": "01/07/2010"
	},
	{
		"name": "DOCPE",
		"latitude": "30-32-22.04 N",
		"longitude": "81-20-49.81 W",
		"state": "FLORIDA",
		"artcc": "ZJX",
		"type": "RNAV",
		"updated": "08/24/2004"
	},
	{
		"name": "DODNY",
		"latitude": "29-20-22.71 N",
		"longitude": "82-16-20.09 W",
		"state": "FLORIDA",
		"artcc": "ZJX",
		"type": "RP",
		"updated": "CTY*VORTAC*112.70"
	},
	{
		"name": "DOGGI",
		"latitude": "31-3-54.61 N",
		"longitude": "84-20-12.18 W",
		"state": "GEORGIA",
		"artcc": "ZJX",
		"type": "RP",
		"updated": "SZW*VORTAC*001.62/30.53"
	},
	{
		"name": "DOGRE",
		"latitude": "29-13-32.35 N",
		"longitude": "81-4-22.9 W",
		"state": "FLORIDA",
		"artcc": "ZJX",
		"type": "RNAV",
		"updated": "08/24/2005"
	},
	{
		"name": "DOMES",
		"latitude": "29-2-10 N",
		"longitude": "80-52-53 W",
		"state": "FLORIDA",
		"artcc": "ZJX",
		"type": "RNAV",
		"updated": "07/07/2005"
	},
	{
		"name": "DOMMM",
		"latitude": "30-28-20.8 N",
		"longitude": "86-31-8.74 W",
		"state": "FLORIDA",
		"artcc": "ZJX",
		"type": "MW",
		"updated": "05/14/2008"
	},
	{
		"name": "DOMPI",
		"latitude": "31-10-38.5 N",
		"longitude": "81-40-22.66 W",
		"state": "GEORGIA",
		"artcc": "ZJX",
		"type": "RNAV",
		"updated": "09/15/2009"
	},
	{
		"name": "DONAC",
		"latitude": "31-0-9.86 N",
		"longitude": "84-52-53.29 W",
		"state": "GEORGIA",
		"artcc": "ZJX",
		"type": "RP",
		"updated": "MAI*VORTAC*044.00/18.04"
	},
	{
		"name": "DONEY",
		"latitude": "29-40-56.17 N",
		"longitude": "85-7-4.16 W",
		"state": "FLORIDA",
		"artcc": "ZJX",
		"type": "RNAV",
		"updated": "04/12/2012"
	},
	{
		"name": "DONGS",
		"latitude": "29-8-6.68 N",
		"longitude": "81-13-52.35 W",
		"state": "FLORIDA",
		"artcc": "ZJX",
		"type": "RP",
		"updated": "OMN*VORTAC*211.77/11.83"
	},
	{
		"name": "DONHU",
		"latitude": "28-10-15.89 N",
		"longitude": "82-44-12.14 W",
		"state": "FLORIDA",
		"artcc": "ZJX",
		"type": "RP",
		"updated": "PIE*VORTAC*355.00/16.00"
	},
	{
		"name": "DONNO",
		"latitude": "30-13-55.81 N",
		"longitude": "81-34-14.45 W",
		"state": "FLORIDA",
		"artcc": "ZJX",
		"type": "MW",
		"updated": "06/28/2016"
	},
	{
		"name": "DOOKY",
		"latitude": "29-50-7.35 N",
		"longitude": "81-3-49.93 W",
		"state": "FLORIDA",
		"artcc": "ZJX",
		"type": "RNAV",
		"updated": "01/23/2018"
	},
	{
		"name": "DORCE",
		"latitude": "33-4-41.16 N",
		"longitude": "80-30-23.39 W",
		"state": "SOUTH CAROLINA",
		"artcc": "ZJX",
		"type": "RP",
		"updated": "VAN*VORTAC*193.00"
	},
	{
		"name": "DORLY",
		"latitude": "32-44-5.5 N",
		"longitude": "80-35-11.1 W",
		"state": "SOUTH CAROLINA",
		"artcc": "ZJX",
		"type": "RNAV",
		"updated": "01/01/2010"
	},
	{
		"name": "DOTMY",
		"latitude": "32-59-23.9 N",
		"longitude": "80-33-36.27 W",
		"state": "SOUTH CAROLINA",
		"artcc": "ZJX",
		"type": "RP",
		"updated": "RBW*LD*049.06/6.33"
	},
	{
		"name": "DOUGH",
		"latitude": "34-0-44.26 N",
		"longitude": "80-58-46.48 W",
		"state": "SOUTH CAROLINA",
		"artcc": "ZJX",
		"type": "RP",
		"updated": "FLO*VORTAC*262.03/67.19"
	},
	{
		"name": "DOVER",
		"latitude": "32-44-21.45 N",
		"longitude": "81-31-15.63 W",
		"state": "GEORGIA",
		"artcc": "ZJX",
		"type": "RP",
		"updated": "ALD*VOR*216.31"
	},
	{
		"name": "DOWGS",
		"latitude": "31-22-7.09 N",
		"longitude": "83-24-56.07 W",
		"state": "GEORGIA",
		"artcc": "ZJX",
		"type": "MR",
		"updated": "VAD*TACAN*338.00/27.00"
	},
	{
		"name": "DOZER",
		"latitude": "31-16-2.91 N",
		"longitude": "86-22-12.83 W",
		"state": "ALABAMA",
		"artcc": "ZJX",
		"type": "MR",
		"updated": "OZR*VOR/DME*268.00"
	},
	{
		"name": "DRABK",
		"latitude": "30-47-24.84 N",
		"longitude": "85-10-22.23 W",
		"state": "FLORIDA",
		"artcc": "ZJX",
		"type": "RNAV",
		"updated": "07/07/2005"
	},
	{
		"name": "DRAFT",
		"latitude": "29-51-50.71 N",
		"longitude": "82-25-18.24 W",
		"state": "FLORIDA",
		"artcc": "ZJX",
		"type": "RP",
		"updated": "CTY*VORTAC*066.00"
	},
	{
		"name": "DREBL",
		"latitude": "30-12-15.31 N",
		"longitude": "82-46-46.83 W",
		"state": "FLORIDA",
		"artcc": "ZJX",
		"type": "RNAV",
		"updated": "02/28/2000"
	},
	{
		"name": "DREWE",
		"latitude": "32-30-58 N",
		"longitude": "80-36-35.08 W",
		"state": "SOUTH CAROLINA",
		"artcc": "ZJX",
		"type": "RNAV",
		"updated": "07/01/2011"
	},
	{
		"name": "DRMAR",
		"latitude": "29-17-37.16 N",
		"longitude": "81-9-47.87 W",
		"state": "FLORIDA",
		"artcc": "ZJX",
		"type": "RNAV",
		"updated": "09/05/2013"
	},
	{
		"name": "DRUDJ",
		"latitude": "28-42-49.75 N",
		"longitude": "81-7-5.77 W",
		"state": "FLORIDA",
		"artcc": "ZJX",
		"type": "RP",
		"updated": "CRG*VORTAC*171.00/99.40"
	},
	{
		"name": "DSTEE",
		"latitude": "34-30-55.22 N",
		"longitude": "79-57-57.35 W",
		"state": "SOUTH CAROLINA",
		"artcc": "ZJX",
		"type": "RP",
		"updated": "FLO*VORTAC*320.89/22.83"
	},
	{
		"name": "DTREE",
		"latitude": "30-57-19.52 N",
		"longitude": "83-13-54.6 W",
		"state": "GEORGIA",
		"artcc": "ZJX",
		"type": "MR",
		"updated": "VAD*TACAN*265.00/2.00"
	},
	{
		"name": "DTSCA",
		"latitude": "30-0-0 N",
		"longitude": "86-20-0 W",
		"state": "OFFSHORE GULF",
		"artcc": "ZJX",
		"type": "RNAV",
		"updated": "06/23/2013"
	},
	{
		"name": "DTSCB",
		"latitude": "29-40-0 N",
		"longitude": "86-20-0 W",
		"state": "OFFSHORE GULF",
		"artcc": "ZJX",
		"type": "RNAV",
		"updated": "06/23/2013"
	},
	{
		"name": "DTSCC",
		"latitude": "29-20-0 N",
		"longitude": "86-20-0 W",
		"state": "OFFSHORE GULF",
		"artcc": "ZJX",
		"type": "RNAV",
		"updated": "06/23/2013"
	},
	{
		"name": "DTSCD",
		"latitude": "29-0-0 N",
		"longitude": "86-20-0 W",
		"state": "OFFSHORE GULF",
		"artcc": "ZJX",
		"type": "RNAV",
		"updated": "06/23/2013"
	},
	{
		"name": "DTSCE",
		"latitude": "28-40-0 N",
		"longitude": "86-20-0 W",
		"state": "OFFSHORE GULF",
		"artcc": "ZJX",
		"type": "RNAV",
		"updated": "06/23/2013"
	},
	{
		"name": "DTSCF",
		"latitude": "28-20-0 N",
		"longitude": "86-20-0 W",
		"state": "OFFSHORE GULF",
		"artcc": "ZJX",
		"type": "RNAV",
		"updated": "06/23/2013"
	},
	{
		"name": "DTSCG",
		"latitude": "28-0-0 N",
		"longitude": "86-20-0 W",
		"state": "OFFSHORE GULF",
		"artcc": "ZJX",
		"type": "RNAV",
		"updated": "06/23/2013"
	},
	{
		"name": "DTSCH",
		"latitude": "27-40-0 N",
		"longitude": "86-20-0 W",
		"state": "OFFSHORE GULF",
		"artcc": "ZJX",
		"type": "RNAV",
		"updated": "06/23/2013"
	},
	{
		"name": "DTSCI",
		"latitude": "27-20-0 N",
		"longitude": "86-20-0 W",
		"state": "OFFSHORE GULF",
		"artcc": "ZJX",
		"type": "RNAV",
		"updated": "06/23/2013"
	},
	{
		"name": "DTSCJ",
		"latitude": "27-0-0 N",
		"longitude": "86-20-0 W",
		"state": "OFFSHORE GULF",
		"artcc": "ZJX",
		"type": "RNAV",
		"updated": "06/23/2013"
	},
	{
		"name": "DTSCK",
		"latitude": "26-40-0 N",
		"longitude": "86-20-0 W",
		"state": "OFFSHORE GULF",
		"artcc": "ZJX",
		"type": "RNAV",
		"updated": "06/23/2013"
	},
	{
		"name": "DTSCL",
		"latitude": "26-20-0 N",
		"longitude": "86-20-0 W",
		"state": "OFFSHORE GULF",
		"artcc": "ZJX",
		"type": "RNAV",
		"updated": "06/23/2013"
	},
	{
		"name": "DTSCM",
		"latitude": "26-0-0 N",
		"longitude": "86-20-0 W",
		"state": "OFFSHORE GULF",
		"artcc": "ZJX",
		"type": "RNAV",
		"updated": "06/23/2013"
	},
	{
		"name": "DTSCN",
		"latitude": "25-40-0 N",
		"longitude": "86-20-0 W",
		"state": "OFFSHORE GULF",
		"artcc": "ZJX",
		"type": "RNAV",
		"updated": "06/23/2013"
	},
	{
		"name": "DTSCO",
		"latitude": "25-20-0 N",
		"longitude": "86-20-0 W",
		"state": "OFFSHORE GULF",
		"artcc": "ZJX",
		"type": "RNAV",
		"updated": "06/23/2013"
	},
	{
		"name": "DTSCP",
		"latitude": "25-0-0 N",
		"longitude": "86-20-0 W",
		"state": "OFFSHORE GULF",
		"artcc": "ZJX",
		"type": "RNAV",
		"updated": "06/23/2013"
	},
	{
		"name": "DTSCQ",
		"latitude": "24-40-0 N",
		"longitude": "86-20-0 W",
		"state": "OFFSHORE GULF",
		"artcc": "ZJX",
		"type": "RNAV",
		"updated": "06/23/2013"
	},
	{
		"name": "DTSLA",
		"latitude": "30-0-0 N",
		"longitude": "86-40-0 W",
		"state": "OFFSHORE GULF",
		"artcc": "ZJX",
		"type": "RNAV",
		"updated": "06/23/2013"
	},
	{
		"name": "DTSLB",
		"latitude": "29-40-0 N",
		"longitude": "86-40-0 W",
		"state": "OFFSHORE GULF",
		"artcc": "ZJX",
		"type": "RNAV",
		"updated": "06/23/2013"
	},
	{
		"name": "DTSLC",
		"latitude": "29-20-0 N",
		"longitude": "86-40-0 W",
		"state": "OFFSHORE GULF",
		"artcc": "ZJX",
		"type": "RNAV",
		"updated": "06/23/2013"
	},
	{
		"name": "DTSLD",
		"latitude": "29-0-0 N",
		"longitude": "86-40-0 W",
		"state": "OFFSHORE GULF",
		"artcc": "ZJX",
		"type": "RNAV",
		"updated": "06/23/2013"
	},
	{
		"name": "DTSLE",
		"latitude": "28-40-0 N",
		"longitude": "86-40-0 W",
		"state": "OFFSHORE GULF",
		"artcc": "ZJX",
		"type": "RNAV",
		"updated": "06/23/2013"
	},
	{
		"name": "DTSLF",
		"latitude": "28-20-0 N",
		"longitude": "86-40-0 W",
		"state": "OFFSHORE GULF",
		"artcc": "ZJX",
		"type": "RNAV",
		"updated": "06/23/2013"
	},
	{
		"name": "DTSLG",
		"latitude": "28-0-0 N",
		"longitude": "86-40-0 W",
		"state": "OFFSHORE GULF",
		"artcc": "ZJX",
		"type": "RNAV",
		"updated": "06/23/2013"
	},
	{
		"name": "DTSLH",
		"latitude": "27-40-0 N",
		"longitude": "86-40-0 W",
		"state": "OFFSHORE GULF",
		"artcc": "ZJX",
		"type": "RNAV",
		"updated": "06/23/2013"
	},
	{
		"name": "DTSLI",
		"latitude": "27-20-0 N",
		"longitude": "86-40-0 W",
		"state": "OFFSHORE GULF",
		"artcc": "ZJX",
		"type": "RNAV",
		"updated": "06/23/2013"
	},
	{
		"name": "DTSLJ",
		"latitude": "27-0-0 N",
		"longitude": "86-40-0 W",
		"state": "OFFSHORE GULF",
		"artcc": "ZJX",
		"type": "RNAV",
		"updated": "06/23/2013"
	},
	{
		"name": "DTSLK",
		"latitude": "26-40-0 N",
		"longitude": "86-40-0 W",
		"state": "OFFSHORE GULF",
		"artcc": "ZJX",
		"type": "RNAV",
		"updated": "06/23/2013"
	},
	{
		"name": "DTSLL",
		"latitude": "26-20-0 N",
		"longitude": "86-40-0 W",
		"state": "OFFSHORE GULF",
		"artcc": "ZJX",
		"type": "RNAV",
		"updated": "06/23/2013"
	},
	{
		"name": "DTSLM",
		"latitude": "26-0-0 N",
		"longitude": "86-40-0 W",
		"state": "OFFSHORE GULF",
		"artcc": "ZJX",
		"type": "RNAV",
		"updated": "06/23/2013"
	},
	{
		"name": "DTSLN",
		"latitude": "25-40-0 N",
		"longitude": "86-40-0 W",
		"state": "OFFSHORE GULF",
		"artcc": "ZJX",
		"type": "RNAV",
		"updated": "06/23/2013"
	},
	{
		"name": "DTSLO",
		"latitude": "25-20-0 N",
		"longitude": "86-40-0 W",
		"state": "OFFSHORE GULF",
		"artcc": "ZJX",
		"type": "RNAV",
		"updated": "06/23/2013"
	},
	{
		"name": "DTSLP",
		"latitude": "25-0-0 N",
		"longitude": "86-40-0 W",
		"state": "OFFSHORE GULF",
		"artcc": "ZJX",
		"type": "RNAV",
		"updated": "06/23/2013"
	},
	{
		"name": "DTSLQ",
		"latitude": "24-40-0 N",
		"longitude": "86-40-0 W",
		"state": "OFFSHORE GULF",
		"artcc": "ZJX",
		"type": "RNAV",
		"updated": "06/23/2013"
	},
	{
		"name": "DTSRA",
		"latitude": "30-0-0 N",
		"longitude": "86-0-0 W",
		"state": "OFFSHORE GULF",
		"artcc": "ZJX",
		"type": "RNAV",
		"updated": "07/28/2014"
	},
	{
		"name": "DTSRB",
		"latitude": "29-40-0 N",
		"longitude": "86-0-0 W",
		"state": "OFFSHORE GULF",
		"artcc": "ZJX",
		"type": "RNAV",
		"updated": "06/23/2013"
	},
	{
		"name": "DTSRC",
		"latitude": "29-20-0 N",
		"longitude": "86-0-0 W",
		"state": "OFFSHORE GULF",
		"artcc": "ZJX",
		"type": "RNAV",
		"updated": "06/23/2013"
	},
	{
		"name": "DTSRD",
		"latitude": "29-0-0 N",
		"longitude": "86-0-0 W",
		"state": "OFFSHORE GULF",
		"artcc": "ZJX",
		"type": "RNAV",
		"updated": "07/28/2014"
	},
	{
		"name": "DTSRE",
		"latitude": "28-40-0 N",
		"longitude": "86-0-0 W",
		"state": "OFFSHORE GULF",
		"artcc": "ZJX",
		"type": "RNAV",
		"updated": "06/23/2013"
	},
	{
		"name": "DTSRF",
		"latitude": "28-20-0 N",
		"longitude": "86-0-0 W",
		"state": "OFFSHORE GULF",
		"artcc": "ZJX",
		"type": "RNAV",
		"updated": "06/23/2013"
	},
	{
		"name": "DTSRG",
		"latitude": "28-0-0 N",
		"longitude": "86-0-0 W",
		"state": "OFFSHORE GULF",
		"artcc": "ZJX",
		"type": "RNAV",
		"updated": "07/28/2014"
	},
	{
		"name": "DTSRH",
		"latitude": "27-40-0 N",
		"longitude": "86-0-0 W",
		"state": "OFFSHORE GULF",
		"artcc": "ZJX",
		"type": "RNAV",
		"updated": "06/23/2013"
	},
	{
		"name": "DTSRI",
		"latitude": "27-20-0 N",
		"longitude": "86-0-0 W",
		"state": "OFFSHORE GULF",
		"artcc": "ZJX",
		"type": "RNAV",
		"updated": "06/23/2013"
	},
	{
		"name": "DTSRJ",
		"latitude": "27-0-0 N",
		"longitude": "86-0-0 W",
		"state": "OFFSHORE GULF",
		"artcc": "ZJX",
		"type": "RNAV",
		"updated": "06/23/2013"
	},
	{
		"name": "DTSRK",
		"latitude": "26-40-0 N",
		"longitude": "86-0-0 W",
		"state": "OFFSHORE GULF",
		"artcc": "ZJX",
		"type": "RNAV",
		"updated": "06/23/2013"
	},
	{
		"name": "DTSRL",
		"latitude": "26-20-0 N",
		"longitude": "86-0-0 W",
		"state": "OFFSHORE GULF",
		"artcc": "ZJX",
		"type": "RNAV",
		"updated": "06/23/2013"
	},
	{
		"name": "DTSRM",
		"latitude": "26-0-0 N",
		"longitude": "86-0-0 W",
		"state": "OFFSHORE GULF",
		"artcc": "ZJX",
		"type": "RNAV",
		"updated": "06/23/2013"
	},
	{
		"name": "DTSRN",
		"latitude": "25-40-0 N",
		"longitude": "86-0-0 W",
		"state": "OFFSHORE GULF",
		"artcc": "ZJX",
		"type": "RNAV",
		"updated": "06/23/2013"
	},
	{
		"name": "DTSRO",
		"latitude": "25-20-0 N",
		"longitude": "86-0-0 W",
		"state": "OFFSHORE GULF",
		"artcc": "ZJX",
		"type": "RNAV",
		"updated": "06/23/2013"
	},
	{
		"name": "DTSRP",
		"latitude": "25-0-0 N",
		"longitude": "86-0-0 W",
		"state": "OFFSHORE GULF",
		"artcc": "ZJX",
		"type": "RNAV",
		"updated": "06/23/2013"
	},
	{
		"name": "DTSRQ",
		"latitude": "24-40-0 N",
		"longitude": "86-0-0 W",
		"state": "OFFSHORE GULF",
		"artcc": "ZJX",
		"type": "RNAV",
		"updated": "06/23/2013"
	},
	{
		"name": "DUBTE",
		"latitude": "30-13-54.91 N",
		"longitude": "81-37-33.45 W",
		"state": "FLORIDA",
		"artcc": "ZJX",
		"type": "MW",
		"updated": "05/12/2015"
	},
	{
		"name": "DUCAN",
		"latitude": "32-7-37.36 N",
		"longitude": "81-2-40.08 W",
		"state": "SOUTH CAROLINA",
		"artcc": "ZJX",
		"type": "RNAV",
		"updated": "08/25/2010"
	},
	{
		"name": "DUCGE",
		"latitude": "33-23-46.04 N",
		"longitude": "80-55-45.34 W",
		"state": "SOUTH CAROLINA",
		"artcc": "ZJX",
		"type": "RNAV",
		"updated": "04/27/2010"
	},
	{
		"name": "DUCHY",
		"latitude": "31-44-17.07 N",
		"longitude": "82-54-51.16 W",
		"state": "GEORGIA",
		"artcc": "ZJX",
		"type": "RNAV",
		"updated": "08/26/2013"
	},
	{
		"name": "DUGVE",
		"latitude": "34-34-12.61 N",
		"longitude": "79-49-55.41 W",
		"state": "SOUTH CAROLINA",
		"artcc": "ZJX",
		"type": "RNAV",
		"updated": "06/22/2010"
	},
	{
		"name": "DUKME",
		"latitude": "31-12-27.15 N",
		"longitude": "85-23-37.3 W",
		"state": "ALABAMA",
		"artcc": "ZJX",
		"type": "RP",
		"updated": "RRS*VORTAC*155.29/5.00"
	},
	{
		"name": "DUMMY",
		"latitude": "31-56-55.15 N",
		"longitude": "83-13-50.56 W",
		"state": "GEORGIA",
		"artcc": "ZJX",
		"type": "RP",
		"updated": "DBN*VORTAC*214.08"
	},
	{
		"name": "DUMOY",
		"latitude": "31-5-36.11 N",
		"longitude": "84-52-23.88 W",
		"state": "GEORGIA",
		"artcc": "ZJX",
		"type": "RNAV",
		"updated": "10/24/2011"
	},
	{
		"name": "DUNGY",
		"latitude": "34-31-36.56 N",
		"longitude": "79-38-11.67 W",
		"state": "SOUTH CAROLINA",
		"artcc": "ZJX",
		"type": "RP",
		"updated": "FLO*VORTAC*006.32/17.63"
	},
	{
		"name": "DUNKN",
		"latitude": "31-58-41.86 N",
		"longitude": "81-57-55.58 W",
		"state": "GEORGIA",
		"artcc": "ZJX",
		"type": "RP",
		"updated": "CRG*VORTAC*349.68/100.91"
	},
	{
		"name": "DUNTE",
		"latitude": "30-30-58.09 N",
		"longitude": "81-51-42.68 W",
		"state": "FLORIDA",
		"artcc": "ZJX",
		"type": "RNAV",
		"updated": "08/26/2013"
	},
	{
		"name": "DURME",
		"latitude": "30-24-32.44 N",
		"longitude": "87-7-52.96 W",
		"state": "FLORIDA",
		"artcc": "ZJX",
		"type": "MW",
		"updated": "12/17/2007"
	},
	{
		"name": "DURTE",
		"latitude": "30-24-59.16 N",
		"longitude": "82-1-9.26 W",
		"state": "FLORIDA",
		"artcc": "ZJX",
		"type": "RNAV",
		"updated": "08/29/2013"
	},
	{
		"name": "DUSBE",
		"latitude": "32-31-13.08 N",
		"longitude": "80-40-40.27 W",
		"state": "SOUTH CAROLINA",
		"artcc": "ZJX",
		"type": "RNAV",
		"updated": "08/24/2015"
	},
	{
		"name": "DUTEE",
		"latitude": "34-5-31.26 N",
		"longitude": "79-48-20.53 W",
		"state": "SOUTH CAROLINA",
		"artcc": "ZJX",
		"type": "RP",
		"updated": "FLO*VORTAC*224.00/11.00"
	},
	{
		"name": "DUTTY",
		"latitude": "29-46-10.87 N",
		"longitude": "81-54-29.34 W",
		"state": "FLORIDA",
		"artcc": "ZJX",
		"type": "RP",
		"updated": "CRG*VORTAC*214.00/40.00"
	},
	{
		"name": "DUVAT",
		"latitude": "31-56-55.58 N",
		"longitude": "84-30-45.7 W",
		"state": "GEORGIA",
		"artcc": "ZJX",
		"type": "RP",
		"updated": "EUF*VORTAC*088.00"
	},
	{
		"name": "DUWOT",
		"latitude": "30-13-57.14 N",
		"longitude": "81-28-32.45 W",
		"state": "FLORIDA",
		"artcc": "ZJX",
		"type": "MW",
		"updated": "11/13/2009"
	},
	{
		"name": "DUYAL",
		"latitude": "33-50-50.38 N",
		"longitude": "80-43-30.59 W",
		"state": "SOUTH CAROLINA",
		"artcc": "ZJX",
		"type": "MR",
		"updated": "CAE*VORTAC*094.05"
	},
	{
		"name": "DUYER",
		"latitude": "31-28-56.79 N",
		"longitude": "85-40-8.31 W",
		"state": "ALABAMA",
		"artcc": "ZJX",
		"type": "RNAV",
		"updated": "12/01/2017"
	},
	{
		"name": "DUZJI",
		"latitude": "28-21-54.51 N",
		"longitude": "81-29-24.8 W",
		"state": "FLORIDA",
		"artcc": "ZJX",
		"type": "RNAV",
		"updated": "02/09/2018"
	},
	{
		"name": "DWYTE",
		"latitude": "34-15-40.28 N",
		"longitude": "79-16-0.61 W",
		"state": "SOUTH CAROLINA",
		"artcc": "ZJX",
		"type": "RP",
		"updated": "FLO*VORTAC*087.91/19.49"
	},
	{
		"name": "DYEES",
		"latitude": "29-36-0 N",
		"longitude": "88-1-0 W",
		"state": "FLORIDA",
		"artcc": "ZJX",
		"type": "RP",
		"updated": "06/11/1993"
	},
	{
		"name": "DYMND",
		"latitude": "30-54-52.55 N",
		"longitude": "83-36-59.43 W",
		"state": "GEORGIA",
		"artcc": "ZJX",
		"type": "MR",
		"updated": "VAD*TACAN*266.00/22.00"
	}
]
