[
	{
		"name": "EAGAL",
		"latitude": "33-51-25.67 N",
		"longitude": "81-49-49.98 W",
		"state": "SOUTH CAROLINA",
		"artcc": "ZJX",
		"type": "RNAV",
		"updated": "12/20/2007"
	},
	{
		"name": "EARLY",
		"latitude": "31-27-16.96 N",
		"longitude": "84-48-59.32 W",
		"state": "GEORGIA",
		"artcc": "ZJX",
		"type": "RNAV",
		"updated": "02/11/2011"
	},
	{
		"name": "EARRS",
		"latitude": "28-32-47.62 N",
		"longitude": "81-19-40.52 W",
		"state": "FLORIDA",
		"artcc": "ZJX",
		"type": "RNAV",
		"updated": "07/01/2010"
	},
	{
		"name": "EASAL",
		"latitude": "31-7-49.73 N",
		"longitude": "85-21-22.47 W",
		"state": "ALABAMA",
		"artcc": "ZJX",
		"type": "RP",
		"updated": "RRS*VORTAC*155.00/10.00"
	},
	{
		"name": "EASTO",
		"latitude": "33-51-14.04 N",
		"longitude": "80-43-12.57 W",
		"state": "SOUTH CAROLINA",
		"artcc": "ZJX",
		"type": "MR",
		"updated": "MMT*VORTAC*/5.88"
	},
	{
		"name": "EATEM",
		"latitude": "27-59-33.99 N",
		"longitude": "82-22-19.27 W",
		"state": "FLORIDA",
		"artcc": "ZJX",
		"type": "MW",
		"updated": "05/29/2007"
	},
	{
		"name": "EATNN",
		"latitude": "30-9-43.99 N",
		"longitude": "87-20-0.13 W",
		"state": "FLORIDA",
		"artcc": "ZJX",
		"type": "MW",
		"updated": "04/18/2003"
	},
	{
		"name": "EBAPE",
		"latitude": "29-51-35.31 N",
		"longitude": "82-7-43.95 W",
		"state": "FLORIDA",
		"artcc": "ZJX",
		"type": "RNAV",
		"updated": "06/18/2007"
	},
	{
		"name": "EBELS",
		"latitude": "28-28-27.81 N",
		"longitude": "82-32-51 W",
		"state": "FLORIDA",
		"artcc": "ZJX",
		"type": "RP",
		"updated": "OSV*LS*W CRS"
	},
	{
		"name": "EBERB",
		"latitude": "28-51-55.1 N",
		"longitude": "82-20-44.74 W",
		"state": "FLORIDA",
		"artcc": "ZJX",
		"type": "RNAV",
		"updated": "06/18/2013"
	},
	{
		"name": "EBESE",
		"latitude": "32-3-15.19 N",
		"longitude": "83-41-10.41 W",
		"state": "GEORGIA",
		"artcc": "ZJX",
		"type": "RNAV",
		"updated": "03/22/2017"
	},
	{
		"name": "EBETH",
		"latitude": "30-42-21.69 N",
		"longitude": "86-27-34.53 W",
		"state": "FLORIDA",
		"artcc": "ZJX",
		"type": "MR",
		"updated": "DWG*TACAN*/14.00"
	},
	{
		"name": "EBPAM",
		"latitude": "33-59-49.22 N",
		"longitude": "79-37-30.97 W",
		"state": "SOUTH CAROLINA",
		"artcc": "ZJX",
		"type": "WP",
		"updated": "11/02/1998"
	},
	{
		"name": "EBPEP",
		"latitude": "33-50-31.08 N",
		"longitude": "81-22-0.43 W",
		"state": "SOUTH CAROLINA",
		"artcc": "ZJX",
		"type": "RNAV",
		"updated": "07/12/2005"
	},
	{
		"name": "ECAKE",
		"latitude": "28-40-12.64 N",
		"longitude": "82-35-18.49 W",
		"state": "FLORIDA",
		"artcc": "ZJX",
		"type": "RNAV",
		"updated": "02/15/2010"
	},
	{
		"name": "ECUFE",
		"latitude": "30-49-13.33 N",
		"longitude": "81-24-4.92 W",
		"state": "GEORGIA",
		"artcc": "ZJX",
		"type": "RNAV",
		"updated": "08/25/2009"
	},
	{
		"name": "EDIBE",
		"latitude": "30-28-41.35 N",
		"longitude": "86-41-25.04 W",
		"state": "FLORIDA",
		"artcc": "ZJX",
		"type": "MR",
		"updated": "HRT*TACAN*360.00/3.00"
	},
	{
		"name": "EDISN",
		"latitude": "29-24-14.67 N",
		"longitude": "82-20-13.11 W",
		"state": "FLORIDA",
		"artcc": "ZJX",
		"type": "RNAV",
		"updated": "02/15/2010"
	},
	{
		"name": "EDNAH",
		"latitude": "32-49-10.29 N",
		"longitude": "79-45-41.15 W",
		"state": "SOUTH CAROLINA",
		"artcc": "ZJX",
		"type": "RNAV",
		"updated": "02/27/2010"
	},
	{
		"name": "EDOPY",
		"latitude": "30-44-20.62 N",
		"longitude": "83-15-56.16 W",
		"state": "GEORGIA",
		"artcc": "ZJX",
		"type": "RNAV",
		"updated": "03/11/2009"
	},
	{
		"name": "EDRAC",
		"latitude": "30-15-6.83 N",
		"longitude": "87-0-13.28 W",
		"state": "FLORIDA",
		"artcc": "ZJX",
		"type": "MR",
		"updated": "NGS*TACAN*188.00/22.00"
	},
	{
		"name": "EDURE",
		"latitude": "33-47-0.31 N",
		"longitude": "81-17-43.76 W",
		"state": "SOUTH CAROLINA",
		"artcc": "ZJX",
		"type": "RNAV",
		"updated": "07/12/2005"
	},
	{
		"name": "EDUVE",
		"latitude": "31-7-40.66 N",
		"longitude": "82-51-24.56 W",
		"state": "GEORGIA",
		"artcc": "ZJX",
		"type": "RNAV",
		"updated": "05/01/2015"
	},
	{
		"name": "EEGAL",
		"latitude": "33-54-39.09 N",
		"longitude": "80-31-25.48 W",
		"state": "SOUTH CAROLINA",
		"artcc": "ZJX",
		"type": "MR",
		"updated": "SSC*TACAN*/4.93"
	},
	{
		"name": "EEPEE",
		"latitude": "30-59-24.21 N",
		"longitude": "83-11-26.61 W",
		"state": "GEORGIA",
		"artcc": "ZJX",
		"type": "RP",
		"updated": "VAD*TACAN*/1.80"
	},
	{
		"name": "EFORD",
		"latitude": "31-41-48.9 N",
		"longitude": "85-24-58.78 W",
		"state": "ALABAMA",
		"artcc": "ZJX",
		"type": "RP",
		"updated": "EUF*VORTAC*222.00"
	},
	{
		"name": "EFURO",
		"latitude": "30-0-16.25 N",
		"longitude": "81-34-16.13 W",
		"state": "FLORIDA",
		"artcc": "ZJX",
		"type": "RNAV",
		"updated": "01/26/2009"
	},
	{
		"name": "EGAGE",
		"latitude": "30-34-42.78 N",
		"longitude": "81-41-50.04 W",
		"state": "FLORIDA",
		"artcc": "ZJX",
		"type": "RNAV",
		"updated": "08/26/2013"
	},
	{
		"name": "EGAME",
		"latitude": "28-33-51.38 N",
		"longitude": "83-11-45.28 W",
		"state": "OFFSHORE GULF",
		"artcc": "ZJX",
		"type": "RNAV",
		"updated": "07/15/2008"
	},
	{
		"name": "EGDUE",
		"latitude": "28-2-51.23 N",
		"longitude": "82-31-32.64 W",
		"state": "FLORIDA",
		"artcc": "ZJX",
		"type": "RNAV",
		"updated": "05/14/2007"
	},
	{
		"name": "EGEST",
		"latitude": "31-25-8.81 N",
		"longitude": "85-30-36.37 W",
		"state": "ALABAMA",
		"artcc": "ZJX",
		"type": "RP",
		"updated": "OZR*VOR/DME*049.00"
	},
	{
		"name": "EGOXY",
		"latitude": "31-32-14.22 N",
		"longitude": "81-45-58.28 W",
		"state": "GEORGIA",
		"artcc": "ZJX",
		"type": "RNAV",
		"updated": "09/15/2009"
	},
	{
		"name": "EGULE",
		"latitude": "33-54-22.3 N",
		"longitude": "80-47-5.78 W",
		"state": "SOUTH CAROLINA",
		"artcc": "ZJX",
		"type": "MR",
		"updated": "MMT*VORTAC*/1.38"
	},
	{
		"name": "EHEBA",
		"latitude": "31-5-49.8 N",
		"longitude": "87-9-54.82 W",
		"state": "ALABAMA",
		"artcc": "ZJX",
		"type": "RNAV",
		"updated": "02/01/2010"
	},
	{
		"name": "EHEJO",
		"latitude": "32-23-28.23 N",
		"longitude": "82-5-11.02 W",
		"state": "GEORGIA",
		"artcc": "ZJX",
		"type": "RP",
		"updated": "DBN*VORTAC*110.09/39.13"
	},
	{
		"name": "EHGOP",
		"latitude": "29-52-59.73 N",
		"longitude": "83-41-1.63 W",
		"state": "FLORIDA",
		"artcc": "ZJX",
		"type": "RNAV",
		"updated": "08/11/2010"
	},
	{
		"name": "EHSUT",
		"latitude": "31-24-48.01 N",
		"longitude": "82-18-12.24 W",
		"state": "GEORGIA",
		"artcc": "ZJX",
		"type": "WP",
		"updated": "11/02/1998"
	},
	{
		"name": "EJIPE",
		"latitude": "31-3-22.04 N",
		"longitude": "82-18-50 W",
		"state": "GEORGIA",
		"artcc": "ZJX",
		"type": "RP",
		"updated": "AYS*VORTAC*135.58/17.86"
	},
	{
		"name": "EJOLA",
		"latitude": "28-41-21.84 N",
		"longitude": "81-37-35.46 W",
		"state": "FLORIDA",
		"artcc": "ZJX",
		"type": "RNAV",
		"updated": "11/03/2011"
	},
	{
		"name": "EJOPA",
		"latitude": "34-14-0.65 N",
		"longitude": "78-46-47.18 W",
		"state": "NORTH CAROLINA",
		"artcc": "ZJX",
		"type": "CN",
		"updated": "11/28/2000"
	},
	{
		"name": "EJSEV",
		"latitude": "30-13-52.42 N",
		"longitude": "83-13-54.02 W",
		"state": "FLORIDA",
		"artcc": "ZJX",
		"type": "RNAV",
		"updated": "11/01/2013"
	},
	{
		"name": "EKITE",
		"latitude": "32-23-21.1 N",
		"longitude": "80-40-55.16 W",
		"state": "SOUTH CAROLINA",
		"artcc": "ZJX",
		"type": "RNAV",
		"updated": "06/08/2010"
	},
	{
		"name": "EKIWO",
		"latitude": "31-15-11.53 N",
		"longitude": "81-42-49.18 W",
		"state": "GEORGIA",
		"artcc": "ZJX",
		"type": "RNAV",
		"updated": "09/15/2009"
	},
	{
		"name": "ELAGE",
		"latitude": "30-26-29.57 N",
		"longitude": "82-40-10.86 W",
		"state": "FLORIDA",
		"artcc": "ZJX",
		"type": "RNAV",
		"updated": "08/29/2013"
	},
	{
		"name": "ELIJE",
		"latitude": "28-2-12.3 N",
		"longitude": "82-16-2.99 W",
		"state": "FLORIDA",
		"artcc": "ZJX",
		"type": "RNAV",
		"updated": "12/09/2010"
	},
	{
		"name": "ELISS",
		"latitude": "30-17-35.71 N",
		"longitude": "86-33-45.2 W",
		"state": "FLORIDA",
		"artcc": "ZJX",
		"type": "MW",
		"updated": "01/26/2010"
	},
	{
		"name": "ELLAN",
		"latitude": "28-35-5.99 N",
		"longitude": "81-17-50.81 W",
		"state": "FLORIDA",
		"artcc": "ZJX",
		"type": "RP",
		"updated": "DIZ*LD*005.47/10.76"
	},
	{
		"name": "ELLOT",
		"latitude": "34-15-53.35 N",
		"longitude": "80-13-34.35 W",
		"state": "SOUTH CAROLINA",
		"artcc": "ZJX",
		"type": "MR",
		"updated": "SSC*TACAN*037.00/19.00"
	},
	{
		"name": "ELMOE",
		"latitude": "31-17-7.4 N",
		"longitude": "84-19-13.73 W",
		"state": "GEORGIA",
		"artcc": "ZJX",
		"type": "RP",
		"updated": "PZD*VOR/DME*185.64/22.19"
	},
	{
		"name": "ELOBE",
		"latitude": "30-40-13.07 N",
		"longitude": "87-5-31.59 W",
		"state": "FLORIDA",
		"artcc": "ZJX",
		"type": "MR",
		"updated": "NSE*TACAN*232.00/5.00"
	},
	{
		"name": "ELOME",
		"latitude": "28-17-39.72 N",
		"longitude": "82-5-25.93 W",
		"state": "FLORIDA",
		"artcc": "ZJX",
		"type": "RNAV",
		"updated": "08/14/2014"
	},
	{
		"name": "ELTOP",
		"latitude": "30-55-38.94 N",
		"longitude": "85-11-8.45 W",
		"state": "FLORIDA",
		"artcc": "ZJX",
		"type": "RNAV",
		"updated": "12/15/2015"
	},
	{
		"name": "EMCEE",
		"latitude": "30-47-33.83 N",
		"longitude": "78-27-33.02 W",
		"state": "OFFSHORE ATLANTIC",
		"artcc": "ZJX",
		"type": "RNAV",
		"updated": "05/02/2008"
	},
	{
		"name": "EMDIH",
		"latitude": "31-24-27.2 N",
		"longitude": "82-55-18.84 W",
		"state": "GEORGIA",
		"artcc": "ZJX",
		"type": "RNAV",
		"updated": "07/10/2011"
	},
	{
		"name": "EMPEE",
		"latitude": "30-48-23 N",
		"longitude": "82-56-19 W",
		"state": "GEORGIA",
		"artcc": "ZJX",
		"type": "RNAV",
		"updated": "08/12/2012"
	},
	{
		"name": "EMPRS",
		"latitude": "31-12-26.38 N",
		"longitude": "83-11-18.99 W",
		"state": "GEORGIA",
		"artcc": "ZJX",
		"type": "MW",
		"updated": "04/12/2017"
	},
	{
		"name": "EMUSY",
		"latitude": "31-2-19.84 N",
		"longitude": "87-18-48.21 W",
		"state": "ALABAMA",
		"artcc": "ZJX",
		"type": "RNAV",
		"updated": "02/22/2010"
	},
	{
		"name": "EMVEE",
		"latitude": "30-24-14.57 N",
		"longitude": "86-41-11.04 W",
		"state": "FLORIDA",
		"artcc": "ZJX",
		"type": "MR",
		"updated": "HRT*TACAN*175.00/1.45"
	},
	{
		"name": "EMVUF",
		"latitude": "31-21-51.68 N",
		"longitude": "85-21-21.8 W",
		"state": "ALABAMA",
		"artcc": "ZJX",
		"type": "RNAV",
		"updated": "03/26/2012"
	},
	{
		"name": "ENANE",
		"latitude": "33-25-2.58 N",
		"longitude": "81-33-27.75 W",
		"state": "SOUTH CAROLINA",
		"artcc": "ZJX",
		"type": "RNAV",
		"updated": "10/21/2005"
	},
	{
		"name": "ENDED",
		"latitude": "28-24-35.14 N",
		"longitude": "82-47-3.97 W",
		"state": "FLORIDA",
		"artcc": "ZJX",
		"type": "RP",
		"updated": "PIE*VORTAC*355.00/30.50"
	},
	{
		"name": "ENDOW",
		"latitude": "31-13-37.13 N",
		"longitude": "83-12-35.02 W",
		"state": "GEORGIA",
		"artcc": "ZJX",
		"type": "MR",
		"updated": "VAD*TACAN*360.00/16.00"
	},
	{
		"name": "ENLOW",
		"latitude": "28-36-14.36 N",
		"longitude": "81-10-41.12 W",
		"state": "FLORIDA",
		"artcc": "ZJX",
		"type": "RP",
		"updated": "EXO*LD*072.71/9.44"
	},
	{
		"name": "ENRLD",
		"latitude": "30-29-59.26 N",
		"longitude": "86-30-40.21 W",
		"state": "FLORIDA",
		"artcc": "ZJX",
		"type": "MW",
		"updated": "05/14/2008"
	},
	{
		"name": "ENSLY",
		"latitude": "30-47-3.49 N",
		"longitude": "87-29-11.66 W",
		"state": "FLORIDA",
		"artcc": "ZJX",
		"type": "MR",
		"updated": "NPA*TACAN*340.00/27.00"
	},
	{
		"name": "ENUCI",
		"latitude": "31-16-4.1 N",
		"longitude": "85-4-18.31 W",
		"state": "GEORGIA",
		"artcc": "ZJX",
		"type": "RNAV",
		"updated": "02/11/2011"
	},
	{
		"name": "ENUGE",
		"latitude": "33-55-4.99 N",
		"longitude": "81-1-5.99 W",
		"state": "SOUTH CAROLINA",
		"artcc": "ZJX",
		"type": "RNAV",
		"updated": "07/14/2009"
	},
	{
		"name": "EPARR",
		"latitude": "31-4-18.15 N",
		"longitude": "85-48-49.54 W",
		"state": "ALABAMA",
		"artcc": "ZJX",
		"type": "MW",
		"updated": "09/18/2008"
	},
	{
		"name": "EPAZE",
		"latitude": "32-51-36.91 N",
		"longitude": "81-5-38.62 W",
		"state": "SOUTH CAROLINA",
		"artcc": "ZJX",
		"type": "RNAV",
		"updated": "08/21/2013"
	},
	{
		"name": "EPEDE",
		"latitude": "32-37-38.32 N",
		"longitude": "81-54-38.81 W",
		"state": "GEORGIA",
		"artcc": "ZJX",
		"type": "RNAV",
		"updated": "07/01/2014"
	},
	{
		"name": "EPEXE",
		"latitude": "30-18-39.03 N",
		"longitude": "87-25-6.63 W",
		"state": "FLORIDA",
		"artcc": "ZJX",
		"type": "MR",
		"updated": "NPA*TACAN*241.00/6.00"
	},
	{
		"name": "EPNIF",
		"latitude": "28-36-39.88 N",
		"longitude": "82-15-57.15 W",
		"state": "FLORIDA",
		"artcc": "ZJX",
		"type": "RNAV",
		"updated": "05/19/2009"
	},
	{
		"name": "EPOLE",
		"latitude": "32-30-51.64 N",
		"longitude": "80-25-17.85 W",
		"state": "SOUTH CAROLINA",
		"artcc": "ZJX",
		"type": "RNAV",
		"updated": "06/08/2010"
	},
	{
		"name": "EPPAR",
		"latitude": "31-59-9 N",
		"longitude": "77-35-29 W",
		"state": "OFFSHORE ATLANTIC",
		"artcc": "ZJX",
		"type": "WP",
		"updated": "03/26/2002"
	},
	{
		"name": "EPXOM",
		"latitude": "30-7-44.91 N",
		"longitude": "81-24-21.88 W",
		"state": "FLORIDA",
		"artcc": "ZJX",
		"type": "RNAV",
		"updated": "01/25/2013"
	},
	{
		"name": "EQAGY",
		"latitude": "30-28-23.13 N",
		"longitude": "84-33-21.88 W",
		"state": "FLORIDA",
		"artcc": "ZJX",
		"type": "RNAV",
		"updated": "11/20/2002"
	},
	{
		"name": "EQUIP",
		"latitude": "30-41-34.11 N",
		"longitude": "83-11-33.12 W",
		"state": "GEORGIA",
		"artcc": "ZJX",
		"type": "MR",
		"updated": "VAD*TACAN*182.83/16.00"
	},
	{
		"name": "ERIKR",
		"latitude": "30-29-19.63 N",
		"longitude": "86-33-7.93 W",
		"state": "FLORIDA",
		"artcc": "ZJX",
		"type": "MW",
		"updated": "01/26/2010"
	},
	{
		"name": "ERINC",
		"latitude": "30-9-45.7 N",
		"longitude": "87-25-33.84 W",
		"state": "FLORIDA",
		"artcc": "ZJX",
		"type": "MR",
		"updated": "NPA*TACAN*205.00/13.00"
	},
	{
		"name": "ERKAF",
		"latitude": "28-8-17.5 N",
		"longitude": "82-9-13.93 W",
		"state": "FLORIDA",
		"artcc": "ZJX",
		"type": "RNAV",
		"updated": "12/09/2010"
	},
	{
		"name": "ERKEY",
		"latitude": "28-5-8.98 N",
		"longitude": "82-16-18.39 W",
		"state": "FLORIDA",
		"artcc": "ZJX",
		"type": "RP",
		"updated": "LAL*VORTAC*292.59"
	},
	{
		"name": "ERNIE",
		"latitude": "33-43-37.55 N",
		"longitude": "80-58-38.83 W",
		"state": "SOUTH CAROLINA",
		"artcc": "ZJX",
		"type": "RP",
		"updated": "CAE*VORTAC*155.87/8.68"
	},
	{
		"name": "EROLE",
		"latitude": "30-13-59.56 N",
		"longitude": "87-31-16.98 W",
		"state": "FLORIDA",
		"artcc": "ZJX",
		"type": "MR",
		"updated": "NPA*TACAN*234.00/13.00"
	},
	{
		"name": "EROMY",
		"latitude": "32-18-34.53 N",
		"longitude": "80-50-47.82 W",
		"state": "SOUTH CAROLINA",
		"artcc": "ZJX",
		"type": "RNAV",
		"updated": "06/08/2010"
	},
	{
		"name": "ERUCA",
		"latitude": "31-21-53.71 N",
		"longitude": "85-23-56.08 W",
		"state": "ALABAMA",
		"artcc": "ZJX",
		"type": "RNAV",
		"updated": "03/26/2012"
	},
	{
		"name": "ESAKE",
		"latitude": "30-42-15.31 N",
		"longitude": "86-58-27.07 W",
		"state": "FLORIDA",
		"artcc": "ZJX",
		"type": "MR",
		"updated": "CEW*VORTAC*241.50/16.91"
	},
	{
		"name": "ESENT",
		"latitude": "32-9-28.13 N",
		"longitude": "80-55-3.78 W",
		"state": "SOUTH CAROLINA",
		"artcc": "ZJX",
		"type": "RNAV",
		"updated": "08/26/2013"
	},
	{
		"name": "ESLAC",
		"latitude": "30-25-5.98 N",
		"longitude": "81-45-36.46 W",
		"state": "FLORIDA",
		"artcc": "ZJX",
		"type": "RNAV",
		"updated": "10/07/2014"
	},
	{
		"name": "ESMUY",
		"latitude": "32-16-18.15 N",
		"longitude": "83-6-38.65 W",
		"state": "GEORGIA",
		"artcc": "ZJX",
		"type": "RNAV",
		"updated": "04/04/2014"
	},
	{
		"name": "ESRAQ",
		"latitude": "28-27-48.06 N",
		"longitude": "81-32-51.68 W",
		"state": "FLORIDA",
		"artcc": "ZJX",
		"type": "RP",
		"updated": "ORL*VORTAC*247.15/12.20"
	},
	{
		"name": "ESVAC",
		"latitude": "34-12-24.61 N",
		"longitude": "79-30-10.49 W",
		"state": "SOUTH CAROLINA",
		"artcc": "ZJX",
		"type": "RNAV",
		"updated": "08/01/2011"
	},
	{
		"name": "ETHEN",
		"latitude": "30-28-22.4 N",
		"longitude": "86-31-4.36 W",
		"state": "FLORIDA",
		"artcc": "ZJX",
		"type": "MW",
		"updated": "05/15/2008"
	},
	{
		"name": "ETMIF",
		"latitude": "34-44-41.28 N",
		"longitude": "79-51-0.3 W",
		"state": "SOUTH CAROLINA",
		"artcc": "ZJX",
		"type": "RNAV",
		"updated": "09/12/2013"
	},
	{
		"name": "ETORE",
		"latitude": "29-41-49 N",
		"longitude": "81-40-47.75 W",
		"state": "FLORIDA",
		"artcc": "ZJX",
		"type": "RNAV",
		"updated": "01/11/2018"
	},
	{
		"name": "ETWUZ",
		"latitude": "31-10-20.75 N",
		"longitude": "81-54-20.81 W",
		"state": "GEORGIA",
		"artcc": "ZJX",
		"type": "RNAV",
		"updated": "10/23/2011"
	},
	{
		"name": "EVACI",
		"latitude": "30-39-13.16 N",
		"longitude": "86-30-48.26 W",
		"state": "FLORIDA",
		"artcc": "ZJX",
		"type": "MW",
		"updated": "12/09/2010"
	},
	{
		"name": "EWALL",
		"latitude": "31-26-3.4 N",
		"longitude": "85-39-18.87 W",
		"state": "ALABAMA",
		"artcc": "ZJX",
		"type": "MR",
		"updated": "HEY*VOR*356.00"
	},
	{
		"name": "EWASI",
		"latitude": "29-44-18.42 N",
		"longitude": "82-24-18.44 W",
		"state": "FLORIDA",
		"artcc": "ZJX",
		"type": "RNAV",
		"updated": "12/05/2007"
	},
	{
		"name": "EWOSO",
		"latitude": "30-11-50.88 N",
		"longitude": "83-3-49.09 W",
		"state": "FLORIDA",
		"artcc": "ZJX",
		"type": "RNAV",
		"updated": "02/07/2008"
	},
	{
		"name": "EXBOX",
		"latitude": "29-52-48.59 N",
		"longitude": "81-10-12.47 W",
		"state": "FLORIDA",
		"artcc": "ZJX",
		"type": "RNAV",
		"updated": "08/29/2013"
	},
	{
		"name": "EXKAF",
		"latitude": "30-7-0.09 N",
		"longitude": "81-40-25.3 W",
		"state": "FLORIDA",
		"artcc": "ZJX",
		"type": "RNAV",
		"updated": "10/07/2014"
	},
	{
		"name": "EXROK",
		"latitude": "29-25-37.94 N",
		"longitude": "82-23-29.49 W",
		"state": "FLORIDA",
		"artcc": "ZJX",
		"type": "RNAV",
		"updated": "02/01/2007"
	},
	{
		"name": "EXTAL",
		"latitude": "28-52-3.12 N",
		"longitude": "82-36-31.67 W",
		"state": "FLORIDA",
		"artcc": "ZJX",
		"type": "RNAV",
		"updated": "06/14/2013"
	},
	{
		"name": "EXUTE",
		"latitude": "29-46-9.37 N",
		"longitude": "84-56-35.31 W",
		"state": "FLORIDA",
		"artcc": "ZJX",
		"type": "RNAV",
		"updated": "04/12/2012"
	},
	{
		"name": "EYICI",
		"latitude": "31-58-52.75 N",
		"longitude": "83-43-14.41 W",
		"state": "GEORGIA",
		"artcc": "ZJX",
		"type": "RNAV",
		"updated": "03/22/2017"
	},
	{
		"name": "EYILA",
		"latitude": "34-43-25.75 N",
		"longitude": "80-12-58.22 W",
		"state": "SOUTH CAROLINA",
		"artcc": "ZJX",
		"type": "RNAV",
		"updated": "01/29/2007"
	},
	{
		"name": "EYITO",
		"latitude": "30-22-9.5 N",
		"longitude": "87-16-31.48 W",
		"state": "FLORIDA",
		"artcc": "ZJX",
		"type": "RNAV",
		"updated": "05/01/2008"
	},
	{
		"name": "EYLND",
		"latitude": "30-25-40.59 N",
		"longitude": "81-47-33.06 W",
		"state": "FLORIDA",
		"artcc": "ZJX",
		"type": "RNAV",
		"updated": "08/26/2013"
	},
	{
		"name": "EYORE",
		"latitude": "29-6-7.33 N",
		"longitude": "81-0-49.46 W",
		"state": "FLORIDA",
		"artcc": "ZJX",
		"type": "RNAV",
		"updated": "03/18/2011"
	},
	{
		"name": "EYOTA",
		"latitude": "31-52-44.55 N",
		"longitude": "81-11-59.93 W",
		"state": "GEORGIA",
		"artcc": "ZJX",
		"type": "RP",
		"updated": "SAV*VORTAC*186.16/16.00"
	},
	{
		"name": "EYXEV",
		"latitude": "30-37-30.83 N",
		"longitude": "86-31-23.34 W",
		"state": "FLORIDA",
		"artcc": "ZJX",
		"type": "RP",
		"updated": "DWG*TACAN*359.23/8.80"
	},
	{
		"name": "EZADO",
		"latitude": "29-17-15.79 N",
		"longitude": "81-11-55.22 W",
		"state": "FLORIDA",
		"artcc": "ZJX",
		"type": "RNAV",
		"updated": "09/09/2013"
	},
	{
		"name": "EZAFY",
		"latitude": "33-5-6.27 N",
		"longitude": "80-47-43.25 W",
		"state": "SOUTH CAROLINA",
		"artcc": "ZJX",
		"type": "RNAV",
		"updated": "01/01/2010"
	},
	{
		"name": "EZDAW",
		"latitude": "30-47-7.42 N",
		"longitude": "81-19-0.59 W",
		"state": "GEORGIA",
		"artcc": "ZJX",
		"type": "RNAV",
		"updated": "04/18/2010"
	},
	{
		"name": "EZZGO",
		"latitude": "33-31-30.9 N",
		"longitude": "81-47-54.79 W",
		"state": "SOUTH CAROLINA",
		"artcc": "ZJX",
		"type": "RNAV",
		"updated": "09/03/2010"
	}
]
