[
	{
		"name": "FABAG",
		"latitude": "33-53-29.28 N",
		"longitude": "80-53-50.17 W",
		"state": "SOUTH CAROLINA",
		"artcc": "ZJX",
		"type": "RNAV",
		"updated": "07/14/2009"
	},
	{
		"name": "FABAK",
		"latitude": "30-36-25.71 N",
		"longitude": "87-1-22.1 W",
		"state": "FLORIDA",
		"artcc": "ZJX",
		"type": "MR",
		"updated": "NSE*TACAN*184.00/7.00"
	},
	{
		"name": "FABES",
		"latitude": "29-51-11.2 N",
		"longitude": "82-12-8.33 W",
		"state": "FLORIDA",
		"artcc": "ZJX",
		"type": "RNAV",
		"updated": "09/30/2014"
	},
	{
		"name": "FABIV",
		"latitude": "29-30-52.69 N",
		"longitude": "81-7-32.76 W",
		"state": "FLORIDA",
		"artcc": "ZJX",
		"type": "RNAV",
		"updated": "03/25/2004"
	},
	{
		"name": "FADDI",
		"latitude": "28-9-25.1 N",
		"longitude": "82-32-8.73 W",
		"state": "FLORIDA",
		"artcc": "ZJX",
		"type": "RP",
		"updated": "JRT*LD*006.73/11.77"
	},
	{
		"name": "FAGAN",
		"latitude": "29-25-45.01 N",
		"longitude": "82-36-29.37 W",
		"state": "FLORIDA",
		"artcc": "ZJX",
		"type": "RP",
		"updated": "PIE*VORTAC*001.51/91.14"
	},
	{
		"name": "FAGAR",
		"latitude": "30-12-10.91 N",
		"longitude": "82-41-26.66 W",
		"state": "FLORIDA",
		"artcc": "ZJX",
		"type": "RNAV",
		"updated": "02/12/2008"
	},
	{
		"name": "FAIRA",
		"latitude": "34-19-15.12 N",
		"longitude": "81-6-13.22 W",
		"state": "SOUTH CAROLINA",
		"artcc": "ZJX",
		"type": "RNAV",
		"updated": "09/20/2010"
	},
	{
		"name": "FAMID",
		"latitude": "31-35-51.72 N",
		"longitude": "83-35-55.07 W",
		"state": "GEORGIA",
		"artcc": "ZJX",
		"type": "RNAV",
		"updated": "08/21/2017"
	},
	{
		"name": "FAMOD",
		"latitude": "30-23-9.42 N",
		"longitude": "87-13-15.03 W",
		"state": "FLORIDA",
		"artcc": "ZJX",
		"type": "MW",
		"updated": "06/30/2016"
	},
	{
		"name": "FAMVU",
		"latitude": "31-24-2.13 N",
		"longitude": "86-55-42.87 W",
		"state": "ALABAMA",
		"artcc": "ZJX",
		"type": "RNAV",
		"updated": "02/25/2013"
	},
	{
		"name": "FANTU",
		"latitude": "30-37-48.6 N",
		"longitude": "86-53-55.85 W",
		"state": "FLORIDA",
		"artcc": "ZJX",
		"type": "MW",
		"updated": "12/09/2010"
	},
	{
		"name": "FAPEX",
		"latitude": "30-48-22.37 N",
		"longitude": "84-53-15.57 W",
		"state": "GEORGIA",
		"artcc": "ZJX",
		"type": "RNAV",
		"updated": "10/24/2011"
	},
	{
		"name": "FAPLI",
		"latitude": "32-15-12.71 N",
		"longitude": "81-20-58.78 W",
		"state": "GEORGIA",
		"artcc": "ZJX",
		"type": "RP",
		"updated": "SAV*VORTAC*316.00/10.00"
	},
	{
		"name": "FAROT",
		"latitude": "30-24-28.09 N",
		"longitude": "81-51-5.56 W",
		"state": "FLORIDA",
		"artcc": "ZJX",
		"type": "RNAV",
		"updated": "03/06/2015"
	},
	{
		"name": "FARRL",
		"latitude": "32-35-26.83 N",
		"longitude": "80-51-19.58 W",
		"state": "SOUTH CAROLINA",
		"artcc": "ZJX",
		"type": "RNAV",
		"updated": "12/28/2017"
	},
	{
		"name": "FASEK",
		"latitude": "30-30-16.36 N",
		"longitude": "83-13-18.64 W",
		"state": "FLORIDA",
		"artcc": "ZJX",
		"type": "RP",
		"updated": "OTK*VOR/DME*/16.79"
	},
	{
		"name": "FASNO",
		"latitude": "34-2-43.92 N",
		"longitude": "80-24-38.49 W",
		"state": "SOUTH CAROLINA",
		"artcc": "ZJX",
		"type": "MR",
		"updated": "SSC*TACAN*042.34/4.91"
	},
	{
		"name": "FATEX",
		"latitude": "31-41-27.33 N",
		"longitude": "82-29-33.98 W",
		"state": "GEORGIA",
		"artcc": "ZJX",
		"type": "RNAV",
		"updated": "04/03/2012"
	},
	{
		"name": "FATSU",
		"latitude": "33-26-43.63 N",
		"longitude": "81-27-50.15 W",
		"state": "SOUTH CAROLINA",
		"artcc": "ZJX",
		"type": "RNAV",
		"updated": "10/21/2005"
	},
	{
		"name": "FATTY",
		"latitude": "29-21-30 N",
		"longitude": "82-4-14 W",
		"state": "FLORIDA",
		"artcc": "ZJX",
		"type": "RNAV",
		"updated": "02/11/2010"
	},
	{
		"name": "FAVUV",
		"latitude": "28-29-54.32 N",
		"longitude": "81-19-39.06 W",
		"state": "FLORIDA",
		"artcc": "ZJX",
		"type": "RNAV",
		"updated": "07/01/2010"
	},
	{
		"name": "FAWMU",
		"latitude": "33-40-15.38 N",
		"longitude": "79-14-20.8 W",
		"state": "SOUTH CAROLINA",
		"artcc": "ZJX",
		"type": "RNAV",
		"updated": "09/21/2011"
	},
	{
		"name": "FAYPU",
		"latitude": "31-6-14.83 N",
		"longitude": "81-55-8.49 W",
		"state": "GEORGIA",
		"artcc": "ZJX",
		"type": "RNAV",
		"updated": "10/23/2011"
	},
	{
		"name": "FEBKA",
		"latitude": "30-3-23.97 N",
		"longitude": "84-19-39.49 W",
		"state": "FLORIDA",
		"artcc": "ZJX",
		"type": "MR",
		"updated": "SZW*VORTAC*173.39/30.00"
	},
	{
		"name": "FEBTO",
		"latitude": "31-58-30.35 N",
		"longitude": "83-39-55.84 W",
		"state": "GEORGIA",
		"artcc": "ZJX",
		"type": "RNAV",
		"updated": "03/22/2017"
	},
	{
		"name": "FEBUL",
		"latitude": "31-30-29.92 N",
		"longitude": "83-32-46.95 W",
		"state": "GEORGIA",
		"artcc": "ZJX",
		"type": "RNAV",
		"updated": "06/14/2016"
	},
	{
		"name": "FEDIP",
		"latitude": "30-51-44.79 N",
		"longitude": "86-31-28.83 W",
		"state": "FLORIDA",
		"artcc": "ZJX",
		"type": "MR",
		"updated": "DWG*TACAN*359.51/23.00"
	},
	{
		"name": "FEDKO",
		"latitude": "33-7-30.5 N",
		"longitude": "80-35-40.76 W",
		"state": "SOUTH CAROLINA",
		"artcc": "ZJX",
		"type": "RNAV",
		"updated": "02/05/2008"
	},
	{
		"name": "FEDLU",
		"latitude": "33-47-43.61 N",
		"longitude": "80-26-57.8 W",
		"state": "SOUTH CAROLINA",
		"artcc": "ZJX",
		"type": "RNAV",
		"updated": "10/01/2009"
	},
	{
		"name": "FEDSA",
		"latitude": "30-7-18.92 N",
		"longitude": "80-39-13.3 W",
		"state": "FLORIDA",
		"artcc": "ZJX",
		"type": "RNAV",
		"updated": "01/22/2008"
	},
	{
		"name": "FEGIM",
		"latitude": "32-59-44.58 N",
		"longitude": "80-1-19.83 W",
		"state": "SOUTH CAROLINA",
		"artcc": "ZJX",
		"type": "RNAV",
		"updated": "06/13/2012"
	},
	{
		"name": "FEGOP",
		"latitude": "31-8-8.89 N",
		"longitude": "82-33-20.96 W",
		"state": "GEORGIA",
		"artcc": "ZJX",
		"type": "RP",
		"updated": "AYS*VORTAC*180.00/8.00"
	},
	{
		"name": "FEJYY",
		"latitude": "31-22-12.07 N",
		"longitude": "81-53-42.09 W",
		"state": "GEORGIA",
		"artcc": "ZJX",
		"type": "RNAV",
		"updated": "09/15/2009"
	},
	{
		"name": "FEKAD",
		"latitude": "30-23-35.02 N",
		"longitude": "84-6-40.27 W",
		"state": "FLORIDA",
		"artcc": "ZJX",
		"type": "RNAV",
		"updated": "05/19/2015"
	},
	{
		"name": "FEKAV",
		"latitude": "30-22-6.12 N",
		"longitude": "87-12-5.54 W",
		"state": "FLORIDA",
		"artcc": "ZJX",
		"type": "MR",
		"updated": "NPA*TACAN*083.00/6.00"
	},
	{
		"name": "FEKBA",
		"latitude": "30-3-23.59 N",
		"longitude": "84-19-45.05 W",
		"state": "FLORIDA",
		"artcc": "ZJX",
		"type": "RP",
		"updated": "SZW*VORTAC*173.54/30.00"
	},
	{
		"name": "FEKRA",
		"latitude": "31-16-56 N",
		"longitude": "85-24-18.83 W",
		"state": "ALABAMA",
		"artcc": "ZJX",
		"type": "RP",
		"updated": "OZR*VOR/DME*090.16"
	},
	{
		"name": "FELEX",
		"latitude": "29-43-59.26 N",
		"longitude": "85-13-59.92 W",
		"state": "FLORIDA",
		"artcc": "ZJX",
		"type": "MR",
		"updated": "PAM*TACAN*143.00/27.00"
	},
	{
		"name": "FELTZ",
		"latitude": "30-6-31.73 N",
		"longitude": "82-19-40.17 W",
		"state": "FLORIDA",
		"artcc": "ZJX",
		"type": "RNAV",
		"updated": "08/29/2013"
	},
	{
		"name": "FELUK",
		"latitude": "28-36-15.24 N",
		"longitude": "81-16-13.65 W",
		"state": "FLORIDA",
		"artcc": "ZJX",
		"type": "RNAV",
		"updated": "07/01/2010"
	},
	{
		"name": "FEMBA",
		"latitude": "29-15-48.84 N",
		"longitude": "81-5-28.49 W",
		"state": "FLORIDA",
		"artcc": "ZJX",
		"type": "RNAV",
		"updated": "04/05/2004"
	},
	{
		"name": "FEMON",
		"latitude": "30-27-31.57 N",
		"longitude": "81-23-36.2 W",
		"state": "FLORIDA",
		"artcc": "ZJX",
		"type": "RNAV",
		"updated": "01/11/2018"
	},
	{
		"name": "FEONA",
		"latitude": "31-36-21.51 N",
		"longitude": "84-43-7.82 W",
		"state": "GEORGIA",
		"artcc": "ZJX",
		"type": "RNAV",
		"updated": "04/03/2017"
	},
	{
		"name": "FEPID",
		"latitude": "32-42-19.18 N",
		"longitude": "80-8-30.79 W",
		"state": "SOUTH CAROLINA",
		"artcc": "ZJX",
		"type": "RNAV",
		"updated": "06/02/2011"
	},
	{
		"name": "FEPIM",
		"latitude": "32-38-27.91 N",
		"longitude": "80-34-41.2 W",
		"state": "SOUTH CAROLINA",
		"artcc": "ZJX",
		"type": "RP",
		"updated": "NBC*TACAN*041.00/12.00"
	},
	{
		"name": "FEPIP",
		"latitude": "30-23-1.75 N",
		"longitude": "87-1-44.58 W",
		"state": "FLORIDA",
		"artcc": "ZJX",
		"type": "MR",
		"updated": "NPA*TACAN*083.00/15.00"
	},
	{
		"name": "FERAT",
		"latitude": "30-23-30.51 N",
		"longitude": "84-17-33.48 W",
		"state": "FLORIDA",
		"artcc": "ZJX",
		"type": "RNAV",
		"updated": "11/20/2002"
	},
	{
		"name": "FESJY",
		"latitude": "32-58-52.05 N",
		"longitude": "79-48-20.49 W",
		"state": "SOUTH CAROLINA",
		"artcc": "ZJX",
		"type": "RNAV",
		"updated": "02/27/2010"
	},
	{
		"name": "FESOM",
		"latitude": "33-17-38.29 N",
		"longitude": "81-41-1.62 W",
		"state": "SOUTH CAROLINA",
		"artcc": "ZJX",
		"type": "RNAV",
		"updated": "03/24/2004"
	},
	{
		"name": "FESUS",
		"latitude": "31-26-23.67 N",
		"longitude": "84-9-38.21 W",
		"state": "GEORGIA",
		"artcc": "ZJX",
		"type": "RNAV",
		"updated": "02/26/2013"
	},
	{
		"name": "FETIP",
		"latitude": "32-53-47.56 N",
		"longitude": "79-52-46.12 W",
		"state": "SOUTH CAROLINA",
		"artcc": "ZJX",
		"type": "RP",
		"updated": "CHS*VORTAC*094.00/8.00"
	},
	{
		"name": "FETUK",
		"latitude": "31-11-49.48 N",
		"longitude": "84-19-54.34 W",
		"state": "GEORGIA",
		"artcc": "ZJX",
		"type": "RNAV",
		"updated": "03/04/2013"
	},
	{
		"name": "FEVAL",
		"latitude": "31-25-55.8 N",
		"longitude": "82-33-24.96 W",
		"state": "GEORGIA",
		"artcc": "ZJX",
		"type": "RNAV",
		"updated": "12/28/2015"
	},
	{
		"name": "FEVKO",
		"latitude": "32-5-10.75 N",
		"longitude": "82-36-36.68 W",
		"state": "GEORGIA",
		"artcc": "ZJX",
		"type": "RNAV",
		"updated": "07/07/2015"
	},
	{
		"name": "FEVMA",
		"latitude": "29-33-29.96 N",
		"longitude": "82-22-36.45 W",
		"state": "FLORIDA",
		"artcc": "ZJX",
		"type": "RNAV",
		"updated": "02/01/2007"
	},
	{
		"name": "FEVNA",
		"latitude": "32-7-4.21 N",
		"longitude": "82-21-52.88 W",
		"state": "GEORGIA",
		"artcc": "ZJX",
		"type": "RNAV",
		"updated": "04/15/2008"
	},
	{
		"name": "FEXEM",
		"latitude": "32-7-34.21 N",
		"longitude": "80-57-48.56 W",
		"state": "SOUTH CAROLINA",
		"artcc": "ZJX",
		"type": "RNAV",
		"updated": "08/25/2010"
	},
	{
		"name": "FEZCU",
		"latitude": "29-35-34.25 N",
		"longitude": "84-52-35.33 W",
		"state": "FLORIDA",
		"artcc": "ZJX",
		"type": "RNAV",
		"updated": "07/16/2007"
	},
	{
		"name": "FFMGN",
		"latitude": "32-3-54.93 N",
		"longitude": "81-2-43.3 W",
		"state": "GEORGIA",
		"artcc": "ZJX",
		"type": "CN",
		"updated": "08/25/2010"
	},
	{
		"name": "FFNSH",
		"latitude": "34-24-27.9 N",
		"longitude": "80-13-19.62 W",
		"state": "SOUTH CAROLINA",
		"artcc": "ZJX",
		"type": "RNAV",
		"updated": "06/20/2017"
	},
	{
		"name": "FFORD",
		"latitude": "33-35-58.43 N",
		"longitude": "79-49-0.29 W",
		"state": "SOUTH CAROLINA",
		"artcc": "ZJX",
		"type": "RNAV",
		"updated": "05/13/2016"
	},
	{
		"name": "FIBBR",
		"latitude": "34-41-15.39 N",
		"longitude": "80-25-9.38 W",
		"state": "SOUTH CAROLINA",
		"artcc": "ZJX",
		"type": "RNAV",
		"updated": "05/13/2016"
	},
	{
		"name": "FIBRO",
		"latitude": "33-26-25.35 N",
		"longitude": "81-49-34.4 W",
		"state": "SOUTH CAROLINA",
		"artcc": "ZJX",
		"type": "RNAV",
		"updated": "07/01/2011"
	},
	{
		"name": "FIBRU",
		"latitude": "31-15-39.98 N",
		"longitude": "81-26-56.29 W",
		"state": "GEORGIA",
		"artcc": "ZJX",
		"type": "RNAV",
		"updated": "05/13/2011"
	},
	{
		"name": "FIBUS",
		"latitude": "29-4-42.23 N",
		"longitude": "82-13-22.52 W",
		"state": "FLORIDA",
		"artcc": "ZJX",
		"type": "RP",
		"updated": "OCF*VORTAC*/5.93"
	},
	{
		"name": "FIDUL",
		"latitude": "30-28-58.46 N",
		"longitude": "87-7-57.64 W",
		"state": "FLORIDA",
		"artcc": "ZJX",
		"type": "RNAV",
		"updated": "06/20/2012"
	},
	{
		"name": "FIFES",
		"latitude": "28-21-20.58 N",
		"longitude": "82-1-35.16 W",
		"state": "FLORIDA",
		"artcc": "ZJX",
		"type": "RNAV",
		"updated": "08/14/2014"
	},
	{
		"name": "FIGGY",
		"latitude": "30-18-51.3 N",
		"longitude": "81-43-21.21 W",
		"state": "FLORIDA",
		"artcc": "ZJX",
		"type": "RNAV",
		"updated": "06/09/2014"
	},
	{
		"name": "FIGOV",
		"latitude": "30-15-9.08 N",
		"longitude": "85-44-59.02 W",
		"state": "FLORIDA",
		"artcc": "ZJX",
		"type": "RNAV",
		"updated": "07/16/2013"
	},
	{
		"name": "FIKDA",
		"latitude": "31-7-2.13 N",
		"longitude": "81-54-1.4 W",
		"state": "GEORGIA",
		"artcc": "ZJX",
		"type": "RNAV",
		"updated": "10/23/2011"
	},
	{
		"name": "FIKUK",
		"latitude": "29-38-52.68 N",
		"longitude": "81-56-2.54 W",
		"state": "FLORIDA",
		"artcc": "ZJX",
		"type": "RNAV",
		"updated": "08/20/2010"
	},
	{
		"name": "FILLI",
		"latitude": "33-51-17.89 N",
		"longitude": "79-45-57.04 W",
		"state": "SOUTH CAROLINA",
		"artcc": "ZJX",
		"type": "RP",
		"updated": "FLO*VORTAC*196.50/23.28"
	},
	{
		"name": "FILOX",
		"latitude": "32-19-42.7 N",
		"longitude": "81-38-27.9 W",
		"state": "GEORGIA",
		"artcc": "ZJX",
		"type": "RP",
		"updated": "SAV*VORTAC*302.00/25.00"
	},
	{
		"name": "FILSI",
		"latitude": "30-58-17.61 N",
		"longitude": "84-52-33.35 W",
		"state": "GEORGIA",
		"artcc": "ZJX",
		"type": "RNAV",
		"updated": "01/07/2010"
	},
	{
		"name": "FINAN",
		"latitude": "32-16-51.07 N",
		"longitude": "82-47-18.66 W",
		"state": "GEORGIA",
		"artcc": "ZJX",
		"type": "RNAV",
		"updated": "09/28/2007"
	},
	{
		"name": "FINKI",
		"latitude": "28-11-53.41 N",
		"longitude": "82-34-33.39 W",
		"state": "FLORIDA",
		"artcc": "ZJX",
		"type": "RNAV",
		"updated": "02/15/2010"
	},
	{
		"name": "FINNE",
		"latitude": "31-51-55.01 N",
		"longitude": "82-40-34.33 W",
		"state": "GEORGIA",
		"artcc": "ZJX",
		"type": "RNAV",
		"updated": "08/26/2013"
	},
	{
		"name": "FIPEG",
		"latitude": "33-56-34.07 N",
		"longitude": "78-33-38 W",
		"state": "NORTH CAROLINA",
		"artcc": "ZJX",
		"type": "RP",
		"updated": "CRE*VORTAC*/11.26"
	},
	{
		"name": "FIPIV",
		"latitude": "29-9-47.23 N",
		"longitude": "80-54-39.44 W",
		"state": "FLORIDA",
		"artcc": "ZJX",
		"type": "RNAV",
		"updated": "09/27/2006"
	},
	{
		"name": "FISHY",
		"latitude": "28-42-33.08 N",
		"longitude": "81-21-5.51 W",
		"state": "FLORIDA",
		"artcc": "ZJX",
		"type": "RP",
		"updated": "ORL*VORTAC*355.00/10.00"
	},
	{
		"name": "FISNO",
		"latitude": "30-39-12.75 N",
		"longitude": "86-58-28.65 W",
		"state": "FLORIDA",
		"artcc": "ZJX",
		"type": "MR",
		"updated": "NGS*TACAN*322.00/3.00"
	},
	{
		"name": "FITAV",
		"latitude": "30-32-26.07 N",
		"longitude": "87-51-42.31 W",
		"state": "ALABAMA",
		"artcc": "ZJX",
		"type": "RNAV",
		"updated": "03/16/2011"
	},
	{
		"name": "FITAW",
		"latitude": "29-2-2.97 N",
		"longitude": "81-53-27.97 W",
		"state": "FLORIDA",
		"artcc": "ZJX",
		"type": "RNAV",
		"updated": "12/05/2007"
	},
	{
		"name": "FITEN",
		"latitude": "30-47-49.38 N",
		"longitude": "86-58-16.24 W",
		"state": "FLORIDA",
		"artcc": "ZJX",
		"type": "MR",
		"updated": "NSE*TACAN*031.00/5.00"
	},
	{
		"name": "FITLO",
		"latitude": "33-1-43.95 N",
		"longitude": "80-20-47.97 W",
		"state": "SOUTH CAROLINA",
		"artcc": "ZJX",
		"type": "CN",
		"updated": "11/28/2000"
	},
	{
		"name": "FITUG",
		"latitude": "30-24-57.21 N",
		"longitude": "84-12-50.04 W",
		"state": "FLORIDA",
		"artcc": "ZJX",
		"type": "RNAV",
		"updated": "11/02/2017"
	},
	{
		"name": "FIVBA",
		"latitude": "30-39-27.98 N",
		"longitude": "81-25-21.62 W",
		"state": "FLORIDA",
		"artcc": "ZJX",
		"type": "RNAV",
		"updated": "08/14/2013"
	},
	{
		"name": "FIVIM",
		"latitude": "29-6-11.69 N",
		"longitude": "81-45-17.09 W",
		"state": "FLORIDA",
		"artcc": "ZJX",
		"type": "RNAV",
		"updated": "11/01/2013"
	},
	{
		"name": "FIVOX",
		"latitude": "30-25-22.57 N",
		"longitude": "81-36-26.85 W",
		"state": "FLORIDA",
		"artcc": "ZJX",
		"type": "RNAV",
		"updated": "11/02/2011"
	},
	{
		"name": "FLATN",
		"latitude": "31-56-4.96 N",
		"longitude": "81-24-31.52 W",
		"state": "GEORGIA",
		"artcc": "ZJX",
		"type": "MW",
		"updated": "04/16/2009"
	},
	{
		"name": "FLINN",
		"latitude": "31-16-0.28 N",
		"longitude": "84-29-6.06 W",
		"state": "GEORGIA",
		"artcc": "ZJX",
		"type": "RP",
		"updated": "PZD*VOR/DME*205.00/25.27"
	},
	{
		"name": "FLLGG",
		"latitude": "34-0-14.29 N",
		"longitude": "79-59-1.01 W",
		"state": "SOUTH CAROLINA",
		"artcc": "ZJX",
		"type": "RNAV",
		"updated": "05/13/2016"
	},
	{
		"name": "FLYHI",
		"latitude": "29-29-38.65 N",
		"longitude": "81-9-20.6 W",
		"state": "FLORIDA",
		"artcc": "ZJX",
		"type": "RNAV",
		"updated": "09/09/2013"
	},
	{
		"name": "FLYNT",
		"latitude": "33-4-52 N",
		"longitude": "81-13-47.58 W",
		"state": "SOUTH CAROLINA",
		"artcc": "ZJX",
		"type": "RNAV",
		"updated": "01/17/2018"
	},
	{
		"name": "FOBAP",
		"latitude": "30-18-1.49 N",
		"longitude": "87-24-40.06 W",
		"state": "FLORIDA",
		"artcc": "ZJX",
		"type": "MR",
		"updated": "NPA*TACAN*234.00/6.00"
	},
	{
		"name": "FOBIA",
		"latitude": "29-27-30.89 N",
		"longitude": "81-49-29.3 W",
		"state": "FLORIDA",
		"artcc": "ZJX",
		"type": "RP",
		"updated": "CRG*VORTAC*200.00/55.00"
	},
	{
		"name": "FODEX",
		"latitude": "30-57-47.8 N",
		"longitude": "81-26-0.11 W",
		"state": "GEORGIA",
		"artcc": "ZJX",
		"type": "RNAV",
		"updated": "12/18/2002"
	},
	{
		"name": "FOFIN",
		"latitude": "32-8-42 N",
		"longitude": "80-44-34.2 W",
		"state": "SOUTH CAROLINA",
		"artcc": "ZJX",
		"type": "CN",
		"updated": "12/14/2000"
	},
	{
		"name": "FOKAV",
		"latitude": "34-6-30.04 N",
		"longitude": "79-23-42.47 W",
		"state": "SOUTH CAROLINA",
		"artcc": "ZJX",
		"type": "RNAV",
		"updated": "08/29/2014"
	},
	{
		"name": "FOLEK",
		"latitude": "30-13-16.03 N",
		"longitude": "87-30-39.07 W",
		"state": "FLORIDA",
		"artcc": "ZJX",
		"type": "MR",
		"updated": "NPA*TACAN*230.00/13.00"
	},
	{
		"name": "FOLGI",
		"latitude": "33-36-4.55 N",
		"longitude": "80-42-22.17 W",
		"state": "SOUTH CAROLINA",
		"artcc": "ZJX",
		"type": "RNAV",
		"updated": "04/27/2010"
	},
	{
		"name": "FOLIG",
		"latitude": "29-8-24.09 N",
		"longitude": "81-9-28.73 W",
		"state": "FLORIDA",
		"artcc": "ZJX",
		"type": "RP",
		"updated": "OMN*VORTAC*193.69"
	},
	{
		"name": "FOLKA",
		"latitude": "31-27-14.02 N",
		"longitude": "84-16-46.19 W",
		"state": "GEORGIA",
		"artcc": "ZJX",
		"type": "RP",
		"updated": "PZD*VOR/DME*178.68/12.08"
	},
	{
		"name": "FOLKS",
		"latitude": "31-4-49.5 N",
		"longitude": "81-56-37.43 W",
		"state": "GEORGIA",
		"artcc": "ZJX",
		"type": "RP",
		"updated": "VQQ*VOR*360.00"
	},
	{
		"name": "FOLVY",
		"latitude": "33-31-31.94 N",
		"longitude": "80-14-1.48 W",
		"state": "SOUTH CAROLINA",
		"artcc": "ZJX",
		"type": "CN",
		"updated": "11/28/2000"
	},
	{
		"name": "FOMRO",
		"latitude": "29-15-23.52 N",
		"longitude": "80-51-29.55 W",
		"state": "FLORIDA",
		"artcc": "ZJX",
		"type": "RNAV",
		"updated": "03/27/2007"
	},
	{
		"name": "FONDO",
		"latitude": "30-19-36.7 N",
		"longitude": "81-47-11.35 W",
		"state": "FLORIDA",
		"artcc": "ZJX",
		"type": "RNAV",
		"updated": "07/11/2017"
	},
	{
		"name": "FONEL",
		"latitude": "30-21-37.38 N",
		"longitude": "87-17-22.84 W",
		"state": "FLORIDA",
		"artcc": "ZJX",
		"type": "MR",
		"updated": "NPA*TACAN*083.00/1.40"
	},
	{
		"name": "FONEX",
		"latitude": "29-38-36.71 N",
		"longitude": "81-37-19.34 W",
		"state": "FLORIDA",
		"artcc": "ZJX",
		"type": "RNAV",
		"updated": "11/02/2017"
	},
	{
		"name": "FONIK",
		"latitude": "28-35-38.56 N",
		"longitude": "81-17-2.85 W",
		"state": "FLORIDA",
		"artcc": "ZJX",
		"type": "RP",
		"updated": "ARK*LD*005.48/10.65"
	},
	{
		"name": "FONLU",
		"latitude": "33-44-20.6 N",
		"longitude": "81-49-43.44 W",
		"state": "SOUTH CAROLINA",
		"artcc": "ZJX",
		"type": "RNAV",
		"updated": "01/07/2010"
	},
	{
		"name": "FONSI",
		"latitude": "32-55-50.36 N",
		"longitude": "79-52-10.75 W",
		"state": "SOUTH CAROLINA",
		"artcc": "ZJX",
		"type": "RNAV",
		"updated": "07/01/2011"
	},
	{
		"name": "FOOXX",
		"latitude": "28-5-0.76 N",
		"longitude": "82-42-8.79 W",
		"state": "FLORIDA",
		"artcc": "ZJX",
		"type": "RNAV",
		"updated": "08/30/2007"
	},
	{
		"name": "FOREK",
		"latitude": "28-25-35.76 N",
		"longitude": "82-28-25.04 W",
		"state": "FLORIDA",
		"artcc": "ZJX",
		"type": "RNAV",
		"updated": "07/14/2003"
	},
	{
		"name": "FORMB",
		"latitude": "31-3-17.27 N",
		"longitude": "82-17-14.45 W",
		"state": "GEORGIA",
		"artcc": "ZJX",
		"type": "RNAV",
		"updated": "08/26/2013"
	},
	{
		"name": "FOSOL",
		"latitude": "30-26-36.24 N",
		"longitude": "81-38-6.14 W",
		"state": "FLORIDA",
		"artcc": "ZJX",
		"type": "RNAV",
		"updated": "09/10/2013"
	},
	{
		"name": "FOSSS",
		"latitude": "32-22-34.09 N",
		"longitude": "80-51-53.7 W",
		"state": "SOUTH CAROLINA",
		"artcc": "ZJX",
		"type": "RNAV",
		"updated": "12/28/2017"
	},
	{
		"name": "FOURD",
		"latitude": "33-16-48.72 N",
		"longitude": "79-37-12.95 W",
		"state": "SOUTH CAROLINA",
		"artcc": "ZJX",
		"type": "RNAV",
		"updated": "07/01/2011"
	},
	{
		"name": "FOUTS",
		"latitude": "31-19-33.74 N",
		"longitude": "85-49-24.3 W",
		"state": "ALABAMA",
		"artcc": "ZJX",
		"type": "MR",
		"updated": "OZR*VOR/DME*307.43"
	},
	{
		"name": "FOWBU",
		"latitude": "34-29-50.12 N",
		"longitude": "79-50-23.75 W",
		"state": "SOUTH CAROLINA",
		"artcc": "ZJX",
		"type": "CN",
		"updated": "05/02/2001"
	},
	{
		"name": "FOXAK",
		"latitude": "30-22-5.62 N",
		"longitude": "87-5-8.25 W",
		"state": "FLORIDA",
		"artcc": "ZJX",
		"type": "MR",
		"updated": "NPA*TACAN*086.00/12.00"
	},
	{
		"name": "FRACK",
		"latitude": "34-16-15.24 N",
		"longitude": "79-43-18.63 W",
		"state": "SOUTH CAROLINA",
		"artcc": "ZJX",
		"type": "RNAV",
		"updated": "04/01/2009"
	},
	{
		"name": "FRANS",
		"latitude": "34-41-19.25 N",
		"longitude": "80-4-41.62 W",
		"state": "SOUTH CAROLINA",
		"artcc": "ZJX",
		"type": "RP",
		"updated": "CTF*VOR/DME*079.71/10.00"
	},
	{
		"name": "FREMN",
		"latitude": "32-0-58.9 N",
		"longitude": "81-11-58.31 W",
		"state": "GEORGIA",
		"artcc": "ZJX",
		"type": "RP",
		"updated": "SAV*VORTAC*186.16/7.78"
	},
	{
		"name": "FRENS",
		"latitude": "30-23-45.56 N",
		"longitude": "87-19-21.61 W",
		"state": "FLORIDA",
		"artcc": "ZJX",
		"type": "MR",
		"updated": "NPA*TACAN*351.00/2.30"
	},
	{
		"name": "FRESH",
		"latitude": "30-7-50.42 N",
		"longitude": "82-3-40.73 W",
		"state": "FLORIDA",
		"artcc": "ZJX",
		"type": "MW",
		"updated": "03/07/2001"
	},
	{
		"name": "FRIES",
		"latitude": "32-13-52.69 N",
		"longitude": "80-47-37.97 W",
		"state": "SOUTH CAROLINA",
		"artcc": "ZJX",
		"type": "RNAV",
		"updated": "06/16/2008"
	},
	{
		"name": "FRINC",
		"latitude": "28-58-40.27 N",
		"longitude": "82-17-53.23 W",
		"state": "FLORIDA",
		"artcc": "ZJX",
		"type": "RNAV",
		"updated": "02/27/2012"
	},
	{
		"name": "FRNKS",
		"latitude": "30-41-58 N",
		"longitude": "83-46-33 W",
		"state": "GEORGIA",
		"artcc": "ZJX",
		"type": "RNAV",
		"updated": "12/20/2009"
	},
	{
		"name": "FTEEN",
		"latitude": "28-40-7.35 N",
		"longitude": "81-33-17.15 W",
		"state": "FLORIDA",
		"artcc": "ZJX",
		"type": "RNAV",
		"updated": "08/10/2012"
	},
	{
		"name": "FULON",
		"latitude": "32-32-25.05 N",
		"longitude": "81-4-45.54 W",
		"state": "SOUTH CAROLINA",
		"artcc": "ZJX",
		"type": "RNAV",
		"updated": "12/28/2017"
	},
	{
		"name": "FUMMA",
		"latitude": "32-25-42.67 N",
		"longitude": "80-34-47.17 W",
		"state": "SOUTH CAROLINA",
		"artcc": "ZJX",
		"type": "RP",
		"updated": "10/31/2017"
	},
	{
		"name": "FURZE",
		"latitude": "32-7-22 N",
		"longitude": "77-43-21 W",
		"state": "OFFSHORE ATLANTIC",
		"artcc": "ZJX",
		"type": "WP",
		"updated": "03/26/2002"
	}
]
