	{
		"name": "GAATR",
		"latitude": "32-48-27.77 N",
		"longitude": "79-58-6.33 W",
		"state": "SOUTH CAROLINA",
		"artcc": "ZJX",
		"type": "RP",
		"updated": "CHS*VORTAC*/6.26",
	},
	{
		"name": "GABLE",
		"latitude": "34-7-45.98 N",
		"longitude": "80-20-29.99 W",
		"state": "SOUTH CAROLINA",
		"artcc": "ZJX",
		"type": "MR",
		"updated": "SSC*TACAN*042.34/11.00",
	},
	{
		"name": "GACDE",
		"latitude": "29-34-22.41 N",
		"longitude": "81-1-55.64 W",
		"state": "FLORIDA",
		"artcc": "ZJX",
		"type": "RNAV",
		"updated": "03/25/2004",
	},
	{
		"name": "GACEC",
		"latitude": "33-19-4.77 N",
		"longitude": "81-0-49.8 W",
		"state": "SOUTH CAROLINA",
		"artcc": "ZJX",
		"type": "RNAV",
		"updated": "04/27/2010",
	},
	{
		"name": "GACED",
		"latitude": "30-23-32.2 N",
		"longitude": "84-13-43.44 W",
		"state": "FLORIDA",
		"artcc": "ZJX",
		"type": "RP",
		"updated": "SZW*VORTAC*140.47",
	},
	{
		"name": "GACNO",
		"latitude": "28-40-20.39 N",
		"longitude": "80-59-31.44 W",
		"state": "FLORIDA",
		"artcc": "ZJX",
		"type": "RNAV",
		"updated": "05/10/2013",
	},
	{
		"name": "GADAY",
		"latitude": "31-2-28 N",
		"longitude": "86-8-2 W",
		"state": "ALABAMA",
		"artcc": "ZJX",
		"type": "RNAV",
		"updated": "11/02/2005",
	},
	{
		"name": "GALON",
		"latitude": "30-51-51.06 N",
		"longitude": "86-30-6.89 W",
		"state": "FLORIDA",
		"artcc": "ZJX",
		"type": "RP",
		"updated": "CEW*VORTAC*073.00/9.43",
	},
	{
		"name": "GAMCK",
		"latitude": "34-2-43.01 N",
		"longitude": "81-1-6.63 W",
		"state": "SOUTH CAROLINA",
		"artcc": "ZJX",
		"type": "MR",
		"updated": "MMT*VORTAC*312.00/13.00",
	},
	{
		"name": "GAMGY",
		"latitude": "29-1-30.98 N",
		"longitude": "81-7-33.08 W",
		"state": "FLORIDA",
		"artcc": "ZJX",
		"type": "RNAV",
		"updated": "06/22/2009",
	},
	{
		"name": "GANDT",
		"latitude": "33-46-21.61 N",
		"longitude": "81-42-54.94 W",
		"state": "SOUTH CAROLINA",
		"artcc": "ZJX",
		"type": "RNAV",
		"updated": "05/06/2016",
	},
	{
		"name": "GAPME",
		"latitude": "31-35-50.44 N",
		"longitude": "83-36-29.3 W",
		"state": "GEORGIA",
		"artcc": "ZJX",
		"type": "RNAV",
		"updated": "06/14/2016",
	},
	{
		"name": "GAPNY",
		"latitude": "33-52-21.27 N",
		"longitude": "78-38-53.53 W",
		"state": "SOUTH CAROLINA",
		"artcc": "ZJX",
		"type": "RP",
		"updated": "CRE*LD*054.08/5.90",
	},
	{
		"name": "GARDE",
		"latitude": "30-7-58.42 N",
		"longitude": "85-39-56.54 W",
		"state": "FLORIDA",
		"artcc": "ZJX",
		"type": "MR",
		"updated": "PAM*TACAN*310.00/6.00",
	},
	{
		"name": "GARDR",
		"latitude": "32-27-44 N",
		"longitude": "77-52-23 W",
		"state": "OFFSHORE ATLANTIC",
		"artcc": "ZJX",
		"type": "WP",
		"updated": "03/26/2002",
	},
	{
		"name": "GAUGH",
		"latitude": "34-8-18.5 N",
		"longitude": "80-12-1.21 W",
		"state": "SOUTH CAROLINA",
		"artcc": "ZJX",
		"type": "RP",
		"updated": "FLO*VORTAC*261.33",
	},
	{
		"name": "GAYLR",
		"latitude": "32-25-22 N",
		"longitude": "80-46-51.29 W",
		"state": "SOUTH CAROLINA",
		"artcc": "ZJX",
		"type": "RNAV",
		"updated": "12/28/2017",
	},
	{
		"name": "GAZEL",
		"latitude": "31-59-53.86 N",
		"longitude": "80-47-11.76 W",
		"state": "SOUTH CAROLINA",
		"artcc": "ZJX",
		"type": "MR",
		"updated": "NBC*TACAN*192.00/29.00",
	},
	{
		"name": "GEBKE",
		"latitude": "30-41-47.63 N",
		"longitude": "86-30-25.26 W",
		"state": "FLORIDA",
		"artcc": "ZJX",
		"type": "RNAV",
		"updated": "06/12/2008",
	},
	{
		"name": "GECEN",
		"latitude": "28-57-15.65 N",
		"longitude": "81-38-59.25 W",
		"state": "FLORIDA",
		"artcc": "ZJX",
		"type": "RNAV",
		"updated": "11/01/2013",
	},
	{
		"name": "GECHE",
		"latitude": "32-54-51.05 N",
		"longitude": "80-23-29.86 W",
		"state": "SOUTH CAROLINA",
		"artcc": "ZJX",
		"type": "RNAV",
		"updated": "07/01/2011",
	},
	{
		"name": "GEDAF",
		"latitude": "30-25-36.18 N",
		"longitude": "87-2-18.75 W",
		"state": "FLORIDA",
		"artcc": "ZJX",
		"type": "MR",
		"updated": "NPA*TACAN*073.00/15.00",
	},
	{
		"name": "GEEYE",
		"latitude": "30-37-30 N",
		"longitude": "82-18-20 W",
		"state": "GEORGIA",
		"artcc": "ZJX",
		"type": "RNAV",
		"updated": "01/17/2018",
	},
	{
		"name": "GEGDE",
		"latitude": "32-42-26.53 N",
		"longitude": "79-46-13.08 W",
		"state": "SOUTH CAROLINA",
		"artcc": "ZJX",
		"type": "RNAV",
		"updated": "07/01/2011",
	},
	{
		"name": "GEKME",
		"latitude": "32-24-50.71 N",
		"longitude": "81-34-34.17 W",
		"state": "GEORGIA",
		"artcc": "ZJX",
		"type": "RP",
		"updated": "SAV*VORTAC*316.00/25.00",
	},
	{
		"name": "GELEC",
		"latitude": "34-8-51.31 N",
		"longitude": "80-7-44.17 W",
		"state": "SOUTH CAROLINA",
		"artcc": "ZJX",
		"type": "CN",
		"updated": "04/01/2009",
	},
	{
		"name": "GEMVE",
		"latitude": "32-22-28.09 N",
		"longitude": "80-15-40 W",
		"state": "SOUTH CAROLINA",
		"artcc": "ZJX",
		"type": "MR",
		"updated": "NBC*TACAN*110.00/24.00",
	},
	{
		"name": "GEUMS",
		"latitude": "30-21-40.35 N",
		"longitude": "81-27-33.93 W",
		"state": "FLORIDA",
		"artcc": "ZJX",
		"type": "RP",
		"updated": "NRB*TACAN*235.00/2.50",
	},
	{
		"name": "GEVBE",
		"latitude": "30-17-25.31 N",
		"longitude": "87-37-34.28 W",
		"state": "ALABAMA",
		"artcc": "ZJX",
		"type": "RNAV",
		"updated": "03/27/2011",
	},
	{
		"name": "GEVCE",
		"latitude": "33-34-40.48 N",
		"longitude": "79-40-25.2 W",
		"state": "SOUTH CAROLINA",
		"artcc": "ZJX",
		"type": "RNAV",
		"updated": "06/29/2017",
	},
	{
		"name": "GEZZR",
		"latitude": "28-7-0.77 N",
		"longitude": "82-41-22.55 W",
		"state": "FLORIDA",
		"artcc": "ZJX",
		"type": "RP",
		"updated": "SRQ*VOR/DME*356.06/43.00",
	},
	{
		"name": "GFROG",
		"latitude": "30-24-23.43 N",
		"longitude": "86-41-13.12 W",
		"state": "FLORIDA",
		"artcc": "ZJX",
		"type": "MR",
		"updated": "HRT*TACAN*/1.30",
	},
	{
		"name": "GIBLE",
		"latitude": "32-41-43.38 N",
		"longitude": "80-11-49.31 W",
		"state": "SOUTH CAROLINA",
		"artcc": "ZJX",
		"type": "RP",
		"updated": "CHS*VORTAC*219.10/14.38",
	},
	{
		"name": "GIESR",
		"latitude": "29-3-34.27 N",
		"longitude": "80-56-5.88 W",
		"state": "FLORIDA",
		"artcc": "ZJX",
		"type": "RNAV",
		"updated": "02/27/2015",
	},
	{
		"name": "GIGBE",
		"latitude": "29-20-29.13 N",
		"longitude": "81-7-20.83 W",
		"state": "FLORIDA",
		"artcc": "ZJX",
		"type": "RNAV",
		"updated": "09/09/2013",
	},
	{
		"name": "GIGLZ",
		"latitude": "30-51-27.03 N",
		"longitude": "81-30-44.13 W",
		"state": "GEORGIA",
		"artcc": "ZJX",
		"type": "RNAV",
		"updated": "07/01/2014",
	},
	{
		"name": "GIKBE",
		"latitude": "30-29-1.52 N",
		"longitude": "86-41-35.74 W",
		"state": "FLORIDA",
		"artcc": "ZJX",
		"type": "MW",
		"updated": "11/02/2009",
	},
	{
		"name": "GILLY",
		"latitude": "32-3-58.21 N",
		"longitude": "83-42-31.81 W",
		"state": "GEORGIA",
		"artcc": "ZJX",
		"type": "RP",
		"updated": "VNA*VORTAC*229.77/13.93",
	},
	{
		"name": "GILNE",
		"latitude": "29-15-34.46 N",
		"longitude": "80-51-44.8 W",
		"state": "FLORIDA",
		"artcc": "ZJX",
		"type": "RNAV",
		"updated": "08/24/2005",
	},
	{
		"name": "GILRD",
		"latitude": "32-36-34.75 N",
		"longitude": "79-4-20.35 W",
		"state": "OFFSHORE ATLANTIC",
		"artcc": "ZJX",
		"type": "RNAV",
		"updated": "06/30/2011",
	},
	{
		"name": "GINNE",
		"latitude": "33-7-33.16 N",
		"longitude": "79-58-22.09 W",
		"state": "SOUTH CAROLINA",
		"artcc": "ZJX",
		"type": "RP",
		"updated": "VAN*VORTAC*137.00",
	},
	{
		"name": "GINTY",
		"latitude": "30-19-55.21 N",
		"longitude": "86-14-23.98 W",
		"state": "FLORIDA",
		"artcc": "ZJX",
		"type": "MR",
		"updated": "DWG*TACAN*120.92/17.00",
	},
	{
		"name": "GIOVA",
		"latitude": "28-53-40.85 N",
		"longitude": "82-18-27.85 W",
		"state": "FLORIDA",
		"artcc": "ZJX",
		"type": "RNAV",
		"updated": "02/27/2012",
	},
	{
		"name": "GIPNE",
		"latitude": "28-35-53.56 N",
		"longitude": "81-19-26.06 W",
		"state": "FLORIDA",
		"artcc": "ZJX",
		"type": "RNAV",
		"updated": "12/31/2014",
	},
	{
		"name": "GISTS",
		"latitude": "33-0-18.96 N",
		"longitude": "80-19-11.98 W",
		"state": "SOUTH CAROLINA",
		"artcc": "ZJX",
		"type": "RP",
		"updated": "CHS*VORTAC*300.08/15.72",
	},
	{
		"name": "GIVLE",
		"latitude": "31-6-37.26 N",
		"longitude": "83-50-35.67 W",
		"state": "GEORGIA",
		"artcc": "ZJX",
		"type": "RNAV",
		"updated": "05/10/2017",
	},
	{
		"name": "GIYAT",
		"latitude": "30-51-10.76 N",
		"longitude": "86-32-8.62 W",
		"state": "FLORIDA",
		"artcc": "ZJX",
		"type": "RNAV",
		"updated": "10/05/2004",
	},
	{
		"name": "GIYEG",
		"latitude": "32-56-30.63 N",
		"longitude": "79-47-41.7 W",
		"state": "SOUTH CAROLINA",
		"artcc": "ZJX",
		"type": "RNAV",
		"updated": "02/27/2010",
	},
	{
		"name": "GLIDR",
		"latitude": "30-22-52.66 N",
		"longitude": "86-20-5.88 W",
		"state": "FLORIDA",
		"artcc": "ZJX",
		"type": "MW",
		"updated": "01/29/2010",
	},
	{
		"name": "GLOSI",
		"latitude": "28-33-30.95 N",
		"longitude": "81-17-49.81 W",
		"state": "FLORIDA",
		"artcc": "ZJX",
		"type": "RP",
		"updated": "DIZ*LD*005.47/9.18",
	},
	{
		"name": "GLUEY",
		"latitude": "28-17-35.82 N",
		"longitude": "81-57-0.75 W",
		"state": "FLORIDA",
		"artcc": "ZJX",
		"type": "RNAV",
		"updated": "08/14/2014",
	},
	{
		"name": "GMAST",
		"latitude": "33-43-43.75 N",
		"longitude": "81-17-22.73 W",
		"state": "SOUTH CAROLINA",
		"artcc": "ZJX",
		"type": "RNAV",
		"updated": "11/10/2016",
	},
	{
		"name": "GMCKS",
		"latitude": "32-46-47.44 N",
		"longitude": "80-3-1.1 W",
		"state": "SOUTH CAROLINA",
		"artcc": "ZJX",
		"type": "RNAV",
		"updated": "06/13/2012",
	},
	{
		"name": "GMSTR",
		"latitude": "32-43-54.84 N",
		"longitude": "79-30-40.4 W",
		"state": "SOUTH CAROLINA",
		"artcc": "ZJX",
		"type": "RNAV",
		"updated": "06/02/2011",
	},
	{
		"name": "GNIUS",
		"latitude": "30-24-13.58 N",
		"longitude": "86-55-15.01 W",
		"state": "FLORIDA",
		"artcc": "ZJX",
		"type": "RNAV",
		"updated": "06/20/2012",
	},
	{
		"name": "GOADD",
		"latitude": "34-11-42.1 N",
		"longitude": "79-25-13.29 W",
		"state": "SOUTH CAROLINA",
		"artcc": "ZJX",
		"type": "RP",
		"updated": "FLO*VORTAC*103.85/12.00",
	},
	{
		"name": "GOBAC",
		"latitude": "34-4-45.38 N",
		"longitude": "79-57-58.17 W",
		"state": "SOUTH CAROLINA",
		"artcc": "ZJX",
		"type": "RNAV",
		"updated": "08/01/2011",
	},
	{
		"name": "GOBDE",
		"latitude": "30-24-19.73 N",
		"longitude": "81-45-25.46 W",
		"state": "FLORIDA",
		"artcc": "ZJX",
		"type": "RNAV",
		"updated": "01/25/2013",
	},
	{
		"name": "GOCEL",
		"latitude": "34-10-46.26 N",
		"longitude": "79-47-44.97 W",
		"state": "SOUTH CAROLINA",
		"artcc": "ZJX",
		"type": "RNAV",
		"updated": "04/01/2009",
	},
	{
		"name": "GODDY",
		"latitude": "33-32-51.32 N",
		"longitude": "80-17-30.01 W",
		"state": "SOUTH CAROLINA",
		"artcc": "ZJX",
		"type": "RP",
		"updated": "VAN*VORTAC*067.00/9.00",
	},
	{
		"name": "GOKDE",
		"latitude": "30-49-25.28 N",
		"longitude": "87-26-46.1 W",
		"state": "FLORIDA",
		"artcc": "ZJX",
		"type": "RNAV",
		"updated": "12/11/2017",
	},
	{
		"name": "GONYE",
		"latitude": "31-58-27.24 N",
		"longitude": "80-57-32.35 W",
		"state": "GEORGIA",
		"artcc": "ZJX",
		"type": "RP",
		"updated": "SAV*VORTAC*136.01/16.00",
	},
	{
		"name": "GONYO",
		"latitude": "30-13-8.84 N",
		"longitude": "81-47-20.6 W",
		"state": "FLORIDA",
		"artcc": "ZJX",
		"type": "MR",
		"updated": "NIP*TACAN*267.00/6.00",
	},
	{
		"name": "GOOBA",
		"latitude": "30-54-54.65 N",
		"longitude": "83-27-34.94 W",
		"state": "GEORGIA",
		"artcc": "ZJX",
		"type": "MR",
		"updated": "VAD*TACAN*262.00/14.00",
	},
	{
		"name": "GOONS",
		"latitude": "31-52-1.47 N",
		"longitude": "84-48-21.14 W",
		"state": "GEORGIA",
		"artcc": "ZJX",
		"type": "RP",
		"updated": "PZD*VOR/DME*297.94",
	},
	{
		"name": "GOOSZ",
		"latitude": "30-19-15.66 N",
		"longitude": "87-0-53.87 W",
		"state": "FLORIDA",
		"artcc": "ZJX",
		"type": "MW",
		"updated": "02/14/2018",
	},
	{
		"name": "GOPCE",
		"latitude": "28-57-51.31 N",
		"longitude": "81-14-6.79 W",
		"state": "FLORIDA",
		"artcc": "ZJX",
		"type": "RNAV",
		"updated": "06/17/2011",
	},
	{
		"name": "GORAM",
		"latitude": "32-27-51.04 N",
		"longitude": "80-31-34.38 W",
		"state": "SOUTH CAROLINA",
		"artcc": "ZJX",
		"type": "RNAV",
		"updated": "06/08/2010",
	},
	{
		"name": "GORDY",
		"latitude": "31-25-29.02 N",
		"longitude": "83-59-3.82 W",
		"state": "GEORGIA",
		"artcc": "ZJX",
		"type": "RP",
		"updated": "PZD*VOR/DME*133.00/21.00",
	},
	{
		"name": "GORGE",
		"latitude": "32-1-0.99 N",
		"longitude": "80-48-59.27 W",
		"state": "GEORGIA",
		"artcc": "ZJX",
		"type": "RP",
		"updated": "10/06/2017",
	},
	{
		"name": "GOTBE",
		"latitude": "31-1-13.13 N",
		"longitude": "81-16-26.67 W",
		"state": "GEORGIA",
		"artcc": "ZJX",
		"type": "RNAV",
		"updated": "08/26/2013",
	},
	{
		"name": "GOTEY",
		"latitude": "33-29-36.22 N",
		"longitude": "81-16-15.52 W",
		"state": "SOUTH CAROLINA",
		"artcc": "ZJX",
		"type": "RNAV",
		"updated": "02/15/2018",
	},
	{
		"name": "GOVYE",
		"latitude": "31-23-35.83 N",
		"longitude": "81-47-2.45 W",
		"state": "GEORGIA",
		"artcc": "ZJX",
		"type": "RNAV",
		"updated": "10/23/2011",
	},
	{
		"name": "GRAIV",
		"latitude": "31-0-18.59 N",
		"longitude": "84-35-4.83 W",
		"state": "GEORGIA",
		"artcc": "ZJX",
		"type": "RP",
		"updated": "SZW*VORTAC*335.99/29.00",
	},
	{
		"name": "GRAMR",
		"latitude": "29-31-44.99 N",
		"longitude": "82-25-3.99 W",
		"state": "FLORIDA",
		"artcc": "ZJX",
		"type": "RNAV",
		"updated": "06/18/2007",
	},
	{
		"name": "GRASN",
		"latitude": "29-7-56.11 N",
		"longitude": "82-15-50.92 W",
		"state": "FLORIDA",
		"artcc": "ZJX",
		"type": "RP",
		"updated": "ORL*VORTAC*306.00",
	},
	{
		"name": "GRDON",
		"latitude": "29-22-40.7 N",
		"longitude": "80-38-47.91 W",
		"state": "FLORIDA",
		"artcc": "ZJX",
		"type": "RNAV",
		"updated": "02/27/2009",
	},
	{
		"name": "GREAT",
		"latitude": "34-27-25.57 N",
		"longitude": "81-0-29.88 W",
		"state": "SOUTH CAROLINA",
		"artcc": "ZJX",
		"type": "RP",
		"updated": "CTF*VOR/DME*255.53",
	},
	{
		"name": "GRECI",
		"latitude": "33-15-42.85 N",
		"longitude": "80-25-19.2 W",
		"state": "SOUTH CAROLINA",
		"artcc": "ZJX",
		"type": "RP",
		"updated": "VAN*VORTAC*180.00",
	},
	{
		"name": "GRIEF",
		"latitude": "29-31-20 N",
		"longitude": "81-17-49 W",
		"state": "FLORIDA",
		"artcc": "ZJX",
		"type": "RNAV",
		"updated": "07/07/2005",
	},
	{
		"name": "GRILO",
		"latitude": "32-4-27.94 N",
		"longitude": "80-58-24.96 W",
		"state": "GEORGIA",
		"artcc": "ZJX",
		"type": "RNAV",
		"updated": "08/25/2010",
	},
	{
		"name": "GRNCH",
		"latitude": "29-4-9 N",
		"longitude": "81-54-36 W",
		"state": "FLORIDA",
		"artcc": "ZJX",
		"type": "RNAV",
		"updated": "10/24/2007",
	},
	{
		"name": "GRNET",
		"latitude": "34-1-35.98 N",
		"longitude": "80-59-6.76 W",
		"state": "SOUTH CAROLINA",
		"artcc": "ZJX",
		"type": "MR",
		"updated": "MMT*VORTAC*312.00/11.00",
	},
	{
		"name": "GRRAS",
		"latitude": "30-17-44.63 N",
		"longitude": "81-57-11.78 W",
		"state": "FLORIDA",
		"artcc": "ZJX",
		"type": "RNAV",
		"updated": "09/17/2014",
	},
	{
		"name": "GRRDN",
		"latitude": "30-28-42.17 N",
		"longitude": "81-45-29.54 W",
		"state": "FLORIDA",
		"artcc": "ZJX",
		"type": "RNAV",
		"updated": "11/30/2012",
	},
	{
		"name": "GRUBS",
		"latitude": "32-10-12.16 N",
		"longitude": "82-25-9.91 W",
		"state": "GEORGIA",
		"artcc": "ZJX",
		"type": "RNAV",
		"updated": "07/07/2015",
	},
	{
		"name": "GRUEN",
		"latitude": "30-13-53.97 N",
		"longitude": "81-39-15.17 W",
		"state": "FLORIDA",
		"artcc": "ZJX",
		"type": "MR",
		"updated": "NIP*TACAN*106.00/1.10",
	},
	{
		"name": "GRYTZ",
		"latitude": "30-49-51.54 N",
		"longitude": "83-11-32.18 W",
		"state": "GEORGIA",
		"artcc": "ZJX",
		"type": "MW",
		"updated": "04/12/2017",
	},
	{
		"name": "GRZLY",
		"latitude": "31-6-5.42 N",
		"longitude": "81-37-56.37 W",
		"state": "GEORGIA",
		"artcc": "ZJX",
		"type": "RNAV",
		"updated": "09/15/2009",
	},
	{
		"name": "GUANO",
		"latitude": "29-5-58.73 N",
		"longitude": "81-23-18.93 W",
		"state": "FLORIDA",
		"artcc": "ZJX",
		"type": "RP",
		"updated": "OMN*VORTAC*230.00",
	},
	{
		"name": "GUCEC",
		"latitude": "30-46-53.52 N",
		"longitude": "83-56-47.67 W",
		"state": "GEORGIA",
		"artcc": "ZJX",
		"type": "RNAV",
		"updated": "07/08/2011",
	},
	{
		"name": "GUCTE",
		"latitude": "30-38-24.45 N",
		"longitude": "87-50-33.84 W",
		"state": "ALABAMA",
		"artcc": "ZJX",
		"type": "RNAV",
		"updated": "03/16/2011",
	},
	{
		"name": "GUKDE",
		"latitude": "31-34-35.44 N",
		"longitude": "84-9-0.71 W",
		"state": "GEORGIA",
		"artcc": "ZJX",
		"type": "RNAV",
		"updated": "07/15/2009",
	},
	{
		"name": "GULFR",
		"latitude": "30-12-23 N",
		"longitude": "83-33-8 W",
		"state": "FLORIDA",
		"artcc": "ZJX",
		"type": "RNAV",
		"updated": "10/26/2005",
	},
	{
		"name": "GULLA",
		"latitude": "32-56-17.71 N",
		"longitude": "80-29-57.12 W",
		"state": "SOUTH CAROLINA",
		"artcc": "ZJX",
		"type": "RNAV",
		"updated": "06/30/2011",
	},
	{
		"name": "GULNE",
		"latitude": "31-21-10.11 N",
		"longitude": "85-45-7.54 W",
		"state": "ALABAMA",
		"artcc": "ZJX",
		"type": "RNAV",
		"updated": "09/18/2008",
	},
	{
		"name": "GUMPE",
		"latitude": "29-4-34 N",
		"longitude": "81-5-0 W",
		"state": "FLORIDA",
		"artcc": "ZJX",
		"type": "RNAV",
		"updated": "07/07/2005",
	},
	{
		"name": "GUNNY",
		"latitude": "30-42-21.97 N",
		"longitude": "86-34-54.31 W",
		"state": "FLORIDA",
		"artcc": "ZJX",
		"type": "MR",
		"updated": "DWG*TACAN*347.00/14.00",
	},
	{
		"name": "GURDE",
		"latitude": "30-20-28.42 N",
		"longitude": "81-38-54.38 W",
		"state": "FLORIDA",
		"artcc": "ZJX",
		"type": "RNAV",
		"updated": "08/26/2013",
	},
	{
		"name": "GUSNE",
		"latitude": "28-16-47.44 N",
		"longitude": "82-36-27.29 W",
		"state": "FLORIDA",
		"artcc": "ZJX",
		"type": "RNAV",
		"updated": "02/15/2010",
	},
	{
		"name": "GUTNE",
		"latitude": "30-24-27.53 N",
		"longitude": "81-35-38.95 W",
		"state": "FLORIDA",
		"artcc": "ZJX",
		"type": "RNAV",
		"updated": "08/26/2013",
	},
	{
		"name": "GUTTY",
		"latitude": "30-28-36.34 N",
		"longitude": "81-53-2 W",
		"state": "FLORIDA",
		"artcc": "ZJX",
		"type": "RNAV",
		"updated": "08/26/2013",
	},
	{
		"name": "GUUNR",
		"latitude": "28-5-10.37 N",
		"longitude": "82-14-12.88 W",
		"state": "FLORIDA",
		"artcc": "ZJX",
		"type": "RNAV",
		"updated": "01/25/2013",
	},
	{
		"name": "GUYEY",
		"latitude": "33-3-5.9 N",
		"longitude": "80-41-4 W",
		"state": "SOUTH CAROLINA",
		"artcc": "ZJX",
		"type": "RNAV",
		"updated": "02/05/2008",
	},
	{
		"name": "GUZDA",
		"latitude": "27-59-26.58 N",
		"longitude": "82-24-55.15 W",
		"state": "FLORIDA",
		"artcc": "ZJX",
		"type": "RNAV",
		"updated": "02/15/2010",
	},
	{
		"name": "GUZNU",
		"latitude": "29-36-7.88 N",
		"longitude": "82-27-51.08 W",
		"state": "FLORIDA",
		"artcc": "ZJX",
		"type": "RNAV",
		"updated": "06/22/2007",
	},
	{
		"name": "GWEBB",
		"latitude": "31-4-13.3 N",
		"longitude": "85-43-0.27 W",
		"state": "ALABAMA",
		"artcc": "ZJX",
		"type": "MW",
		"updated": "09/18/2008",
	},
	{
		"name": "GWIIZ",
		"latitude": "30-33-51.1 N",
		"longitude": "81-52-12.7 W",
		"state": "FLORIDA",
		"artcc": "ZJX",
		"type": "RNAV",
		"updated": "08/26/2013",
	},
	{
		"name": "GYPAD",
		"latitude": "32-13-49.39 N",
		"longitude": "80-45-11.71 W",
		"state": "SOUTH CAROLINA",
		"artcc": "ZJX",
		"type": "MR",
		"updated": "NBC*TACAN*192.00/15.00",
	},
