	{
		"name": "HAAWG",
		"latitude": "30-57-1 N",
		"longitude": "82-53-35 W",
		"state": "GEORGIA",
		"artcc": "ZJX",
		"type": "RNAV",
		"updated": "08/22/2017",
	},
	{
		"name": "HABAD",
		"latitude": "30-49-34.56 N",
		"longitude": "86-57-8.62 W",
		"state": "FLORIDA",
		"artcc": "ZJX",
		"type": "MR",
		"updated": "NSE*TACAN*031.00/7.00",
	},
	{
		"name": "HABEV",
		"latitude": "30-24-8.71 N",
		"longitude": "86-41-11.93 W",
		"state": "FLORIDA",
		"artcc": "ZJX",
		"type": "MW",
		"updated": "12/10/2010",
	},
	{
		"name": "HABIK",
		"latitude": "30-9-4.73 N",
		"longitude": "81-16-32.59 W",
		"state": "FLORIDA",
		"artcc": "ZJX",
		"type": "RNAV",
		"updated": "08/26/2013",
	},
	{
		"name": "HABLE",
		"latitude": "31-21-9.68 N",
		"longitude": "82-6-9.96 W",
		"state": "GEORGIA",
		"artcc": "ZJX",
		"type": "RP",
		"updated": "AYS*VORTAC*077.82",
	},
	{
		"name": "HABMA",
		"latitude": "30-16-6.78 N",
		"longitude": "82-45-39.42 W",
		"state": "FLORIDA",
		"artcc": "ZJX",
		"type": "RNAV",
		"updated": "02/12/2008",
	},
	{
		"name": "HABRA",
		"latitude": "28-39-3.32 N",
		"longitude": "81-19-28.09 W",
		"state": "FLORIDA",
		"artcc": "ZJX",
		"type": "RNAV",
		"updated": "12/31/2014",
	},
	{
		"name": "HACKK",
		"latitude": "30-52-42.58 N",
		"longitude": "86-26-5.48 W",
		"state": "FLORIDA",
		"artcc": "ZJX",
		"type": "RP",
		"updated": "CEW*VORTAC*073.00/13.00",
	},
	{
		"name": "HADDE",
		"latitude": "30-31-54.46 N",
		"longitude": "83-13-50.21 W",
		"state": "FLORIDA",
		"artcc": "ZJX",
		"type": "RP",
		"updated": "OTK*VOR/DME*172.30",
	},
	{
		"name": "HADWN",
		"latitude": "31-14-0 N",
		"longitude": "77-39-0 W",
		"state": "OFFSHORE ATLANTIC",
		"artcc": "ZJX",
		"type": "RNAV",
		"updated": "10/20/2009",
	},
	{
		"name": "HAGAV",
		"latitude": "29-26-48.64 N",
		"longitude": "81-6-44 W",
		"state": "FLORIDA",
		"artcc": "ZJX",
		"type": "RNAV",
		"updated": "03/25/2004",
	},
	{
		"name": "HAINY",
		"latitude": "28-59-38.58 N",
		"longitude": "81-22-27.03 W",
		"state": "FLORIDA",
		"artcc": "ZJX",
		"type": "RNAV",
		"updated": "08/26/2013",
	},
	{
		"name": "HAKUT",
		"latitude": "30-12-23.52 N",
		"longitude": "84-20-29.39 W",
		"state": "FLORIDA",
		"artcc": "ZJX",
		"type": "RP",
		"updated": "SZW*VORTAC*173.39/21.00",
	},
	{
		"name": "HALEE",
		"latitude": "32-54-13.26 N",
		"longitude": "80-11-16.12 W",
		"state": "SOUTH CAROLINA",
		"artcc": "ZJX",
		"type": "RNAV",
		"updated": "06/30/2011",
	},
	{
		"name": "HALUB",
		"latitude": "31-3-18.15 N",
		"longitude": "84-52-35.91 W",
		"state": "GEORGIA",
		"artcc": "ZJX",
		"type": "RNAV",
		"updated": "01/07/2010",
	},
	{
		"name": "HAMBI",
		"latitude": "30-14-45.8 N",
		"longitude": "86-39-38.99 W",
		"state": "FLORIDA",
		"artcc": "ZJX",
		"type": "MR",
		"updated": "HRT*TACAN*175.00/11.00",
	},
	{
		"name": "HAMEL",
		"latitude": "33-51-11.08 N",
		"longitude": "78-39-35.11 W",
		"state": "SOUTH CAROLINA",
		"artcc": "ZJX",
		"type": "RP",
		"updated": "CRE*VORTAC*057.00/4.00",
	},
	{
		"name": "HAMGO",
		"latitude": "29-54-23.67 N",
		"longitude": "81-15-32.47 W",
		"state": "FLORIDA",
		"artcc": "ZJX",
		"type": "RP",
		"updated": "GUH*LD*131.53/6.13",
	},
	{
		"name": "HAMLN",
		"latitude": "34-21-32.45 N",
		"longitude": "80-46-42.36 W",
		"state": "SOUTH CAROLINA",
		"artcc": "ZJX",
		"type": "RP",
		"updated": "CTF*VOR/DME*238.18/30.47",
	},
	{
		"name": "HAMMY",
		"latitude": "28-35-53.33 N",
		"longitude": "81-19-42.98 W",
		"state": "FLORIDA",
		"artcc": "ZJX",
		"type": "RP",
		"updated": "TFE*LD*005.45/11.16",
	},
	{
		"name": "HAMOC",
		"latitude": "30-35-59.4 N",
		"longitude": "81-50-7.84 W",
		"state": "FLORIDA",
		"artcc": "ZJX",
		"type": "MR",
		"updated": "CRG*VORTAC*315.86/23.00",
	},
	{
		"name": "HAMVU",
		"latitude": "29-34-25.12 N",
		"longitude": "83-2-13.15 W",
		"state": "FLORIDA",
		"artcc": "ZJX",
		"type": "RNAV",
		"updated": "10/08/2010",
	},
	{
		"name": "HANAV",
		"latitude": "29-15-23.37 N",
		"longitude": "81-24-46.55 W",
		"state": "FLORIDA",
		"artcc": "ZJX",
		"type": "RP",
		"updated": "OMN*VORTAC*260.00/16.00",
	},
	{
		"name": "HANET",
		"latitude": "32-2-53.18 N",
		"longitude": "83-29-43.78 W",
		"state": "GEORGIA",
		"artcc": "ZJX",
		"type": "RP",
		"updated": "VNA*VORTAC*178.48/9.90",
	},
	{
		"name": "HANGI",
		"latitude": "32-7-50.55 N",
		"longitude": "81-27-28.21 W",
		"state": "GEORGIA",
		"artcc": "ZJX",
		"type": "RNAV",
		"updated": "08/25/2010",
	},
	{
		"name": "HANIT",
		"latitude": "30-9-45.34 N",
		"longitude": "87-22-6.24 W",
		"state": "FLORIDA",
		"artcc": "ZJX",
		"type": "MR",
		"updated": "NPA*TACAN*192.00/12.00",
	},
	{
		"name": "HAPIN",
		"latitude": "30-33-57.19 N",
		"longitude": "87-42-2.96 W",
		"state": "ALABAMA",
		"artcc": "ZJX",
		"type": "RNAV",
		"updated": "05/16/2016",
	},
	{
		"name": "HARAB",
		"latitude": "33-13-47.22 N",
		"longitude": "80-53-53.52 W",
		"state": "SOUTH CAROLINA",
		"artcc": "ZJX",
		"type": "RP",
		"updated": "CHS*VORTAC*300.08/47.81",
	},
	{
		"name": "HARKE",
		"latitude": "31-4-31.76 N",
		"longitude": "84-1-25.22 W",
		"state": "GEORGIA",
		"artcc": "ZJX",
		"type": "RP",
		"updated": "PZD*VOR/DME*160.21/37.36",
	},
	{
		"name": "HARLD",
		"latitude": "30-1-6 N",
		"longitude": "82-11-57 W",
		"state": "FLORIDA",
		"artcc": "ZJX",
		"type": "RNAV",
		"updated": "10/24/2007",
	},
	{
		"name": "HARNY",
		"latitude": "28-46-54.8 N",
		"longitude": "81-3-3.27 W",
		"state": "FLORIDA",
		"artcc": "ZJX",
		"type": "RNAV",
		"updated": "02/16/2018",
	},
	{
		"name": "HAROR",
		"latitude": "33-54-34.9 N",
		"longitude": "80-31-25.43 W",
		"state": "SOUTH CAROLINA",
		"artcc": "ZJX",
		"type": "MR",
		"updated": "SSC*TACAN*223.12/4.99",
	},
	{
		"name": "HAROT",
		"latitude": "30-29-30.8 N",
		"longitude": "87-5-0.35 W",
		"state": "FLORIDA",
		"artcc": "ZJX",
		"type": "RNAV",
		"updated": "06/20/2012",
	},
	{
		"name": "HARPS",
		"latitude": "31-41-29.56 N",
		"longitude": "81-15-15.75 W",
		"state": "GEORGIA",
		"artcc": "ZJX",
		"type": "RP",
		"updated": "SSI*VORTAC*018.33/39.62",
	},
	{
		"name": "HARTS",
		"latitude": "34-18-31.8 N",
		"longitude": "78-34-36.7 W",
		"state": "NORTH CAROLINA",
		"artcc": "ZJX",
		"type": "MR",
		"updated": "ILM*VORTAC*273.00/35.00",
	},
	{
		"name": "HASAD",
		"latitude": "30-13-15.96 N",
		"longitude": "85-48-21.08 W",
		"state": "FLORIDA",
		"artcc": "ZJX",
		"type": "MR",
		"updated": "PAM*TACAN*310.00/15.00",
	},
	{
		"name": "HASAP",
		"latitude": "30-56-35.12 N",
		"longitude": "81-29-58.47 W",
		"state": "GEORGIA",
		"artcc": "ZJX",
		"type": "RP",
		"updated": "SSI*VORTAC*207.28/7.00",
	},
	{
		"name": "HASID",
		"latitude": "32-53-3.94 N",
		"longitude": "80-2-41.46 W",
		"state": "SOUTH CAROLINA",
		"artcc": "ZJX",
		"type": "RP",
		"updated": "CHS*VORTAC*216.00/0.70",
	},
	{
		"name": "HASUR",
		"latitude": "30-58-25.32 N",
		"longitude": "84-23-35.2 W",
		"state": "GEORGIA",
		"artcc": "ZJX",
		"type": "RNAV",
		"updated": "01/07/2010",
	},
	{
		"name": "HATAD",
		"latitude": "29-9-46.59 N",
		"longitude": "80-47-31.19 W",
		"state": "FLORIDA",
		"artcc": "ZJX",
		"type": "RNAV",
		"updated": "09/13/2011",
	},
	{
		"name": "HATFI",
		"latitude": "30-12-57.74 N",
		"longitude": "81-49-54.14 W",
		"state": "FLORIDA",
		"artcc": "ZJX",
		"type": "RNAV",
		"updated": "10/07/2014",
	},
	{
		"name": "HATIS",
		"latitude": "31-57-55.63 N",
		"longitude": "83-48-32.37 W",
		"state": "GEORGIA",
		"artcc": "ZJX",
		"type": "RNAV",
		"updated": "10/03/2007",
	},
	{
		"name": "HATMA",
		"latitude": "30-39-27.09 N",
		"longitude": "80-39-15.73 W",
		"state": "FLORIDA",
		"artcc": "ZJX",
		"type": "RNAV",
		"updated": "01/22/2008",
	},
	{
		"name": "HATOS",
		"latitude": "29-22-19.97 N",
		"longitude": "81-7-44.96 W",
		"state": "FLORIDA",
		"artcc": "ZJX",
		"type": "RNAV",
		"updated": "09/12/2013",
	},
	{
		"name": "HAVEX",
		"latitude": "31-22-37.75 N",
		"longitude": "84-21-36.67 W",
		"state": "GEORGIA",
		"artcc": "ZJX",
		"type": "RP",
		"updated": "PZD*VOR/DME*/17.01",
	},
	{
		"name": "HAVOG",
		"latitude": "31-1-22.58 N",
		"longitude": "86-49-14.61 W",
		"state": "ALABAMA",
		"artcc": "ZJX",
		"type": "RNAV",
		"updated": "02/01/2010",
	},
	{
		"name": "HAVPI",
		"latitude": "33-54-34.16 N",
		"longitude": "80-35-44.01 W",
		"state": "SOUTH CAROLINA",
		"artcc": "ZJX",
		"type": "RNAV",
		"updated": "10/01/2009",
	},
	{
		"name": "HAVSO",
		"latitude": "31-31-37.93 N",
		"longitude": "85-19-19.67 W",
		"state": "ALABAMA",
		"artcc": "ZJX",
		"type": "RP",
		"updated": "EUF*VORTAC*199.21/27.16",
	},
	{
		"name": "HAWKX",
		"latitude": "28-25-5.19 N",
		"longitude": "82-6-9.9 W",
		"state": "FLORIDA",
		"artcc": "ZJX",
		"type": "RNAV",
		"updated": "08/14/2014",
	},
	{
		"name": "HAWXX",
		"latitude": "30-44-46.15 N",
		"longitude": "86-36-0.98 W",
		"state": "FLORIDA",
		"artcc": "ZJX",
		"type": "MW",
		"updated": "04/02/2007",
	},
	{
		"name": "HAXES",
		"latitude": "31-26-32.74 N",
		"longitude": "86-0-56.84 W",
		"state": "ALABAMA",
		"artcc": "ZJX",
		"type": "RNAV",
		"updated": "07/08/2009",
	},
	{
		"name": "HAXEX",
		"latitude": "34-10-53.9 N",
		"longitude": "79-20-15.06 W",
		"state": "SOUTH CAROLINA",
		"artcc": "ZJX",
		"type": "RP",
		"updated": "FLO*VORTAC*103.85/16.20",
	},
	{
		"name": "HAXIB",
		"latitude": "33-22-26.7 N",
		"longitude": "81-5-15.05 W",
		"state": "SOUTH CAROLINA",
		"artcc": "ZJX",
		"type": "RNAV",
		"updated": "04/27/2010",
	},
	{
		"name": "HAXOL",
		"latitude": "32-45-8.12 N",
		"longitude": "80-16-14.55 W",
		"state": "SOUTH CAROLINA",
		"artcc": "ZJX",
		"type": "RNAV",
		"updated": "06/02/2011",
	},
	{
		"name": "HAYLE",
		"latitude": "31-32-56.99 N",
		"longitude": "83-36-23.74 W",
		"state": "GEORGIA",
		"artcc": "ZJX",
		"type": "MR",
		"updated": "OTK*VOR/DME*342.00/49.00",
	},
	{
		"name": "HAYNY",
		"latitude": "33-33-10.55 N",
		"longitude": "81-10-29.19 W",
		"state": "SOUTH CAROLINA",
		"artcc": "ZJX",
		"type": "RNAV",
		"updated": "02/15/2018",
	},
	{
		"name": "HDSON",
		"latitude": "30-25-51.76 N",
		"longitude": "86-26-7.29 W",
		"state": "FLORIDA",
		"artcc": "ZJX",
		"type": "MW",
		"updated": "04/02/2007",
	},
	{
		"name": "HEBIN",
		"latitude": "30-13-53.52 N",
		"longitude": "81-14-56.07 W",
		"state": "FLORIDA",
		"artcc": "ZJX",
		"type": "RNAV",
		"updated": "08/26/2013",
	},
	{
		"name": "HEBLI",
		"latitude": "31-13-10.88 N",
		"longitude": "86-54-10.88 W",
		"state": "ALABAMA",
		"artcc": "ZJX",
		"type": "RNAV",
		"updated": "02/12/2010",
	},
	{
		"name": "HEDIL",
		"latitude": "33-6-46.27 N",
		"longitude": "81-45-12.61 W",
		"state": "GEORGIA",
		"artcc": "ZJX",
		"type": "RP",
		"updated": "ALD*VOR*285.61",
	},
	{
		"name": "HEFKA",
		"latitude": "32-51-7.94 N",
		"longitude": "79-46-13.32 W",
		"state": "SOUTH CAROLINA",
		"artcc": "ZJX",
		"type": "RNAV",
		"updated": "02/27/2010",
	},
	{
		"name": "HEGET",
		"latitude": "30-23-25.58 N",
		"longitude": "84-27-29.8 W",
		"state": "FLORIDA",
		"artcc": "ZJX",
		"type": "RNAV",
		"updated": "05/19/2015",
	},
	{
		"name": "HEGOB",
		"latitude": "30-25-52.28 N",
		"longitude": "87-24-50.33 W",
		"state": "ALABAMA",
		"artcc": "ZJX",
		"type": "RNAV",
		"updated": "06/20/2012",
	},
	{
		"name": "HEGON",
		"latitude": "30-27-1.54 N",
		"longitude": "86-41-25.98 W",
		"state": "FLORIDA",
		"artcc": "ZJX",
		"type": "MW",
		"updated": "03/03/2008",
	},
	{
		"name": "HEKAL",
		"latitude": "30-22-52.83 N",
		"longitude": "87-42-3.6 W",
		"state": "ALABAMA",
		"artcc": "ZJX",
		"type": "RNAV",
		"updated": "05/16/2016",
	},
	{
		"name": "HEKEG",
		"latitude": "29-49-2.99 N",
		"longitude": "85-1-21.22 W",
		"state": "FLORIDA",
		"artcc": "ZJX",
		"type": "RNAV",
		"updated": "04/12/2012",
	},
	{
		"name": "HEKLU",
		"latitude": "30-35-51.46 N",
		"longitude": "86-29-20.16 W",
		"state": "FLORIDA",
		"artcc": "ZJX",
		"type": "RNAV",
		"updated": "08/20/2004",
	},
	{
		"name": "HEKTO",
		"latitude": "32-12-17.98 N",
		"longitude": "82-40-56.44 W",
		"state": "GEORGIA",
		"artcc": "ZJX",
		"type": "RNAV",
		"updated": "07/07/2015",
	},
	{
		"name": "HELES",
		"latitude": "30-25-54.19 N",
		"longitude": "81-14-12.7 W",
		"state": "FLORIDA",
		"artcc": "ZJX",
		"type": "MR",
		"updated": "NRB*TACAN*081.00/10.00",
	},
	{
		"name": "HELUD",
		"latitude": "31-6-37.26 N",
		"longitude": "87-26-49.41 W",
		"state": "ALABAMA",
		"artcc": "ZJX",
		"type": "RNAV",
		"updated": "12/08/2017",
	},
	{
		"name": "HEMBO",
		"latitude": "30-13-38.28 N",
		"longitude": "81-37-32.86 W",
		"state": "FLORIDA",
		"artcc": "ZJX",
		"type": "MR",
		"updated": "NIP*TACAN*106.00/2.60",
	},
	{
		"name": "HEMUX",
		"latitude": "30-12-45.54 N",
		"longitude": "84-21-24.83 W",
		"state": "FLORIDA",
		"artcc": "ZJX",
		"type": "RNAV",
		"updated": "11/30/2012",
	},
	{
		"name": "HENDU",
		"latitude": "32-49-24 N",
		"longitude": "77-51-11 W",
		"state": "OFFSHORE ATLANTIC",
		"artcc": "ZJX",
		"type": "WP",
		"updated": "03/26/2002",
	},
	{
		"name": "HENIE",
		"latitude": "30-39-40.84 N",
		"longitude": "86-31-21.63 W",
		"state": "FLORIDA",
		"artcc": "ZJX",
		"type": "MW",
		"updated": "05/15/2008",
	},
	{
		"name": "HENIG",
		"latitude": "32-10-17.99 N",
		"longitude": "80-48-13.48 W",
		"state": "SOUTH CAROLINA",
		"artcc": "ZJX",
		"type": "RNAV",
		"updated": "06/16/2008",
	},
	{
		"name": "HENUT",
		"latitude": "32-20-41.36 N",
		"longitude": "81-34-41.08 W",
		"state": "GEORGIA",
		"artcc": "ZJX",
		"type": "RNAV",
		"updated": "07/01/2014",
	},
	{
		"name": "HEPAR",
		"latitude": "31-5-13 N",
		"longitude": "82-33-46 W",
		"state": "GEORGIA",
		"artcc": "ZJX",
		"type": "RNAV",
		"updated": "01/23/2018",
	},
	{
		"name": "HEPOD",
		"latitude": "30-21-42.7 N",
		"longitude": "86-40-46.43 W",
		"state": "FLORIDA",
		"artcc": "ZJX",
		"type": "MR",
		"updated": "HRT*TACAN*172.00/4.00",
	},
	{
		"name": "HEPOX",
		"latitude": "29-23-3.61 N",
		"longitude": "81-58-17.4 W",
		"state": "FLORIDA",
		"artcc": "ZJX",
		"type": "RNAV",
		"updated": "07/15/2008",
	},
	{
		"name": "HERGO",
		"latitude": "33-41-38.54 N",
		"longitude": "81-35-41.88 W",
		"state": "SOUTH CAROLINA",
		"artcc": "ZJX",
		"type": "RNAV",
		"updated": "01/03/2012",
	},
	{
		"name": "HERLO",
		"latitude": "29-8-42.09 N",
		"longitude": "81-2-3.61 W",
		"state": "FLORIDA",
		"artcc": "ZJX",
		"type": "RNAV",
		"updated": "04/05/2004",
	},
	{
		"name": "HERMN",
		"latitude": "33-11-12.57 N",
		"longitude": "79-57-20.3 W",
		"state": "SOUTH CAROLINA",
		"artcc": "ZJX",
		"type": "RP",
		"updated": "CHS*VORTAC*018.29/18.00",
	},
	{
		"name": "HERVI",
		"latitude": "28-38-48.65 N",
		"longitude": "81-17-4.81 W",
		"state": "FLORIDA",
		"artcc": "ZJX",
		"type": "RP",
		"updated": "ARK*LD*005.48/13.81",
	},
	{
		"name": "HESOV",
		"latitude": "29-33-52.3 N",
		"longitude": "81-55-45.68 W",
		"state": "FLORIDA",
		"artcc": "ZJX",
		"type": "RNAV",
		"updated": "08/20/2010",
	},
	{
		"name": "HESTI",
		"latitude": "31-3-26 N",
		"longitude": "84-23-36.24 W",
		"state": "GEORGIA",
		"artcc": "ZJX",
		"type": "RNAV",
		"updated": "01/07/2010",
	},
	{
		"name": "HESUB",
		"latitude": "31-31-20.82 N",
		"longitude": "81-39-48.26 W",
		"state": "GEORGIA",
		"artcc": "ZJX",
		"type": "RNAV",
		"updated": "09/15/2009",
	},
	{
		"name": "HETIL",
		"latitude": "32-59-16.22 N",
		"longitude": "80-39-47.77 W",
		"state": "SOUTH CAROLINA",
		"artcc": "ZJX",
		"type": "RNAV",
		"updated": "01/01/2010",
	},
	{
		"name": "HETIN",
		"latitude": "32-54-31.81 N",
		"longitude": "81-14-14.21 W",
		"state": "SOUTH CAROLINA",
		"artcc": "ZJX",
		"type": "RNAV",
		"updated": "08/21/2013",
	},
	{
		"name": "HETOP",
		"latitude": "31-3-41.53 N",
		"longitude": "81-35-24.76 W",
		"state": "GEORGIA",
		"artcc": "ZJX",
		"type": "RNAV",
		"updated": "12/18/2002",
	},
	{
		"name": "HETOS",
		"latitude": "30-36-59.67 N",
		"longitude": "83-57-18.86 W",
		"state": "FLORIDA",
		"artcc": "ZJX",
		"type": "RNAV",
		"updated": "05/23/2017",
	},
	{
		"name": "HETOX",
		"latitude": "31-50-42.09 N",
		"longitude": "81-8-2.53 W",
		"state": "GEORGIA",
		"artcc": "ZJX",
		"type": "MR",
		"updated": "SVN*VOR/DME*180.00/10.00",
	},
	{
		"name": "HEVBU",
		"latitude": "30-55-26.38 N",
		"longitude": "87-26-47.26 W",
		"state": "FLORIDA",
		"artcc": "ZJX",
		"type": "RNAV",
		"updated": "12/11/2017",
	},
	{
		"name": "HEVIP",
		"latitude": "30-43-37.05 N",
		"longitude": "81-13-21.14 W",
		"state": "GEORGIA",
		"artcc": "ZJX",
		"type": "RNAV",
		"updated": "08/08/2013",
	},
	{
		"name": "HEVIT",
		"latitude": "33-22-38.74 N",
		"longitude": "81-41-11.8 W",
		"state": "SOUTH CAROLINA",
		"artcc": "ZJX",
		"type": "RNAV",
		"updated": "03/24/2004",
	},
	{
		"name": "HEVVN",
		"latitude": "29-49-19.11 N",
		"longitude": "83-53-42.89 W",
		"state": "FLORIDA",
		"artcc": "ZJX",
		"type": "RP",
		"updated": "OTK*VOR/DME*211.28",
	},
	{
		"name": "HIBDO",
		"latitude": "33-15-42.67 N",
		"longitude": "80-56-24.89 W",
		"state": "SOUTH CAROLINA",
		"artcc": "ZJX",
		"type": "RNAV",
		"updated": "04/27/2010",
	},
	{
		"name": "HICKE",
		"latitude": "34-6-42.51 N",
		"longitude": "78-45-44.67 W",
		"state": "NORTH CAROLINA",
		"artcc": "ZJX",
		"type": "RP",
		"updated": "FLO*VORTAC*102.00",
	},
	{
		"name": "HIDAR",
		"latitude": "31-20-7.66 N",
		"longitude": "86-29-52.96 W",
		"state": "ALABAMA",
		"artcc": "ZJX",
		"type": "RNAV",
		"updated": "06/02/2011",
	},
	{
		"name": "HIDAS",
		"latitude": "30-41-4.72 N",
		"longitude": "87-0-11.84 W",
		"state": "FLORIDA",
		"artcc": "ZJX",
		"type": "MR",
		"updated": "NDZ*LD*139.12/1.70",
	},
	{
		"name": "HIDBI",
		"latitude": "31-57-20.35 N",
		"longitude": "83-29-40.24 W",
		"state": "GEORGIA",
		"artcc": "ZJX",
		"type": "RP",
		"updated": "VNA*VORTAC*178.48/15.44",
	},
	{
		"name": "HIDEE",
		"latitude": "33-55-7.58 N",
		"longitude": "80-54-28.5 W",
		"state": "SOUTH CAROLINA",
		"artcc": "ZJX",
		"type": "RP",
		"updated": "CAE*VORTAC*065.14",
	},
	{
		"name": "HIFER",
		"latitude": "30-23-3.3 N",
		"longitude": "87-18-58.49 W",
		"state": "FLORIDA",
		"artcc": "ZJX",
		"type": "MW",
		"updated": "05/13/2008",
	},
	{
		"name": "HIHIT",
		"latitude": "31-0-8.71 N",
		"longitude": "86-59-7.04 W",
		"state": "ALABAMA",
		"artcc": "ZJX",
		"type": "RP",
		"updated": "CEW*VORTAC*300.81/19.00",
	},
	{
		"name": "HIKAL",
		"latitude": "33-18-53.65 N",
		"longitude": "81-34-29.82 W",
		"state": "SOUTH CAROLINA",
		"artcc": "ZJX",
		"type": "RNAV",
		"updated": "06/12/2012",
	},
	{
		"name": "HIKEL",
		"latitude": "33-20-35.04 N",
		"longitude": "81-25-13.6 W",
		"state": "SOUTH CAROLINA",
		"artcc": "ZJX",
		"type": "RNAV",
		"updated": "06/11/2010",
	},
	{
		"name": "HILIS",
		"latitude": "29-40-35.34 N",
		"longitude": "82-16-47.35 W",
		"state": "FLORIDA",
		"artcc": "ZJX",
		"type": "RNAV",
		"updated": "09/17/2014",
	},
	{
		"name": "HILMI",
		"latitude": "33-30-34.71 N",
		"longitude": "80-52-29.72 W",
		"state": "SOUTH CAROLINA",
		"artcc": "ZJX",
		"type": "RNAV",
		"updated": "09/09/2005",
	},
	{
		"name": "HILRD",
		"latitude": "30-50-48.45 N",
		"longitude": "81-55-45.84 W",
		"state": "GEORGIA",
		"artcc": "ZJX",
		"type": "RP",
		"updated": "VQQ*VOR*360.00",
	},
	{
		"name": "HILTN",
		"latitude": "30-41-44.96 N",
		"longitude": "86-39-37.44 W",
		"state": "FLORIDA",
		"artcc": "ZJX",
		"type": "MW",
		"updated": "04/20/2011",
	},
	{
		"name": "HILTU",
		"latitude": "32-13-26.19 N",
		"longitude": "80-42-7.34 W",
		"state": "SOUTH CAROLINA",
		"artcc": "ZJX",
		"type": "RP",
		"updated": "SAV*VORTAC*085.46/25.73",
	},
	{
		"name": "HIMUM",
		"latitude": "30-33-21.03 N",
		"longitude": "86-31-28.91 W",
		"state": "FLORIDA",
		"artcc": "ZJX",
		"type": "MW",
		"updated": "04/02/2007",
	},
	{
		"name": "HINQE",
		"latitude": "28-33-17.65 N",
		"longitude": "82-24-9.11 W",
		"state": "FLORIDA",
		"artcc": "ZJX",
		"type": "RNAV",
		"updated": "05/19/2009",
	},
	{
		"name": "HIPAD",
		"latitude": "28-8-26.23 N",
		"longitude": "82-31-22.75 W",
		"state": "FLORIDA",
		"artcc": "ZJX",
		"type": "RNAV",
		"updated": "11/01/2010",
	},
	{
		"name": "HIPTI",
		"latitude": "33-22-1.08 N",
		"longitude": "80-50-11.57 W",
		"state": "SOUTH CAROLINA",
		"artcc": "ZJX",
		"type": "RNAV",
		"updated": "04/27/2010",
	},
	{
		"name": "HIRKO",
		"latitude": "32-19-56.5 N",
		"longitude": "80-52-41.93 W",
		"state": "SOUTH CAROLINA",
		"artcc": "ZJX",
		"type": "MR",
		"updated": "NBC*TACAN*228.00/12.00",
	},
	{
		"name": "HIROP",
		"latitude": "30-38-44.19 N",
		"longitude": "81-31-7.19 W",
		"state": "FLORIDA",
		"artcc": "ZJX",
		"type": "RNAV",
		"updated": "08/14/2013",
	},
	{
		"name": "HIRUD",
		"latitude": "30-17-43.27 N",
		"longitude": "81-46-7.14 W",
		"state": "FLORIDA",
		"artcc": "ZJX",
		"type": "RNAV",
		"updated": "03/02/2012",
	},
	{
		"name": "HIRUR",
		"latitude": "33-39-3.01 N",
		"longitude": "79-37-16.16 W",
		"state": "SOUTH CAROLINA",
		"artcc": "ZJX",
		"type": "RNAV",
		"updated": "12/05/2006",
	},
	{
		"name": "HISEA",
		"latitude": "30-8-38.81 N",
		"longitude": "86-31-15.12 W",
		"state": "FLORIDA",
		"artcc": "ZJX",
		"type": "MR",
		"updated": "DWG*TACAN*180.00/20.00",
	},
	{
		"name": "HISEB",
		"latitude": "31-27-32.29 N",
		"longitude": "82-27-23.4 W",
		"state": "GEORGIA",
		"artcc": "ZJX",
		"type": "RNAV",
		"updated": "01/27/2014",
	},
	{
		"name": "HISNO",
		"latitude": "30-19-18.93 N",
		"longitude": "85-46-47.37 W",
		"state": "FLORIDA",
		"artcc": "ZJX",
		"type": "RNAV",
		"updated": "02/25/2010",
	},
	{
		"name": "HITSI",
		"latitude": "30-25-40.85 N",
		"longitude": "86-46-2.64 W",
		"state": "FLORIDA",
		"artcc": "ZJX",
		"type": "MR",
		"updated": "HRT*TACAN*270.00/4.00",
	},
	{
		"name": "HITTR",
		"latitude": "29-5-46.49 N",
		"longitude": "82-26-49.11 W",
		"state": "FLORIDA",
		"artcc": "ZJX",
		"type": "RP",
		"updated": "OTK*VOR/DME*158.49/109.76",
	},
	{
		"name": "HITTS",
		"latitude": "30-33-59.05 N",
		"longitude": "81-41-44.14 W",
		"state": "FLORIDA",
		"artcc": "ZJX",
		"type": "RNAV",
		"updated": "08/26/2013",
	},
	{
		"name": "HIVIN",
		"latitude": "30-13-53.23 N",
		"longitude": "81-41-59.13 W",
		"state": "FLORIDA",
		"artcc": "ZJX",
		"type": "MR",
		"updated": "NIP*TACAN*267.00/1.30",
	},
	{
		"name": "HIVNI",
		"latitude": "30-56-50.75 N",
		"longitude": "83-27-42.25 W",
		"state": "GEORGIA",
		"artcc": "ZJX",
		"type": "RNAV",
		"updated": "12/11/2006",
	},
	{
		"name": "HKUNA",
		"latitude": "30-36-2 N",
		"longitude": "83-5-36 W",
		"state": "FLORIDA",
		"artcc": "ZJX",
		"type": "RNAV",
		"updated": "12/20/2009",
	},
	{
		"name": "HNDRX",
		"latitude": "28-16-2 N",
		"longitude": "82-25-36 W",
		"state": "FLORIDA",
		"artcc": "ZJX",
		"type": "RNAV",
		"updated": "03/16/2007",
	},
	{
		"name": "HOBEN",
		"latitude": "34-13-39.3 N",
		"longitude": "79-43-23.52 W",
		"state": "SOUTH CAROLINA",
		"artcc": "ZJX",
		"type": "RNAV",
		"updated": "04/01/2009",
	},
	{
		"name": "HOBOB",
		"latitude": "32-46-33.64 N",
		"longitude": "81-25-29.65 W",
		"state": "GEORGIA",
		"artcc": "ZJX",
		"type": "RNAV",
		"updated": "07/20/2007",
	},
	{
		"name": "HOBOE",
		"latitude": "30-34-25.5 N",
		"longitude": "87-1-26.94 W",
		"state": "FLORIDA",
		"artcc": "ZJX",
		"type": "MR",
		"updated": "NSE*TACAN*184.00/9.00",
	},
	{
		"name": "HODAR",
		"latitude": "28-4-24.92 N",
		"longitude": "82-29-1.32 W",
		"state": "FLORIDA",
		"artcc": "ZJX",
		"type": "RNAV",
		"updated": "07/15/2008",
	},
	{
		"name": "HODEK",
		"latitude": "33-5-14.03 N",
		"longitude": "79-45-51.43 W",
		"state": "SOUTH CAROLINA",
		"artcc": "ZJX",
		"type": "MR",
		"updated": "CHS*VORTAC*055.00/18.00",
	},
	{
		"name": "HODIL",
		"latitude": "32-45-45.11 N",
		"longitude": "80-6-40.49 W",
		"state": "SOUTH CAROLINA",
		"artcc": "ZJX",
		"type": "RNAV",
		"updated": "06/13/2012",
	},
	{
		"name": "HOGNU",
		"latitude": "31-24-5.09 N",
		"longitude": "82-31-55.46 W",
		"state": "GEORGIA",
		"artcc": "ZJX",
		"type": "RP",
		"updated": "AYS*VORTAC*009.00/8.00",
	},
	{
		"name": "HOKAX",
		"latitude": "28-0-8.87 N",
		"longitude": "82-40-10.15 W",
		"state": "FLORIDA",
		"artcc": "ZJX",
		"type": "RNAV",
		"updated": "12/10/2010",
	},
	{
		"name": "HOKUN",
		"latitude": "29-47-4.18 N",
		"longitude": "85-22-51.16 W",
		"state": "FLORIDA",
		"artcc": "ZJX",
		"type": "MR",
		"updated": "PAM*TACAN*154.00/20.00",
	},
	{
		"name": "HOLAK",
		"latitude": "29-9-23.51 N",
		"longitude": "81-7-2.29 W",
		"state": "FLORIDA",
		"artcc": "ZJX",
		"type": "RNAV",
		"updated": "04/06/2004",
	},
	{
		"name": "HOLBI",
		"latitude": "30-54-7.04 N",
		"longitude": "87-2-21 W",
		"state": "FLORIDA",
		"artcc": "ZJX",
		"type": "RNAV",
		"updated": "02/01/2010",
	},
	{
		"name": "HOLDN",
		"latitude": "33-50-52.06 N",
		"longitude": "78-17-32.46 W",
		"state": "NORTH CAROLINA",
		"artcc": "ZJX",
		"type": "RNAV",
		"updated": "02/26/2010",
	},
	{
		"name": "HOLEP",
		"latitude": "30-45-43.98 N",
		"longitude": "86-31-25.24 W",
		"state": "FLORIDA",
		"artcc": "ZJX",
		"type": "MR",
		"updated": "DWG*TACAN*359.51/17.00",
	},
	{
		"name": "HOLII",
		"latitude": "32-48-18.39 N",
		"longitude": "80-4-34.21 W",
		"state": "SOUTH CAROLINA",
		"artcc": "ZJX",
		"type": "RNAV",
		"updated": "06/13/2012",
	},
	{
		"name": "HOLOP",
		"latitude": "28-44-13.15 N",
		"longitude": "81-19-48.43 W",
		"state": "FLORIDA",
		"artcc": "ZJX",
		"type": "RP",
		"updated": "TFE*LD*005.45/19.47",
	},
	{
		"name": "HOMOL",
		"latitude": "33-57-57.45 N",
		"longitude": "81-4-46.47 W",
		"state": "SOUTH CAROLINA",
		"artcc": "ZJX",
		"type": "RNAV",
		"updated": "07/09/2009",
	},
	{
		"name": "HOMTU",
		"latitude": "30-30-44.41 N",
		"longitude": "86-58-15.61 W",
		"state": "FLORIDA",
		"artcc": "ZJX",
		"type": "RNAV",
		"updated": "03/30/2005",
	},
	{
		"name": "HONAP",
		"latitude": "32-39-36.74 N",
		"longitude": "80-13-27.78 W",
		"state": "SOUTH CAROLINA",
		"artcc": "ZJX",
		"type": "RP",
		"updated": "CHS*VORTAC*219.00/16.90",
	},
	{
		"name": "HOPEV",
		"latitude": "30-25-39.43 N",
		"longitude": "81-55-24.16 W",
		"state": "FLORIDA",
		"artcc": "ZJX",
		"type": "MR",
		"updated": "CRG*VORTAC*287.01/22.10",
	},
	{
		"name": "HOPIS",
		"latitude": "32-9-56.14 N",
		"longitude": "82-5-7.4 W",
		"state": "GEORGIA",
		"artcc": "ZJX",
		"type": "RNAV",
		"updated": "07/07/2015",
	},
	{
		"name": "HOPKI",
		"latitude": "33-54-28.23 N",
		"longitude": "80-52-11.49 W",
		"state": "SOUTH CAROLINA",
		"artcc": "ZJX",
		"type": "RP",
		"updated": "CAE*VORTAC*073.70/9.68",
	},
	{
		"name": "HOPKO",
		"latitude": "30-59-55.91 N",
		"longitude": "81-55-56.85 W",
		"state": "GEORGIA",
		"artcc": "ZJX",
		"type": "RNAV",
		"updated": "10/23/2011",
	},
	{
		"name": "HOPOD",
		"latitude": "32-22-43.89 N",
		"longitude": "80-16-48.35 W",
		"state": "SOUTH CAROLINA",
		"artcc": "ZJX",
		"type": "MR",
		"updated": "NBC*TACAN*110.00/23.00",
	},
	{
		"name": "HOPOV",
		"latitude": "30-21-20.62 N",
		"longitude": "81-28-0.09 W",
		"state": "FLORIDA",
		"artcc": "ZJX",
		"type": "MR",
		"updated": "NRB*TACAN*235.00/3.00",
	},
	{
		"name": "HOPRO",
		"latitude": "31-21-24.17 N",
		"longitude": "83-26-29.47 W",
		"state": "GEORGIA",
		"artcc": "ZJX",
		"type": "RP",
		"updated": "TMA*LD*152.34/5.76",
	},
	{
		"name": "HOREB",
		"latitude": "31-36-46.96 N",
		"longitude": "82-33-23.93 W",
		"state": "GEORGIA",
		"artcc": "ZJX",
		"type": "RNAV",
		"updated": "01/27/2014",
	},
	{
		"name": "HORIM",
		"latitude": "33-14-7.59 N",
		"longitude": "81-11-12.43 W",
		"state": "SOUTH CAROLINA",
		"artcc": "ZJX",
		"type": "RNAV",
		"updated": "11/17/2010",
	},
	{
		"name": "HORIR",
		"latitude": "33-6-21.99 N",
		"longitude": "81-12-53.81 W",
		"state": "SOUTH CAROLINA",
		"artcc": "ZJX",
		"type": "RNAV",
		"updated": "10/02/2007",
	},
	{
		"name": "HOSBY",
		"latitude": "30-24-59.2 N",
		"longitude": "85-49-15.2 W",
		"state": "FLORIDA",
		"artcc": "ZJX",
		"type": "RNAV",
		"updated": "02/25/2010",
	},
	{
		"name": "HOSGI",
		"latitude": "33-56-23.35 N",
		"longitude": "79-45-24.63 W",
		"state": "SOUTH CAROLINA",
		"artcc": "ZJX",
		"type": "RNAV",
		"updated": "02/05/2007",
	},
	{
		"name": "HOSOG",
		"latitude": "30-49-2.06 N",
		"longitude": "83-48-31.33 W",
		"state": "GEORGIA",
		"artcc": "ZJX",
		"type": "RNAV",
		"updated": "11/22/2010",
	},
	{
		"name": "HOSOK",
		"latitude": "29-7-10.53 N",
		"longitude": "81-12-42.77 W",
		"state": "FLORIDA",
		"artcc": "ZJX",
		"type": "RNAV",
		"updated": "04/12/2006",
	},
	{
		"name": "HOTAN",
		"latitude": "32-0-45.52 N",
		"longitude": "81-0-26.37 W",
		"state": "GEORGIA",
		"artcc": "ZJX",
		"type": "RNAV",
		"updated": "08/25/2010",
	},
	{
		"name": "HOTAR",
		"latitude": "30-38-23.32 N",
		"longitude": "81-6-45.71 W",
		"state": "FLORIDA",
		"artcc": "ZJX",
		"type": "RP",
		"updated": "OMN*VORTAC*360.00/80.00",
	},
	{
		"name": "HOUND",
		"latitude": "31-5-4.74 N",
		"longitude": "85-43-40.26 W",
		"state": "ALABAMA",
		"artcc": "ZJX",
		"type": "RP",
		"updated": "OZR*VOR/DME*183.41",
	},
	{
		"name": "HOWEL",
		"latitude": "32-36-22.68 N",
		"longitude": "80-35-12.24 W",
		"state": "SOUTH CAROLINA",
		"artcc": "ZJX",
		"type": "MW",
		"updated": "03/04/2010",
	},
	{
		"name": "HOWLR",
		"latitude": "30-13-47.68 N",
		"longitude": "81-57-44.93 W",
		"state": "FLORIDA",
		"artcc": "ZJX",
		"type": "MW",
		"updated": "09/28/2009",
	},
	{
		"name": "HOWWE",
		"latitude": "33-47-35.21 N",
		"longitude": "78-13-0.37 W",
		"state": "NORTH CAROLINA",
		"artcc": "ZJX",
		"type": "RNAV",
		"updated": "02/26/2010",
	},
	{
		"name": "HOXOX",
		"latitude": "31-30-13.61 N",
		"longitude": "82-29-8.1 W",
		"state": "GEORGIA",
		"artcc": "ZJX",
		"type": "RNAV",
		"updated": "01/27/2014",
	},
	{
		"name": "HUBGO",
		"latitude": "30-29-5.94 N",
		"longitude": "87-54-10.32 W",
		"state": "ALABAMA",
		"artcc": "ZJX",
		"type": "RP",
		"updated": "BFM*VORTAC*130.00/11.00",
	},
	{
		"name": "HUBUS",
		"latitude": "31-14-31.55 N",
		"longitude": "81-54-45.32 W",
		"state": "GEORGIA",
		"artcc": "ZJX",
		"type": "RNAV",
		"updated": "10/23/2011",
	},
	{
		"name": "HUDES",
		"latitude": "31-10-1.18 N",
		"longitude": "81-27-28.12 W",
		"state": "GEORGIA",
		"artcc": "ZJX",
		"type": "RP",
		"updated": "SSI*VORTAC*359.00/7.00",
	},
	{
		"name": "HUDKO",
		"latitude": "32-47-8.5 N",
		"longitude": "81-1-20.34 W",
		"state": "SOUTH CAROLINA",
		"artcc": "ZJX",
		"type": "MR",
		"updated": "NBC*TACAN*325.00/24.00",
	},
	{
		"name": "HUDUD",
		"latitude": "30-44-12.59 N",
		"longitude": "87-2-7.82 W",
		"state": "FLORIDA",
		"artcc": "ZJX",
		"type": "MR",
		"updated": "NSE*LD*319.10/1.80",
	},
	{
		"name": "HUDUV",
		"latitude": "29-0-51.38 N",
		"longitude": "81-38-45.91 W",
		"state": "FLORIDA",
		"artcc": "ZJX",
		"type": "RNAV",
		"updated": "11/01/2013",
	},
	{
		"name": "HUKAG",
		"latitude": "32-42-18.9 N",
		"longitude": "80-0-42.44 W",
		"state": "SOUTH CAROLINA",
		"artcc": "ZJX",
		"type": "CN",
		"updated": "01/30/2007",
	},
	{
		"name": "HUKON",
		"latitude": "30-14-52.52 N",
		"longitude": "87-33-15.71 W",
		"state": "FLORIDA",
		"artcc": "ZJX",
		"type": "MR",
		"updated": "NPA*TACAN*241.00/14.00",
	},
	{
		"name": "HULEG",
		"latitude": "31-26-8.25 N",
		"longitude": "82-14-42.98 W",
		"state": "GEORGIA",
		"artcc": "ZJX",
		"type": "RNAV",
		"updated": "12/28/2015",
	},
	{
		"name": "HULEL",
		"latitude": "29-46-27.07 N",
		"longitude": "82-57-17.02 W",
		"state": "FLORIDA",
		"artcc": "ZJX",
		"type": "RNAV",
		"updated": "10/08/2010",
	},
	{
		"name": "HULMO",
		"latitude": "32-12-12.46 N",
		"longitude": "83-11-59.04 W",
		"state": "GEORGIA",
		"artcc": "ZJX",
		"type": "MR",
		"updated": "MCN*VORTAC*141.00/37.00",
	},
	{
		"name": "HUMDA",
		"latitude": "32-16-31.21 N",
		"longitude": "83-5-30.39 W",
		"state": "GEORGIA",
		"artcc": "ZJX",
		"type": "RNAV",
		"updated": "09/15/2009",
	},
	{
		"name": "HUMRU",
		"latitude": "31-8-47.99 N",
		"longitude": "83-11-18.25 W",
		"state": "GEORGIA",
		"artcc": "ZJX",
		"type": "MR",
		"updated": "12/05/2000",
	},
	{
		"name": "HUNDO",
		"latitude": "32-8-13.29 N",
		"longitude": "80-44-51.55 W",
		"state": "SOUTH CAROLINA",
		"artcc": "ZJX",
		"type": "RNAV",
		"updated": "10/10/2017",
	},
	{
		"name": "HUNET",
		"latitude": "30-20-18.58 N",
		"longitude": "87-21-31.38 W",
		"state": "FLORIDA",
		"artcc": "ZJX",
		"type": "MW",
		"updated": "07/08/2016",
	},
	{
		"name": "HUNVO",
		"latitude": "30-5-15.99 N",
		"longitude": "81-38-20.78 W",
		"state": "FLORIDA",
		"artcc": "ZJX",
		"type": "MR",
		"updated": "NIP*TACAN*174.00/9.00",
	},
	{
		"name": "HUPAR",
		"latitude": "30-49-2.92 N",
		"longitude": "81-35-51.18 W",
		"state": "GEORGIA",
		"artcc": "ZJX",
		"type": "RNAV",
		"updated": "08/09/2013",
	},
	{
		"name": "HUPOR",
		"latitude": "29-12-41.67 N",
		"longitude": "82-38-12.26 W",
		"state": "FLORIDA",
		"artcc": "ZJX",
		"type": "RNAV",
		"updated": "02/01/2007",
	},
	{
		"name": "HURGA",
		"latitude": "29-41-34.42 N",
		"longitude": "82-17-34.46 W",
		"state": "FLORIDA",
		"artcc": "ZJX",
		"type": "RP",
		"updated": "GNV*VORTAC*/1.04",
	},
	{
		"name": "HURIV",
		"latitude": "29-39-38.85 N",
		"longitude": "81-37-37.65 W",
		"state": "FLORIDA",
		"artcc": "ZJX",
		"type": "RNAV",
		"updated": "08/20/2010",
	},
	{
		"name": "HUROL",
		"latitude": "30-22-49.55 N",
		"longitude": "84-10-22.95 W",
		"state": "FLORIDA",
		"artcc": "ZJX",
		"type": "RNAV",
		"updated": "11/02/2017",
	},
	{
		"name": "HURVO",
		"latitude": "33-26-46.96 N",
		"longitude": "80-56-49.01 W",
		"state": "SOUTH CAROLINA",
		"artcc": "ZJX",
		"type": "RNAV",
		"updated": "11/17/2010",
	},
	{
		"name": "HUTEM",
		"latitude": "33-54-17.67 N",
		"longitude": "80-46-58.92 W",
		"state": "SOUTH CAROLINA",
		"artcc": "ZJX",
		"type": "MR",
		"updated": "MMT*VORTAC*148.00/1.50",
	},
	{
		"name": "HUTNO",
		"latitude": "30-13-49.93 N",
		"longitude": "81-52-19.46 W",
		"state": "FLORIDA",
		"artcc": "ZJX",
		"type": "RNAV",
		"updated": "05/12/2015",
	},
	{
		"name": "HUUPP",
		"latitude": "30-36-28.43 N",
		"longitude": "85-46-50.33 W",
		"state": "FLORIDA",
		"artcc": "ZJX",
		"type": "RNAV",
		"updated": "04/19/2012",
	},
	{
		"name": "HUXOS",
		"latitude": "34-4-36.48 N",
		"longitude": "79-34-2.56 W",
		"state": "SOUTH CAROLINA",
		"artcc": "ZJX",
		"type": "RNAV",
		"updated": "08/29/2014",
	},
	{
		"name": "HUXUP",
		"latitude": "30-17-24.81 N",
		"longitude": "87-42-48.35 W",
		"state": "ALABAMA",
		"artcc": "ZJX",
		"type": "RNAV",
		"updated": "02/01/2007",
	},
	{
		"name": "HUXUX",
		"latitude": "29-55-14.89 N",
		"longitude": "81-48-22.49 W",
		"state": "FLORIDA",
		"artcc": "ZJX",
		"type": "MR",
		"updated": "NIP*TACAN*206.00/20.00",
	},
	{
		"name": "HUYUS",
		"latitude": "30-43-50.73 N",
		"longitude": "83-11-35.67 W",
		"state": "GEORGIA",
		"artcc": "ZJX",
		"type": "MW",
		"updated": "04/12/2017",
	},
	{
		"name": "HVVVR",
		"latitude": "30-35-6.86 N",
		"longitude": "86-29-23.4 W",
		"state": "FLORIDA",
		"artcc": "ZJX",
		"type": "MR",
		"updated": "DWG*TACAN*/6.60",
	},
	{
		"name": "HYZER",
		"latitude": "28-38-57.51 N",
		"longitude": "82-7-53.55 W",
		"state": "FLORIDA",
		"artcc": "ZJX",
		"type": "RP",
		"updated": "OCF*VORTAC*171.00/32.00",
	},
