[
	{
		"name": "IAATE",
		"latitude": "30-44-31.95 N",
		"longitude": "86-12-41.05 W",
		"state": "FLORIDA",
		"artcc": "ZJX",
		"type": "RNAV",
		"updated": "04/04/2018"
	},
	{
		"name": "IBANE",
		"latitude": "33-2-30.23 N",
		"longitude": "80-7-51.22 W",
		"state": "SOUTH CAROLINA",
		"artcc": "ZJX",
		"type": "RP",
		"updated": "CHS*VORTAC*337.00/10.00"
	},
	{
		"name": "IBAYE",
		"latitude": "34-24-15.54 N",
		"longitude": "80-22-47.45 W",
		"state": "SOUTH CAROLINA",
		"artcc": "ZJX",
		"type": "RNAV",
		"updated": "09/06/2007"
	},
	{
		"name": "IBAYI",
		"latitude": "29-25-10.83 N",
		"longitude": "81-0-6.22 W",
		"state": "FLORIDA",
		"artcc": "ZJX",
		"type": "RNAV",
		"updated": "03/25/2004"
	},
	{
		"name": "IBEBE",
		"latitude": "31-26-54.91 N",
		"longitude": "83-18-46.51 W",
		"state": "GEORGIA",
		"artcc": "ZJX",
		"type": "RP",
		"updated": "OTK*VOR/DME*359.56"
	},
	{
		"name": "IBPEP",
		"latitude": "28-57-2.37 N",
		"longitude": "81-58-56.94 W",
		"state": "FLORIDA",
		"artcc": "ZJX",
		"type": "RNAV",
		"updated": "11/14/2006"
	},
	{
		"name": "ICABE",
		"latitude": "29-31-13.9 N",
		"longitude": "82-16-7.41 W",
		"state": "FLORIDA",
		"artcc": "ZJX",
		"type": "RNAV",
		"updated": "11/02/2017"
	},
	{
		"name": "ICBOD",
		"latitude": "31-15-51.31 N",
		"longitude": "83-28-14.19 W",
		"state": "GEORGIA",
		"artcc": "ZJX",
		"type": "RP",
		"updated": "ATL*VORTAC*160.66/149.83"
	},
	{
		"name": "ICEJO",
		"latitude": "34-19-23.4 N",
		"longitude": "80-9-32.27 W",
		"state": "SOUTH CAROLINA",
		"artcc": "ZJX",
		"type": "RNAV",
		"updated": "07/12/2017"
	},
	{
		"name": "ICIVO",
		"latitude": "29-17-1.8 N",
		"longitude": "82-33-17.07 W",
		"state": "FLORIDA",
		"artcc": "ZJX",
		"type": "RNAV",
		"updated": "02/01/2007"
	},
	{
		"name": "ICUTE",
		"latitude": "33-3-0.92 N",
		"longitude": "81-24-6.74 W",
		"state": "SOUTH CAROLINA",
		"artcc": "ZJX",
		"type": "RNAV",
		"updated": "10/02/2007"
	},
	{
		"name": "IDEBE",
		"latitude": "34-21-58.59 N",
		"longitude": "79-38-52.16 W",
		"state": "SOUTH CAROLINA",
		"artcc": "ZJX",
		"type": "RP",
		"updated": "FLO*VORTAC*006.31/8.00"
	},
	{
		"name": "IDGES",
		"latitude": "30-41-12.57 N",
		"longitude": "86-30-44.27 W",
		"state": "FLORIDA",
		"artcc": "ZJX",
		"type": "RP",
		"updated": "CEW*VORTAC*131.00/12.00"
	},
	{
		"name": "IDIFI",
		"latitude": "33-6-21.26 N",
		"longitude": "80-41-57.44 W",
		"state": "SOUTH CAROLINA",
		"artcc": "ZJX",
		"type": "RNAV",
		"updated": "01/01/2010"
	},
	{
		"name": "IDILE",
		"latitude": "33-3-11.22 N",
		"longitude": "79-58-35.53 W",
		"state": "SOUTH CAROLINA",
		"artcc": "ZJX",
		"type": "RP",
		"updated": "CHS*VORTAC*023.00/10.00"
	},
	{
		"name": "IDROF",
		"latitude": "29-6-26.35 N",
		"longitude": "81-22-14.51 W",
		"state": "FLORIDA",
		"artcc": "ZJX",
		"type": "RNAV",
		"updated": "04/12/2006"
	},
	{
		"name": "IFWOC",
		"latitude": "30-50-37.55 N",
		"longitude": "81-24-40.45 W",
		"state": "GEORGIA",
		"artcc": "ZJX",
		"type": "RNAV",
		"updated": "08/09/2013"
	},
	{
		"name": "IGDUF",
		"latitude": "28-5-45.7 N",
		"longitude": "82-20-57.32 W",
		"state": "FLORIDA",
		"artcc": "ZJX",
		"type": "RNAV",
		"updated": "03/26/2011"
	},
	{
		"name": "IGNAQ",
		"latitude": "28-28-34.42 N",
		"longitude": "82-21-2.5 W",
		"state": "FLORIDA",
		"artcc": "ZJX",
		"type": "RNAV",
		"updated": "05/19/2009"
	},
	{
		"name": "IGOGE",
		"latitude": "32-59-32 N",
		"longitude": "77-48-49 W",
		"state": "OFFSHORE ATLANTIC",
		"artcc": "ZJX",
		"type": "WP",
		"updated": "03/26/2002"
	},
	{
		"name": "IGOTE",
		"latitude": "30-42-7.62 N",
		"longitude": "84-4-26.45 W",
		"state": "GEORGIA",
		"artcc": "ZJX",
		"type": "RNAV",
		"updated": "05/23/2017"
	},
	{
		"name": "IGOZI",
		"latitude": "32-13-9.56 N",
		"longitude": "81-12-2.8 W",
		"state": "GEORGIA",
		"artcc": "ZJX",
		"type": "WP",
		"updated": "11/02/1998"
	},
	{
		"name": "IGUBE",
		"latitude": "31-42-17.73 N",
		"longitude": "85-52-23.62 W",
		"state": "ALABAMA",
		"artcc": "ZJX",
		"type": "RNAV",
		"updated": "04/22/2014"
	},
	{
		"name": "IHEZU",
		"latitude": "30-42-22.52 N",
		"longitude": "81-22-47.73 W",
		"state": "FLORIDA",
		"artcc": "ZJX",
		"type": "MR",
		"updated": "CRG*VORTAC*020.00/23.00"
	},
	{
		"name": "IHORA",
		"latitude": "31-8-32.76 N",
		"longitude": "84-56-49.72 W",
		"state": "GEORGIA",
		"artcc": "ZJX",
		"type": "RNAV",
		"updated": "02/28/2011"
	},
	{
		"name": "IJAYU",
		"latitude": "30-20-24.72 N",
		"longitude": "81-53-26.23 W",
		"state": "FLORIDA",
		"artcc": "ZJX",
		"type": "RNAV",
		"updated": "11/30/2012"
	},
	{
		"name": "IKAGE",
		"latitude": "31-44-40.56 N",
		"longitude": "85-8-39.24 W",
		"state": "ALABAMA",
		"artcc": "ZJX",
		"type": "RNAV",
		"updated": "07/14/2011"
	},
	{
		"name": "IKECA",
		"latitude": "30-29-53.02 N",
		"longitude": "81-20-4.4 W",
		"state": "FLORIDA",
		"artcc": "ZJX",
		"type": "MR",
		"updated": "NRB*TACAN*041.00/8.00"
	},
	{
		"name": "IKUDE",
		"latitude": "30-8-52.91 N",
		"longitude": "81-43-57.81 W",
		"state": "FLORIDA",
		"artcc": "ZJX",
		"type": "MR",
		"updated": "NIP*TACAN*216.00/6.00"
	},
	{
		"name": "IKUPY",
		"latitude": "33-54-17.17 N",
		"longitude": "81-9-7.58 W",
		"state": "SOUTH CAROLINA",
		"artcc": "ZJX",
		"type": "RP",
		"updated": "CAE*VORTAC*302.14"
	},
	{
		"name": "ILACA",
		"latitude": "29-32-19.47 N",
		"longitude": "82-56-2.67 W",
		"state": "FLORIDA",
		"artcc": "ZJX",
		"type": "CN",
		"updated": "09/12/2002"
	},
	{
		"name": "ILAPY",
		"latitude": "30-16-50.23 N",
		"longitude": "87-54-40.45 W",
		"state": "ALABAMA",
		"artcc": "ZJX",
		"type": "RNAV",
		"updated": "03/16/2011"
	},
	{
		"name": "ILAYI",
		"latitude": "30-50-22.27 N",
		"longitude": "84-3-35.39 W",
		"state": "GEORGIA",
		"artcc": "ZJX",
		"type": "RNAV",
		"updated": "07/08/2011"
	},
	{
		"name": "ILBOC",
		"latitude": "29-16-27.51 N",
		"longitude": "81-36-26.57 W",
		"state": "FLORIDA",
		"artcc": "ZJX",
		"type": "RNAV",
		"updated": "08/26/2013"
	},
	{
		"name": "ILOPE",
		"latitude": "30-32-14.3 N",
		"longitude": "86-35-41.33 W",
		"state": "FLORIDA",
		"artcc": "ZJX",
		"type": "RNAV",
		"updated": "06/16/2011"
	},
	{
		"name": "ILQAP",
		"latitude": "34-8-30.19 N",
		"longitude": "79-22-2.86 W",
		"state": "SOUTH CAROLINA",
		"artcc": "ZJX",
		"type": "RNAV",
		"updated": "08/29/2014"
	},
	{
		"name": "ILTAC",
		"latitude": "31-27-1.62 N",
		"longitude": "82-37-20.43 W",
		"state": "GEORGIA",
		"artcc": "ZJX",
		"type": "RNAV",
		"updated": "08/26/2013"
	},
	{
		"name": "IMAHA",
		"latitude": "30-18-51.24 N",
		"longitude": "82-6-30.34 W",
		"state": "FLORIDA",
		"artcc": "ZJX",
		"type": "RNAV",
		"updated": "10/07/2014"
	},
	{
		"name": "IMCEF",
		"latitude": "29-47-12.01 N",
		"longitude": "82-4-57.32 W",
		"state": "FLORIDA",
		"artcc": "ZJX",
		"type": "RNAV",
		"updated": "06/22/2007"
	},
	{
		"name": "IMEKE",
		"latitude": "29-38-36.77 N",
		"longitude": "81-40-49.71 W",
		"state": "FLORIDA",
		"artcc": "ZJX",
		"type": "RNAV",
		"updated": "11/02/2017"
	},
	{
		"name": "IMOVE",
		"latitude": "34-10-25.44 N",
		"longitude": "79-51-24.78 W",
		"state": "SOUTH CAROLINA",
		"artcc": "ZJX",
		"type": "RNAV",
		"updated": "08/01/2011"
	},
	{
		"name": "IMOXE",
		"latitude": "31-24-8.9 N",
		"longitude": "81-52-50.84 W",
		"state": "GEORGIA",
		"artcc": "ZJX",
		"type": "RNAV",
		"updated": "10/23/2011"
	},
	{
		"name": "IMUXY",
		"latitude": "33-11-28.61 N",
		"longitude": "81-13-12.79 W",
		"state": "SOUTH CAROLINA",
		"artcc": "ZJX",
		"type": "RNAV",
		"updated": "08/21/2013"
	},
	{
		"name": "INARE",
		"latitude": "32-56-49.96 N",
		"longitude": "80-26-16.98 W",
		"state": "SOUTH CAROLINA",
		"artcc": "ZJX",
		"type": "RNAV",
		"updated": "11/29/2017"
	},
	{
		"name": "INBRD",
		"latitude": "30-48-29.96 N",
		"longitude": "87-0-27.11 W",
		"state": "FLORIDA",
		"artcc": "ZJX",
		"type": "RP",
		"updated": "CEW*VORTAC*263.48/17.00"
	},
	{
		"name": "INECA",
		"latitude": "34-2-27.76 N",
		"longitude": "79-44-36.88 W",
		"state": "SOUTH CAROLINA",
		"artcc": "ZJX",
		"type": "RNAV",
		"updated": "02/02/2007"
	},
	{
		"name": "INEKE",
		"latitude": "30-22-39.55 N",
		"longitude": "81-26-15.43 W",
		"state": "FLORIDA",
		"artcc": "ZJX",
		"type": "MR",
		"updated": "NRB*TACAN*235.00/1.00"
	},
	{
		"name": "INIGE",
		"latitude": "30-50-26.33 N",
		"longitude": "82-40-32.87 W",
		"state": "GEORGIA",
		"artcc": "ZJX",
		"type": "RNAV",
		"updated": "05/01/2015"
	},
	{
		"name": "INLET",
		"latitude": "33-23-33.9 N",
		"longitude": "79-19-54.59 W",
		"state": "SOUTH CAROLINA",
		"artcc": "ZJX",
		"type": "RP",
		"updated": "CHS*VORTAC*054.80/46.43"
	},
	{
		"name": "INPIN",
		"latitude": "28-33-12.69 N",
		"longitude": "81-48-26.8 W",
		"state": "FLORIDA",
		"artcc": "ZJX",
		"type": "RP",
		"updated": "CTY*VORTAC*135.49/90.41"
	},
	{
		"name": "INSIW",
		"latitude": "34-41-7.2 N",
		"longitude": "80-25-41.77 W",
		"state": "SOUTH CAROLINA",
		"artcc": "ZJX",
		"type": "RNAV",
		"updated": "01/25/2017"
	},
	{
		"name": "INUME",
		"latitude": "31-16-58.89 N",
		"longitude": "85-26-43.97 W",
		"state": "ALABAMA",
		"artcc": "ZJX",
		"type": "RNAV",
		"updated": "06/15/2010"
	},
	{
		"name": "IPETE",
		"latitude": "32-46-36.37 N",
		"longitude": "79-53-50.29 W",
		"state": "SOUTH CAROLINA",
		"artcc": "ZJX",
		"type": "MR",
		"updated": "CHS*VORTAC*139.70/10.00"
	},
	{
		"name": "IPNEC",
		"latitude": "28-40-15.25 N",
		"longitude": "81-27-14.29 W",
		"state": "FLORIDA",
		"artcc": "ZJX",
		"type": "RP",
		"updated": "02/26/2018"
	},
	{
		"name": "IPTAQ",
		"latitude": "30-32-28.81 N",
		"longitude": "81-38-59.81 W",
		"state": "FLORIDA",
		"artcc": "ZJX",
		"type": "RNAV",
		"updated": "01/25/2013"
	},
	{
		"name": "IPWEF",
		"latitude": "31-33-0.92 N",
		"longitude": "82-47-42.92 W",
		"state": "GEORGIA",
		"artcc": "ZJX",
		"type": "RNAV",
		"updated": "07/10/2011"
	},
	{
		"name": "ISBUY",
		"latitude": "28-11-18 N",
		"longitude": "83-7-57 W",
		"state": "FLORIDA",
		"artcc": "ZJX",
		"type": "RNAV",
		"updated": "11/26/2007"
	},
	{
		"name": "ISLLE",
		"latitude": "32-44-59.93 N",
		"longitude": "79-34-16.95 W",
		"state": "SOUTH CAROLINA",
		"artcc": "ZJX",
		"type": "RP",
		"updated": "CHS*VORTAC*115.00/25.12"
	},
	{
		"name": "ISMOJ",
		"latitude": "29-52-51.75 N",
		"longitude": "83-29-31.51 W",
		"state": "FLORIDA",
		"artcc": "ZJX",
		"type": "RNAV",
		"updated": "08/11/2010"
	},
	{
		"name": "ITNEW",
		"latitude": "30-48-49.17 N",
		"longitude": "86-54-39.45 W",
		"state": "FLORIDA",
		"artcc": "ZJX",
		"type": "RP",
		"updated": "CEW*VORTAC*263.48/12.00"
	},
	{
		"name": "ITUYU",
		"latitude": "31-1-35.76 N",
		"longitude": "86-40-30.31 W",
		"state": "ALABAMA",
		"artcc": "ZJX",
		"type": "RP",
		"updated": "CEW*VORTAC*358.00/12.00"
	},
	{
		"name": "IVANZ",
		"latitude": "30-13-52.19 N",
		"longitude": "81-46-14.33 W",
		"state": "FLORIDA",
		"artcc": "ZJX",
		"type": "MW",
		"updated": "01/31/2018"
	},
	{
		"name": "IVCOB",
		"latitude": "31-10-51.01 N",
		"longitude": "85-16-43.91 W",
		"state": "ALABAMA",
		"artcc": "ZJX",
		"type": "RP",
		"updated": "RRS*VORTAC*126.36/10.00"
	},
	{
		"name": "IVETE",
		"latitude": "33-45-19.19 N",
		"longitude": "79-10-35.54 W",
		"state": "SOUTH CAROLINA",
		"artcc": "ZJX",
		"type": "RNAV",
		"updated": "09/21/2011"
	},
	{
		"name": "IVGIF",
		"latitude": "31-10-53.89 N",
		"longitude": "85-35-3.44 W",
		"state": "ALABAMA",
		"artcc": "ZJX",
		"type": "RP",
		"updated": "RRS*VORTAC*229.99/10.00"
	},
	{
		"name": "IVISE",
		"latitude": "29-1-1.51 N",
		"longitude": "81-2-14.88 W",
		"state": "FLORIDA",
		"artcc": "ZJX",
		"type": "RNAV",
		"updated": "10/17/2006"
	},
	{
		"name": "IVORY",
		"latitude": "30-31-57.56 N",
		"longitude": "86-55-14.55 W",
		"state": "FLORIDA",
		"artcc": "ZJX",
		"type": "MR",
		"updated": "NGS*TACAN*172.09/5.01"
	},
	{
		"name": "IVTEF",
		"latitude": "30-27-51.76 N",
		"longitude": "81-48-13.87 W",
		"state": "FLORIDA",
		"artcc": "ZJX",
		"type": "RNAV",
		"updated": "11/02/2011"
	},
	{
		"name": "IWAVE",
		"latitude": "31-7-41.55 N",
		"longitude": "85-59-47.86 W",
		"state": "ALABAMA",
		"artcc": "ZJX",
		"type": "RNAV",
		"updated": "07/08/2009"
	},
	{
		"name": "IWERE",
		"latitude": "30-10-52.71 N",
		"longitude": "85-43-10.98 W",
		"state": "FLORIDA",
		"artcc": "ZJX",
		"type": "MR",
		"updated": "PAM*TACAN*314.00/10.00"
	},
	{
		"name": "IXEVE",
		"latitude": "32-45-4.07 N",
		"longitude": "80-8-22.54 W",
		"state": "SOUTH CAROLINA",
		"artcc": "ZJX",
		"type": "RP",
		"updated": "CHS*VORTAC*216.00/10.00"
	},
	{
		"name": "IXIME",
		"latitude": "29-41-42.63 N",
		"longitude": "82-26-2.76 W",
		"state": "FLORIDA",
		"artcc": "ZJX",
		"type": "RNAV",
		"updated": "10/30/2014"
	},
	{
		"name": "IXOME",
		"latitude": "30-27-41.51 N",
		"longitude": "86-31-15.12 W",
		"state": "FLORIDA",
		"artcc": "ZJX",
		"type": "MR",
		"updated": "DWG*TACAN*180.00/1.00"
	},
	{
		"name": "IXREV",
		"latitude": "30-15-16.49 N",
		"longitude": "83-29-9.7 W",
		"state": "FLORIDA",
		"artcc": "ZJX",
		"type": "RNAV",
		"updated": "08/11/2010"
	},
	{
		"name": "IXROV",
		"latitude": "28-25-2.89 N",
		"longitude": "82-9-7.79 W",
		"state": "FLORIDA",
		"artcc": "ZJX",
		"type": "RNAV",
		"updated": "12/09/2010"
	},
	{
		"name": "IXTIN",
		"latitude": "33-7-47.13 N",
		"longitude": "81-26-49.02 W",
		"state": "SOUTH CAROLINA",
		"artcc": "ZJX",
		"type": "RNAV",
		"updated": "08/21/2013"
	},
	{
		"name": "IYONU",
		"latitude": "32-17-21.2 N",
		"longitude": "82-44-35.8 W",
		"state": "GEORGIA",
		"artcc": "ZJX",
		"type": "RP",
		"updated": "DBN*VORTAC*169.96/17.00"
	},
	{
		"name": "IYOPE",
		"latitude": "31-59-40.05 N",
		"longitude": "81-1-30.28 W",
		"state": "GEORGIA",
		"artcc": "ZJX",
		"type": "MR",
		"updated": "SVN*VOR/DME*102.00/6.00"
	},
	{
		"name": "IZCAY",
		"latitude": "28-7-15.59 N",
		"longitude": "82-20-52.06 W",
		"state": "FLORIDA",
		"artcc": "ZJX",
		"type": "RNAV",
		"updated": "12/09/2010"
	},
	{
		"name": "IZOZI",
		"latitude": "28-35-1.38 N",
		"longitude": "81-13-54.09 W",
		"state": "FLORIDA",
		"artcc": "ZJX",
		"type": "WP",
		"updated": "11/02/1998"
	},
	{
		"name": "IZZEY",
		"latitude": "30-56-59 N",
		"longitude": "85-30-14 W",
		"state": "FLORIDA",
		"artcc": "ZJX",
		"type": "RNAV",
		"updated": "12/20/2009"
	}
]
