[
	{
		"name": "JAACK",
		"latitude": "30-45-16.85 N",
		"longitude": "86-15-55.54 W",
		"state": "FLORIDA",
		"artcc": "ZJX",
		"type": "RNAV",
		"updated": "04/04/2018"
	},
	{
		"name": "JAAGS",
		"latitude": "30-31-23.71 N",
		"longitude": "81-36-41.27 W",
		"state": "FLORIDA",
		"artcc": "ZJX",
		"type": "RNAV",
		"updated": "10/16/2013"
	},
	{
		"name": "JAAMM",
		"latitude": "32-18-30.72 N",
		"longitude": "80-38-56.47 W",
		"state": "SOUTH CAROLINA",
		"artcc": "ZJX",
		"type": "RP",
		"updated": "HXD*LE*033.05/6.07"
	},
	{
		"name": "JAARD",
		"latitude": "32-50-34.78 N",
		"longitude": "80-6-53.98 W",
		"state": "SOUTH CAROLINA",
		"artcc": "ZJX",
		"type": "RNAV",
		"updated": "06/13/2012"
	},
	{
		"name": "JABIN",
		"latitude": "30-11-49.98 N",
		"longitude": "83-0-21.38 W",
		"state": "FLORIDA",
		"artcc": "ZJX",
		"type": "RNAV",
		"updated": "10/30/2014"
	},
	{
		"name": "JABKU",
		"latitude": "29-24-53.41 N",
		"longitude": "81-17-8.55 W",
		"state": "FLORIDA",
		"artcc": "ZJX",
		"type": "RNAV",
		"updated": "08/06/2008"
	},
	{
		"name": "JABOR",
		"latitude": "30-48-51.98 N",
		"longitude": "81-5-37.13 W",
		"state": "OFFSHORE ATLANTIC",
		"artcc": "ZJX",
		"type": "RNAV",
		"updated": "08/26/2013"
	},
	{
		"name": "JABTA",
		"latitude": "30-28-1.53 N",
		"longitude": "86-30-31.93 W",
		"state": "FLORIDA",
		"artcc": "ZJX",
		"type": "MR",
		"updated": "DWG*TACAN*/0.90"
	},
	{
		"name": "JABTO",
		"latitude": "32-24-20.6 N",
		"longitude": "80-47-52.39 W",
		"state": "SOUTH CAROLINA",
		"artcc": "ZJX",
		"type": "MR",
		"updated": "NBC*TACAN*228.00/6.00"
	},
	{
		"name": "JABUD",
		"latitude": "30-24-46.83 N",
		"longitude": "87-5-38.99 W",
		"state": "FLORIDA",
		"artcc": "ZJX",
		"type": "MR",
		"updated": "NPA*TACAN*073.00/12.00"
	},
	{
		"name": "JACKE",
		"latitude": "32-43-49.94 N",
		"longitude": "80-16-49.56 W",
		"state": "SOUTH CAROLINA",
		"artcc": "ZJX",
		"type": "RP",
		"updated": "CHS*VORTAC*236.43/15.71"
	},
	{
		"name": "JADEN",
		"latitude": "30-42-1.37 N",
		"longitude": "87-3-2.41 W",
		"state": "FLORIDA",
		"artcc": "ZJX",
		"type": "MR",
		"updated": "NSE*TACAN*232.00/2.20"
	},
	{
		"name": "JADES",
		"latitude": "30-15-7.2 N",
		"longitude": "82-40-42.41 W",
		"state": "FLORIDA",
		"artcc": "ZJX",
		"type": "RNAV",
		"updated": "10/13/2015"
	},
	{
		"name": "JADSU",
		"latitude": "30-58-20.43 N",
		"longitude": "84-44-25.75 W",
		"state": "GEORGIA",
		"artcc": "ZJX",
		"type": "RNAV",
		"updated": "01/07/2010"
	},
	{
		"name": "JAEBE",
		"latitude": "30-56-52.38 N",
		"longitude": "83-11-28.1 W",
		"state": "GEORGIA",
		"artcc": "ZJX",
		"type": "MR",
		"updated": "VAD*TACAN*/0.74"
	},
	{
		"name": "JAFAR",
		"latitude": "28-59-13 N",
		"longitude": "82-2-49 W",
		"state": "FLORIDA",
		"artcc": "ZJX",
		"type": "RNAV",
		"updated": "10/24/2007"
	},
	{
		"name": "JAGAP",
		"latitude": "32-37-56.85 N",
		"longitude": "80-52-10.43 W",
		"state": "SOUTH CAROLINA",
		"artcc": "ZJX",
		"type": "MR",
		"updated": "NBC*TACAN*325.00/12.00"
	},
	{
		"name": "JAGIN",
		"latitude": "30-5-3.89 N",
		"longitude": "87-2-2.67 W",
		"state": "FLORIDA",
		"artcc": "ZJX",
		"type": "MR",
		"updated": "NGS*TACAN*188.00/32.00"
	},
	{
		"name": "JAINS",
		"latitude": "31-21-20.05 N",
		"longitude": "77-0-0.13 W",
		"state": "OFFSHORE ATLANTIC",
		"artcc": "ZJX",
		"type": "RNAV",
		"updated": "05/02/2008"
	},
	{
		"name": "JAISN",
		"latitude": "32-45-39.79 N",
		"longitude": "79-51-34.12 W",
		"state": "SOUTH CAROLINA",
		"artcc": "ZJX",
		"type": "RNAV",
		"updated": "06/30/2011"
	},
	{
		"name": "JAKAV",
		"latitude": "30-36-41.74 N",
		"longitude": "84-28-57.92 W",
		"state": "FLORIDA",
		"artcc": "ZJX",
		"type": "RNAV",
		"updated": "04/14/2016"
	},
	{
		"name": "JAKRU",
		"latitude": "30-32-55.34 N",
		"longitude": "81-54-21.1 W",
		"state": "FLORIDA",
		"artcc": "ZJX",
		"type": "RNAV",
		"updated": "08/26/2013"
	},
	{
		"name": "JALSO",
		"latitude": "31-19-2.23 N",
		"longitude": "87-3-26.87 W",
		"state": "ALABAMA",
		"artcc": "ZJX",
		"type": "RNAV",
		"updated": "02/27/2013"
	},
	{
		"name": "JAMEB",
		"latitude": "32-22-11.27 N",
		"longitude": "81-58-40.24 W",
		"state": "GEORGIA",
		"artcc": "ZJX",
		"type": "RNAV",
		"updated": "04/21/2016"
	},
	{
		"name": "JAMUP",
		"latitude": "31-13-44.1 N",
		"longitude": "85-48-24.62 W",
		"state": "ALABAMA",
		"artcc": "ZJX",
		"type": "MW",
		"updated": "07/13/2015"
	},
	{
		"name": "JANIE",
		"latitude": "31-51-33.93 N",
		"longitude": "81-17-44.59 W",
		"state": "GEORGIA",
		"artcc": "ZJX",
		"type": "RP",
		"updated": "MOQ*NDB*085.16"
	},
	{
		"name": "JAPIX",
		"latitude": "31-10-6.49 N",
		"longitude": "85-16-22.36 W",
		"state": "ALABAMA",
		"artcc": "ZJX",
		"type": "RNAV",
		"updated": "06/20/2012"
	},
	{
		"name": "JAPMA",
		"latitude": "30-30-36.57 N",
		"longitude": "84-21-36.03 W",
		"state": "FLORIDA",
		"artcc": "ZJX",
		"type": "RNAV",
		"updated": "04/14/2016"
	},
	{
		"name": "JAPTU",
		"latitude": "34-36-42.34 N",
		"longitude": "80-0-54.28 W",
		"state": "SOUTH CAROLINA",
		"artcc": "ZJX",
		"type": "RNAV",
		"updated": "07/21/2017"
	},
	{
		"name": "JARES",
		"latitude": "31-3-35.3 N",
		"longitude": "83-11-21.3 W",
		"state": "GEORGIA",
		"artcc": "ZJX",
		"type": "MR",
		"updated": "12/05/2000"
	},
	{
		"name": "JAROV",
		"latitude": "30-54-9.11 N",
		"longitude": "86-31-4.94 W",
		"state": "FLORIDA",
		"artcc": "ZJX",
		"type": "MW",
		"updated": "05/17/2013"
	},
	{
		"name": "JARPU",
		"latitude": "30-13-37.2 N",
		"longitude": "81-43-55.42 W",
		"state": "FLORIDA",
		"artcc": "ZJX",
		"type": "MR",
		"updated": "NIP*TACAN*267.00/3.00"
	},
	{
		"name": "JARYY",
		"latitude": "33-43-45.46 N",
		"longitude": "80-53-18.04 W",
		"state": "SOUTH CAROLINA",
		"artcc": "ZJX",
		"type": "RNAV",
		"updated": "10/28/2013"
	},
	{
		"name": "JASDA",
		"latitude": "30-13-3.04 N",
		"longitude": "87-0-35.77 W",
		"state": "FLORIDA",
		"artcc": "ZJX",
		"type": "MR",
		"updated": "NGS*TACAN*188.00/24.00"
	},
	{
		"name": "JASES",
		"latitude": "30-3-15.95 N",
		"longitude": "85-33-15.93 W",
		"state": "FLORIDA",
		"artcc": "ZJX",
		"type": "MR",
		"updated": "PAM*TACAN*/1.50"
	},
	{
		"name": "JASMN",
		"latitude": "30-17-3.58 N",
		"longitude": "86-16-53.53 W",
		"state": "FLORIDA",
		"artcc": "ZJX",
		"type": "MR",
		"updated": "DWG*TACAN*133.00/17.00"
	},
	{
		"name": "JASPR",
		"latitude": "30-18-56.75 N",
		"longitude": "86-40-46.61 W",
		"state": "FLORIDA",
		"artcc": "ZJX",
		"type": "MW",
		"updated": "11/05/2009"
	},
	{
		"name": "JASRI",
		"latitude": "33-17-7.45 N",
		"longitude": "80-42-46.01 W",
		"state": "SOUTH CAROLINA",
		"artcc": "ZJX",
		"type": "RNAV",
		"updated": "09/09/2005"
	},
	{
		"name": "JATAS",
		"latitude": "31-34-1.47 N",
		"longitude": "81-58-28.21 W",
		"state": "GEORGIA",
		"artcc": "ZJX",
		"type": "RNAV",
		"updated": "09/15/2009"
	},
	{
		"name": "JATBU",
		"latitude": "33-41-37.41 N",
		"longitude": "78-54-6.53 W",
		"state": "SOUTH CAROLINA",
		"artcc": "ZJX",
		"type": "RP",
		"updated": "CRE*VORTAC*234.00/11.42"
	},
	{
		"name": "JAVAL",
		"latitude": "30-43-55.07 N",
		"longitude": "86-2-52.3 W",
		"state": "FLORIDA",
		"artcc": "ZJX",
		"type": "RNAV",
		"updated": "11/04/2011"
	},
	{
		"name": "JAVBU",
		"latitude": "30-34-41.13 N",
		"longitude": "83-19-57.99 W",
		"state": "FLORIDA",
		"artcc": "ZJX",
		"type": "RNAV",
		"updated": "09/21/2010"
	},
	{
		"name": "JAWSS",
		"latitude": "30-26-49.58 N",
		"longitude": "80-47-18.15 W",
		"state": "FLORIDA",
		"artcc": "ZJX",
		"type": "RP",
		"updated": "CRG*VORTAC*083.00/38.00"
	},
	{
		"name": "JAXEG",
		"latitude": "29-5-55.11 N",
		"longitude": "80-51-56.74 W",
		"state": "FLORIDA",
		"artcc": "ZJX",
		"type": "RNAV",
		"updated": "10/17/2006"
	},
	{
		"name": "JAXES",
		"latitude": "28-27-55.9 N",
		"longitude": "81-16-58.1 W",
		"state": "FLORIDA",
		"artcc": "ZJX",
		"type": "RP",
		"updated": "ARK*LD*005.48/2.96"
	},
	{
		"name": "JAXIN",
		"latitude": "28-31-2.26 N",
		"longitude": "81-32-11.01 W",
		"state": "FLORIDA",
		"artcc": "ZJX",
		"type": "RNAV",
		"updated": "08/10/2012"
	},
	{
		"name": "JAYDI",
		"latitude": "30-19-47.16 N",
		"longitude": "87-1-40.67 W",
		"state": "FLORIDA",
		"artcc": "ZJX",
		"type": "RP",
		"updated": "NPA*TACAN*095.35/15.07"
	},
	{
		"name": "JAYJA",
		"latitude": "29-35-12.71 N",
		"longitude": "82-21-31.98 W",
		"state": "FLORIDA",
		"artcc": "ZJX",
		"type": "RP",
		"updated": "CTY*VORTAC*092.98"
	},
	{
		"name": "JAYLN",
		"latitude": "32-54-29.98 N",
		"longitude": "79-53-28.14 W",
		"state": "SOUTH CAROLINA",
		"artcc": "ZJX",
		"type": "RNAV",
		"updated": "06/30/2011"
	},
	{
		"name": "JAYSZ",
		"latitude": "31-15-34.11 N",
		"longitude": "86-7-0.44 W",
		"state": "ALABAMA",
		"artcc": "ZJX",
		"type": "RNAV",
		"updated": "07/08/2009"
	},
	{
		"name": "JAZMN",
		"latitude": "29-11-21 N",
		"longitude": "82-10-21 W",
		"state": "FLORIDA",
		"artcc": "ZJX",
		"type": "RNAV",
		"updated": "10/24/2007"
	},
	{
		"name": "JAZZU",
		"latitude": "31-17-13.58 N",
		"longitude": "86-18-34.49 W",
		"state": "ALABAMA",
		"artcc": "ZJX",
		"type": "RNAV",
		"updated": "06/07/2011"
	},
	{
		"name": "JCEEE",
		"latitude": "33-0-6.91 N",
		"longitude": "80-4-45.91 W",
		"state": "SOUTH CAROLINA",
		"artcc": "ZJX",
		"type": "RNAV",
		"updated": "06/13/2012"
	},
	{
		"name": "JCOLE",
		"latitude": "34-26-25.04 N",
		"longitude": "80-6-2.5 W",
		"state": "SOUTH CAROLINA",
		"artcc": "ZJX",
		"type": "RNAV",
		"updated": "07/12/2017"
	},
	{
		"name": "JDRIG",
		"latitude": "31-4-8.18 N",
		"longitude": "85-37-11.01 W",
		"state": "ALABAMA",
		"artcc": "ZJX",
		"type": "MW",
		"updated": "09/18/2008"
	},
	{
		"name": "JEDAD",
		"latitude": "30-30-41.63 N",
		"longitude": "86-41-25.04 W",
		"state": "FLORIDA",
		"artcc": "ZJX",
		"type": "MR",
		"updated": "HRT*TACAN*003.00/5.00"
	},
	{
		"name": "JEDAM",
		"latitude": "31-3-59.24 N",
		"longitude": "87-26-48.9 W",
		"state": "ALABAMA",
		"artcc": "ZJX",
		"type": "RNAV",
		"updated": "12/08/2017"
	},
	{
		"name": "JEDDI",
		"latitude": "33-39-48.44 N",
		"longitude": "80-43-49.64 W",
		"state": "SOUTH CAROLINA",
		"artcc": "ZJX",
		"type": "MR",
		"updated": "SSC*TACAN*223.12/23.00"
	},
	{
		"name": "JEENS",
		"latitude": "34-21-22.32 N",
		"longitude": "80-30-18.64 W",
		"state": "SOUTH CAROLINA",
		"artcc": "ZJX",
		"type": "RP",
		"updated": "CTF*VOR/DME*216.00/21.00"
	},
	{
		"name": "JEEPP",
		"latitude": "30-24-21.54 N",
		"longitude": "86-23-5.06 W",
		"state": "FLORIDA",
		"artcc": "ZJX",
		"type": "MW",
		"updated": "01/29/2010"
	},
	{
		"name": "JEERS",
		"latitude": "34-22-45.65 N",
		"longitude": "79-49-18.87 W",
		"state": "SOUTH CAROLINA",
		"artcc": "ZJX",
		"type": "RP",
		"updated": "FLO*VORTAC*320.00/12.00"
	},
	{
		"name": "JEFFI",
		"latitude": "31-13-42.32 N",
		"longitude": "81-32-33.57 W",
		"state": "GEORGIA",
		"artcc": "ZJX",
		"type": "RP",
		"updated": "SSI*VORTAC*339.00"
	},
	{
		"name": "JEFOI",
		"latitude": "31-35-37.02 N",
		"longitude": "82-31-18.38 W",
		"state": "GEORGIA",
		"artcc": "ZJX",
		"type": "RNAV",
		"updated": "01/23/2014"
	},
	{
		"name": "JEGEL",
		"latitude": "30-53-24.64 N",
		"longitude": "84-23-34.17 W",
		"state": "GEORGIA",
		"artcc": "ZJX",
		"type": "RNAV",
		"updated": "01/07/2010"
	},
	{
		"name": "JEGIB",
		"latitude": "29-34-39.17 N",
		"longitude": "83-10-10.03 W",
		"state": "FLORIDA",
		"artcc": "ZJX",
		"type": "RNAV",
		"updated": "10/11/2010"
	},
	{
		"name": "JEGOV",
		"latitude": "30-5-6.23 N",
		"longitude": "81-41-24.45 W",
		"state": "FLORIDA",
		"artcc": "ZJX",
		"type": "MR",
		"updated": "NIP*TACAN*191.00/9.00"
	},
	{
		"name": "JEGPI",
		"latitude": "28-16-17.71 N",
		"longitude": "82-9-11 W",
		"state": "FLORIDA",
		"artcc": "ZJX",
		"type": "RNAV",
		"updated": "12/09/2010"
	},
	{
		"name": "JEKDA",
		"latitude": "32-47-21.26 N",
		"longitude": "79-59-43.12 W",
		"state": "SOUTH CAROLINA",
		"artcc": "ZJX",
		"type": "RNAV",
		"updated": "06/13/2012"
	},
	{
		"name": "JEKEK",
		"latitude": "31-21-24.37 N",
		"longitude": "82-23-25 W",
		"state": "GEORGIA",
		"artcc": "ZJX",
		"type": "RNAV",
		"updated": "01/27/2014"
	},
	{
		"name": "JEKET",
		"latitude": "30-18-49.97 N",
		"longitude": "87-25-47.94 W",
		"state": "FLORIDA",
		"artcc": "ZJX",
		"type": "MW",
		"updated": "07/11/2016"
	},
	{
		"name": "JEKIP",
		"latitude": "32-9-45.66 N",
		"longitude": "83-8-45.78 W",
		"state": "GEORGIA",
		"artcc": "ZJX",
		"type": "RNAV",
		"updated": "04/04/2014"
	},
	{
		"name": "JELTT",
		"latitude": "28-35-23.33 N",
		"longitude": "81-43-14.37 W",
		"state": "FLORIDA",
		"artcc": "ZJX",
		"type": "RNAV",
		"updated": "11/03/2011"
	},
	{
		"name": "JEMAS",
		"latitude": "30-46-34.8 N",
		"longitude": "83-11-34.09 W",
		"state": "GEORGIA",
		"artcc": "ZJX",
		"type": "MR",
		"updated": "VAD*TACAN*/11.00"
	},
	{
		"name": "JEMUX",
		"latitude": "31-32-21.02 N",
		"longitude": "81-46-45.59 W",
		"state": "GEORGIA",
		"artcc": "ZJX",
		"type": "RNAV",
		"updated": "09/15/2009"
	},
	{
		"name": "JENAK",
		"latitude": "33-37-29.09 N",
		"longitude": "81-0-29.88 W",
		"state": "SOUTH CAROLINA",
		"artcc": "ZJX",
		"type": "RNAV",
		"updated": "09/09/2005"
	},
	{
		"name": "JENBO",
		"latitude": "30-12-30.68 N",
		"longitude": "87-38-21.07 W",
		"state": "FLORIDA",
		"artcc": "ZJX",
		"type": "MR",
		"updated": "NPA*TACAN*241.00/19.00"
	},
	{
		"name": "JENDO",
		"latitude": "33-50-15.43 N",
		"longitude": "81-18-14.75 W",
		"state": "SOUTH CAROLINA",
		"artcc": "ZJX",
		"type": "RNAV",
		"updated": "05/06/2016"
	},
	{
		"name": "JENEK",
		"latitude": "29-48-37.76 N",
		"longitude": "85-20-11.44 W",
		"state": "FLORIDA",
		"artcc": "ZJX",
		"type": "MR",
		"updated": "PAM*TACAN*146.00/20.00"
	},
	{
		"name": "JENIM",
		"latitude": "28-41-2.63 N",
		"longitude": "82-28-41.3 W",
		"state": "FLORIDA",
		"artcc": "ZJX",
		"type": "RNAV",
		"updated": "02/23/2012"
	},
	{
		"name": "JENKS",
		"latitude": "30-38-7.29 N",
		"longitude": "78-41-43.59 W",
		"state": "OFFSHORE ATLANTIC",
		"artcc": "ZJX",
		"type": "RNAV",
		"updated": "05/02/2008"
	},
	{
		"name": "JENNN",
		"latitude": "30-40-19.24 N",
		"longitude": "86-31-22.02 W",
		"state": "FLORIDA",
		"artcc": "ZJX",
		"type": "MR",
		"updated": "DWG*TACAN*359.51/11.60"
	},
	{
		"name": "JENOD",
		"latitude": "31-0-56.6 N",
		"longitude": "81-53-25.69 W",
		"state": "GEORGIA",
		"artcc": "ZJX",
		"type": "RNAV",
		"updated": "10/23/2011"
	},
	{
		"name": "JENOS",
		"latitude": "32-22-7.4 N",
		"longitude": "80-51-54.6 W",
		"state": "SOUTH CAROLINA",
		"artcc": "ZJX",
		"type": "MR",
		"updated": "NBC*TACAN*233.70/10.00"
	},
	{
		"name": "JENSN",
		"latitude": "28-20-35.93 N",
		"longitude": "81-45-48.98 W",
		"state": "FLORIDA",
		"artcc": "ZJX",
		"type": "RP",
		"updated": "PIE*VORTAC*066.70/55.36"
	},
	{
		"name": "JEPEL",
		"latitude": "29-59-41.99 N",
		"longitude": "85-30-5.43 W",
		"state": "FLORIDA",
		"artcc": "ZJX",
		"type": "MR",
		"updated": "PAM*TACAN*146.00/6.00"
	},
	{
		"name": "JEPUL",
		"latitude": "32-22-55.59 N",
		"longitude": "80-53-43.4 W",
		"state": "SOUTH CAROLINA",
		"artcc": "ZJX",
		"type": "RNAV",
		"updated": "06/08/2010"
	},
	{
		"name": "JERAK",
		"latitude": "33-4-19.81 N",
		"longitude": "80-16-2.52 W",
		"state": "SOUTH CAROLINA",
		"artcc": "ZJX",
		"type": "RNAV",
		"updated": "06/08/2010"
	},
	{
		"name": "JERBI",
		"latitude": "30-26-36.05 N",
		"longitude": "81-22-43.83 W",
		"state": "FLORIDA",
		"artcc": "ZJX",
		"type": "MR",
		"updated": "NRB*TACAN*041.00/4.00"
	},
	{
		"name": "JERBO",
		"latitude": "32-21-36.28 N",
		"longitude": "80-44-32.25 W",
		"state": "SOUTH CAROLINA",
		"artcc": "ZJX",
		"type": "RNAV",
		"updated": "06/08/2010"
	},
	{
		"name": "JEREL",
		"latitude": "29-20-23.16 N",
		"longitude": "80-53-23.23 W",
		"state": "FLORIDA",
		"artcc": "ZJX",
		"type": "RNAV",
		"updated": "02/27/2012"
	},
	{
		"name": "JERET",
		"latitude": "28-8-49.37 N",
		"longitude": "82-44-19.82 W",
		"state": "FLORIDA",
		"artcc": "ZJX",
		"type": "RNAV",
		"updated": "05/14/2007"
	},
	{
		"name": "JERIN",
		"latitude": "33-51-22.65 N",
		"longitude": "80-2-27.31 W",
		"state": "SOUTH CAROLINA",
		"artcc": "ZJX",
		"type": "RNAV",
		"updated": "05/24/2017"
	},
	{
		"name": "JERIX",
		"latitude": "30-5-28.9 N",
		"longitude": "84-9-28.99 W",
		"state": "FLORIDA",
		"artcc": "ZJX",
		"type": "RP",
		"updated": "SZW*VORTAC*156.00/30.00"
	},
	{
		"name": "JERZI",
		"latitude": "30-16-47.13 N",
		"longitude": "81-56-38.87 W",
		"state": "FLORIDA",
		"artcc": "ZJX",
		"type": "RNAV",
		"updated": "09/17/2014"
	},
	{
		"name": "JESMA",
		"latitude": "30-30-17.95 N",
		"longitude": "84-6-43.6 W",
		"state": "FLORIDA",
		"artcc": "ZJX",
		"type": "RNAV",
		"updated": "05/19/2015"
	},
	{
		"name": "JESUP",
		"latitude": "28-53-18.35 N",
		"longitude": "81-4-47.04 W",
		"state": "FLORIDA",
		"artcc": "ZJX",
		"type": "RP",
		"updated": "OMN*VORTAC*176.00/24.89"
	},
	{
		"name": "JETAR",
		"latitude": "29-2-32.18 N",
		"longitude": "81-56-50.61 W",
		"state": "FLORIDA",
		"artcc": "ZJX",
		"type": "RNAV",
		"updated": "10/22/2014"
	},
	{
		"name": "JETIN",
		"latitude": "30-23-40.13 N",
		"longitude": "82-6-43.99 W",
		"state": "GEORGIA",
		"artcc": "ZJX",
		"type": "RNAV",
		"updated": "08/26/2013"
	},
	{
		"name": "JETSO",
		"latitude": "29-54-32.12 N",
		"longitude": "81-6-45.7 W",
		"state": "FLORIDA",
		"artcc": "ZJX",
		"type": "RP",
		"updated": "OMN*VORTAC*360.00/36.25"
	},
	{
		"name": "JETTE",
		"latitude": "32-26-8.41 N",
		"longitude": "80-31-37.61 W",
		"state": "SOUTH CAROLINA",
		"artcc": "ZJX",
		"type": "MR",
		"updated": "NBC*TACAN*110.00/10.00"
	},
	{
		"name": "JETVI",
		"latitude": "30-52-40.18 N",
		"longitude": "83-10-35.88 W",
		"state": "GEORGIA",
		"artcc": "ZJX",
		"type": "MR",
		"updated": "VAD*TACAN*173.00/5.00"
	},
	{
		"name": "JEVAG",
		"latitude": "30-11-50.95 N",
		"longitude": "81-21-2.91 W",
		"state": "FLORIDA",
		"artcc": "ZJX",
		"type": "RP",
		"updated": "CRG*VORTAC*/11.83"
	},
	{
		"name": "JEVIS",
		"latitude": "30-28-14.54 N",
		"longitude": "81-21-24.13 W",
		"state": "FLORIDA",
		"artcc": "ZJX",
		"type": "MR",
		"updated": "NRB*TACAN*041.00/6.00"
	},
	{
		"name": "JEVMA",
		"latitude": "31-45-32.15 N",
		"longitude": "84-6-54.97 W",
		"state": "GEORGIA",
		"artcc": "ZJX",
		"type": "RNAV",
		"updated": "12/11/2006"
	},
	{
		"name": "JEVOL",
		"latitude": "30-30-29.69 N",
		"longitude": "86-30-32.16 W",
		"state": "FLORIDA",
		"artcc": "ZJX",
		"type": "MR",
		"updated": "DWG*TACAN*019.00/1.90"
	},
	{
		"name": "JEVUG",
		"latitude": "31-34-8.99 N",
		"longitude": "84-13-20.37 W",
		"state": "GEORGIA",
		"artcc": "ZJX",
		"type": "RP",
		"updated": "PZD*VOR/DME*146.84/6.29"
	},
	{
		"name": "JEXAX",
		"latitude": "29-41-21.05 N",
		"longitude": "82-16-54.87 W",
		"state": "FLORIDA",
		"artcc": "ZJX",
		"type": "RP",
		"updated": "GNV*VORTAC*253.40/1.00"
	},
	{
		"name": "JEXER",
		"latitude": "30-57-32.17 N",
		"longitude": "83-49-32.91 W",
		"state": "GEORGIA",
		"artcc": "ZJX",
		"type": "RP",
		"updated": "05/09/2017"
	},
	{
		"name": "JEXEX",
		"latitude": "32-44-5.48 N",
		"longitude": "81-46-5.59 W",
		"state": "GEORGIA",
		"artcc": "ZJX",
		"type": "RNAV",
		"updated": "10/03/2014"
	},
	{
		"name": "JIBUD",
		"latitude": "33-42-26.43 N",
		"longitude": "81-3-59.21 W",
		"state": "SOUTH CAROLINA",
		"artcc": "ZJX",
		"type": "MR",
		"updated": "CAE*VORTAC*186.00/9.00"
	},
	{
		"name": "JIBUV",
		"latitude": "29-16-13.68 N",
		"longitude": "82-42-15.49 W",
		"state": "FLORIDA",
		"artcc": "ZJX",
		"type": "RNAV",
		"updated": "02/01/2007"
	},
	{
		"name": "JIDLU",
		"latitude": "30-17-19.93 N",
		"longitude": "81-44-55.72 W",
		"state": "FLORIDA",
		"artcc": "ZJX",
		"type": "RNAV",
		"updated": "10/22/2014"
	},
	{
		"name": "JIDMI",
		"latitude": "30-56-54.84 N",
		"longitude": "83-11-27.94 W",
		"state": "GEORGIA",
		"artcc": "ZJX",
		"type": "MR",
		"updated": "VAD*TACAN*173.00/0.70"
	},
	{
		"name": "JIDUV",
		"latitude": "33-48-2.34 N",
		"longitude": "79-8-34.35 W",
		"state": "SOUTH CAROLINA",
		"artcc": "ZJX",
		"type": "RNAV",
		"updated": "09/21/2011"
	},
	{
		"name": "JIKOM",
		"latitude": "33-9-41.89 N",
		"longitude": "81-16-13.14 W",
		"state": "SOUTH CAROLINA",
		"artcc": "ZJX",
		"type": "RNAV",
		"updated": "11/17/2010"
	},
	{
		"name": "JIKUD",
		"latitude": "30-57-55.36 N",
		"longitude": "86-55-14.88 W",
		"state": "FLORIDA",
		"artcc": "ZJX",
		"type": "RP",
		"updated": "CEW*VORTAC*300.81/15.00"
	},
	{
		"name": "JILAG",
		"latitude": "30-59-18.42 N",
		"longitude": "81-49-22.6 W",
		"state": "GEORGIA",
		"artcc": "ZJX",
		"type": "RNAV",
		"updated": "10/23/2011"
	},
	{
		"name": "JILAP",
		"latitude": "31-59-30.62 N",
		"longitude": "83-48-51.75 W",
		"state": "GEORGIA",
		"artcc": "ZJX",
		"type": "RNAV",
		"updated": "03/22/2017"
	},
	{
		"name": "JILBI",
		"latitude": "33-25-31.83 N",
		"longitude": "80-53-50.63 W",
		"state": "SOUTH CAROLINA",
		"artcc": "ZJX",
		"type": "RNAV",
		"updated": "04/27/2010"
	},
	{
		"name": "JIMOP",
		"latitude": "31-58-34.66 N",
		"longitude": "84-21-0.49 W",
		"state": "GEORGIA",
		"artcc": "ZJX",
		"type": "RNAV",
		"updated": "11/20/2002"
	},
	{
		"name": "JINOB",
		"latitude": "33-57-47.53 N",
		"longitude": "79-22-9.03 W",
		"state": "SOUTH CAROLINA",
		"artcc": "ZJX",
		"type": "RNAV",
		"updated": "08/29/2014"
	},
	{
		"name": "JINOS",
		"latitude": "28-27-45.6 N",
		"longitude": "82-8-4.6 W",
		"state": "FLORIDA",
		"artcc": "ZJX",
		"type": "RNAV",
		"updated": "01/22/2018"
	},
	{
		"name": "JIPAP",
		"latitude": "29-7-0.7 N",
		"longitude": "80-56-32.02 W",
		"state": "FLORIDA",
		"artcc": "ZJX",
		"type": "RNAV",
		"updated": "02/27/2015"
	},
	{
		"name": "JIPVO",
		"latitude": "31-26-3.19 N",
		"longitude": "84-25-52.85 W",
		"state": "GEORGIA",
		"artcc": "ZJX",
		"type": "RNAV",
		"updated": "07/15/2009"
	},
	{
		"name": "JISEX",
		"latitude": "34-5-47.84 N",
		"longitude": "80-41-14.63 W",
		"state": "SOUTH CAROLINA",
		"artcc": "ZJX",
		"type": "RNAV",
		"updated": "09/06/2007"
	},
	{
		"name": "JITUG",
		"latitude": "30-59-24.28 N",
		"longitude": "83-11-27.66 W",
		"state": "GEORGIA",
		"artcc": "ZJX",
		"type": "MR",
		"updated": "VAD*TACAN*007.00/1.80"
	},
	{
		"name": "JITUX",
		"latitude": "30-12-23.09 N",
		"longitude": "82-48-0.38 W",
		"state": "FLORIDA",
		"artcc": "ZJX",
		"type": "RNAV",
		"updated": "06/12/2008"
	},
	{
		"name": "JIVBA",
		"latitude": "31-14-17.17 N",
		"longitude": "81-54-6.78 W",
		"state": "GEORGIA",
		"artcc": "ZJX",
		"type": "RNAV",
		"updated": "10/23/2011"
	},
	{
		"name": "JIVES",
		"latitude": "30-54-0.42 N",
		"longitude": "86-20-27.61 W",
		"state": "FLORIDA",
		"artcc": "ZJX",
		"type": "MW",
		"updated": "05/20/2013"
	},
	{
		"name": "JIVPO",
		"latitude": "33-43-35.46 N",
		"longitude": "81-43-47.8 W",
		"state": "SOUTH CAROLINA",
		"artcc": "ZJX",
		"type": "RNAV",
		"updated": "01/07/2010"
	},
	{
		"name": "JIXOL",
		"latitude": "30-41-23.6 N",
		"longitude": "81-48-17.6 W",
		"state": "FLORIDA",
		"artcc": "ZJX",
		"type": "RNAV",
		"updated": "03/12/2013"
	},
	{
		"name": "JJAAY",
		"latitude": "32-59-59.01 N",
		"longitude": "80-6-50.07 W",
		"state": "SOUTH CAROLINA",
		"artcc": "ZJX",
		"type": "RNAV",
		"updated": "06/13/2012"
	},
	{
		"name": "JKBAL",
		"latitude": "28-17-22.88 N",
		"longitude": "82-24-7.97 W",
		"state": "FLORIDA",
		"artcc": "ZJX",
		"type": "RNAV",
		"updated": "02/15/2010"
	},
	{
		"name": "JKOUN",
		"latitude": "30-53-8.84 N",
		"longitude": "85-35-36.53 W",
		"state": "FLORIDA",
		"artcc": "ZJX",
		"type": "RNAV",
		"updated": "10/28/2011"
	},
	{
		"name": "JMACK",
		"latitude": "33-59-18.61 N",
		"longitude": "78-57-59.7 W",
		"state": "SOUTH CAROLINA",
		"artcc": "ZJX",
		"type": "RP",
		"updated": "FLO*VORTAC*115.86"
	},
	{
		"name": "JMBOB",
		"latitude": "28-5-40.19 N",
		"longitude": "82-32-16.4 W",
		"state": "FLORIDA",
		"artcc": "ZJX",
		"type": "RP",
		"updated": "JRT*LD*006.73/8.03"
	},
	{
		"name": "JMCLN",
		"latitude": "30-7-1.94 N",
		"longitude": "81-34-51.58 W",
		"state": "FLORIDA",
		"artcc": "ZJX",
		"type": "MW",
		"updated": "05/12/2015"
	},
	{
		"name": "JNPER",
		"latitude": "30-5-58.8 N",
		"longitude": "81-46-27.06 W",
		"state": "FLORIDA",
		"artcc": "ZJX",
		"type": "MW",
		"updated": "05/12/2015"
	},
	{
		"name": "JOBOP",
		"latitude": "32-42-0.67 N",
		"longitude": "80-6-27.46 W",
		"state": "SOUTH CAROLINA",
		"artcc": "ZJX",
		"type": "RP",
		"updated": "CHS*VORTAC*201.91"
	},
	{
		"name": "JOBUK",
		"latitude": "30-39-15.33 N",
		"longitude": "81-43-56.19 W",
		"state": "FLORIDA",
		"artcc": "ZJX",
		"type": "RNAV",
		"updated": "08/14/2013"
	},
	{
		"name": "JODAB",
		"latitude": "29-32-27.75 N",
		"longitude": "81-12-11.3 W",
		"state": "FLORIDA",
		"artcc": "ZJX",
		"type": "RP",
		"updated": "OMN*VORTAC*341.61/15.00"
	},
	{
		"name": "JODAP",
		"latitude": "30-7-21.24 N",
		"longitude": "85-40-23.73 W",
		"state": "FLORIDA",
		"artcc": "ZJX",
		"type": "MR",
		"updated": "PAM*TACAN*303.00/6.00"
	},
	{
		"name": "JODKI",
		"latitude": "33-39-23.59 N",
		"longitude": "79-46-37.27 W",
		"state": "SOUTH CAROLINA",
		"artcc": "ZJX",
		"type": "RNAV",
		"updated": "06/29/2017"
	},
	{
		"name": "JODVO",
		"latitude": "30-12-2.32 N",
		"longitude": "82-3-27.96 W",
		"state": "FLORIDA",
		"artcc": "ZJX",
		"type": "RP",
		"updated": "NIP*TACAN*270.22/20.00"
	},
	{
		"name": "JOGLI",
		"latitude": "33-4-54.32 N",
		"longitude": "79-50-0.01 W",
		"state": "SOUTH CAROLINA",
		"artcc": "ZJX",
		"type": "RNAV",
		"updated": "04/22/2013"
	},
	{
		"name": "JOGOS",
		"latitude": "30-59-29.39 N",
		"longitude": "83-20-51.01 W",
		"state": "GEORGIA",
		"artcc": "ZJX",
		"type": "RP",
		"updated": "OTK*VOR/DME*346.54/13.11"
	},
	{
		"name": "JOGSA",
		"latitude": "34-3-9.88 N",
		"longitude": "80-37-4.62 W",
		"state": "SOUTH CAROLINA",
		"artcc": "ZJX",
		"type": "MR",
		"updated": "MMT*VORTAC*058.00/12.00"
	},
	{
		"name": "JOGVI",
		"latitude": "32-41-46.98 N",
		"longitude": "81-31-40.26 W",
		"state": "GEORGIA",
		"artcc": "ZJX",
		"type": "RNAV",
		"updated": "07/20/2007"
	},
	{
		"name": "JOHNC",
		"latitude": "30-46-0.75 N",
		"longitude": "87-4-4.26 W",
		"state": "FLORIDA",
		"artcc": "ZJX",
		"type": "MW",
		"updated": "12/01/2017"
	},
	{
		"name": "JOHNL",
		"latitude": "30-45-9.87 N",
		"longitude": "87-3-56.23 W",
		"state": "FLORIDA",
		"artcc": "ZJX",
		"type": "MR",
		"updated": "NSE*TACAN*307.00/3.00"
	},
	{
		"name": "JOHNN",
		"latitude": "31-31-22.94 N",
		"longitude": "83-57-26.55 W",
		"state": "GEORGIA",
		"artcc": "ZJX",
		"type": "RP",
		"updated": "CTY*VORTAC*340.00"
	},
	{
		"name": "JOINT",
		"latitude": "33-52-1.54 N",
		"longitude": "79-19-23.45 W",
		"state": "SOUTH CAROLINA",
		"artcc": "ZJX",
		"type": "RP",
		"updated": "FLO*VORTAC*145.68"
	},
	{
		"name": "JOJYU",
		"latitude": "31-25-15.78 N",
		"longitude": "82-31-45.87 W",
		"state": "GEORGIA",
		"artcc": "ZJX",
		"type": "CN",
		"updated": "04/25/2001"
	},
	{
		"name": "JOKEG",
		"latitude": "29-5-51.68 N",
		"longitude": "81-38-26.77 W",
		"state": "FLORIDA",
		"artcc": "ZJX",
		"type": "RNAV",
		"updated": "11/01/2013"
	},
	{
		"name": "JOKIN",
		"latitude": "32-44-45.86 N",
		"longitude": "80-3-56.67 W",
		"state": "SOUTH CAROLINA",
		"artcc": "ZJX",
		"type": "RNAV",
		"updated": "06/30/2011"
	},
	{
		"name": "JOKIX",
		"latitude": "33-44-0.18 N",
		"longitude": "78-56-30.2 W",
		"state": "SOUTH CAROLINA",
		"artcc": "ZJX",
		"type": "RP",
		"updated": "MYR*LD*357.21/4.30"
	},
	{
		"name": "JOKVU",
		"latitude": "31-54-16.85 N",
		"longitude": "82-58-27.01 W",
		"state": "GEORGIA",
		"artcc": "ZJX",
		"type": "RNAV",
		"updated": "06/16/2008"
	},
	{
		"name": "JONAL",
		"latitude": "31-10-29.56 N",
		"longitude": "85-55-7.05 W",
		"state": "ALABAMA",
		"artcc": "ZJX",
		"type": "MW",
		"updated": "07/13/2015"
	},
	{
		"name": "JONAP",
		"latitude": "34-14-40.84 N",
		"longitude": "79-29-48.89 W",
		"state": "SOUTH CAROLINA",
		"artcc": "ZJX",
		"type": "RP",
		"updated": "FLO*VORTAC*087.91/8.00"
	},
	{
		"name": "JONPE",
		"latitude": "34-12-51.64 N",
		"longitude": "78-41-31.24 W",
		"state": "NORTH CAROLINA",
		"artcc": "ZJX",
		"type": "RNAV",
		"updated": "02/09/2018"
	},
	{
		"name": "JONTU",
		"latitude": "29-40-8.9 N",
		"longitude": "82-10-5.02 W",
		"state": "FLORIDA",
		"artcc": "ZJX",
		"type": "RNAV",
		"updated": "05/31/2005"
	},
	{
		"name": "JONYJ",
		"latitude": "30-22-10.78 N",
		"longitude": "86-24-30.76 W",
		"state": "FLORIDA",
		"artcc": "ZJX",
		"type": "MW",
		"updated": "01/29/2010"
	},
	{
		"name": "JOPUB",
		"latitude": "31-44-14.61 N",
		"longitude": "82-51-42.71 W",
		"state": "GEORGIA",
		"artcc": "ZJX",
		"type": "RNAV",
		"updated": "02/15/2018"
	},
	{
		"name": "JOPXU",
		"latitude": "31-9-9.03 N",
		"longitude": "82-33-21.24 W",
		"state": "GEORGIA",
		"artcc": "ZJX",
		"type": "RP",
		"updated": "AYS*VORTAC*179.77/7.00"
	},
	{
		"name": "JORPO",
		"latitude": "29-34-35.94 N",
		"longitude": "82-15-19.58 W",
		"state": "FLORIDA",
		"artcc": "ZJX",
		"type": "RNAV",
		"updated": "11/21/2010"
	},
	{
		"name": "JORVU",
		"latitude": "28-46-10.17 N",
		"longitude": "81-27-15.28 W",
		"state": "FLORIDA",
		"artcc": "ZJX",
		"type": "RP",
		"updated": "ORL*VORTAC*335.15"
	},
	{
		"name": "JOSEX",
		"latitude": "29-51-14.25 N",
		"longitude": "81-10-49.07 W",
		"state": "FLORIDA",
		"artcc": "ZJX",
		"type": "RP",
		"updated": "OMN*VORTAC*353.89"
	},
	{
		"name": "JOSIE",
		"latitude": "33-9-29 N",
		"longitude": "77-46-29 W",
		"state": "OFFSHORE ATLANTIC",
		"artcc": "ZJX",
		"type": "WP",
		"updated": "03/26/2002"
	},
	{
		"name": "JOSKA",
		"latitude": "28-46-11.67 N",
		"longitude": "81-15-41.62 W",
		"state": "FLORIDA",
		"artcc": "ZJX",
		"type": "RP",
		"updated": "OOS*LD*274.92/2.51"
	},
	{
		"name": "JOSLA",
		"latitude": "29-41-6.61 N",
		"longitude": "81-54-14.77 W",
		"state": "FLORIDA",
		"artcc": "ZJX",
		"type": "MR",
		"updated": "NIP*TACAN*206.00/35.00"
	},
	{
		"name": "JOVFE",
		"latitude": "30-32-9.71 N",
		"longitude": "81-46-25.81 W",
		"state": "FLORIDA",
		"artcc": "ZJX",
		"type": "RNAV",
		"updated": "11/30/2012"
	},
	{
		"name": "JOVIM",
		"latitude": "33-43-49.96 N",
		"longitude": "80-44-24.99 W",
		"state": "SOUTH CAROLINA",
		"artcc": "ZJX",
		"type": "MR",
		"updated": "MMT*VORTAC*173.00/12.00"
	},
	{
		"name": "JOXON",
		"latitude": "28-39-1.53 N",
		"longitude": "81-56-35.67 W",
		"state": "FLORIDA",
		"artcc": "ZJX",
		"type": "RNAV",
		"updated": "11/03/2011"
	},
	{
		"name": "JRAYY",
		"latitude": "30-27-20.24 N",
		"longitude": "86-31-35.82 W",
		"state": "FLORIDA",
		"artcc": "ZJX",
		"type": "MW",
		"updated": "05/17/2013"
	},
	{
		"name": "JROSS",
		"latitude": "32-42-40 N",
		"longitude": "80-37-38 W",
		"state": "SOUTH CAROLINA",
		"artcc": "ZJX",
		"type": "RNAV",
		"updated": "01/16/2018"
	},
	{
		"name": "JUDEP",
		"latitude": "30-17-25.37 N",
		"longitude": "87-36-43.14 W",
		"state": "ALABAMA",
		"artcc": "ZJX",
		"type": "RNAV",
		"updated": "03/27/2011"
	},
	{
		"name": "JUDIT",
		"latitude": "32-24-55.27 N",
		"longitude": "81-39-39.05 W",
		"state": "GEORGIA",
		"artcc": "ZJX",
		"type": "RP",
		"updated": "BZ*NDB*094.41"
	},
	{
		"name": "JUDUX",
		"latitude": "34-35-8.66 N",
		"longitude": "79-43-36.69 W",
		"state": "SOUTH CAROLINA",
		"artcc": "ZJX",
		"type": "RNAV",
		"updated": "05/23/2007"
	},
	{
		"name": "JUDVO",
		"latitude": "31-55-1.44 N",
		"longitude": "80-51-59.23 W",
		"state": "GEORGIA",
		"artcc": "ZJX",
		"type": "MW",
		"updated": "04/16/2009"
	},
	{
		"name": "JUGUT",
		"latitude": "30-17-11.65 N",
		"longitude": "82-3-19.14 W",
		"state": "FLORIDA",
		"artcc": "ZJX",
		"type": "RP",
		"updated": "NIP*TACAN*285.00/20.00"
	},
	{
		"name": "JUHRA",
		"latitude": "29-43-53.06 N",
		"longitude": "81-56-19.43 W",
		"state": "FLORIDA",
		"artcc": "ZJX",
		"type": "RNAV",
		"updated": "08/20/2010"
	},
	{
		"name": "JUKAL",
		"latitude": "34-24-33.41 N",
		"longitude": "80-8-48.93 W",
		"state": "SOUTH CAROLINA",
		"artcc": "ZJX",
		"type": "RNAV",
		"updated": "04/21/2017"
	},
	{
		"name": "JUKAR",
		"latitude": "30-22-52.37 N",
		"longitude": "87-14-4.77 W",
		"state": "FLORIDA",
		"artcc": "ZJX",
		"type": "MW",
		"updated": "07/08/2016"
	},
	{
		"name": "JUKGO",
		"latitude": "27-58-4.04 N",
		"longitude": "82-25-27.86 W",
		"state": "FLORIDA",
		"artcc": "ZJX",
		"type": "RNAV",
		"updated": "12/09/2010"
	},
	{
		"name": "JUKLI",
		"latitude": "33-14-51.9 N",
		"longitude": "79-23-27.98 W",
		"state": "SOUTH CAROLINA",
		"artcc": "ZJX",
		"type": "RNAV",
		"updated": "08/11/2014"
	},
	{
		"name": "JUKOK",
		"latitude": "30-46-44.83 N",
		"longitude": "83-9-23.38 W",
		"state": "GEORGIA",
		"artcc": "ZJX",
		"type": "MR",
		"updated": "VAD*TACAN*173.00/11.00"
	},
	{
		"name": "JUMEG",
		"latitude": "34-1-55 N",
		"longitude": "79-38-38.04 W",
		"state": "SOUTH CAROLINA",
		"artcc": "ZJX",
		"type": "RNAV",
		"updated": "02/02/2007"
	},
	{
		"name": "JUMIG",
		"latitude": "30-52-45.21 N",
		"longitude": "85-11-8.41 W",
		"state": "FLORIDA",
		"artcc": "ZJX",
		"type": "RNAV",
		"updated": "12/15/2015"
	},
	{
		"name": "JUMUB",
		"latitude": "33-39-48.31 N",
		"longitude": "80-43-49.41 W",
		"state": "SOUTH CAROLINA",
		"artcc": "ZJX",
		"type": "MR",
		"updated": "SSC*TACAN*223.11/23.00"
	},
	{
		"name": "JUNAV",
		"latitude": "28-23-29.48 N",
		"longitude": "82-41-7.21 W",
		"state": "FLORIDA",
		"artcc": "ZJX",
		"type": "RNAV",
		"updated": "05/19/2009"
	},
	{
		"name": "JUNOK",
		"latitude": "31-16-11.16 N",
		"longitude": "83-22-53.74 W",
		"state": "GEORGIA",
		"artcc": "ZJX",
		"type": "RP",
		"updated": "OTK*VOR/DME*351.86/29.76"
	},
	{
		"name": "JUNTI",
		"latitude": "27-58-8.29 N",
		"longitude": "82-28-2.56 W",
		"state": "FLORIDA",
		"artcc": "ZJX",
		"type": "RNAV",
		"updated": "12/09/2010"
	},
	{
		"name": "JUPVI",
		"latitude": "33-11-23.63 N",
		"longitude": "80-2-10.38 W",
		"state": "SOUTH CAROLINA",
		"artcc": "ZJX",
		"type": "RP",
		"updated": "04/01/2009"
	},
	{
		"name": "JURDI",
		"latitude": "34-43-45.68 N",
		"longitude": "79-50-40.42 W",
		"state": "SOUTH CAROLINA",
		"artcc": "ZJX",
		"type": "RNAV",
		"updated": "11/10/2016"
	},
	{
		"name": "JUREN",
		"latitude": "30-17-25.83 N",
		"longitude": "87-29-51.22 W",
		"state": "ALABAMA",
		"artcc": "ZJX",
		"type": "MW",
		"updated": "07/08/2016"
	},
	{
		"name": "JUROT",
		"latitude": "28-44-36.85 N",
		"longitude": "81-52-9.95 W",
		"state": "FLORIDA",
		"artcc": "ZJX",
		"type": "RNAV",
		"updated": "11/03/2011"
	},
	{
		"name": "JUSAD",
		"latitude": "29-8-33.76 N",
		"longitude": "81-8-19.59 W",
		"state": "FLORIDA",
		"artcc": "ZJX",
		"type": "RNAV",
		"updated": "04/05/2004"
	},
	{
		"name": "JUSIG",
		"latitude": "30-33-24.28 N",
		"longitude": "86-31-19.51 W",
		"state": "FLORIDA",
		"artcc": "ZJX",
		"type": "MR",
		"updated": "DWG*TACAN*359.23/4.70"
	},
	{
		"name": "JUSUP",
		"latitude": "30-58-4.47 N",
		"longitude": "82-31-32.66 W",
		"state": "GEORGIA",
		"artcc": "ZJX",
		"type": "RNAV",
		"updated": "05/01/2015"
	},
	{
		"name": "JUTSU",
		"latitude": "31-12-11.49 N",
		"longitude": "83-2-4.29 W",
		"state": "GEORGIA",
		"artcc": "ZJX",
		"type": "RNAV",
		"updated": "12/28/2015"
	},
	{
		"name": "JUTTS",
		"latitude": "29-36-0 N",
		"longitude": "82-2-0 W",
		"state": "FLORIDA",
		"artcc": "ZJX",
		"type": "RNAV",
		"updated": "10/25/2005"
	},
	{
		"name": "JUVAS",
		"latitude": "28-12-10.58 N",
		"longitude": "82-9-3.02 W",
		"state": "FLORIDA",
		"artcc": "ZJX",
		"type": "RP",
		"updated": "LAL*VORTAC*329.77/14.87"
	},
	{
		"name": "JUVIX",
		"latitude": "29-36-42.66 N",
		"longitude": "82-50-1.24 W",
		"state": "FLORIDA",
		"artcc": "ZJX",
		"type": "RNAV",
		"updated": "10/11/2010"
	},
	{
		"name": "JUVVE",
		"latitude": "31-9-19.21 N",
		"longitude": "83-44-21.54 W",
		"state": "GEORGIA",
		"artcc": "ZJX",
		"type": "RNAV",
		"updated": "09/26/2012"
	},
	{
		"name": "JUXEL",
		"latitude": "31-10-26.33 N",
		"longitude": "83-24-22.5 W",
		"state": "GEORGIA",
		"artcc": "ZJX",
		"type": "RNAV",
		"updated": "02/07/2013"
	},
	{
		"name": "JUXER",
		"latitude": "33-32-39.79 N",
		"longitude": "81-37-52 W",
		"state": "SOUTH CAROLINA",
		"artcc": "ZJX",
		"type": "RNAV",
		"updated": "06/12/2012"
	},
	{
		"name": "JUZSO",
		"latitude": "30-13-0.94 N",
		"longitude": "81-40-27.69 W",
		"state": "FLORIDA",
		"artcc": "ZJX",
		"type": "RNAV",
		"updated": "11/01/2010"
	},
	{
		"name": "JUZTN",
		"latitude": "28-46-40.77 N",
		"longitude": "81-37-53.47 W",
		"state": "FLORIDA",
		"artcc": "ZJX",
		"type": "RNAV",
		"updated": "08/10/2012"
	},
	{
		"name": "JYMSE",
		"latitude": "33-32-49.07 N",
		"longitude": "80-21-7.58 W",
		"state": "SOUTH CAROLINA",
		"artcc": "ZJX",
		"type": "RNAV",
		"updated": "06/30/2011"
	}
]
