[
	{
		"name": "KABEC",
		"latitude": "29-21-22.88 N",
		"longitude": "81-22-44.94 W",
		"state": "FLORIDA",
		"artcc": "ZJX",
		"type": "RNAV",
		"updated": "03/25/2004"
	},
	{
		"name": "KABEE",
		"latitude": "34-39-39.77 N",
		"longitude": "80-9-46.16 W",
		"state": "SOUTH CAROLINA",
		"artcc": "ZJX",
		"type": "RNAV",
		"updated": "02/15/2018"
	},
	{
		"name": "KACBA",
		"latitude": "29-39-9.2 N",
		"longitude": "82-21-37.35 W",
		"state": "FLORIDA",
		"artcc": "ZJX",
		"type": "RNAV",
		"updated": "06/18/2007"
	},
	{
		"name": "KACCE",
		"latitude": "34-20-19.22 N",
		"longitude": "80-19-3.56 W",
		"state": "SOUTH CAROLINA",
		"artcc": "ZJX",
		"type": "RNAV",
		"updated": "09/06/2007"
	},
	{
		"name": "KAGGE",
		"latitude": "30-40-46.56 N",
		"longitude": "83-15-16.15 W",
		"state": "GEORGIA",
		"artcc": "ZJX",
		"type": "RP",
		"updated": "OTK*VOR/DME*/6.18"
	},
	{
		"name": "KAJYE",
		"latitude": "28-59-10.29 N",
		"longitude": "82-54-2.1 W",
		"state": "FLORIDA",
		"artcc": "ZJX",
		"type": "RP",
		"updated": "CTY*VORTAC*170.00/37.49"
	},
	{
		"name": "KAKEY",
		"latitude": "28-42-0.69 N",
		"longitude": "81-17-6.79 W",
		"state": "FLORIDA",
		"artcc": "ZJX",
		"type": "RP",
		"updated": "ARK*LD*005.48/17.00"
	},
	{
		"name": "KALGN",
		"latitude": "30-23-11.41 N",
		"longitude": "87-13-31.03 W",
		"state": "FLORIDA",
		"artcc": "ZJX",
		"type": "MW",
		"updated": "02/14/2018"
	},
	{
		"name": "KAMPP",
		"latitude": "30-48-44.43 N",
		"longitude": "86-31-15.12 W",
		"state": "FLORIDA",
		"artcc": "ZJX",
		"type": "MR",
		"updated": "DWG*TACAN*360.00/20.00"
	},
	{
		"name": "KAMRE",
		"latitude": "33-37-8.62 N",
		"longitude": "81-4-25.73 W",
		"state": "SOUTH CAROLINA",
		"artcc": "ZJX",
		"type": "MR",
		"updated": "CAE*VORTAC*186.00/14.30"
	},
	{
		"name": "KANDE",
		"latitude": "30-44-52.77 N",
		"longitude": "86-26-56.68 W",
		"state": "FLORIDA",
		"artcc": "ZJX",
		"type": "MR",
		"updated": "CEW*VORTAC*108.43/12.78"
	},
	{
		"name": "KAPDE",
		"latitude": "29-11-42.54 N",
		"longitude": "81-1-19.13 W",
		"state": "FLORIDA",
		"artcc": "ZJX",
		"type": "RNAV",
		"updated": "03/27/2007"
	},
	{
		"name": "KARPP",
		"latitude": "30-41-6.14 N",
		"longitude": "83-15-16.83 W",
		"state": "GEORGIA",
		"artcc": "ZJX",
		"type": "RP",
		"updated": "OTK*VOR/DME*169.24/5.86"
	},
	{
		"name": "KASKE",
		"latitude": "32-43-4.09 N",
		"longitude": "80-44-1.34 W",
		"state": "SOUTH CAROLINA",
		"artcc": "ZJX",
		"type": "MW",
		"updated": "03/04/2010"
	},
	{
		"name": "KASSE",
		"latitude": "32-1-5.4 N",
		"longitude": "81-24-18.97 W",
		"state": "GEORGIA",
		"artcc": "ZJX",
		"type": "MW",
		"updated": "04/16/2009"
	},
	{
		"name": "KAVNE",
		"latitude": "33-39-41.65 N",
		"longitude": "80-48-48.89 W",
		"state": "SOUTH CAROLINA",
		"artcc": "ZJX",
		"type": "RNAV",
		"updated": "09/09/2005"
	},
	{
		"name": "KAVPY",
		"latitude": "34-27-1.16 N",
		"longitude": "80-7-47.51 W",
		"state": "SOUTH CAROLINA",
		"artcc": "ZJX",
		"type": "RNAV",
		"updated": "04/21/2017"
	},
	{
		"name": "KAXFY",
		"latitude": "31-13-11.63 N",
		"longitude": "81-20-9.41 W",
		"state": "GEORGIA",
		"artcc": "ZJX",
		"type": "RNAV",
		"updated": "12/18/2002"
	},
	{
		"name": "KAYEM",
		"latitude": "30-25-40.9 N",
		"longitude": "81-52-15.19 W",
		"state": "FLORIDA",
		"artcc": "ZJX",
		"type": "RNAV",
		"updated": "03/26/2015"
	},
	{
		"name": "KEBAF",
		"latitude": "30-25-46.79 N",
		"longitude": "81-23-23.66 W",
		"state": "FLORIDA",
		"artcc": "ZJX",
		"type": "MR",
		"updated": "NRB*TACAN*041.00/3.00"
	},
	{
		"name": "KEEVN",
		"latitude": "28-33-43.06 N",
		"longitude": "81-17-1.94 W",
		"state": "FLORIDA",
		"artcc": "ZJX",
		"type": "RNAV",
		"updated": "07/01/2010"
	},
	{
		"name": "KEEZS",
		"latitude": "29-42-25.6 N",
		"longitude": "82-22-4.6 W",
		"state": "FLORIDA",
		"artcc": "ZJX",
		"type": "RNAV",
		"updated": "05/31/2005"
	},
	{
		"name": "KEFOW",
		"latitude": "31-42-43.37 N",
		"longitude": "82-24-5.62 W",
		"state": "GEORGIA",
		"artcc": "ZJX",
		"type": "WP",
		"updated": "11/02/1998"
	},
	{
		"name": "KELER",
		"latitude": "31-55-7.4 N",
		"longitude": "81-11-9.14 W",
		"state": "GEORGIA",
		"artcc": "ZJX",
		"type": "RP",
		"updated": "SAV*VORTAC*183.16/13.64"
	},
	{
		"name": "KELRE",
		"latitude": "33-23-38.58 N",
		"longitude": "81-48-31.67 W",
		"state": "SOUTH CAROLINA",
		"artcc": "ZJX",
		"type": "RNAV",
		"updated": "06/12/2012"
	},
	{
		"name": "KENME",
		"latitude": "30-45-5.45 N",
		"longitude": "87-3-4.72 W",
		"state": "FLORIDA",
		"artcc": "ZJX",
		"type": "MR",
		"updated": "NSE*LD*319.00/3.00"
	},
	{
		"name": "KENNR",
		"latitude": "30-43-43.71 N",
		"longitude": "86-31-24.05 W",
		"state": "FLORIDA",
		"artcc": "ZJX",
		"type": "MR",
		"updated": "DWG*TACAN*359.51/15.00"
	},
	{
		"name": "KENSY",
		"latitude": "31-15-3.53 N",
		"longitude": "85-22-7.8 W",
		"state": "ALABAMA",
		"artcc": "ZJX",
		"type": "RP",
		"updated": "RRS*VORTAC*120.08"
	},
	{
		"name": "KERLY",
		"latitude": "32-4-46.68 N",
		"longitude": "82-22-4.9 W",
		"state": "GEORGIA",
		"artcc": "ZJX",
		"type": "RNAV",
		"updated": "07/26/2016"
	},
	{
		"name": "KESHA",
		"latitude": "33-19-36 N",
		"longitude": "77-44-7 W",
		"state": "OFFSHORE ATLANTIC",
		"artcc": "ZJX",
		"type": "WP",
		"updated": "03/26/2002"
	},
	{
		"name": "KESLR",
		"latitude": "29-0-32.47 N",
		"longitude": "80-58-9.23 W",
		"state": "FLORIDA",
		"artcc": "ZJX",
		"type": "RNAV",
		"updated": "04/05/2004"
	},
	{
		"name": "KEYEC",
		"latitude": "29-1-46.35 N",
		"longitude": "80-51-12.05 W",
		"state": "FLORIDA",
		"artcc": "ZJX",
		"type": "RNAV",
		"updated": "10/17/2006"
	},
	{
		"name": "KICKY",
		"latitude": "34-28-5.33 N",
		"longitude": "80-57-48.26 W",
		"state": "SOUTH CAROLINA",
		"artcc": "ZJX",
		"type": "RNAV",
		"updated": "10/11/2017"
	},
	{
		"name": "KIMML",
		"latitude": "30-54-17.24 N",
		"longitude": "81-55-27.64 W",
		"state": "GEORGIA",
		"artcc": "ZJX",
		"type": "RNAV",
		"updated": "08/26/2013"
	},
	{
		"name": "KIMMY",
		"latitude": "33-16-23.17 N",
		"longitude": "79-30-9.36 W",
		"state": "SOUTH CAROLINA",
		"artcc": "ZJX",
		"type": "RP",
		"updated": "VAN*VORTAC*110.00"
	},
	{
		"name": "KINYE",
		"latitude": "33-37-40.38 N",
		"longitude": "81-44-2.17 W",
		"state": "SOUTH CAROLINA",
		"artcc": "ZJX",
		"type": "RNAV",
		"updated": "06/30/2006"
	},
	{
		"name": "KIPLE",
		"latitude": "30-52-54.46 N",
		"longitude": "82-8-7.25 W",
		"state": "GEORGIA",
		"artcc": "ZJX",
		"type": "RNAV",
		"updated": "08/26/2013"
	},
	{
		"name": "KIPYE",
		"latitude": "34-12-50.6 N",
		"longitude": "79-32-19.44 W",
		"state": "SOUTH CAROLINA",
		"artcc": "ZJX",
		"type": "RP",
		"updated": "FLO*VORTAC*103.85/6.00"
	},
	{
		"name": "KIRNS",
		"latitude": "31-28-20.83 N",
		"longitude": "81-49-33.78 W",
		"state": "GEORGIA",
		"artcc": "ZJX",
		"type": "RP",
		"updated": "AMG*VORTAC*096.08/35.19"
	},
	{
		"name": "KISNR",
		"latitude": "30-20-42.74 N",
		"longitude": "81-58-46.33 W",
		"state": "FLORIDA",
		"artcc": "ZJX",
		"type": "MR",
		"updated": "NRB*TACAN*268.00/29.00"
	},
	{
		"name": "KITEY",
		"latitude": "36-22-43.24 N",
		"longitude": "75-49-32.5 W",
		"state": "NORTH CAROLINA",
		"artcc": "ZJX",
		"type": "RNAV",
		"updated": "01/17/2018"
	},
	{
		"name": "KITHA",
		"latitude": "33-4-53.33 N",
		"longitude": "81-18-11.93 W",
		"state": "SOUTH CAROLINA",
		"artcc": "ZJX",
		"type": "RNAV",
		"updated": "08/21/2013"
	},
	{
		"name": "KITZO",
		"latitude": "30-39-43.24 N",
		"longitude": "81-57-31.31 W",
		"state": "FLORIDA",
		"artcc": "ZJX",
		"type": "RNAV",
		"updated": "08/26/2013"
	},
	{
		"name": "KIVEC",
		"latitude": "31-39-39.06 N",
		"longitude": "82-37-19.59 W",
		"state": "GEORGIA",
		"artcc": "ZJX",
		"type": "RNAV",
		"updated": "04/03/2012"
	},
	{
		"name": "KIVPE",
		"latitude": "33-46-2.42 N",
		"longitude": "79-46-45.74 W",
		"state": "SOUTH CAROLINA",
		"artcc": "ZJX",
		"type": "RNAV",
		"updated": "02/02/2007"
	},
	{
		"name": "KIZER",
		"latitude": "28-55-26 N",
		"longitude": "81-22-17.83 W",
		"state": "FLORIDA",
		"artcc": "ZJX",
		"type": "RP",
		"updated": "OMN*VORTAC*211.00/26.47"
	},
	{
		"name": "KJ03O",
		"latitude": "30-30-0 N",
		"longitude": "86-0-0 W",
		"state": "FLORIDA",
		"artcc": "ZJX",
		"type": "NRS",
		"updated": "03/05/2005"
	},
	{
		"name": "KJ03Q",
		"latitude": "30-30-0 N",
		"longitude": "84-0-0 W",
		"state": "FLORIDA",
		"artcc": "ZJX",
		"type": "NRS",
		"updated": "03/05/2005"
	},
	{
		"name": "KJ03S",
		"latitude": "30-30-0 N",
		"longitude": "82-0-0 W",
		"state": "FLORIDA",
		"artcc": "ZJX",
		"type": "NRS",
		"updated": "03/05/2005"
	},
	{
		"name": "KJ03U",
		"latitude": "30-30-0 N",
		"longitude": "80-0-0 W",
		"state": "OFFSHORE ATLANTIC",
		"artcc": "ZJX",
		"type": "NRS",
		"updated": "03/05/2005"
	},
	{
		"name": "KJ03W",
		"latitude": "30-30-0 N",
		"longitude": "78-0-0 W",
		"state": "OFFSHORE ATLANTIC",
		"artcc": "ZJX",
		"type": "NRS",
		"updated": "03/05/2005"
	},
	{
		"name": "KJ06O",
		"latitude": "31-0-0 N",
		"longitude": "86-0-0 W",
		"state": "ALABAMA",
		"artcc": "ZJX",
		"type": "NRS",
		"updated": "03/05/2005"
	},
	{
		"name": "KJ06Q",
		"latitude": "31-0-0 N",
		"longitude": "84-0-0 W",
		"state": "GEORGIA",
		"artcc": "ZJX",
		"type": "NRS",
		"updated": "03/05/2005"
	},
	{
		"name": "KJ06S",
		"latitude": "31-0-0 N",
		"longitude": "82-0-0 W",
		"state": "GEORGIA",
		"artcc": "ZJX",
		"type": "NRS",
		"updated": "03/05/2005"
	},
	{
		"name": "KJ06U",
		"latitude": "31-0-0 N",
		"longitude": "80-0-0 W",
		"state": "OFFSHORE ATLANTIC",
		"artcc": "ZJX",
		"type": "NRS",
		"updated": "03/05/2005"
	},
	{
		"name": "KJ06W",
		"latitude": "31-0-0 N",
		"longitude": "78-0-0 W",
		"state": "OFFSHORE ATLANTIC",
		"artcc": "ZJX",
		"type": "NRS",
		"updated": "03/05/2005"
	},
	{
		"name": "KJ09O",
		"latitude": "31-30-0 N",
		"longitude": "86-0-0 W",
		"state": "ALABAMA",
		"artcc": "ZJX",
		"type": "NRS",
		"updated": "03/05/2005"
	},
	{
		"name": "KJ09Q",
		"latitude": "31-30-0 N",
		"longitude": "84-0-0 W",
		"state": "GEORGIA",
		"artcc": "ZJX",
		"type": "NRS",
		"updated": "03/05/2005"
	},
	{
		"name": "KJ09S",
		"latitude": "31-30-0 N",
		"longitude": "82-0-0 W",
		"state": "GEORGIA",
		"artcc": "ZJX",
		"type": "NRS",
		"updated": "03/05/2005"
	},
	{
		"name": "KJ09U",
		"latitude": "31-30-0 N",
		"longitude": "80-0-0 W",
		"state": "OFFSHORE ATLANTIC",
		"artcc": "ZJX",
		"type": "NRS",
		"updated": "03/05/2005"
	},
	{
		"name": "KJ09W",
		"latitude": "31-30-0 N",
		"longitude": "78-0-0 W",
		"state": "OFFSHORE ATLANTIC",
		"artcc": "ZJX",
		"type": "NRS",
		"updated": "03/05/2005"
	},
	{
		"name": "KJ12S",
		"latitude": "32-0-0 N",
		"longitude": "82-0-0 W",
		"state": "GEORGIA",
		"artcc": "ZJX",
		"type": "NRS",
		"updated": "03/05/2005"
	},
	{
		"name": "KJ12U",
		"latitude": "32-0-0 N",
		"longitude": "80-0-0 W",
		"state": "OFFSHORE ATLANTIC",
		"artcc": "ZJX",
		"type": "NRS",
		"updated": "03/05/2005"
	},
	{
		"name": "KJ12W",
		"latitude": "32-0-0 N",
		"longitude": "78-0-0 W",
		"state": "OFFSHORE ATLANTIC",
		"artcc": "ZJX",
		"type": "NRS",
		"updated": "03/05/2005"
	},
	{
		"name": "KJ15U",
		"latitude": "32-30-0 N",
		"longitude": "80-0-0 W",
		"state": "SOUTH CAROLINA",
		"artcc": "ZJX",
		"type": "NRS",
		"updated": "03/05/2005"
	},
	{
		"name": "KJ15W",
		"latitude": "32-30-0 N",
		"longitude": "78-0-0 W",
		"state": "OFFSHORE ATLANTIC",
		"artcc": "ZJX",
		"type": "NRS",
		"updated": "03/05/2005"
	},
	{
		"name": "KJ18U",
		"latitude": "33-0-0 N",
		"longitude": "80-0-0 W",
		"state": "SOUTH CAROLINA",
		"artcc": "ZJX",
		"type": "NRS",
		"updated": "03/05/2005"
	},
	{
		"name": "KJ18W",
		"latitude": "33-0-0 N",
		"longitude": "78-0-0 W",
		"state": "OFFSHORE ATLANTIC",
		"artcc": "ZJX",
		"type": "NRS",
		"updated": "03/05/2005"
	},
	{
		"name": "KJ21U",
		"latitude": "33-30-0 N",
		"longitude": "80-0-0 W",
		"state": "SOUTH CAROLINA",
		"artcc": "ZJX",
		"type": "NRS",
		"updated": "03/05/2005"
	},
	{
		"name": "KJ21W",
		"latitude": "33-30-0 N",
		"longitude": "78-0-0 W",
		"state": "OFFSHORE ATLANTIC",
		"artcc": "ZJX",
		"type": "NRS",
		"updated": "03/05/2005"
	},
	{
		"name": "KJ24U",
		"latitude": "34-0-0 N",
		"longitude": "80-0-0 W",
		"state": "SOUTH CAROLINA",
		"artcc": "ZJX",
		"type": "NRS",
		"updated": "03/05/2005"
	},
	{
		"name": "KJ27U",
		"latitude": "34-30-0 N",
		"longitude": "80-0-0 W",
		"state": "SOUTH CAROLINA",
		"artcc": "ZJX",
		"type": "NRS",
		"updated": "03/05/2005"
	},
	{
		"name": "KJ78O",
		"latitude": "28-0-0 N",
		"longitude": "86-0-0 W",
		"state": "OFFSHORE GULF",
		"artcc": "ZJX",
		"type": "NRS",
		"updated": "03/05/2005"
	},
	{
		"name": "KJ81M",
		"latitude": "28-30-0 N",
		"longitude": "88-0-0 W",
		"state": "OFFSHORE GULF",
		"artcc": "ZJX",
		"type": "NRS",
		"updated": "03/05/2005"
	},
	{
		"name": "KJ81O",
		"latitude": "28-30-0 N",
		"longitude": "86-0-0 W",
		"state": "OFFSHORE GULF",
		"artcc": "ZJX",
		"type": "NRS",
		"updated": "03/05/2005"
	},
	{
		"name": "KJ81S",
		"latitude": "28-30-0 N",
		"longitude": "82-0-0 W",
		"state": "FLORIDA",
		"artcc": "ZJX",
		"type": "NRS",
		"updated": "03/05/2005"
	},
	{
		"name": "KJ84M",
		"latitude": "29-0-0 N",
		"longitude": "88-0-0 W",
		"state": "OFFSHORE GULF",
		"artcc": "ZJX",
		"type": "NRS",
		"updated": "03/05/2005"
	},
	{
		"name": "KJ84O",
		"latitude": "29-0-0 N",
		"longitude": "86-0-0 W",
		"state": "OFFSHORE GULF",
		"artcc": "ZJX",
		"type": "NRS",
		"updated": "03/05/2005"
	},
	{
		"name": "KJ84Q",
		"latitude": "29-0-0 N",
		"longitude": "84-0-0 W",
		"state": "OFFSHORE GULF",
		"artcc": "ZJX",
		"type": "NRS",
		"updated": "03/05/2005"
	},
	{
		"name": "KJ84S",
		"latitude": "29-0-0 N",
		"longitude": "82-0-0 W",
		"state": "FLORIDA",
		"artcc": "ZJX",
		"type": "NRS",
		"updated": "03/05/2005"
	},
	{
		"name": "KJ87M",
		"latitude": "29-30-0 N",
		"longitude": "88-0-0 W",
		"state": "OFFSHORE GULF",
		"artcc": "ZJX",
		"type": "NRS",
		"updated": "03/05/2005"
	},
	{
		"name": "KJ87O",
		"latitude": "29-30-0 N",
		"longitude": "86-0-0 W",
		"state": "OFFSHORE GULF",
		"artcc": "ZJX",
		"type": "NRS",
		"updated": "03/05/2005"
	},
	{
		"name": "KJ87Q",
		"latitude": "29-30-0 N",
		"longitude": "84-0-0 W",
		"state": "OFFSHORE GULF",
		"artcc": "ZJX",
		"type": "NRS",
		"updated": "03/05/2005"
	},
	{
		"name": "KJ87S",
		"latitude": "29-30-0 N",
		"longitude": "82-0-0 W",
		"state": "FLORIDA",
		"artcc": "ZJX",
		"type": "NRS",
		"updated": "03/05/2005"
	},
	{
		"name": "KJ87U",
		"latitude": "29-30-0 N",
		"longitude": "80-0-0 W",
		"state": "OFFSHORE ATLANTIC",
		"artcc": "ZJX",
		"type": "NRS",
		"updated": "03/05/2005"
	},
	{
		"name": "KJ90M",
		"latitude": "30-0-0 N",
		"longitude": "88-0-0 W",
		"state": "OFFSHORE GULF",
		"artcc": "ZJX",
		"type": "NRS",
		"updated": "03/05/2005"
	},
	{
		"name": "KJ90O",
		"latitude": "30-0-0 N",
		"longitude": "86-0-0 W",
		"state": "OFFSHORE GULF",
		"artcc": "ZJX",
		"type": "NRS",
		"updated": "03/05/2005"
	},
	{
		"name": "KJ90Q",
		"latitude": "30-0-0 N",
		"longitude": "84-0-0 W",
		"state": "FLORIDA",
		"artcc": "ZJX",
		"type": "NRS",
		"updated": "03/05/2005"
	},
	{
		"name": "KJ90S",
		"latitude": "30-0-0 N",
		"longitude": "82-0-0 W",
		"state": "FLORIDA",
		"artcc": "ZJX",
		"type": "NRS",
		"updated": "03/05/2005"
	},
	{
		"name": "KJ90U",
		"latitude": "30-0-0 N",
		"longitude": "80-0-0 W",
		"state": "OFFSHORE ATLANTIC",
		"artcc": "ZJX",
		"type": "NRS",
		"updated": "03/05/2005"
	},
	{
		"name": "KLIIN",
		"latitude": "29-2-18.77 N",
		"longitude": "83-8-15.39 W",
		"state": "FLORIDA",
		"artcc": "ZJX",
		"type": "RNAV",
		"updated": "11/11/2010"
	},
	{
		"name": "KLNGN",
		"latitude": "29-18-34.57 N",
		"longitude": "81-4-6.93 W",
		"state": "FLORIDA",
		"artcc": "ZJX",
		"type": "RNAV",
		"updated": "02/27/2012"
	},
	{
		"name": "KMBEE",
		"latitude": "32-43-53.62 N",
		"longitude": "79-50-17.59 W",
		"state": "SOUTH CAROLINA",
		"artcc": "ZJX",
		"type": "RNAV",
		"updated": "06/30/2011"
	},
	{
		"name": "KNEED",
		"latitude": "28-16-12.33 N",
		"longitude": "81-55-11.28 W",
		"state": "FLORIDA",
		"artcc": "ZJX",
		"type": "RP",
		"updated": "PIE*VORTAC*066.70/46.00"
	},
	{
		"name": "KNEMO",
		"latitude": "31-45-8.32 N",
		"longitude": "80-55-5.2 W",
		"state": "GEORGIA",
		"artcc": "ZJX",
		"type": "RP",
		"updated": "SAV*VORTAC*154.62"
	},
	{
		"name": "KNUKL",
		"latitude": "28-44-52 N",
		"longitude": "81-25-27 W",
		"state": "FLORIDA",
		"artcc": "ZJX",
		"type": "RNAV",
		"updated": "10/24/2007"
	},
	{
		"name": "KOAST",
		"latitude": "30-13-36.08 N",
		"longitude": "86-1-15.75 W",
		"state": "FLORIDA",
		"artcc": "ZJX",
		"type": "RP",
		"updated": "DWG*TACAN*120.00/30.00"
	},
	{
		"name": "KOENG",
		"latitude": "33-51-8.96 N",
		"longitude": "80-31-20.73 W",
		"state": "SOUTH CAROLINA",
		"artcc": "ZJX",
		"type": "RNAV",
		"updated": "10/01/2009"
	},
	{
		"name": "KOFRR",
		"latitude": "34-26-45 N",
		"longitude": "80-37-57 W",
		"state": "SOUTH CAROLINA",
		"artcc": "ZJX",
		"type": "RNAV",
		"updated": "11/18/2016"
	},
	{
		"name": "KOGPE",
		"latitude": "32-0-40.82 N",
		"longitude": "82-55-18.01 W",
		"state": "GEORGIA",
		"artcc": "ZJX",
		"type": "RNAV",
		"updated": "06/16/2008"
	},
	{
		"name": "KOGSE",
		"latitude": "31-35-1.37 N",
		"longitude": "82-5-31.05 W",
		"state": "GEORGIA",
		"artcc": "ZJX",
		"type": "RNAV",
		"updated": "09/15/2009"
	},
	{
		"name": "KOKOH",
		"latitude": "28-31-34.74 N",
		"longitude": "82-15-15.54 W",
		"state": "FLORIDA",
		"artcc": "ZJX",
		"type": "RNAV",
		"updated": "02/15/2010"
	},
	{
		"name": "KOOKE",
		"latitude": "33-56-30.58 N",
		"longitude": "79-0-24.02 W",
		"state": "SOUTH CAROLINA",
		"artcc": "ZJX",
		"type": "RP",
		"updated": "FAY*VOR/DME*190.00"
	},
	{
		"name": "KOVNE",
		"latitude": "30-49-24.4 N",
		"longitude": "83-16-53.01 W",
		"state": "GEORGIA",
		"artcc": "ZJX",
		"type": "RNAV",
		"updated": "07/29/2013"
	},
	{
		"name": "KOYEC",
		"latitude": "29-9-9.53 N",
		"longitude": "82-34-9.31 W",
		"state": "FLORIDA",
		"artcc": "ZJX",
		"type": "RNAV",
		"updated": "02/01/2007"
	},
	{
		"name": "KOZYA",
		"latitude": "29-48-35.86 N",
		"longitude": "82-27-36.12 W",
		"state": "FLORIDA",
		"artcc": "ZJX",
		"type": "RNAV",
		"updated": "05/31/2005"
	},
	{
		"name": "KPASA",
		"latitude": "28-10-34 N",
		"longitude": "81-54-27 W",
		"state": "FLORIDA",
		"artcc": "ZJX",
		"type": "RNAV",
		"updated": "07/07/2005"
	},
	{
		"name": "KRAKN",
		"latitude": "28-23-35 N",
		"longitude": "81-25-27 W",
		"state": "FLORIDA",
		"artcc": "ZJX",
		"type": "RNAV",
		"updated": "10/24/2007"
	},
	{
		"name": "KREIS",
		"latitude": "33-3-33.18 N",
		"longitude": "80-1-34.6 W",
		"state": "SOUTH CAROLINA",
		"artcc": "ZJX",
		"type": "RNAV",
		"updated": "06/13/2012"
	},
	{
		"name": "KREKE",
		"latitude": "30-54-57.65 N",
		"longitude": "83-21-36.72 W",
		"state": "GEORGIA",
		"artcc": "ZJX",
		"type": "MR",
		"updated": "OTK*VOR/DME*334.90/9.12"
	},
	{
		"name": "KRISO",
		"latitude": "30-29-0.85 N",
		"longitude": "81-49-4.32 W",
		"state": "FLORIDA",
		"artcc": "ZJX",
		"type": "RNAV",
		"updated": "08/26/2013"
	},
	{
		"name": "KRNEL",
		"latitude": "28-24-53.32 N",
		"longitude": "82-23-48.44 W",
		"state": "FLORIDA",
		"artcc": "ZJX",
		"type": "RP",
		"updated": "PIE*VORTAC*031.61/33.96"
	},
	{
		"name": "KRSTN",
		"latitude": "28-51-49.51 N",
		"longitude": "81-26-25.41 W",
		"state": "FLORIDA",
		"artcc": "ZJX",
		"type": "RP",
		"updated": "OMN*VORTAC*213.30"
	},
	{
		"name": "KRSTO",
		"latitude": "30-44-46.21 N",
		"longitude": "85-48-59.26 W",
		"state": "FLORIDA",
		"artcc": "ZJX",
		"type": "RNAV",
		"updated": "02/15/2010"
	},
	{
		"name": "KT12Q",
		"latitude": "32-0-0 N",
		"longitude": "84-0-0 W",
		"state": "GEORGIA",
		"artcc": "ZJX",
		"type": "NRS",
		"updated": "03/05/2005"
	},
	{
		"name": "KUBCE",
		"latitude": "31-13-51.74 N",
		"longitude": "84-7-39.21 W",
		"state": "GEORGIA",
		"artcc": "ZJX",
		"type": "RNAV",
		"updated": "03/04/2013"
	},
	{
		"name": "KUCES",
		"latitude": "32-12-34.96 N",
		"longitude": "80-57-58.06 W",
		"state": "SOUTH CAROLINA",
		"artcc": "ZJX",
		"type": "RNAV",
		"updated": "07/14/2005"
	},
	{
		"name": "KUDBE",
		"latitude": "30-27-53.54 N",
		"longitude": "86-31-15.12 W",
		"state": "FLORIDA",
		"artcc": "ZJX",
		"type": "MR",
		"updated": "DWG*TACAN*178.00/0.80"
	},
	{
		"name": "KUKME",
		"latitude": "30-48-6.94 N",
		"longitude": "83-31-51.28 W",
		"state": "GEORGIA",
		"artcc": "ZJX",
		"type": "RNAV",
		"updated": "06/27/2013"
	},
	{
		"name": "KUNBE",
		"latitude": "30-24-5.64 N",
		"longitude": "84-7-14.24 W",
		"state": "FLORIDA",
		"artcc": "ZJX",
		"type": "RNAV",
		"updated": "11/02/2017"
	},
	{
		"name": "KUPQE",
		"latitude": "30-23-22.44 N",
		"longitude": "84-33-18.06 W",
		"state": "FLORIDA",
		"artcc": "ZJX",
		"type": "WP",
		"updated": "11/20/2002"
	},
	{
		"name": "KURBY",
		"latitude": "34-35-53.46 N",
		"longitude": "80-0-9.53 W",
		"state": "SOUTH CAROLINA",
		"artcc": "ZJX",
		"type": "RP",
		"updated": "FLO*VORTAC*325.00/27.00"
	},
	{
		"name": "KUSKE",
		"latitude": "31-42-5.67 N",
		"longitude": "82-26-48.53 W",
		"state": "GEORGIA",
		"artcc": "ZJX",
		"type": "RNAV",
		"updated": "04/03/2012"
	},
	{
		"name": "KUTBE",
		"latitude": "31-1-21.63 N",
		"longitude": "81-47-37.78 W",
		"state": "GEORGIA",
		"artcc": "ZJX",
		"type": "RNAV",
		"updated": "10/23/2011"
	},
	{
		"name": "KUTEE",
		"latitude": "31-1-41.56 N",
		"longitude": "85-11-8.52 W",
		"state": "ALABAMA",
		"artcc": "ZJX",
		"type": "RNAV",
		"updated": "12/10/2015"
	},
	{
		"name": "KUTVE",
		"latitude": "31-52-1.02 N",
		"longitude": "84-27-4.69 W",
		"state": "GEORGIA",
		"artcc": "ZJX",
		"type": "RP",
		"updated": "EUF*VORTAC*096.00"
	},
	{
		"name": "KUYER",
		"latitude": "30-30-18.67 N",
		"longitude": "81-43-6.36 W",
		"state": "FLORIDA",
		"artcc": "ZJX",
		"type": "RP",
		"updated": "CRG*VORTAC*315.68/14.70"
	},
	{
		"name": "KUYET",
		"latitude": "33-53-22.66 N",
		"longitude": "81-30-20.19 W",
		"state": "SOUTH CAROLINA",
		"artcc": "ZJX",
		"type": "RNAV",
		"updated": "01/03/2012"
	}
]
