	{
		"name": "MABYK",
		"latitude": "31-15-48.45 N",
		"longitude": "82-53-6.29 W",
		"state": "GEORGIA",
		"artcc": "ZJX",
		"type": "RNAV",
		"updated": "05/01/2015",
	},
	{
		"name": "MACIL",
		"latitude": "30-58-14.87 N",
		"longitude": "84-38-27.45 W",
		"state": "GEORGIA",
		"artcc": "ZJX",
		"type": "CN",
		"updated": "04/13/2001",
	},
	{
		"name": "MACIR",
		"latitude": "33-35-4.63 N",
		"longitude": "80-12-41.44 W",
		"state": "SOUTH CAROLINA",
		"artcc": "ZJX",
		"type": "CN",
		"updated": "11/28/2000",
	},
	{
		"name": "MACLG",
		"latitude": "32-42-22.15 N",
		"longitude": "80-0-12.62 W",
		"state": "SOUTH CAROLINA",
		"artcc": "ZJX",
		"type": "CN",
		"updated": "09/12/2002",
	},
	{
		"name": "MACMN",
		"latitude": "29-46-5.18 N",
		"longitude": "81-7-14.37 W",
		"state": "FLORIDA",
		"artcc": "ZJX",
		"type": "RNAV",
		"updated": "01/23/2018",
	},
	{
		"name": "MACPY",
		"latitude": "32-13-20.22 N",
		"longitude": "80-41-47.53 W",
		"state": "SOUTH CAROLINA",
		"artcc": "ZJX",
		"type": "CN",
		"updated": "11/28/2000",
	},
	{
		"name": "MACUD",
		"latitude": "32-12-58.99 N",
		"longitude": "83-7-53.54 W",
		"state": "GEORGIA",
		"artcc": "ZJX",
		"type": "RP",
		"updated": "VNA*VORTAC*088.36/18.62",
	},
	{
		"name": "MACVI",
		"latitude": "32-53-52.04 N",
		"longitude": "79-47-2.86 W",
		"state": "SOUTH CAROLINA",
		"artcc": "ZJX",
		"type": "RP",
		"updated": "CHS*VORTAC*094.00/12.82",
	},
	{
		"name": "MADAZ",
		"latitude": "33-39-2.9 N",
		"longitude": "81-41-41.81 W",
		"state": "SOUTH CAROLINA",
		"artcc": "ZJX",
		"type": "RP",
		"updated": "IRQ*VORTAC*102.11/23.63",
	},
	{
		"name": "MADEN",
		"latitude": "30-1-6.57 N",
		"longitude": "81-41-48.5 W",
		"state": "FLORIDA",
		"artcc": "ZJX",
		"type": "MR",
		"updated": "CRG*VORTAC*209.92/21.50",
	},
	{
		"name": "MADEW",
		"latitude": "30-46-50.61 N",
		"longitude": "86-31-39.83 W",
		"state": "FLORIDA",
		"artcc": "ZJX",
		"type": "RP",
		"updated": "CEW*VORTAC*106.14/8.28",
	},
	{
		"name": "MADEY",
		"latitude": "32-26-6.34 N",
		"longitude": "80-35-12.18 W",
		"state": "SOUTH CAROLINA",
		"artcc": "ZJX",
		"type": "RNAV",
		"updated": "06/08/2010",
	},
	{
		"name": "MADKS",
		"latitude": "28-59-10.85 N",
		"longitude": "80-55-18.19 W",
		"state": "FLORIDA",
		"artcc": "ZJX",
		"type": "CN",
		"updated": "03/10/2003",
	},
	{
		"name": "MADLY",
		"latitude": "33-42-55.81 N",
		"longitude": "80-11-58 W",
		"state": "SOUTH CAROLINA",
		"artcc": "ZJX",
		"type": "RP",
		"updated": "CAE*VORTAC*103.00",
	},
	{
		"name": "MADRI",
		"latitude": "31-14-20.56 N",
		"longitude": "85-24-24.75 W",
		"state": "ALABAMA",
		"artcc": "ZJX",
		"type": "MR",
		"updated": "OZR*VOR/DME*099.14",
	},
	{
		"name": "MAFAM",
		"latitude": "30-27-55.99 N",
		"longitude": "87-52-46.94 W",
		"state": "ALABAMA",
		"artcc": "ZJX",
		"type": "RP",
		"updated": "BFM*VORTAC*130.00/12.67",
	},
	{
		"name": "MAFBA",
		"latitude": "30-50-22.15 N",
		"longitude": "85-11-13.64 W",
		"state": "FLORIDA",
		"artcc": "ZJX",
		"type": "RP",
		"updated": "MAI*VORTAC*314.58/4.54",
	},
	{
		"name": "MAGSS",
		"latitude": "30-43-57.73 N",
		"longitude": "86-10-13.1 W",
		"state": "FLORIDA",
		"artcc": "ZJX",
		"type": "RNAV",
		"updated": "03/23/2009",
	},
	{
		"name": "MAGUH",
		"latitude": "34-17-15.87 N",
		"longitude": "80-33-30.47 W",
		"state": "SOUTH CAROLINA",
		"artcc": "ZJX",
		"type": "RP",
		"updated": "CTF*VOR/DME*216.00/25.88",
	},
	{
		"name": "MAGYI",
		"latitude": "31-3-25.93 N",
		"longitude": "82-46-29.88 W",
		"state": "GEORGIA",
		"artcc": "ZJX",
		"type": "RP",
		"updated": "AYS*VORTAC*221.58/16.97",
	},
	{
		"name": "MAHIL",
		"latitude": "33-47-38.22 N",
		"longitude": "81-14-37.94 W",
		"state": "SOUTH CAROLINA",
		"artcc": "ZJX",
		"type": "RP",
		"updated": "CAE*VORTAC*250.29/10.22",
	},
	{
		"name": "MAHKA",
		"latitude": "30-43-29.44 N",
		"longitude": "81-58-35.61 W",
		"state": "FLORIDA",
		"artcc": "ZJX",
		"type": "RNAV",
		"updated": "08/26/2013",
	},
	{
		"name": "MAHYI",
		"latitude": "30-35-49.19 N",
		"longitude": "84-33-12.64 W",
		"state": "FLORIDA",
		"artcc": "ZJX",
		"type": "RP",
		"updated": "SZW*VORTAC*282.75/9.61",
	},
	{
		"name": "MAJHY",
		"latitude": "30-50-2.36 N",
		"longitude": "85-10-39.33 W",
		"state": "FLORIDA",
		"artcc": "ZJX",
		"type": "RP",
		"updated": "MAI*VORTAC*316.18/3.96",
	},
	{
		"name": "MAJOK",
		"latitude": "31-18-42.51 N",
		"longitude": "85-26-40.12 W",
		"state": "ALABAMA",
		"artcc": "ZJX",
		"type": "RP",
		"updated": "RRS*VORTAC*335.29/1.77",
	},
	{
		"name": "MAJOM",
		"latitude": "29-27-53.3 N",
		"longitude": "81-12-9.94 W",
		"state": "FLORIDA",
		"artcc": "ZJX",
		"type": "CN",
		"updated": "01/26/2001",
	},
	{
		"name": "MAJRR",
		"latitude": "30-21-47.98 N",
		"longitude": "87-19-7.99 W",
		"state": "FLORIDA",
		"artcc": "ZJX",
		"type": "MW",
		"updated": "04/18/2003",
	},
	{
		"name": "MAJXE",
		"latitude": "31-15-18.07 N",
		"longitude": "81-28-0.43 W",
		"state": "GEORGIA",
		"artcc": "ZJX",
		"type": "RP",
		"updated": "SSI*VORTAC*359.00/12.29",
	},
	{
		"name": "MAKCP",
		"latitude": "33-40-51.94 N",
		"longitude": "78-55-13.44 W",
		"state": "SOUTH CAROLINA",
		"artcc": "ZJX",
		"type": "RP",
		"updated": "CRE*VORTAC*234.00/12.62",
	},
	{
		"name": "MALON",
		"latitude": "30-59-9.97 N",
		"longitude": "85-14-49.56 W",
		"state": "FLORIDA",
		"artcc": "ZJX",
		"type": "RP",
		"updated": "PZD*VOR/DME*233.00",
	},
	{
		"name": "MAMAE",
		"latitude": "33-4-24.09 N",
		"longitude": "80-10-11.66 W",
		"state": "SOUTH CAROLINA",
		"artcc": "ZJX",
		"type": "RP",
		"updated": "CHS*VORTAC*333.16/12.63",
	},
	{
		"name": "MAMBO",
		"latitude": "28-44-54.17 N",
		"longitude": "81-37-18.04 W",
		"state": "FLORIDA",
		"artcc": "ZJX",
		"type": "RP",
		"updated": "OMN*VORTAC*219.00",
	},
	{
		"name": "MANKL",
		"latitude": "32-43-21.47 N",
		"longitude": "79-38-56.7 W",
		"state": "SOUTH CAROLINA",
		"artcc": "ZJX",
		"type": "RNAV",
		"updated": "06/30/2011",
	},
	{
		"name": "MANZO",
		"latitude": "29-38-47.9 N",
		"longitude": "82-30-1.4 W",
		"state": "FLORIDA",
		"artcc": "ZJX",
		"type": "RNAV",
		"updated": "05/31/2005",
	},
	{
		"name": "MARBG",
		"latitude": "31-2-40.97 N",
		"longitude": "87-3-32.8 W",
		"state": "ALABAMA",
		"artcc": "ZJX",
		"type": "RP",
		"updated": "CEW*VORTAC*300.81/23.57",
	},
	{
		"name": "MARFE",
		"latitude": "34-0-39.15 N",
		"longitude": "78-59-10.25 W",
		"state": "SOUTH CAROLINA",
		"artcc": "ZJX",
		"type": "RNAV",
		"updated": "09/21/2011",
	},
	{
		"name": "MARQO",
		"latitude": "30-30-53.57 N",
		"longitude": "82-32-45.62 W",
		"state": "FLORIDA",
		"artcc": "ZJX",
		"type": "RNAV",
		"updated": "08/26/2013",
	},
	{
		"name": "MARVI",
		"latitude": "28-38-21.83 N",
		"longitude": "82-15-23.32 W",
		"state": "FLORIDA",
		"artcc": "ZJX",
		"type": "RP",
		"updated": "ORL*VORTAC*277.00",
	},
	{
		"name": "MARYB",
		"latitude": "28-35-24.53 N",
		"longitude": "81-12-52.66 W",
		"state": "FLORIDA",
		"artcc": "ZJX",
		"type": "RP",
		"updated": "EXO*LD*072.71/7.34",
	},
	{
		"name": "MARYS",
		"latitude": "30-10-28.63 N",
		"longitude": "87-19-52.4 W",
		"state": "FLORIDA",
		"artcc": "ZJX",
		"type": "MR",
		"updated": "NPA*TACAN*180.00/11.00",
	},
	{
		"name": "MATEO",
		"latitude": "29-46-0.71 N",
		"longitude": "81-27-12.6 W",
		"state": "FLORIDA",
		"artcc": "ZJX",
		"type": "RP",
		"updated": "CRG*VORTAC*178.08/34.36",
	},
	{
		"name": "MATHU",
		"latitude": "33-39-31.55 N",
		"longitude": "80-43-28.22 W",
		"state": "SOUTH CAROLINA",
		"artcc": "ZJX",
		"type": "MR",
		"updated": "SSC*TACAN*216.00/25.00",
	},
	{
		"name": "MATKB",
		"latitude": "31-0-12.55 N",
		"longitude": "84-52-50.26 W",
		"state": "GEORGIA",
		"artcc": "ZJX",
		"type": "CN",
		"updated": "03/19/2003",
	},
	{
		"name": "MATLL",
		"latitude": "30-42-44.9 N",
		"longitude": "81-48-42.84 W",
		"state": "FLORIDA",
		"artcc": "ZJX",
		"type": "RNAV",
		"updated": "08/26/2013",
	},
	{
		"name": "MATTT",
		"latitude": "30-34-45.55 N",
		"longitude": "86-28-50.29 W",
		"state": "FLORIDA",
		"artcc": "ZJX",
		"type": "MR",
		"updated": "DWG*TACAN*019.00/6.40",
	},
	{
		"name": "MAUGA",
		"latitude": "30-19-2.73 N",
		"longitude": "81-52-29.41 W",
		"state": "FLORIDA",
		"artcc": "ZJX",
		"type": "RNAV",
		"updated": "10/08/2014",
	},
	{
		"name": "MAVBL",
		"latitude": "30-8-5.98 N",
		"longitude": "81-41-6.38 W",
		"state": "FLORIDA",
		"artcc": "ZJX",
		"type": "MR",
		"updated": "NIP*TACAN*191.00/6.00",
	},
	{
		"name": "MAVDR",
		"latitude": "32-11-39.89 N",
		"longitude": "82-21-52.84 W",
		"state": "GEORGIA",
		"artcc": "ZJX",
		"type": "CN",
		"updated": "03/20/2003",
	},
	{
		"name": "MAVEE",
		"latitude": "30-42-32.3 N",
		"longitude": "87-2-19.75 W",
		"state": "FLORIDA",
		"artcc": "ZJX",
		"type": "MR",
		"updated": "NSE*TACAN*232.00/1.40",
	},
	{
		"name": "MAVIS",
		"latitude": "32-7-47.01 N",
		"longitude": "81-19-53.5 W",
		"state": "GEORGIA",
		"artcc": "ZJX",
		"type": "RP",
		"updated": "SAV*VORTAC*/6.82",
	},
	{
		"name": "MAVKL",
		"latitude": "30-17-22.37 N",
		"longitude": "87-40-25.49 W",
		"state": "ALABAMA",
		"artcc": "ZJX",
		"type": "CN",
		"updated": "07/02/2003",
	},
	{
		"name": "MAVLL",
		"latitude": "31-47-7.47 N",
		"longitude": "81-38-33.18 W",
		"state": "GEORGIA",
		"artcc": "ZJX",
		"type": "CN",
		"updated": "07/02/2003",
	},
	{
		"name": "MAVNE",
		"latitude": "32-46-29.17 N",
		"longitude": "79-46-29.42 W",
		"state": "SOUTH CAROLINA",
		"artcc": "ZJX",
		"type": "RNAV",
		"updated": "06/02/2011",
	},
	{
		"name": "MAVNK",
		"latitude": "31-4-16.12 N",
		"longitude": "81-25-49.15 W",
		"state": "GEORGIA",
		"artcc": "ZJX",
		"type": "RP",
		"updated": "SSI*VORTAC*037.12/1.47",
	},
	{
		"name": "MAYAR",
		"latitude": "32-14-38.62 N",
		"longitude": "81-32-3.96 W",
		"state": "GEORGIA",
		"artcc": "ZJX",
		"type": "RP",
		"updated": "ALD*VOR*196.00",
	},
	{
		"name": "MAYYO",
		"latitude": "30-28-19.69 N",
		"longitude": "87-20-9.22 W",
		"state": "FLORIDA",
		"artcc": "ZJX",
		"type": "MW",
		"updated": "04/18/2003",
	},
	{
		"name": "MEBLE",
		"latitude": "30-18-48.75 N",
		"longitude": "81-25-6.75 W",
		"state": "FLORIDA",
		"artcc": "ZJX",
		"type": "MR",
		"updated": "NRB*TACAN*183.00/4.50",
	},
	{
		"name": "MEDDY",
		"latitude": "28-6-18.94 N",
		"longitude": "82-38-42.17 W",
		"state": "FLORIDA",
		"artcc": "ZJX",
		"type": "RP",
		"updated": "PIE*VORTAC*009.00/12.00",
	},
	{
		"name": "MEECH",
		"latitude": "32-28-38.05 N",
		"longitude": "80-25-2.32 W",
		"state": "SOUTH CAROLINA",
		"artcc": "ZJX",
		"type": "RNAV",
		"updated": "08/24/2015",
	},
	{
		"name": "MEEKE",
		"latitude": "28-52-5.03 N",
		"longitude": "82-40-57.74 W",
		"state": "FLORIDA",
		"artcc": "ZJX",
		"type": "RNAV",
		"updated": "06/18/2013",
	},
	{
		"name": "MEGEE",
		"latitude": "32-57-53.93 N",
		"longitude": "80-13-2.01 W",
		"state": "SOUTH CAROLINA",
		"artcc": "ZJX",
		"type": "RP",
		"updated": "CHS*VORTAC*300.08/10.00",
	},
	{
		"name": "MEGPE",
		"latitude": "29-31-22.06 N",
		"longitude": "81-25-24.43 W",
		"state": "FLORIDA",
		"artcc": "ZJX",
		"type": "RNAV",
		"updated": "10/01/2014",
	},
	{
		"name": "MEGYO",
		"latitude": "28-59-34.46 N",
		"longitude": "81-57-26.27 W",
		"state": "FLORIDA",
		"artcc": "ZJX",
		"type": "RNAV",
		"updated": "12/05/2007",
	},
	{
		"name": "MEMSE",
		"latitude": "30-18-57.86 N",
		"longitude": "86-16-28 W",
		"state": "FLORIDA",
		"artcc": "ZJX",
		"type": "RNAV",
		"updated": "04/12/2000",
	},
	{
		"name": "MENBE",
		"latitude": "30-28-59.39 N",
		"longitude": "86-41-25.04 W",
		"state": "FLORIDA",
		"artcc": "ZJX",
		"type": "MR",
		"updated": "HRT*TACAN*003.00/3.30",
	},
	{
		"name": "MENGY",
		"latitude": "34-11-44.31 N",
		"longitude": "79-37-25.87 W",
		"state": "SOUTH CAROLINA",
		"artcc": "ZJX",
		"type": "RNAV",
		"updated": "04/01/2009",
	},
	{
		"name": "MERFY",
		"latitude": "29-47-42.51 N",
		"longitude": "81-51-30.58 W",
		"state": "FLORIDA",
		"artcc": "ZJX",
		"type": "MR",
		"updated": "NIP*TACAN*206.00/28.00",
	},
	{
		"name": "MERRA",
		"latitude": "28-13-16.38 N",
		"longitude": "82-32-0.83 W",
		"state": "FLORIDA",
		"artcc": "ZJX",
		"type": "RP",
		"updated": "JRT*LD*006.73/15.62",
	},
	{
		"name": "MERTY",
		"latitude": "30-50-57.62 N",
		"longitude": "87-9-24.45 W",
		"state": "FLORIDA",
		"artcc": "ZJX",
		"type": "MR",
		"updated": "NSE*TACAN*319.00/11.00",
	},
	{
		"name": "METTA",
		"latitude": "32-26-31.58 N",
		"longitude": "78-25-8.03 W",
		"state": "OFFSHORE ATLANTIC",
		"artcc": "ZJX",
		"type": "RP",
		"updated": "CH*NDB*117.17",
	},
	{
		"name": "MEVAE",
		"latitude": "34-25-5.15 N",
		"longitude": "80-22-28.06 W",
		"state": "SOUTH CAROLINA",
		"artcc": "ZJX",
		"type": "RNAV",
		"updated": "04/09/2014",
	},
	{
		"name": "MICKI",
		"latitude": "29-8-7.61 N",
		"longitude": "81-36-28.42 W",
		"state": "FLORIDA",
		"artcc": "ZJX",
		"type": "RP",
		"updated": "OMN*VORTAC*249.00",
	},
	{
		"name": "MICKK",
		"latitude": "33-1-53.33 N",
		"longitude": "80-29-29.18 W",
		"state": "SOUTH CAROLINA",
		"artcc": "ZJX",
		"type": "MR",
		"updated": "NBC*TACAN*024.00/35.00",
	},
	{
		"name": "MIEGE",
		"latitude": "31-0-6.63 N",
		"longitude": "86-58-20.76 W",
		"state": "ALABAMA",
		"artcc": "ZJX",
		"type": "RNAV",
		"updated": "02/01/2010",
	},
	{
		"name": "MIGAE",
		"latitude": "32-0-59.46 N",
		"longitude": "83-44-18.3 W",
		"state": "GEORGIA",
		"artcc": "ZJX",
		"type": "RNAV",
		"updated": "03/22/2017",
	},
	{
		"name": "MIGBE",
		"latitude": "30-19-15.93 N",
		"longitude": "81-42-16.46 W",
		"state": "FLORIDA",
		"artcc": "ZJX",
		"type": "RNAV",
		"updated": "07/11/2017",
	},
	{
		"name": "MIKBE",
		"latitude": "29-1-10.72 N",
		"longitude": "80-59-55.07 W",
		"state": "FLORIDA",
		"artcc": "ZJX",
		"type": "RP",
		"updated": "OMN*VORTAC*160.53/18.00",
	},
	{
		"name": "MILEN",
		"latitude": "32-54-2.88 N",
		"longitude": "81-36-33.99 W",
		"state": "GEORGIA",
		"artcc": "ZJX",
		"type": "RP",
		"updated": "ALD*VOR*248.42",
	},
	{
		"name": "MILIE",
		"latitude": "31-19-43.04 N",
		"longitude": "81-10-25.39 W",
		"state": "GEORGIA",
		"artcc": "ZJX",
		"type": "RP",
		"updated": "CRG*VORTAC*019.25/61.74",
	},
	{
		"name": "MILOE",
		"latitude": "32-17-27.99 N",
		"longitude": "77-56-39.92 W",
		"state": "OFFSHORE ATLANTIC",
		"artcc": "ZJX",
		"type": "RP",
		"updated": "CH*NDB*115.03",
	},
	{
		"name": "MILVE",
		"latitude": "30-27-51.9 N",
		"longitude": "87-14-1.23 W",
		"state": "FLORIDA",
		"artcc": "ZJX",
		"type": "RNAV",
		"updated": "06/20/2012",
	},
	{
		"name": "MILYR",
		"latitude": "28-26-17.56 N",
		"longitude": "82-14-5.3 W",
		"state": "FLORIDA",
		"artcc": "ZJX",
		"type": "RNAV",
		"updated": "02/23/2012",
	},
	{
		"name": "MINCO",
		"latitude": "28-30-39.98 N",
		"longitude": "81-17-48.02 W",
		"state": "FLORIDA",
		"artcc": "ZJX",
		"type": "RP",
		"updated": "DIZ*LD*005.47/6.33",
	},
	{
		"name": "MINIC",
		"latitude": "30-17-34.18 N",
		"longitude": "87-20-1.77 W",
		"state": "FLORIDA",
		"artcc": "ZJX",
		"type": "MW",
		"updated": "07/19/2009",
	},
	{
		"name": "MIRPE",
		"latitude": "32-7-50.31 N",
		"longitude": "81-27-15.5 W",
		"state": "GEORGIA",
		"artcc": "ZJX",
		"type": "RP",
		"updated": "SAV*VORTAC*/13.03",
	},
	{
		"name": "MIZLU",
		"latitude": "32-1-4.13 N",
		"longitude": "81-11-57.28 W",
		"state": "GEORGIA",
		"artcc": "ZJX",
		"type": "RP",
		"updated": "SVN*VOR/DME*278.75",
	},
	{
		"name": "MKENA",
		"latitude": "32-51-10.24 N",
		"longitude": "79-55-28 W",
		"state": "SOUTH CAROLINA",
		"artcc": "ZJX",
		"type": "RNAV",
		"updated": "06/13/2012",
	},
	{
		"name": "MKNZI",
		"latitude": "32-40-54.48 N",
		"longitude": "79-20-40.38 W",
		"state": "OFFSHORE ATLANTIC",
		"artcc": "ZJX",
		"type": "RNAV",
		"updated": "06/30/2011",
	},
	{
		"name": "MLLET",
		"latitude": "34-45-30.94 N",
		"longitude": "80-10-51.76 W",
		"state": "SOUTH CAROLINA",
		"artcc": "ZJX",
		"type": "RNAV",
		"updated": "05/13/2016",
	},
	{
		"name": "MLTRE",
		"latitude": "33-20-9.06 N",
		"longitude": "80-15-19.24 W",
		"state": "SOUTH CAROLINA",
		"artcc": "ZJX",
		"type": "RNAV",
		"updated": "06/30/2011",
	},
	{
		"name": "MNARD",
		"latitude": "31-48-38.45 N",
		"longitude": "81-58-17.71 W",
		"state": "GEORGIA",
		"artcc": "ZJX",
		"type": "RP",
		"updated": "AMG*VORTAC*059.00/32.00",
	},
	{
		"name": "MODAE",
		"latitude": "32-15-2.2 N",
		"longitude": "81-2-40.38 W",
		"state": "SOUTH CAROLINA",
		"artcc": "ZJX",
		"type": "RNAV",
		"updated": "08/26/2010",
	},
	{
		"name": "MODIN",
		"latitude": "28-50-41.03 N",
		"longitude": "81-40-42.56 W",
		"state": "FLORIDA",
		"artcc": "ZJX",
		"type": "RNAV",
		"updated": "08/10/2012",
	},
	{
		"name": "MOFEB",
		"latitude": "31-8-43.01 N",
		"longitude": "86-51-32.05 W",
		"state": "ALABAMA",
		"artcc": "ZJX",
		"type": "RNAV",
		"updated": "02/01/2010",
	},
	{
		"name": "MOGPE",
		"latitude": "30-16-38.73 N",
		"longitude": "84-34-22.15 W",
		"state": "FLORIDA",
		"artcc": "ZJX",
		"type": "RNAV",
		"updated": "05/19/2015",
	},
	{
		"name": "MOJAV",
		"latitude": "30-37-4.23 N",
		"longitude": "86-28-54.05 W",
		"state": "FLORIDA",
		"artcc": "ZJX",
		"type": "MR",
		"updated": "DWG*TACAN*/8.60",
	},
	{
		"name": "MOKKA",
		"latitude": "34-17-39.24 N",
		"longitude": "78-47-8.61 W",
		"state": "NORTH CAROLINA",
		"artcc": "ZJX",
		"type": "RP",
		"updated": "FLO*VORTAC*087.91/43.49",
	},
	{
		"name": "MOLIE",
		"latitude": "28-1-55.53 N",
		"longitude": "82-18-25.55 W",
		"state": "FLORIDA",
		"artcc": "ZJX",
		"type": "RNAV",
		"updated": "07/11/2008",
	},
	{
		"name": "MOMIE",
		"latitude": "28-39-36.48 N",
		"longitude": "82-52-13.33 W",
		"state": "FLORIDA",
		"artcc": "ZJX",
		"type": "RNAV",
		"updated": "11/11/2010",
	},
	{
		"name": "MONEL",
		"latitude": "30-53-12.73 N",
		"longitude": "84-42-53.43 W",
		"state": "GEORGIA",
		"artcc": "ZJX",
		"type": "RP",
		"updated": "MAI*VORTAC*074.00/22.00",
	},
	{
		"name": "MONET",
		"latitude": "33-54-58.38 N",
		"longitude": "81-45-9.68 W",
		"state": "SOUTH CAROLINA",
		"artcc": "ZJX",
		"type": "RP",
		"updated": "GRD*VORTAC*136.00/28.35",
	},
	{
		"name": "MONIA",
		"latitude": "30-28-49 N",
		"longitude": "82-2-53.44 W",
		"state": "GEORGIA",
		"artcc": "ZJX",
		"type": "RP",
		"updated": "CRG*VORTAC*290.00/29.18",
	},
	{
		"name": "MONJO",
		"latitude": "30-20-29.06 N",
		"longitude": "86-21-6.59 W",
		"state": "FLORIDA",
		"artcc": "ZJX",
		"type": "MR",
		"updated": "DWG*TACAN*133.00/12.00",
	},
	{
		"name": "MOPPR",
		"latitude": "33-35-12.84 N",
		"longitude": "80-0-14.94 W",
		"state": "SOUTH CAROLINA",
		"artcc": "ZJX",
		"type": "RNAV",
		"updated": "05/13/2016",
	},
	{
		"name": "MORRL",
		"latitude": "33-56-0.35 N",
		"longitude": "80-49-8.21 W",
		"state": "SOUTH CAROLINA",
		"artcc": "ZJX",
		"type": "MR",
		"updated": "MMT*VORTAC*312.00/1.00",
	},
	{
		"name": "MOSEL",
		"latitude": "30-10-31.6 N",
		"longitude": "81-32-59.72 W",
		"state": "FLORIDA",
		"artcc": "ZJX",
		"type": "RP",
		"updated": "CRG*VORTAC*195.00/10.00",
	},
	{
		"name": "MRALD",
		"latitude": "30-55-5.46 N",
		"longitude": "83-44-2 W",
		"state": "GEORGIA",
		"artcc": "ZJX",
		"type": "MR",
		"updated": "VAD*TACAN*268.00/28.00",
	},
	{
		"name": "MRCEE",
		"latitude": "30-14-44.93 N",
		"longitude": "86-35-49.46 W",
		"state": "FLORIDA",
		"artcc": "ZJX",
		"type": "MR",
		"updated": "CEW*VORTAC*170.00/35.00",
	},
	{
		"name": "MRISS",
		"latitude": "33-1-9.1 N",
		"longitude": "80-4-20.57 W",
		"state": "SOUTH CAROLINA",
		"artcc": "ZJX",
		"type": "RNAV",
		"updated": "07/05/2011",
	},
	{
		"name": "MRITA",
		"latitude": "30-24-57.71 N",
		"longitude": "87-23-37.09 W",
		"state": "ALABAMA",
		"artcc": "ZJX",
		"type": "RNAV",
		"updated": "03/27/2011",
	},
	{
		"name": "MSHEL",
		"latitude": "28-35-13.52 N",
		"longitude": "81-13-21.78 W",
		"state": "FLORIDA",
		"artcc": "ZJX",
		"type": "RP",
		"updated": "ORL*VORTAC*065.87/6.50",
	},
	{
		"name": "MSSTY",
		"latitude": "30-30-0 N",
		"longitude": "86-25-0 W",
		"state": "FLORIDA",
		"artcc": "ZJX",
		"type": "RNAV",
		"updated": "12/15/2016",
	},
	{
		"name": "MTANG",
		"latitude": "31-51-21 N",
		"longitude": "83-30-33 W",
		"state": "GEORGIA",
		"artcc": "ZJX",
		"type": "RNAV",
		"updated": "08/22/2017",
	},
	{
		"name": "MTATA",
		"latitude": "29-58-29.3 N",
		"longitude": "82-27-17.3 W",
		"state": "FLORIDA",
		"artcc": "ZJX",
		"type": "RNAV",
		"updated": "10/24/2007",
	},
	{
		"name": "MUCIK",
		"latitude": "30-47-27.71 N",
		"longitude": "87-7-44.54 W",
		"state": "FLORIDA",
		"artcc": "ZJX",
		"type": "MR",
		"updated": "NSE*TACAN*307.00/7.00",
	},
	{
		"name": "MUCRO",
		"latitude": "28-17-33.63 N",
		"longitude": "82-32-51.37 W",
		"state": "FLORIDA",
		"artcc": "ZJX",
		"type": "RNAV",
		"updated": "05/19/2009",
	},
	{
		"name": "MUDVE",
		"latitude": "30-18-6.14 N",
		"longitude": "81-28-13.86 W",
		"state": "FLORIDA",
		"artcc": "ZJX",
		"type": "RNAV",
		"updated": "01/25/2013",
	},
	{
		"name": "MUGSE",
		"latitude": "33-17-3.52 N",
		"longitude": "79-55-41.26 W",
		"state": "SOUTH CAROLINA",
		"artcc": "ZJX",
		"type": "RP",
		"updated": "CHS*VORTAC*018.29/24.00",
	},
	{
		"name": "MUKOE",
		"latitude": "30-31-31.49 N",
		"longitude": "81-18-44.62 W",
		"state": "FLORIDA",
		"artcc": "ZJX",
		"type": "MR",
		"updated": "NRB*TACAN*041.00/10.00",
	},
	{
		"name": "MULET",
		"latitude": "30-34-34.66 N",
		"longitude": "82-21-26.67 W",
		"state": "GEORGIA",
		"artcc": "ZJX",
		"type": "RP",
		"updated": "TAY*VORTAC*070.00/11.00",
	},
	{
		"name": "MULKE",
		"latitude": "28-47-35.83 N",
		"longitude": "81-46-3.67 W",
		"state": "FLORIDA",
		"artcc": "ZJX",
		"type": "RNAV",
		"updated": "11/03/2011",
	},
	{
		"name": "MULLR",
		"latitude": "29-11-22.39 N",
		"longitude": "81-2-9.01 W",
		"state": "FLORIDA",
		"artcc": "ZJX",
		"type": "RP",
		"updated": "OMN*VORTAC*149.32",
	},
	{
		"name": "MULLS",
		"latitude": "34-16-43.61 N",
		"longitude": "79-0-53.44 W",
		"state": "NORTH CAROLINA",
		"artcc": "ZJX",
		"type": "RP",
		"updated": "FLO*VORTAC*087.91/32.06",
	},
	{
		"name": "MUMMA",
		"latitude": "30-52-22.98 N",
		"longitude": "86-31-57.21 W",
		"state": "FLORIDA",
		"artcc": "ZJX",
		"type": "MW",
		"updated": "05/20/2013",
	},
	{
		"name": "MUNEE",
		"latitude": "31-28-2.47 N",
		"longitude": "85-37-17.99 W",
		"state": "ALABAMA",
		"artcc": "ZJX",
		"type": "RNAV",
		"updated": "06/20/2012",
	},
	{
		"name": "MUPAE",
		"latitude": "33-51-29.32 N",
		"longitude": "78-39-58.29 W",
		"state": "SOUTH CAROLINA",
		"artcc": "ZJX",
		"type": "RNAV",
		"updated": "08/09/2010",
	},
	{
		"name": "MUQTU",
		"latitude": "33-50-47.1 N",
		"longitude": "78-40-50.88 W",
		"state": "SOUTH CAROLINA",
		"artcc": "ZJX",
		"type": "RP",
		"updated": "CRE*LD*054.08/3.64",
	},
	{
		"name": "MURAY",
		"latitude": "32-52-23.48 N",
		"longitude": "80-11-11.22 W",
		"state": "SOUTH CAROLINA",
		"artcc": "ZJX",
		"type": "RNAV",
		"updated": "07/05/2011",
	},
	{
		"name": "MUTCY",
		"latitude": "32-46-22.5 N",
		"longitude": "80-48-31.69 W",
		"state": "SOUTH CAROLINA",
		"artcc": "ZJX",
		"type": "RNAV",
		"updated": "07/11/2013",
	},
	{
		"name": "MUVTE",
		"latitude": "30-5-36.77 N",
		"longitude": "81-44-3.1 W",
		"state": "FLORIDA",
		"artcc": "ZJX",
		"type": "MR",
		"updated": "NIP*TACAN*206.00/9.00",
	},
	{
		"name": "MUZAK",
		"latitude": "32-13-47.94 N",
		"longitude": "80-42-34.02 W",
		"state": "SOUTH CAROLINA",
		"artcc": "ZJX",
		"type": "RNAV",
		"updated": "08/24/2015",
	},
	{
		"name": "MUZLR",
		"latitude": "31-5-0.76 N",
		"longitude": "82-48-28.87 W",
		"state": "GEORGIA",
		"artcc": "ZJX",
		"type": "RP",
		"updated": "AYS*VORTAC*229.39",
	},
	{
		"name": "MYERS",
		"latitude": "33-1-41.46 N",
		"longitude": "80-4-2.96 W",
		"state": "SOUTH CAROLINA",
		"artcc": "ZJX",
		"type": "RNAV",
		"updated": "10/28/2013",
	},
	{
		"name": "MYMMS",
		"latitude": "29-25-20.8 N",
		"longitude": "86-47-59.83 W",
		"state": "FLORIDA",
		"artcc": "ZJX",
		"type": "MR",
		"updated": "03/11/1986",
	},
	{
		"name": "MYRAA",
		"latitude": "32-57-11.83 N",
		"longitude": "80-4-30.02 W",
		"state": "SOUTH CAROLINA",
		"artcc": "ZJX",
		"type": "RP",
		"updated": "CHS*VORTAC*337.00/4.00",
	},
