	{
		"name": "OAKIE",
		"latitude": "28-51-4.26 N",
		"longitude": "80-55-52.35 W",
		"state": "FLORIDA",
		"artcc": "ZJX",
		"type": "RP",
		"updated": "OMN*VORTAC*160.53/28.69",
	},
	{
		"name": "OALDY",
		"latitude": "31-6-23.54 N",
		"longitude": "85-10-12.51 W",
		"state": "ALABAMA",
		"artcc": "ZJX",
		"type": "RP",
		"updated": "RRS*VORTAC*126.36/17.15",
	},
	{
		"name": "OBESE",
		"latitude": "28-33-46.4 N",
		"longitude": "83-21-1.97 W",
		"state": "OFFSHORE GULF",
		"artcc": "ZJX",
		"type": "RNAV",
		"updated": "07/01/2008",
	},
	{
		"name": "OBICE",
		"latitude": "32-6-59.49 N",
		"longitude": "81-11-57.16 W",
		"state": "GEORGIA",
		"artcc": "ZJX",
		"type": "RP",
		"updated": "SAV*VORTAC*186.16/1.78",
	},
	{
		"name": "OBJOH",
		"latitude": "29-43-45.43 N",
		"longitude": "82-2-7.31 W",
		"state": "FLORIDA",
		"artcc": "ZJX",
		"type": "RNAV",
		"updated": "05/31/2005",
	},
	{
		"name": "OBUFY",
		"latitude": "30-16-34.51 N",
		"longitude": "87-8-8.28 W",
		"state": "FLORIDA",
		"artcc": "ZJX",
		"type": "RNAV",
		"updated": "06/20/2012",
	},
	{
		"name": "OBUSE",
		"latitude": "29-59-13.86 N",
		"longitude": "85-30-53.4 W",
		"state": "FLORIDA",
		"artcc": "ZJX",
		"type": "MR",
		"updated": "PAM*TACAN*154.00/6.00",
	},
	{
		"name": "OCADA",
		"latitude": "31-26-24.36 N",
		"longitude": "81-40-46.68 W",
		"state": "GEORGIA",
		"artcc": "ZJX",
		"type": "RNAV",
		"updated": "09/15/2009",
	},
	{
		"name": "OCAGI",
		"latitude": "34-1-12.15 N",
		"longitude": "79-28-5.56 W",
		"state": "SOUTH CAROLINA",
		"artcc": "ZJX",
		"type": "RNAV",
		"updated": "07/19/2007",
	},
	{
		"name": "OCAPE",
		"latitude": "30-53-50.62 N",
		"longitude": "84-25-15.84 W",
		"state": "GEORGIA",
		"artcc": "ZJX",
		"type": "RNAV",
		"updated": "07/08/2011",
	},
	{
		"name": "OCNNR",
		"latitude": "31-34-44.54 N",
		"longitude": "85-26-34.67 W",
		"state": "ALABAMA",
		"artcc": "ZJX",
		"type": "RNAV",
		"updated": "07/25/2016",
	},
	{
		"name": "OCNOP",
		"latitude": "30-51-43.99 N",
		"longitude": "81-17-20.62 W",
		"state": "GEORGIA",
		"artcc": "ZJX",
		"type": "RP",
		"updated": "CRG*VORTAC*023.00/33.35",
	},
	{
		"name": "OCPOV",
		"latitude": "32-11-35.42 N",
		"longitude": "81-58-20.22 W",
		"state": "GEORGIA",
		"artcc": "ZJX",
		"type": "RNAV",
		"updated": "09/10/2009",
	},
	{
		"name": "OCXIB",
		"latitude": "28-23-30.37 N",
		"longitude": "81-37-13.4 W",
		"state": "FLORIDA",
		"artcc": "ZJX",
		"type": "RNAV",
		"updated": "02/09/2018",
	},
	{
		"name": "ODACA",
		"latitude": "30-19-24.28 N",
		"longitude": "87-24-30.26 W",
		"state": "FLORIDA",
		"artcc": "ZJX",
		"type": "MR",
		"updated": "NPA*TACAN*245.00/5.20",
	},
	{
		"name": "ODAXE",
		"latitude": "29-41-26.05 N",
		"longitude": "81-32-41.88 W",
		"state": "FLORIDA",
		"artcc": "ZJX",
		"type": "RNAV",
		"updated": "11/02/2017",
	},
	{
		"name": "ODAZO",
		"latitude": "30-57-52.47 N",
		"longitude": "87-16-8.54 W",
		"state": "FLORIDA",
		"artcc": "ZJX",
		"type": "RNAV",
		"updated": "02/01/2010",
	},
	{
		"name": "ODEVE",
		"latitude": "30-47-57.93 N",
		"longitude": "83-29-11.44 W",
		"state": "GEORGIA",
		"artcc": "ZJX",
		"type": "RNAV",
		"updated": "06/27/2013",
	},
	{
		"name": "ODOMS",
		"latitude": "31-36-0 N",
		"longitude": "84-7-31.33 W",
		"state": "GEORGIA",
		"artcc": "ZJX",
		"type": "RP",
		"updated": "PZD*VOR/DME*113.00",
	},
	{
		"name": "ODREC",
		"latitude": "29-54-17.03 N",
		"longitude": "81-15-10.15 W",
		"state": "FLORIDA",
		"artcc": "ZJX",
		"type": "RNAV",
		"updated": "01/23/2018",
	},
	{
		"name": "ODUCO",
		"latitude": "33-45-26.81 N",
		"longitude": "81-14-18.83 W",
		"state": "SOUTH CAROLINA",
		"artcc": "ZJX",
		"type": "RNAV",
		"updated": "11/07/2011",
	},
	{
		"name": "ODUGY",
		"latitude": "29-39-52.73 N",
		"longitude": "84-57-27.35 W",
		"state": "FLORIDA",
		"artcc": "ZJX",
		"type": "RNAV",
		"updated": "04/12/2012",
	},
	{
		"name": "OFEVY",
		"latitude": "30-17-24.36 N",
		"longitude": "87-46-17.6 W",
		"state": "ALABAMA",
		"artcc": "ZJX",
		"type": "RNAV",
		"updated": "03/27/2011",
	},
	{
		"name": "OFKOR",
		"latitude": "28-23-8.56 N",
		"longitude": "82-29-46.43 W",
		"state": "FLORIDA",
		"artcc": "ZJX",
		"type": "RNAV",
		"updated": "05/19/2009",
	},
	{
		"name": "OGBEE",
		"latitude": "31-3-36.62 N",
		"longitude": "83-11-58.36 W",
		"state": "GEORGIA",
		"artcc": "ZJX",
		"type": "MR",
		"updated": "VAD*TACAN*360.00/6.00",
	},
	{
		"name": "OGGER",
		"latitude": "28-4-43.19 N",
		"longitude": "83-1-7.67 W",
		"state": "FLORIDA",
		"artcc": "ZJX",
		"type": "RNAV",
		"updated": "07/15/2008",
	},
	{
		"name": "OGITE",
		"latitude": "31-8-17.36 N",
		"longitude": "86-6-11.51 W",
		"state": "ALABAMA",
		"artcc": "ZJX",
		"type": "RNAV",
		"updated": "09/01/2009",
	},
	{
		"name": "OGKIP",
		"latitude": "29-52-55.86 N",
		"longitude": "83-35-16.57 W",
		"state": "FLORIDA",
		"artcc": "ZJX",
		"type": "RNAV",
		"updated": "08/08/2010",
	},
	{
		"name": "OHDEA",
		"latitude": "30-59-13.34 N",
		"longitude": "82-14-8.53 W",
		"state": "GEORGIA",
		"artcc": "ZJX",
		"type": "RP",
		"updated": "CRG*VORTAC*319.12/54.00",
	},
	{
		"name": "OHLAA",
		"latitude": "30-24-52.75 N",
		"longitude": "78-5-53.77 W",
		"state": "OFFSHORE ATLANTIC",
		"artcc": "ZJX",
		"type": "RNAV",
		"updated": "08/29/2005",
	},
	{
		"name": "OHLEE",
		"latitude": "30-16-6.04 N",
		"longitude": "82-6-32.53 W",
		"state": "FLORIDA",
		"artcc": "ZJX",
		"type": "RNAV",
		"updated": "04/19/2006",
	},
	{
		"name": "OJHAP",
		"latitude": "30-47-37.64 N",
		"longitude": "85-8-14.38 W",
		"state": "FLORIDA",
		"artcc": "ZJX",
		"type": "CN",
		"updated": "12/04/2014",
	},
	{
		"name": "OJJEK",
		"latitude": "30-9-56 N",
		"longitude": "81-52-24.57 W",
		"state": "FLORIDA",
		"artcc": "ZJX",
		"type": "RNAV",
		"updated": "10/08/2014",
	},
	{
		"name": "OJOFY",
		"latitude": "28-59-56.31 N",
		"longitude": "82-20-38.87 W",
		"state": "FLORIDA",
		"artcc": "ZJX",
		"type": "RNAV",
		"updated": "06/18/2013",
	},
	{
		"name": "OJUCA",
		"latitude": "29-59-57.58 N",
		"longitude": "81-46-24.7 W",
		"state": "FLORIDA",
		"artcc": "ZJX",
		"type": "MR",
		"updated": "NIP*TACAN*206.00/15.00",
	},
	{
		"name": "OKBAE",
		"latitude": "32-0-36.4 N",
		"longitude": "83-58-42.95 W",
		"state": "GEORGIA",
		"artcc": "ZJX",
		"type": "RNAV",
		"updated": "08/25/2017",
	},
	{
		"name": "OKBIE",
		"latitude": "29-30-11.82 N",
		"longitude": "82-57-9.74 W",
		"state": "FLORIDA",
		"artcc": "ZJX",
		"type": "RNAV",
		"updated": "10/11/2010",
	},
	{
		"name": "OKNEE",
		"latitude": "34-15-39.92 N",
		"longitude": "79-10-40.68 W",
		"state": "SOUTH CAROLINA",
		"artcc": "ZJX",
		"type": "RNAV",
		"updated": "05/13/2016",
	},
	{
		"name": "OKVOE",
		"latitude": "30-58-9.06 N",
		"longitude": "87-26-47.62 W",
		"state": "FLORIDA",
		"artcc": "ZJX",
		"type": "RNAV",
		"updated": "12/08/2017",
	},
	{
		"name": "OLAWE",
		"latitude": "34-11-53.23 N",
		"longitude": "80-13-15.54 W",
		"state": "SOUTH CAROLINA",
		"artcc": "ZJX",
		"type": "RNAV",
		"updated": "07/12/2017",
	},
	{
		"name": "OLDEN",
		"latitude": "32-0-11.52 N",
		"longitude": "81-4-58.71 W",
		"state": "GEORGIA",
		"artcc": "ZJX",
		"type": "MR",
		"updated": "SVN*VOR/DME*102.00/3.00",
	},
	{
		"name": "OLDEY",
		"latitude": "32-15-44.21 N",
		"longitude": "77-51-13.81 W",
		"state": "SOUTH CAROLINA",
		"artcc": "ZJX",
		"type": "RP",
		"updated": "CH*NDB*115.00",
	},
	{
		"name": "OLDUE",
		"latitude": "30-19-51.12 N",
		"longitude": "87-23-12.58 W",
		"state": "FLORIDA",
		"artcc": "ZJX",
		"type": "MR",
		"updated": "NPA*TACAN*245.00/4.00",
	},
	{
		"name": "OLEEE",
		"latitude": "30-58-23.86 N",
		"longitude": "84-31-29.91 W",
		"state": "GEORGIA",
		"artcc": "ZJX",
		"type": "RP",
		"updated": "LYZ*NDB*003.71",
	},
	{
		"name": "OLEKE",
		"latitude": "30-37-9.49 N",
		"longitude": "81-33-48.96 W",
		"state": "FLORIDA",
		"artcc": "ZJX",
		"type": "RNAV",
		"updated": "08/26/2013",
	},
	{
		"name": "OLENE",
		"latitude": "28-44-23.26 N",
		"longitude": "82-15-28.85 W",
		"state": "FLORIDA",
		"artcc": "ZJX",
		"type": "RP",
		"updated": "ORL*VORTAC*283.83",
	},
	{
		"name": "OLHUP",
		"latitude": "31-18-51.91 N",
		"longitude": "83-0-15.4 W",
		"state": "GEORGIA",
		"artcc": "ZJX",
		"type": "RNAV",
		"updated": "07/10/2011",
	},
	{
		"name": "OLISS",
		"latitude": "30-29-5.55 N",
		"longitude": "85-39-29.87 W",
		"state": "FLORIDA",
		"artcc": "ZJX",
		"type": "RP",
		"updated": "MAI*VORTAC*237.00/33.00",
	},
	{
		"name": "OLJAF",
		"latitude": "29-59-2.48 N",
		"longitude": "83-35-10.99 W",
		"state": "FLORIDA",
		"artcc": "ZJX",
		"type": "RNAV",
		"updated": "08/08/2010",
	},
	{
		"name": "OLMAF",
		"latitude": "31-24-41.71 N",
		"longitude": "81-58-39.3 W",
		"state": "GEORGIA",
		"artcc": "ZJX",
		"type": "RNAV",
		"updated": "10/23/2011",
	},
	{
		"name": "OLNAF",
		"latitude": "28-46-53.49 N",
		"longitude": "81-20-29.78 W",
		"state": "FLORIDA",
		"artcc": "ZJX",
		"type": "RP",
		"updated": "ORL*VORTAC*358.61",
	},
	{
		"name": "OLUGY",
		"latitude": "30-23-34.25 N",
		"longitude": "84-8-40.4 W",
		"state": "FLORIDA",
		"artcc": "ZJX",
		"type": "RP",
		"updated": "SZW*VORTAC*127.37/15.40",
	},
	{
		"name": "OMAFY",
		"latitude": "31-0-31.31 N",
		"longitude": "81-59-13.55 W",
		"state": "GEORGIA",
		"artcc": "ZJX",
		"type": "RNAV",
		"updated": "10/23/2011",
	},
	{
		"name": "OMFOV",
		"latitude": "31-18-9.45 N",
		"longitude": "85-25-44.45 W",
		"state": "ALABAMA",
		"artcc": "ZJX",
		"type": "RNAV",
		"updated": "04/10/2001",
	},
	{
		"name": "OMOLY",
		"latitude": "33-0-7.22 N",
		"longitude": "80-21-47.9 W",
		"state": "SOUTH CAROLINA",
		"artcc": "ZJX",
		"type": "RNAV",
		"updated": "11/29/2017",
	},
	{
		"name": "ONBEW",
		"latitude": "28-46-12.18 N",
		"longitude": "81-7-28.05 W",
		"state": "FLORIDA",
		"artcc": "ZJX",
		"type": "RNAV",
		"updated": "08/06/2012",
	},
	{
		"name": "ONBIE",
		"latitude": "30-20-44.44 N",
		"longitude": "87-20-38 W",
		"state": "FLORIDA",
		"artcc": "ZJX",
		"type": "MR",
		"updated": "NPA*TACAN*241.70/1.60",
	},
	{
		"name": "ONBOE",
		"latitude": "29-49-8.85 N",
		"longitude": "84-50-33.75 W",
		"state": "FLORIDA",
		"artcc": "ZJX",
		"type": "RNAV",
		"updated": "07/16/2007",
	},
	{
		"name": "ONNER",
		"latitude": "28-39-3.09 N",
		"longitude": "81-19-45.05 W",
		"state": "FLORIDA",
		"artcc": "ZJX",
		"type": "RP",
		"updated": "TFE*LD*005.45/14.31",
	},
	{
		"name": "ONOBE",
		"latitude": "33-51-43.18 N",
		"longitude": "79-5-50.08 W",
		"state": "SOUTH CAROLINA",
		"artcc": "ZJX",
		"type": "RNAV",
		"updated": "09/21/2011",
	},
	{
		"name": "ONVAE",
		"latitude": "33-39-24.72 N",
		"longitude": "79-41-35.99 W",
		"state": "SOUTH CAROLINA",
		"artcc": "ZJX",
		"type": "RNAV",
		"updated": "02/02/2007",
	},
	{
		"name": "ONYUJ",
		"latitude": "30-26-4.8 N",
		"longitude": "81-35-56.59 W",
		"state": "FLORIDA",
		"artcc": "ZJX",
		"type": "RNAV",
		"updated": "09/10/2013",
	},
	{
		"name": "OODEE",
		"latitude": "30-27-1.52 N",
		"longitude": "86-41-25.04 W",
		"state": "FLORIDA",
		"artcc": "ZJX",
		"type": "MR",
		"updated": "HRT*TACAN*003.00/1.34",
	},
	{
		"name": "OOLAY",
		"latitude": "30-56-6.4 N",
		"longitude": "84-44-5.94 W",
		"state": "GEORGIA",
		"artcc": "ZJX",
		"type": "RP",
		"updated": "MAI*VORTAC*066.00/22.00",
	},
	{
		"name": "OOLLA",
		"latitude": "29-42-34.37 N",
		"longitude": "83-36-11.42 W",
		"state": "FLORIDA",
		"artcc": "ZJX",
		"type": "RNAV",
		"updated": "11/11/2010",
	},
	{
		"name": "OOSAF",
		"latitude": "28-4-5.11 N",
		"longitude": "82-36-38.27 W",
		"state": "FLORIDA",
		"artcc": "ZJX",
		"type": "RNAV",
		"updated": "02/15/2010",
	},
	{
		"name": "OPCOF",
		"latitude": "30-33-2.72 N",
		"longitude": "86-59-47.37 W",
		"state": "FLORIDA",
		"artcc": "ZJX",
		"type": "RNAV",
		"updated": "08/08/2010",
	},
	{
		"name": "OPCOL",
		"latitude": "29-41-36.31 N",
		"longitude": "82-23-21.23 W",
		"state": "FLORIDA",
		"artcc": "ZJX",
		"type": "RP",
		"updated": "GNV*VORTAC*274.76/6.08",
	},
	{
		"name": "OPELE",
		"latitude": "34-20-58.72 N",
		"longitude": "79-38-59.06 W",
		"state": "SOUTH CAROLINA",
		"artcc": "ZJX",
		"type": "CN",
		"updated": "11/29/2000",
	},
	{
		"name": "OPELY",
		"latitude": "34-10-40.81 N",
		"longitude": "79-31-58.63 W",
		"state": "SOUTH CAROLINA",
		"artcc": "ZJX",
		"type": "CN",
		"updated": "11/29/2000",
	},
	{
		"name": "OPEME",
		"latitude": "32-2-51.57 N",
		"longitude": "81-8-53 W",
		"state": "GEORGIA",
		"artcc": "ZJX",
		"type": "CN",
		"updated": "05/02/2001",
	},
	{
		"name": "OPETY",
		"latitude": "32-16-32.6 N",
		"longitude": "81-8-11.12 W",
		"state": "SOUTH CAROLINA",
		"artcc": "ZJX",
		"type": "CN",
		"updated": "11/29/2000",
	},
	{
		"name": "OPICU",
		"latitude": "34-49-58.4 N",
		"longitude": "79-58-7.57 W",
		"state": "NORTH CAROLINA",
		"artcc": "ZJX",
		"type": "RNAV",
		"updated": "06/18/2008",
	},
	{
		"name": "OPMAY",
		"latitude": "33-44-25.36 N",
		"longitude": "78-57-23.09 W",
		"state": "SOUTH CAROLINA",
		"artcc": "ZJX",
		"type": "RNAV",
		"updated": "08/09/2010",
	},
	{
		"name": "OPPEY",
		"latitude": "30-10-17.37 N",
		"longitude": "82-28-24.34 W",
		"state": "FLORIDA",
		"artcc": "ZJX",
		"type": "RNAV",
		"updated": "06/12/2008",
	},
	{
		"name": "OPPTO",
		"latitude": "31-16-5.81 N",
		"longitude": "86-10-51.81 W",
		"state": "ALABAMA",
		"artcc": "ZJX",
		"type": "RP",
		"updated": "OZR*VOR/DME*273.02/23.38",
	},
	{
		"name": "OPVUE",
		"latitude": "31-20-14.07 N",
		"longitude": "84-7-17.09 W",
		"state": "GEORGIA",
		"artcc": "ZJX",
		"type": "RNAV",
		"updated": "12/11/2006",
	},
	{
		"name": "ORATE",
		"latitude": "29-20-25.53 N",
		"longitude": "82-52-48.84 W",
		"state": "FLORIDA",
		"artcc": "ZJX",
		"type": "RP",
		"updated": "CTY*VORTAC*152.27/17.82",
	},
	{
		"name": "ORAXE",
		"latitude": "30-17-25.54 N",
		"longitude": "87-33-55.09 W",
		"state": "ALABAMA",
		"artcc": "ZJX",
		"type": "RP",
		"updated": "NUN*VOR*226.64",
	},
	{
		"name": "ORDON",
		"latitude": "30-27-22.15 N",
		"longitude": "81-35-9.93 W",
		"state": "FLORIDA",
		"artcc": "ZJX",
		"type": "RNAV",
		"updated": "02/29/2012",
	},
	{
		"name": "OREHO",
		"latitude": "30-9-31.85 N",
		"longitude": "82-21-25.27 W",
		"state": "FLORIDA",
		"artcc": "ZJX",
		"type": "RNAV",
		"updated": "07/08/2008",
	},
	{
		"name": "ORSOF",
		"latitude": "30-8-21.46 N",
		"longitude": "81-27-27.53 W",
		"state": "FLORIDA",
		"artcc": "ZJX",
		"type": "RNAV",
		"updated": "01/30/2009",
	},
	{
		"name": "ORTAR",
		"latitude": "30-36-41.33 N",
		"longitude": "81-51-44.32 W",
		"state": "FLORIDA",
		"artcc": "ZJX",
		"type": "RP",
		"updated": "CRG*VORTAC*314.86/24.50",
	},
	{
		"name": "ORTIZ",
		"latitude": "30-36-42.47 N",
		"longitude": "86-41-25.04 W",
		"state": "FLORIDA",
		"artcc": "ZJX",
		"type": "MR",
		"updated": "HRT*TACAN*003.00/11.00",
	},
	{
		"name": "ORTUJ",
		"latitude": "29-42-48.65 N",
		"longitude": "82-2-10.93 W",
		"state": "FLORIDA",
		"artcc": "ZJX",
		"type": "RNAV",
		"updated": "06/18/2007",
	},
	{
		"name": "ORVAE",
		"latitude": "30-20-41.14 N",
		"longitude": "81-28-52.41 W",
		"state": "FLORIDA",
		"artcc": "ZJX",
		"type": "MR",
		"updated": "NRB*TACAN*235.00/4.00",
	},
	{
		"name": "OSANE",
		"latitude": "32-7-38.82 N",
		"longitude": "81-5-1.38 W",
		"state": "SOUTH CAROLINA",
		"artcc": "ZJX",
		"type": "RNAV",
		"updated": "08/25/2010",
	},
	{
		"name": "OSBAJ",
		"latitude": "30-37-11.93 N",
		"longitude": "81-52-25.85 W",
		"state": "FLORIDA",
		"artcc": "ZJX",
		"type": "RNAV",
		"updated": "11/03/2011",
	},
	{
		"name": "OSCAR",
		"latitude": "30-23-40.95 N",
		"longitude": "86-31-15.12 W",
		"state": "FLORIDA",
		"artcc": "ZJX",
		"type": "MR",
		"updated": "DWG*TACAN*180.00/5.00",
	},
	{
		"name": "OSGOE",
		"latitude": "29-39-7.79 N",
		"longitude": "82-21-7.54 W",
		"state": "FLORIDA",
		"artcc": "ZJX",
		"type": "RNAV",
		"updated": "10/22/2014",
	},
	{
		"name": "OSIYO",
		"latitude": "33-20-46.35 N",
		"longitude": "79-17-16.06 W",
		"state": "SOUTH CAROLINA",
		"artcc": "ZJX",
		"type": "RNAV",
		"updated": "06/18/2008",
	},
	{
		"name": "OSPRI",
		"latitude": "33-8-10.88 N",
		"longitude": "80-23-18.42 W",
		"state": "SOUTH CAROLINA",
		"artcc": "ZJX",
		"type": "RNAV",
		"updated": "06/03/2011",
	},
	{
		"name": "OSTAF",
		"latitude": "30-12-58.55 N",
		"longitude": "81-47-40.87 W",
		"state": "FLORIDA",
		"artcc": "ZJX",
		"type": "RNAV",
		"updated": "10/08/2014",
	},
	{
		"name": "OSUVE",
		"latitude": "31-12-25.57 N",
		"longitude": "84-16-18.16 W",
		"state": "GEORGIA",
		"artcc": "ZJX",
		"type": "RNAV",
		"updated": "03/04/2013",
	},
	{
		"name": "OTCEN",
		"latitude": "34-0-10.81 N",
		"longitude": "78-37-47.9 W",
		"state": "NORTH CAROLINA",
		"artcc": "ZJX",
		"type": "RNAV",
		"updated": "08/16/2010",
	},
	{
		"name": "OTERE",
		"latitude": "32-26-29.92 N",
		"longitude": "80-22-23.39 W",
		"state": "SOUTH CAROLINA",
		"artcc": "ZJX",
		"type": "RNAV",
		"updated": "06/08/2010",
	},
	{
		"name": "OTGAE",
		"latitude": "30-16-50.65 N",
		"longitude": "83-0-15.34 W",
		"state": "FLORIDA",
		"artcc": "ZJX",
		"type": "RNAV",
		"updated": "10/22/2014",
	},
	{
		"name": "OTITE",
		"latitude": "30-16-14.9 N",
		"longitude": "82-46-19.93 W",
		"state": "FLORIDA",
		"artcc": "ZJX",
		"type": "RNAV",
		"updated": "10/13/2015",
	},
	{
		"name": "OTNOW",
		"latitude": "33-51-29.93 N",
		"longitude": "81-12-25.45 W",
		"state": "SOUTH CAROLINA",
		"artcc": "ZJX",
		"type": "RNAV",
		"updated": "07/14/2009",
	},
	{
		"name": "OTTOE",
		"latitude": "30-33-24.86 N",
		"longitude": "85-52-55.77 W",
		"state": "FLORIDA",
		"artcc": "ZJX",
		"type": "RP",
		"updated": "PUK*LD*342.34/13.70",
	},
	{
		"name": "OTUDY",
		"latitude": "30-22-48.76 N",
		"longitude": "87-53-32.34 W",
		"state": "ALABAMA",
		"artcc": "ZJX",
		"type": "RNAV",
		"updated": "03/16/2011",
	},
	{
		"name": "OTUVE",
		"latitude": "32-11-7.68 N",
		"longitude": "82-50-8.6 W",
		"state": "GEORGIA",
		"artcc": "ZJX",
		"type": "RNAV",
		"updated": "06/21/2010",
	},
	{
		"name": "OTVIE",
		"latitude": "34-43-49.97 N",
		"longitude": "79-53-52.3 W",
		"state": "SOUTH CAROLINA",
		"artcc": "ZJX",
		"type": "RNAV",
		"updated": "09/12/2013",
	},
	{
		"name": "OTVOE",
		"latitude": "33-26-34.13 N",
		"longitude": "79-11-9.99 W",
		"state": "SOUTH CAROLINA",
		"artcc": "ZJX",
		"type": "RNAV",
		"updated": "08/07/2014",
	},
	{
		"name": "OVERS",
		"latitude": "33-31-13.59 N",
		"longitude": "79-37-22.84 W",
		"state": "SOUTH CAROLINA",
		"artcc": "ZJX",
		"type": "RP",
		"updated": "VAN*VORTAC*092.00",
	},
	{
		"name": "OVERT",
		"latitude": "34-18-17.81 N",
		"longitude": "79-44-17.04 W",
		"state": "SOUTH CAROLINA",
		"artcc": "ZJX",
		"type": "RP",
		"updated": "FLO*VORTAC*320.00/5.90",
	},
	{
		"name": "OVIDE",
		"latitude": "30-5-40.66 N",
		"longitude": "87-31-14.27 W",
		"state": "FLORIDA",
		"artcc": "ZJX",
		"type": "MR",
		"updated": "NPA*TACAN*213.00/19.00",
	},
	{
		"name": "OVIDO",
		"latitude": "28-41-5.45 N",
		"longitude": "81-8-58 W",
		"state": "FLORIDA",
		"artcc": "ZJX",
		"type": "RP",
		"updated": "OMN*VORTAC*183.00/37.06",
	},
	{
		"name": "OVIPY",
		"latitude": "29-40-30.71 N",
		"longitude": "82-30-38.41 W",
		"state": "FLORIDA",
		"artcc": "ZJX",
		"type": "RNAV",
		"updated": "06/18/2007",
	},
	{
		"name": "OVNAF",
		"latitude": "31-34-19.68 N",
		"longitude": "82-36-30.36 W",
		"state": "GEORGIA",
		"artcc": "ZJX",
		"type": "RNAV",
		"updated": "02/15/2018",
	},
	{
		"name": "OWAGO",
		"latitude": "28-28-32.06 N",
		"longitude": "82-34-6.82 W",
		"state": "FLORIDA",
		"artcc": "ZJX",
		"type": "RNAV",
		"updated": "05/19/2009",
	},
	{
		"name": "OWENS",
		"latitude": "32-48-9.62 N",
		"longitude": "80-47-27.08 W",
		"state": "SOUTH CAROLINA",
		"artcc": "ZJX",
		"type": "RP",
		"updated": "SAV*VORTAC*033.69/44.43",
	},
	{
		"name": "OWNEE",
		"latitude": "30-54-18.07 N",
		"longitude": "86-41-42.28 W",
		"state": "FLORIDA",
		"artcc": "ZJX",
		"type": "MW",
		"updated": "05/20/2013",
	},
	{
		"name": "OXAGE",
		"latitude": "28-57-50.26 N",
		"longitude": "81-28-0.96 W",
		"state": "FLORIDA",
		"artcc": "ZJX",
		"type": "RNAV",
		"updated": "08/10/2012",
	},
	{
		"name": "OXAXE",
		"latitude": "33-44-59.22 N",
		"longitude": "81-28-38.74 W",
		"state": "SOUTH CAROLINA",
		"artcc": "ZJX",
		"type": "RNAV",
		"updated": "01/03/2012",
	},
	{
		"name": "OXBIP",
		"latitude": "34-14-42.63 N",
		"longitude": "79-59-19.39 W",
		"state": "SOUTH CAROLINA",
		"artcc": "ZJX",
		"type": "RNAV",
		"updated": "04/01/2009",
	},
	{
		"name": "OXBOW",
		"latitude": "31-25-57.63 N",
		"longitude": "85-39-43.71 W",
		"state": "ALABAMA",
		"artcc": "ZJX",
		"type": "MR",
		"updated": "RRS*VORTAC*304.86",
	},
	{
		"name": "OYOLO",
		"latitude": "29-5-31.3 N",
		"longitude": "81-31-36.51 W",
		"state": "FLORIDA",
		"artcc": "ZJX",
		"type": "RNAV",
		"updated": "11/01/2013",
	},
	{
		"name": "OYOSA",
		"latitude": "32-0-33.44 N",
		"longitude": "81-7-24.24 W",
		"state": "GEORGIA",
		"artcc": "ZJX",
		"type": "MR",
		"updated": "SVN*VOR/DME*102.00/0.91",
	},
	{
		"name": "OYSTE",
		"latitude": "29-32-6.42 N",
		"longitude": "84-59-56.71 W",
		"state": "FLORIDA",
		"artcc": "ZJX",
		"type": "MR",
		"updated": "PAM*TACAN*141.00/44.00",
	},
	{
		"name": "OZCOK",
		"latitude": "31-28-53.92 N",
		"longitude": "84-10-35.73 W",
		"state": "GEORGIA",
		"artcc": "ZJX",
		"type": "RNAV",
		"updated": "02/26/2013",
	},
	{
		"name": "OZENA",
		"latitude": "30-25-9.98 N",
		"longitude": "78-20-54.03 W",
		"state": "OFFSHORE ATLANTIC",
		"artcc": "ZJX",
		"type": "RP",
		"updated": "05/10/2000",
	},
	{
		"name": "OZGUB",
		"latitude": "28-25-4.68 N",
		"longitude": "82-15-56.06 W",
		"state": "FLORIDA",
		"artcc": "ZJX",
		"type": "RNAV",
		"updated": "12/10/2010",
	},
	{
		"name": "OZICO",
		"latitude": "30-19-1.79 N",
		"longitude": "81-40-30.09 W",
		"state": "FLORIDA",
		"artcc": "ZJX",
		"type": "RNAV",
		"updated": "10/08/2014",
	},
	{
		"name": "OZIME",
		"latitude": "28-33-35.96 N",
		"longitude": "82-14-2.18 W",
		"state": "FLORIDA",
		"artcc": "ZJX",
		"type": "RNAV",
		"updated": "05/20/2009",
	},
	{
		"name": "OZMOP",
		"latitude": "30-15-20.6 N",
		"longitude": "83-34-56.06 W",
		"state": "FLORIDA",
		"artcc": "ZJX",
		"type": "RNAV",
		"updated": "08/08/2010",
	},
	{
		"name": "OZONA",
		"latitude": "27-58-54.04 N",
		"longitude": "82-21-26.01 W",
		"state": "FLORIDA",
		"artcc": "ZJX",
		"type": "MR",
		"updated": "MCF*TACAN*053.00/11.00",
	},
