	{
		"name": "PAANE",
		"latitude": "33-30-5.28 N",
		"longitude": "81-43-48 W",
		"state": "SOUTH CAROLINA",
		"artcc": "ZJX",
		"type": "RP",
		"updated": "CAE*VORTAC*240.00/40.00",
	},
	{
		"name": "PAAPY",
		"latitude": "32-31-56.54 N",
		"longitude": "80-39-54.29 W",
		"state": "SOUTH CAROLINA",
		"artcc": "ZJX",
		"type": "RNAV",
		"updated": "12/28/2017",
	},
	{
		"name": "PABBI",
		"latitude": "28-23-34.38 N",
		"longitude": "82-14-1.11 W",
		"state": "FLORIDA",
		"artcc": "ZJX",
		"type": "RNAV",
		"updated": "05/26/2009",
	},
	{
		"name": "PACCA",
		"latitude": "28-31-4 N",
		"longitude": "81-25-27 W",
		"state": "FLORIDA",
		"artcc": "ZJX",
		"type": "RNAV",
		"updated": "10/24/2007",
	},
	{
		"name": "PADEE",
		"latitude": "32-12-5.4 N",
		"longitude": "80-42-36.33 W",
		"state": "SOUTH CAROLINA",
		"artcc": "ZJX",
		"type": "RNAV",
		"updated": "06/16/2008",
	},
	{
		"name": "PAILS",
		"latitude": "34-5-46.66 N",
		"longitude": "79-43-38.31 W",
		"state": "SOUTH CAROLINA",
		"artcc": "ZJX",
		"type": "RNAV",
		"updated": "04/01/2009",
	},
	{
		"name": "PAJTO",
		"latitude": "31-38-28.52 N",
		"longitude": "82-42-51.23 W",
		"state": "GEORGIA",
		"artcc": "ZJX",
		"type": "RNAV",
		"updated": "07/10/2011",
	},
	{
		"name": "PAKIC",
		"latitude": "32-57-2.11 N",
		"longitude": "80-0-36.75 W",
		"state": "SOUTH CAROLINA",
		"artcc": "ZJX",
		"type": "RNAV",
		"updated": "06/13/2012",
	},
	{
		"name": "PALEE",
		"latitude": "30-23-29.25 N",
		"longitude": "84-14-8.65 W",
		"state": "FLORIDA",
		"artcc": "ZJX",
		"type": "RP",
		"updated": "SZW*VORTAC*141.84",
	},
	{
		"name": "PALLI",
		"latitude": "33-13-13.94 N",
		"longitude": "79-56-31.88 W",
		"state": "SOUTH CAROLINA",
		"artcc": "ZJX",
		"type": "RNAV",
		"updated": "07/05/2011",
	},
	{
		"name": "PALSY",
		"latitude": "30-29-17.03 N",
		"longitude": "81-33-31.93 W",
		"state": "FLORIDA",
		"artcc": "ZJX",
		"type": "RNAV",
		"updated": "08/26/2013",
	},
	{
		"name": "PAMHI",
		"latitude": "28-8-44.47 N",
		"longitude": "82-12-35.86 W",
		"state": "FLORIDA",
		"artcc": "ZJX",
		"type": "WP",
		"updated": "11/02/1998",
	},
	{
		"name": "PAMJE",
		"latitude": "33-3-2.39 N",
		"longitude": "80-18-24.55 W",
		"state": "SOUTH CAROLINA",
		"artcc": "ZJX",
		"type": "RNAV",
		"updated": "07/05/2011",
	},
	{
		"name": "PANAL",
		"latitude": "32-36-32.77 N",
		"longitude": "77-52-32.87 W",
		"state": "OFFSHORE ATLANTIC",
		"artcc": "ZJX",
		"type": "RP",
		"updated": "CH*NDB*105.47",
	},
	{
		"name": "PAOLA",
		"latitude": "28-48-8.9 N",
		"longitude": "81-21-35.76 W",
		"state": "FLORIDA",
		"artcc": "ZJX",
		"type": "RP",
		"updated": "OMN*VORTAC*203.51",
	},
	{
		"name": "PAPPY",
		"latitude": "30-48-38.85 N",
		"longitude": "86-17-53.88 W",
		"state": "FLORIDA",
		"artcc": "ZJX",
		"type": "MR",
		"updated": "DWG*TACAN*030.00/23.00",
	},
	{
		"name": "PAPVE",
		"latitude": "29-41-13.82 N",
		"longitude": "82-15-25.62 W",
		"state": "FLORIDA",
		"artcc": "ZJX",
		"type": "RP",
		"updated": "GNV*VORTAC*113.64/1.00",
	},
	{
		"name": "PARGE",
		"latitude": "31-31-38.32 N",
		"longitude": "84-43-0.6 W",
		"state": "GEORGIA",
		"artcc": "ZJX",
		"type": "RNAV",
		"updated": "02/15/2011",
	},
	{
		"name": "PASIY",
		"latitude": "29-22-9.88 N",
		"longitude": "80-54-0.53 W",
		"state": "FLORIDA",
		"artcc": "ZJX",
		"type": "RNAV",
		"updated": "09/13/2011",
	},
	{
		"name": "PASUE",
		"latitude": "31-3-2.85 N",
		"longitude": "84-52-31.53 W",
		"state": "GEORGIA",
		"artcc": "ZJX",
		"type": "RNAV",
		"updated": "10/24/2011",
	},
	{
		"name": "PAVES",
		"latitude": "31-29-28.11 N",
		"longitude": "82-45-21.4 W",
		"state": "GEORGIA",
		"artcc": "ZJX",
		"type": "RP",
		"updated": "AYS*VORTAC*322.00",
	},
	{
		"name": "PAWNE",
		"latitude": "30-18-18.72 N",
		"longitude": "81-25-4.94 W",
		"state": "FLORIDA",
		"artcc": "ZJX",
		"type": "MR",
		"updated": "NRB*TACAN*183.00/5.00",
	},
	{
		"name": "PAWPA",
		"latitude": "30-21-31.7 N",
		"longitude": "81-36-49.14 W",
		"state": "FLORIDA",
		"artcc": "ZJX",
		"type": "RNAV",
		"updated": "02/28/2012",
	},
	{
		"name": "PEDPE",
		"latitude": "30-29-29.97 N",
		"longitude": "87-5-4.91 W",
		"state": "FLORIDA",
		"artcc": "ZJX",
		"type": "RP",
		"updated": "PHC*LE*E CRS/6.06",
	},
	{
		"name": "PEGIE",
		"latitude": "33-57-45.28 N",
		"longitude": "79-56-29.85 W",
		"state": "SOUTH CAROLINA",
		"artcc": "ZJX",
		"type": "RP",
		"updated": "FLO*VORTAC*224.28/21.52",
	},
	{
		"name": "PELYO",
		"latitude": "29-9-2.39 N",
		"longitude": "80-45-21.01 W",
		"state": "FLORIDA",
		"artcc": "ZJX",
		"type": "RNAV",
		"updated": "12/05/2013",
	},
	{
		"name": "PEMIE",
		"latitude": "28-57-35.98 N",
		"longitude": "81-57-50.04 W",
		"state": "FLORIDA",
		"artcc": "ZJX",
		"type": "RNAV",
		"updated": "10/22/2014",
	},
	{
		"name": "PEMTE",
		"latitude": "36-25-31.51 N",
		"longitude": "75-50-52.44 W",
		"state": "NORTH CAROLINA",
		"artcc": "ZJX",
		"type": "RNAV",
		"updated": "01/17/2018",
	},
	{
		"name": "PENSE",
		"latitude": "30-36-34.39 N",
		"longitude": "81-45-20.01 W",
		"state": "FLORIDA",
		"artcc": "ZJX",
		"type": "RNAV",
		"updated": "08/26/2013",
	},
	{
		"name": "PENSI",
		"latitude": "30-47-35.68 N",
		"longitude": "87-16-25.52 W",
		"state": "FLORIDA",
		"artcc": "ZJX",
		"type": "RP",
		"updated": "NUN*VOR*008.49",
	},
	{
		"name": "PEPCI",
		"latitude": "33-36-21.83 N",
		"longitude": "81-46-46.74 W",
		"state": "SOUTH CAROLINA",
		"artcc": "ZJX",
		"type": "RP",
		"updated": "IRQ*VORTAC*111.47/20.09",
	},
	{
		"name": "PEPIE",
		"latitude": "30-27-0.18 N",
		"longitude": "81-30-27.85 W",
		"state": "FLORIDA",
		"artcc": "ZJX",
		"type": "RNAV",
		"updated": "08/26/2013",
	},
	{
		"name": "PERIE",
		"latitude": "31-13-43.11 N",
		"longitude": "77-47-48.79 W",
		"state": "OFFSHORE ATLANTIC",
		"artcc": "ZJX",
		"type": "RNAV",
		"updated": "11/15/2013",
	},
	{
		"name": "PERNE",
		"latitude": "30-3-18.72 N",
		"longitude": "85-33-35.73 W",
		"state": "FLORIDA",
		"artcc": "ZJX",
		"type": "MR",
		"updated": "PAM*TACAN*154.00/1.30",
	},
	{
		"name": "PERSE",
		"latitude": "29-15-15.97 N",
		"longitude": "82-22-30.86 W",
		"state": "FLORIDA",
		"artcc": "ZJX",
		"type": "RP",
		"updated": "OCF*VORTAC*300.54/9.07",
	},
	{
		"name": "PESIY",
		"latitude": "28-46-54.56 N",
		"longitude": "81-11-53.19 W",
		"state": "FLORIDA",
		"artcc": "ZJX",
		"type": "RP",
		"updated": "FNU*LD*094.90/3.25",
	},
	{
		"name": "PESSI",
		"latitude": "31-10-43.78 N",
		"longitude": "86-13-39.97 W",
		"state": "ALABAMA",
		"artcc": "ZJX",
		"type": "RNAV",
		"updated": "09/11/2006",
	},
	{
		"name": "PETTO",
		"latitude": "33-3-8.02 N",
		"longitude": "81-7-22.47 W",
		"state": "SOUTH CAROLINA",
		"artcc": "ZJX",
		"type": "RNAV",
		"updated": "11/10/2016",
	},
	{
		"name": "PEXUS",
		"latitude": "30-26-32.41 N",
		"longitude": "87-0-0.1 W",
		"state": "FLORIDA",
		"artcc": "ZJX",
		"type": "RNAV",
		"updated": "08/08/2010",
	},
	{
		"name": "PFINN",
		"latitude": "30-12-58.51 N",
		"longitude": "85-40-51.38 W",
		"state": "FLORIDA",
		"artcc": "ZJX",
		"type": "RNAV",
		"updated": "02/12/2018",
	},
	{
		"name": "PFNCC",
		"latitude": "29-20-0 N",
		"longitude": "85-20-0 W",
		"state": "OFFSHORE GULF",
		"artcc": "ZJX",
		"type": "RNAV",
		"updated": "07/02/2013",
	},
	{
		"name": "PFNCD",
		"latitude": "29-0-0 N",
		"longitude": "85-20-0 W",
		"state": "OFFSHORE GULF",
		"artcc": "ZJX",
		"type": "RNAV",
		"updated": "06/23/2013",
	},
	{
		"name": "PFNCE",
		"latitude": "28-40-0 N",
		"longitude": "85-20-0 W",
		"state": "OFFSHORE GULF",
		"artcc": "ZJX",
		"type": "RNAV",
		"updated": "06/23/2013",
	},
	{
		"name": "PFNCF",
		"latitude": "28-20-0 N",
		"longitude": "85-20-0 W",
		"state": "OFFSHORE GULF",
		"artcc": "ZJX",
		"type": "RNAV",
		"updated": "06/23/2013",
	},
	{
		"name": "PFNCG",
		"latitude": "28-0-0 N",
		"longitude": "85-20-0 W",
		"state": "OFFSHORE GULF",
		"artcc": "ZJX",
		"type": "RNAV",
		"updated": "06/23/2013",
	},
	{
		"name": "PFNCH",
		"latitude": "27-40-0 N",
		"longitude": "85-20-0 W",
		"state": "OFFSHORE GULF",
		"artcc": "ZJX",
		"type": "RNAV",
		"updated": "06/23/2013",
	},
	{
		"name": "PFNLB",
		"latitude": "29-40-0 N",
		"longitude": "85-40-0 W",
		"state": "OFFSHORE GULF",
		"artcc": "ZJX",
		"type": "RNAV",
		"updated": "06/23/2013",
	},
	{
		"name": "PFNLC",
		"latitude": "29-20-0 N",
		"longitude": "85-40-0 W",
		"state": "OFFSHORE GULF",
		"artcc": "ZJX",
		"type": "RNAV",
		"updated": "06/23/2013",
	},
	{
		"name": "PFNLD",
		"latitude": "29-0-0 N",
		"longitude": "85-40-0 W",
		"state": "OFFSHORE GULF",
		"artcc": "ZJX",
		"type": "RNAV",
		"updated": "06/23/2013",
	},
	{
		"name": "PFNLE",
		"latitude": "28-40-0 N",
		"longitude": "85-40-0 W",
		"state": "OFFSHORE GULF",
		"artcc": "ZJX",
		"type": "RNAV",
		"updated": "06/23/2013",
	},
	{
		"name": "PFNLF",
		"latitude": "28-20-0 N",
		"longitude": "85-40-0 W",
		"state": "OFFSHORE GULF",
		"artcc": "ZJX",
		"type": "RNAV",
		"updated": "06/23/2013",
	},
	{
		"name": "PFNLG",
		"latitude": "28-0-0 N",
		"longitude": "85-40-0 W",
		"state": "OFFSHORE GULF",
		"artcc": "ZJX",
		"type": "RNAV",
		"updated": "06/23/2013",
	},
	{
		"name": "PFNLH",
		"latitude": "27-40-0 N",
		"longitude": "85-40-0 W",
		"state": "OFFSHORE GULF",
		"artcc": "ZJX",
		"type": "RNAV",
		"updated": "06/23/2013",
	},
	{
		"name": "PFNLI",
		"latitude": "27-20-0 N",
		"longitude": "85-40-0 W",
		"state": "OFFSHORE GULF",
		"artcc": "ZJX",
		"type": "RNAV",
		"updated": "06/23/2013",
	},
	{
		"name": "PFNRC",
		"latitude": "29-20-0 N",
		"longitude": "85-0-0 W",
		"state": "OFFSHORE GULF",
		"artcc": "ZJX",
		"type": "RNAV",
		"updated": "06/23/2013",
	},
	{
		"name": "PFNRD",
		"latitude": "29-0-0 N",
		"longitude": "85-0-0 W",
		"state": "OFFSHORE GULF",
		"artcc": "ZJX",
		"type": "RNAV",
		"updated": "06/23/2013",
	},
	{
		"name": "PFNRE",
		"latitude": "28-40-0 N",
		"longitude": "85-0-0 W",
		"state": "OFFSHORE GULF",
		"artcc": "ZJX",
		"type": "RNAV",
		"updated": "06/23/2013",
	},
	{
		"name": "PFNRF",
		"latitude": "28-20-0 N",
		"longitude": "85-0-0 W",
		"state": "OFFSHORE GULF",
		"artcc": "ZJX",
		"type": "RNAV",
		"updated": "06/23/2013",
	},
	{
		"name": "PFNRG",
		"latitude": "28-0-0 N",
		"longitude": "85-0-0 W",
		"state": "OFFSHORE GULF",
		"artcc": "ZJX",
		"type": "RNAV",
		"updated": "06/23/2013",
	},
	{
		"name": "PHIPS",
		"latitude": "30-16-16.71 N",
		"longitude": "85-56-33.92 W",
		"state": "FLORIDA",
		"artcc": "ZJX",
		"type": "RNAV",
		"updated": "02/12/2018",
	},
	{
		"name": "PIBOC",
		"latitude": "34-34-1.17 N",
		"longitude": "80-8-48.9 W",
		"state": "SOUTH CAROLINA",
		"artcc": "ZJX",
		"type": "RNAV",
		"updated": "01/26/2007",
	},
	{
		"name": "PICOS",
		"latitude": "30-26-59.69 N",
		"longitude": "86-58-3.45 W",
		"state": "FLORIDA",
		"artcc": "ZJX",
		"type": "MR",
		"updated": "NGS*TACAN*188.00/10.00",
	},
	{
		"name": "PIDCI",
		"latitude": "34-28-19.99 N",
		"longitude": "79-51-28.58 W",
		"state": "SOUTH CAROLINA",
		"artcc": "ZJX",
		"type": "RNAV",
		"updated": "06/13/2007",
	},
	{
		"name": "PIGIE",
		"latitude": "30-23-7.14 N",
		"longitude": "87-9-52.72 W",
		"state": "FLORIDA",
		"artcc": "ZJX",
		"type": "RNAV",
		"updated": "06/20/2012",
	},
	{
		"name": "PIGLT",
		"latitude": "28-53-2 N",
		"longitude": "81-55-54 W",
		"state": "FLORIDA",
		"artcc": "ZJX",
		"type": "RNAV",
		"updated": "10/24/2007",
	},
	{
		"name": "PIKAN",
		"latitude": "33-31-2.33 N",
		"longitude": "80-41-24.85 W",
		"state": "SOUTH CAROLINA",
		"artcc": "ZJX",
		"type": "MR",
		"updated": "FLO*VORTAC*233.58/67.09",
	},
	{
		"name": "PIKDE",
		"latitude": "32-53-27.4 N",
		"longitude": "80-2-1.58 W",
		"state": "SOUTH CAROLINA",
		"artcc": "ZJX",
		"type": "RP",
		"updated": "CHS*VORTAC*139.70/0.29",
	},
	{
		"name": "PILAU",
		"latitude": "30-49-49.66 N",
		"longitude": "83-57-0.68 W",
		"state": "GEORGIA",
		"artcc": "ZJX",
		"type": "RNAV",
		"updated": "05/23/2017",
	},
	{
		"name": "PINGE",
		"latitude": "30-20-33.26 N",
		"longitude": "81-40-30.25 W",
		"state": "FLORIDA",
		"artcc": "ZJX",
		"type": "RNAV",
		"updated": "10/22/2014",
	},
	{
		"name": "PINIE",
		"latitude": "33-49-39.23 N",
		"longitude": "80-35-34.25 W",
		"state": "SOUTH CAROLINA",
		"artcc": "ZJX",
		"type": "MR",
		"updated": "SSC*TACAN*223.12/11.00",
	},
	{
		"name": "PIPPY",
		"latitude": "32-54-9.01 N",
		"longitude": "80-14-5.57 W",
		"state": "SOUTH CAROLINA",
		"artcc": "ZJX",
		"type": "RNAV",
		"updated": "06/13/2012",
	},
	{
		"name": "PITRW",
		"latitude": "32-44-13.05 N",
		"longitude": "79-34-23.27 W",
		"state": "SOUTH CAROLINA",
		"artcc": "ZJX",
		"type": "RNAV",
		"updated": "03/06/2018",
	},
	{
		"name": "PITSS",
		"latitude": "32-45-44.18 N",
		"longitude": "80-0-49.44 W",
		"state": "SOUTH CAROLINA",
		"artcc": "ZJX",
		"type": "RP",
		"updated": "CHS*VORTAC*176.24/8.00",
	},
	{
		"name": "PIXEE",
		"latitude": "29-2-46.81 N",
		"longitude": "81-5-43.75 W",
		"state": "FLORIDA",
		"artcc": "ZJX",
		"type": "RNAV",
		"updated": "08/08/2011",
	},
	{
		"name": "PIYIV",
		"latitude": "33-6-24.24 N",
		"longitude": "80-15-28.88 W",
		"state": "SOUTH CAROLINA",
		"artcc": "ZJX",
		"type": "RNAV",
		"updated": "12/05/2008",
	},
	{
		"name": "PLANK",
		"latitude": "30-19-45.2 N",
		"longitude": "81-44-44.96 W",
		"state": "FLORIDA",
		"artcc": "ZJX",
		"type": "RNAV",
		"updated": "08/26/2013",
	},
	{
		"name": "PLANN",
		"latitude": "33-33-30.41 N",
		"longitude": "79-5-38.64 W",
		"state": "SOUTH CAROLINA",
		"artcc": "ZJX",
		"type": "RP",
		"updated": "CRE*VORTAC*233.52/24.01",
	},
	{
		"name": "PLFMD",
		"latitude": "32-58-31.53 N",
		"longitude": "80-53-37.03 W",
		"state": "SOUTH CAROLINA",
		"artcc": "ZJX",
		"type": "RNAV",
		"updated": "07/05/2011",
	},
	{
		"name": "PLMTO",
		"latitude": "33-12-0.44 N",
		"longitude": "79-22-29.38 W",
		"state": "SOUTH CAROLINA",
		"artcc": "ZJX",
		"type": "RNAV",
		"updated": "07/05/2011",
	},
	{
		"name": "PLUMY",
		"latitude": "28-10-15.23 N",
		"longitude": "82-7-49.94 W",
		"state": "FLORIDA",
		"artcc": "ZJX",
		"type": "RP",
		"updated": "PIE*VORTAC*066.70/33.35",
	},
	{
		"name": "PLYER",
		"latitude": "28-56-51.36 N",
		"longitude": "83-20-8.59 W",
		"state": "FLORIDA",
		"artcc": "ZJX",
		"type": "RP",
		"updated": "PIE*VORTAC*336.18/71.13",
	},
	{
		"name": "PLZZZ",
		"latitude": "32-43-50 N",
		"longitude": "81-13-6 W",
		"state": "SOUTH CAROLINA",
		"artcc": "ZJX",
		"type": "RNAV",
		"updated": "01/17/2018",
	},
	{
		"name": "PNMOA",
		"latitude": "31-11-30 N",
		"longitude": "87-19-0 W",
		"state": "ALABAMA",
		"artcc": "ZJX",
		"type": "RNAV",
		"updated": "11/10/2014",
	},
	{
		"name": "PNSCA",
		"latitude": "30-0-0 N",
		"longitude": "87-20-0 W",
		"state": "OFFSHORE GULF",
		"artcc": "ZJX",
		"type": "RNAV",
		"updated": "06/23/2013",
	},
	{
		"name": "PNSCB",
		"latitude": "29-40-0 N",
		"longitude": "87-20-0 W",
		"state": "OFFSHORE GULF",
		"artcc": "ZJX",
		"type": "RNAV",
		"updated": "06/23/2013",
	},
	{
		"name": "PNSCC",
		"latitude": "29-20-0 N",
		"longitude": "87-20-0 W",
		"state": "OFFSHORE GULF",
		"artcc": "ZJX",
		"type": "RNAV",
		"updated": "06/23/2013",
	},
	{
		"name": "PNSCD",
		"latitude": "29-0-0 N",
		"longitude": "87-20-0 W",
		"state": "OFFSHORE GULF",
		"artcc": "ZJX",
		"type": "RNAV",
		"updated": "06/23/2013",
	},
	{
		"name": "PNSCE",
		"latitude": "28-40-0 N",
		"longitude": "87-20-0 W",
		"state": "OFFSHORE GULF",
		"artcc": "ZJX",
		"type": "RNAV",
		"updated": "06/23/2013",
	},
	{
		"name": "PNSCF",
		"latitude": "28-20-0 N",
		"longitude": "87-20-0 W",
		"state": "OFFSHORE GULF",
		"artcc": "ZJX",
		"type": "RNAV",
		"updated": "06/23/2013",
	},
	{
		"name": "PNSCG",
		"latitude": "28-0-0 N",
		"longitude": "87-20-0 W",
		"state": "OFFSHORE GULF",
		"artcc": "ZJX",
		"type": "RNAV",
		"updated": "06/23/2013",
	},
	{
		"name": "PNSCH",
		"latitude": "27-40-0 N",
		"longitude": "87-20-0 W",
		"state": "OFFSHORE GULF",
		"artcc": "ZJX",
		"type": "RNAV",
		"updated": "06/23/2013",
	},
	{
		"name": "PNSLA",
		"latitude": "30-0-0 N",
		"longitude": "87-40-0 W",
		"state": "OFFSHORE GULF",
		"artcc": "ZJX",
		"type": "RNAV",
		"updated": "06/23/2013",
	},
	{
		"name": "PNSLB",
		"latitude": "29-40-0 N",
		"longitude": "87-40-0 W",
		"state": "OFFSHORE GULF",
		"artcc": "ZJX",
		"type": "RNAV",
		"updated": "06/23/2013",
	},
	{
		"name": "PNSLC",
		"latitude": "29-20-0 N",
		"longitude": "87-40-0 W",
		"state": "OFFSHORE GULF",
		"artcc": "ZJX",
		"type": "RNAV",
		"updated": "06/23/2013",
	},
	{
		"name": "PNSLD",
		"latitude": "29-0-0 N",
		"longitude": "87-40-0 W",
		"state": "OFFSHORE GULF",
		"artcc": "ZJX",
		"type": "RNAV",
		"updated": "06/23/2013",
	},
	{
		"name": "PNSLE",
		"latitude": "28-40-0 N",
		"longitude": "87-40-0 W",
		"state": "OFFSHORE GULF",
		"artcc": "ZJX",
		"type": "RNAV",
		"updated": "06/23/2013",
	},
	{
		"name": "PNSLF",
		"latitude": "28-20-0 N",
		"longitude": "87-40-0 W",
		"state": "OFFSHORE GULF",
		"artcc": "ZJX",
		"type": "RNAV",
		"updated": "06/23/2013",
	},
	{
		"name": "PNSLG",
		"latitude": "28-0-0 N",
		"longitude": "87-40-0 W",
		"state": "OFFSHORE GULF",
		"artcc": "ZJX",
		"type": "RNAV",
		"updated": "06/23/2013",
	},
	{
		"name": "PNSLH",
		"latitude": "27-40-0 N",
		"longitude": "87-40-0 W",
		"state": "OFFSHORE GULF",
		"artcc": "ZJX",
		"type": "RNAV",
		"updated": "06/23/2013",
	},
	{
		"name": "PNSRA",
		"latitude": "30-0-0 N",
		"longitude": "87-0-0 W",
		"state": "OFFSHORE GULF",
		"artcc": "ZJX",
		"type": "RNAV",
		"updated": "06/23/2013",
	},
	{
		"name": "PNSRB",
		"latitude": "29-40-0 N",
		"longitude": "87-0-0 W",
		"state": "OFFSHORE GULF",
		"artcc": "ZJX",
		"type": "RNAV",
		"updated": "06/23/2013",
	},
	{
		"name": "PNSRC",
		"latitude": "29-20-0 N",
		"longitude": "87-0-0 W",
		"state": "OFFSHORE GULF",
		"artcc": "ZJX",
		"type": "RNAV",
		"updated": "06/23/2013",
	},
	{
		"name": "PNSRD",
		"latitude": "29-0-0 N",
		"longitude": "87-0-0 W",
		"state": "OFFSHORE GULF",
		"artcc": "ZJX",
		"type": "RNAV",
		"updated": "06/23/2013",
	},
	{
		"name": "PNSRE",
		"latitude": "28-40-0 N",
		"longitude": "87-0-0 W",
		"state": "OFFSHORE GULF",
		"artcc": "ZJX",
		"type": "RNAV",
		"updated": "06/23/2013",
	},
	{
		"name": "PNSRF",
		"latitude": "28-20-0 N",
		"longitude": "87-0-0 W",
		"state": "OFFSHORE GULF",
		"artcc": "ZJX",
		"type": "RNAV",
		"updated": "06/23/2013",
	},
	{
		"name": "PNSRG",
		"latitude": "28-0-0 N",
		"longitude": "87-0-0 W",
		"state": "OFFSHORE GULF",
		"artcc": "ZJX",
		"type": "RNAV",
		"updated": "06/23/2013",
	},
	{
		"name": "PNSRH",
		"latitude": "27-40-0 N",
		"longitude": "87-0-0 W",
		"state": "OFFSHORE GULF",
		"artcc": "ZJX",
		"type": "RNAV",
		"updated": "06/23/2013",
	},
	{
		"name": "PNSRI",
		"latitude": "27-20-0 N",
		"longitude": "87-0-0 W",
		"state": "OFFSHORE GULF",
		"artcc": "ZJX",
		"type": "RNAV",
		"updated": "06/23/2013",
	},
	{
		"name": "POBNE",
		"latitude": "28-57-41.09 N",
		"longitude": "81-13-4.08 W",
		"state": "FLORIDA",
		"artcc": "ZJX",
		"type": "RNAV",
		"updated": "09/09/2010",
	},
	{
		"name": "POEGO",
		"latitude": "30-36-34.16 N",
		"longitude": "83-12-27.36 W",
		"state": "GEORGIA",
		"artcc": "ZJX",
		"type": "MR",
		"updated": "VAD*TACAN*185.00/21.00",
	},
	{
		"name": "POGIE",
		"latitude": "29-46-11.03 N",
		"longitude": "81-38-54.94 W",
		"state": "FLORIDA",
		"artcc": "ZJX",
		"type": "RP",
		"updated": "OMN*VORTAC*315.00/39.58",
	},
	{
		"name": "POKHU",
		"latitude": "28-50-4 N",
		"longitude": "81-39-26.98 W",
		"state": "FLORIDA",
		"artcc": "ZJX",
		"type": "RNAV",
		"updated": "11/01/2013",
	},
	{
		"name": "POLEE",
		"latitude": "28-18-47.1 N",
		"longitude": "82-48-21.04 W",
		"state": "FLORIDA",
		"artcc": "ZJX",
		"type": "RNAV",
		"updated": "07/14/2008",
	},
	{
		"name": "POLVY",
		"latitude": "27-58-32.7 N",
		"longitude": "82-43-27.27 W",
		"state": "FLORIDA",
		"artcc": "ZJX",
		"type": "RNAV",
		"updated": "04/12/2000",
	},
	{
		"name": "POMIE",
		"latitude": "33-57-38.12 N",
		"longitude": "81-5-9.41 W",
		"state": "SOUTH CAROLINA",
		"artcc": "ZJX",
		"type": "RNAV",
		"updated": "07/14/2009",
	},
	{
		"name": "POMSE",
		"latitude": "28-5-16.81 N",
		"longitude": "82-31-29.2 W",
		"state": "FLORIDA",
		"artcc": "ZJX",
		"type": "RNAV",
		"updated": "10/26/2010",
	},
	{
		"name": "POOLR",
		"latitude": "30-40-11.43 N",
		"longitude": "86-31-21.1 W",
		"state": "FLORIDA",
		"artcc": "ZJX",
		"type": "MR",
		"updated": "DWG*TACAN*/11.47",
	},
	{
		"name": "POPER",
		"latitude": "30-58-23.56 N",
		"longitude": "85-30-5.16 W",
		"state": "FLORIDA",
		"artcc": "ZJX",
		"type": "RP",
		"updated": "RRS*VORTAC*189.00/18.99",
	},
	{
		"name": "POPSS",
		"latitude": "30-21-53.65 N",
		"longitude": "87-14-23.5 W",
		"state": "FLORIDA",
		"artcc": "ZJX",
		"type": "MW",
		"updated": "07/19/2009",
	},
	{
		"name": "POPYE",
		"latitude": "28-42-31 N",
		"longitude": "81-11-15 W",
		"state": "FLORIDA",
		"artcc": "ZJX",
		"type": "RNAV",
		"updated": "10/24/2007",
	},
	{
		"name": "PORKE",
		"latitude": "33-35-18.98 N",
		"longitude": "78-54-20.12 W",
		"state": "SOUTH CAROLINA",
		"artcc": "ZJX",
		"type": "RP",
		"updated": "02/20/2018",
	},
	{
		"name": "PORKS",
		"latitude": "32-0-52.25 N",
		"longitude": "81-17-12.78 W",
		"state": "GEORGIA",
		"artcc": "ZJX",
		"type": "MW",
		"updated": "04/16/2009",
	},
	{
		"name": "POROY",
		"latitude": "34-29-12.44 N",
		"longitude": "80-4-39.05 W",
		"state": "SOUTH CAROLINA",
		"artcc": "ZJX",
		"type": "RNAV",
		"updated": "07/13/2017",
	},
	{
		"name": "POTGE",
		"latitude": "30-0-41.55 N",
		"longitude": "81-59-14.12 W",
		"state": "FLORIDA",
		"artcc": "ZJX",
		"type": "RNAV",
		"updated": "10/08/2014",
	},
	{
		"name": "POTME",
		"latitude": "30-21-0.33 N",
		"longitude": "81-30-33.97 W",
		"state": "FLORIDA",
		"artcc": "ZJX",
		"type": "RNAV",
		"updated": "11/03/2011",
	},
	{
		"name": "POTYO",
		"latitude": "31-36-34.42 N",
		"longitude": "83-17-27.98 W",
		"state": "GEORGIA",
		"artcc": "ZJX",
		"type": "RNAV",
		"updated": "07/19/2011",
	},
	{
		"name": "PPLNT",
		"latitude": "28-0-11.06 N",
		"longitude": "82-40-9.57 W",
		"state": "FLORIDA",
		"artcc": "ZJX",
		"type": "RP",
		"updated": "PIE*VORTAC*012.94/5.76",
	},
	{
		"name": "PRKKS",
		"latitude": "29-53-31.23 N",
		"longitude": "81-34-55.91 W",
		"state": "FLORIDA",
		"artcc": "ZJX",
		"type": "RNAV",
		"updated": "10/27/2005",
	},
	{
		"name": "PROSO",
		"latitude": "33-11-15.24 N",
		"longitude": "80-6-32.38 W",
		"state": "SOUTH CAROLINA",
		"artcc": "ZJX",
		"type": "RNAV",
		"updated": "06/08/2010",
	},
	{
		"name": "PSMOA",
		"latitude": "30-35-30 N",
		"longitude": "87-25-30 W",
		"state": "ALABAMA",
		"artcc": "ZJX",
		"type": "RNAV",
		"updated": "11/10/2014",
	},
	{
		"name": "PUGSE",
		"latitude": "34-20-28.48 N",
		"longitude": "80-28-35.47 W",
		"state": "SOUTH CAROLINA",
		"artcc": "ZJX",
		"type": "RNAV",
		"updated": "09/06/2007",
	},
	{
		"name": "PUNQU",
		"latitude": "28-34-33.65 N",
		"longitude": "81-49-22.43 W",
		"state": "FLORIDA",
		"artcc": "ZJX",
		"type": "RNAV",
		"updated": "11/03/2011",
	},
	{
		"name": "PURKR",
		"latitude": "30-30-29.82 N",
		"longitude": "86-30-32.6 W",
		"state": "FLORIDA",
		"artcc": "ZJX",
		"type": "MR",
		"updated": "DWG*TACAN*/1.90",
	},
	{
		"name": "PURVE",
		"latitude": "30-51-32.9 N",
		"longitude": "83-13-1.84 W",
		"state": "GEORGIA",
		"artcc": "ZJX",
		"type": "RNAV",
		"updated": "05/02/2013",
	},
	{
		"name": "PUUFF",
		"latitude": "33-58-14.7 N",
		"longitude": "80-53-7.48 W",
		"state": "SOUTH CAROLINA",
		"artcc": "ZJX",
		"type": "MR",
		"updated": "MMT*VORTAC*312.00/5.00",
	},
	{
		"name": "PUYOG",
		"latitude": "29-32-30.39 N",
		"longitude": "85-1-27.57 W",
		"state": "FLORIDA",
		"artcc": "ZJX",
		"type": "RNAV",
		"updated": "03/23/2009",
	},
	{
		"name": "PUYPO",
		"latitude": "30-19-59.58 N",
		"longitude": "82-55-32.12 W",
		"state": "FLORIDA",
		"artcc": "ZJX",
		"type": "RNAV",
		"updated": "11/01/2013",
	},
	{
		"name": "PYRES",
		"latitude": "33-51-43.85 N",
		"longitude": "81-32-40.96 W",
		"state": "SOUTH CAROLINA",
		"artcc": "ZJX",
		"type": "RNAV",
		"updated": "11/10/2016",
	},
