[
	{
		"name": "QASQO",
		"latitude": "31-3-52.99 N",
		"longitude": "85-54-50.16 W",
		"state": "ALABAMA",
		"artcc": "ZJX",
		"type": "RNAV",
		"updated": "06/12/2014"
	},
	{
		"name": "QAYCA",
		"latitude": "30-23-31.55 N",
		"longitude": "84-15-13.2 W",
		"state": "FLORIDA",
		"artcc": "ZJX",
		"type": "WP",
		"updated": "11/20/2002"
	},
	{
		"name": "QEDLU",
		"latitude": "31-13-44.79 N",
		"longitude": "85-26-43.95 W",
		"state": "ALABAMA",
		"artcc": "ZJX",
		"type": "RNAV",
		"updated": "09/29/2016"
	},
	{
		"name": "QEPGY",
		"latitude": "31-5-53.48 N",
		"longitude": "86-57-58.41 W",
		"state": "ALABAMA",
		"artcc": "ZJX",
		"type": "RNAV",
		"updated": "02/01/2010"
	},
	{
		"name": "QIQGU",
		"latitude": "30-29-21.71 N",
		"longitude": "81-48-23.29 W",
		"state": "FLORIDA",
		"artcc": "ZJX",
		"type": "RNAV",
		"updated": "11/30/2012"
	},
	{
		"name": "QOKXY",
		"latitude": "31-22-42.27 N",
		"longitude": "82-56-51.74 W",
		"state": "GEORGIA",
		"artcc": "ZJX",
		"type": "CN",
		"updated": "07/10/2011"
	},
	{
		"name": "QTPIE",
		"latitude": "31-24-22.27 N",
		"longitude": "85-39-30.67 W",
		"state": "ALABAMA",
		"artcc": "ZJX",
		"type": "RNAV",
		"updated": "12/01/2017"
	},
	{
		"name": "QUBEN",
		"latitude": "29-56-10.64 N",
		"longitude": "81-39-49 W",
		"state": "FLORIDA",
		"artcc": "ZJX",
		"type": "RNAV",
		"updated": "08/26/2013"
	},
	{
		"name": "QUILL",
		"latitude": "30-37-20.92 N",
		"longitude": "84-35-18.08 W",
		"state": "FLORIDA",
		"artcc": "ZJX",
		"type": "RP",
		"updated": "SZW*VORTAC*287.71/11.79"
	}
]
