[
	{
		"name": "RADME",
		"latitude": "31-4-30.78 N",
		"longitude": "85-7-27.82 W",
		"state": "ALABAMA",
		"artcc": "ZJX",
		"type": "RP",
		"updated": "RRS*VORTAC*126.36/20.16"
	},
	{
		"name": "RAGKO",
		"latitude": "30-23-21.65 N",
		"longitude": "84-34-27.42 W",
		"state": "FLORIDA",
		"artcc": "ZJX",
		"type": "RNAV",
		"updated": "05/19/2015"
	},
	{
		"name": "RAMEZ",
		"latitude": "28-32-20 N",
		"longitude": "81-11-15 W",
		"state": "FLORIDA",
		"artcc": "ZJX",
		"type": "RNAV",
		"updated": "10/24/2007"
	},
	{
		"name": "RANDA",
		"latitude": "31-13-38.28 N",
		"longitude": "83-11-15.32 W",
		"state": "GEORGIA",
		"artcc": "ZJX",
		"type": "MR",
		"updated": "VAD*TACAN*004.08/16.00"
	},
	{
		"name": "RANLE",
		"latitude": "30-34-56.11 N",
		"longitude": "86-55-50.37 W",
		"state": "FLORIDA",
		"artcc": "ZJX",
		"type": "MR",
		"updated": "NGS*TACAN*172.00/2.00"
	},
	{
		"name": "RANTE",
		"latitude": "32-55-55.41 N",
		"longitude": "79-52-6.88 W",
		"state": "SOUTH CAROLINA",
		"artcc": "ZJX",
		"type": "RNAV",
		"updated": "07/05/2011"
	},
	{
		"name": "RASLN",
		"latitude": "34-48-23.27 N",
		"longitude": "80-17-14.6 W",
		"state": "SOUTH CAROLINA",
		"artcc": "ZJX",
		"type": "RP",
		"updated": "FLO*VORTAC*320.89/46.44"
	},
	{
		"name": "RATDO",
		"latitude": "32-49-52.82 N",
		"longitude": "79-41-22.4 W",
		"state": "SOUTH CAROLINA",
		"artcc": "ZJX",
		"type": "MR",
		"updated": "CHS*VORTAC*107.00/18.00"
	},
	{
		"name": "RATOY",
		"latitude": "28-49-22.84 N",
		"longitude": "81-17-59.82 W",
		"state": "FLORIDA",
		"artcc": "ZJX",
		"type": "RP",
		"updated": "DIZ*LD*005.47/25.00"
	},
	{
		"name": "RAVZE",
		"latitude": "28-52-36.26 N",
		"longitude": "82-3-8.07 W",
		"state": "FLORIDA",
		"artcc": "ZJX",
		"type": "RNAV",
		"updated": "11/03/2011"
	},
	{
		"name": "RDNEK",
		"latitude": "30-45-23.48 N",
		"longitude": "81-45-12.04 W",
		"state": "FLORIDA",
		"artcc": "ZJX",
		"type": "RP",
		"updated": "VQQ*VOR*015.33"
	},
	{
		"name": "REBBA",
		"latitude": "30-42-34.18 N",
		"longitude": "86-3-7.28 W",
		"state": "FLORIDA",
		"artcc": "ZJX",
		"type": "RP",
		"updated": "CEW*VORTAC*099.00/33.16"
	},
	{
		"name": "REBEC",
		"latitude": "28-33-16.14 N",
		"longitude": "82-17-57.71 W",
		"state": "FLORIDA",
		"artcc": "ZJX",
		"type": "RNAV",
		"updated": "02/27/2012"
	},
	{
		"name": "REBIE",
		"latitude": "33-59-29.91 N",
		"longitude": "80-27-17.77 W",
		"state": "SOUTH CAROLINA",
		"artcc": "ZJX",
		"type": "MR",
		"updated": "SSC*TACAN*042.34/1.00"
	},
	{
		"name": "REBOW",
		"latitude": "32-24-26.46 N",
		"longitude": "80-48-48.48 W",
		"state": "SOUTH CAROLINA",
		"artcc": "ZJX",
		"type": "MR",
		"updated": "NBC*TACAN*233.70/6.50"
	},
	{
		"name": "REBUS",
		"latitude": "32-27-44.11 N",
		"longitude": "81-0-12.32 W",
		"state": "SOUTH CAROLINA",
		"artcc": "ZJX",
		"type": "RP",
		"updated": "SAV*VORTAC*033.69/21.38"
	},
	{
		"name": "RECCE",
		"latitude": "30-28-8.84 N",
		"longitude": "86-30-34.5 W",
		"state": "FLORIDA",
		"artcc": "ZJX",
		"type": "MR",
		"updated": "DWG*TACAN*133.00/0.80"
	},
	{
		"name": "RECHY",
		"latitude": "32-51-57.02 N",
		"longitude": "80-14-28.8 W",
		"state": "SOUTH CAROLINA",
		"artcc": "ZJX",
		"type": "RNAV",
		"updated": "06/13/2012"
	},
	{
		"name": "REDIE",
		"latitude": "30-19-0.04 N",
		"longitude": "82-3-1.26 W",
		"state": "FLORIDA",
		"artcc": "ZJX",
		"type": "RNAV",
		"updated": "02/28/2012"
	},
	{
		"name": "REFOK",
		"latitude": "32-53-30.17 N",
		"longitude": "80-40-22.33 W",
		"state": "SOUTH CAROLINA",
		"artcc": "ZJX",
		"type": "RNAV",
		"updated": "07/11/2013"
	},
	{
		"name": "REFOZ",
		"latitude": "28-47-19.9 N",
		"longitude": "81-31-55.2 W",
		"state": "FLORIDA",
		"artcc": "ZJX",
		"type": "RNAV",
		"updated": "11/03/2011"
	},
	{
		"name": "REGIE",
		"latitude": "34-8-25.9 N",
		"longitude": "80-25-15.84 W",
		"state": "SOUTH CAROLINA",
		"artcc": "ZJX",
		"type": "MR",
		"updated": "SSC*TACAN*015.00/10.00"
	},
	{
		"name": "REGRE",
		"latitude": "31-20-26.27 N",
		"longitude": "81-15-31.25 W",
		"state": "GEORGIA",
		"artcc": "ZJX",
		"type": "RNAV",
		"updated": "09/15/2009"
	},
	{
		"name": "REHOB",
		"latitude": "31-7-42.94 N",
		"longitude": "85-39-45.96 W",
		"state": "ALABAMA",
		"artcc": "ZJX",
		"type": "MR",
		"updated": "OZR*VOR/DME*161.72/9.02"
	},
	{
		"name": "REIDS",
		"latitude": "31-53-54.65 N",
		"longitude": "82-12-51.86 W",
		"state": "GEORGIA",
		"artcc": "ZJX",
		"type": "RP",
		"updated": "AMG*VORTAC*034.66/26.37"
	},
	{
		"name": "REKLE",
		"latitude": "31-38-43.67 N",
		"longitude": "83-16-56.2 W",
		"state": "GEORGIA",
		"artcc": "ZJX",
		"type": "RNAV",
		"updated": "07/19/2011"
	},
	{
		"name": "REMIS",
		"latitude": "27-53-2.59 N",
		"longitude": "85-15-28.39 W",
		"state": "OFFSHORE GULF",
		"artcc": "ZJX",
		"type": "RNAV",
		"updated": "07/11/2016"
	},
	{
		"name": "RENOE",
		"latitude": "30-48-45.49 N",
		"longitude": "84-21-18.96 W",
		"state": "GEORGIA",
		"artcc": "ZJX",
		"type": "RP",
		"updated": "GEF*VORTAC*297.00"
	},
	{
		"name": "RERDE",
		"latitude": "33-58-41.93 N",
		"longitude": "78-48-18.85 W",
		"state": "SOUTH CAROLINA",
		"artcc": "ZJX",
		"type": "RNAV",
		"updated": "08/09/2010"
	},
	{
		"name": "RERME",
		"latitude": "30-52-58.96 N",
		"longitude": "87-35-18.6 W",
		"state": "FLORIDA",
		"artcc": "ZJX",
		"type": "RNAV",
		"updated": "02/07/2007"
	},
	{
		"name": "REVBE",
		"latitude": "31-4-34.56 N",
		"longitude": "87-19-5.41 W",
		"state": "ALABAMA",
		"artcc": "ZJX",
		"type": "RNAV",
		"updated": "02/01/2010"
	},
	{
		"name": "REVVV",
		"latitude": "31-23-32.48 N",
		"longitude": "83-32-22.04 W",
		"state": "GEORGIA",
		"artcc": "ZJX",
		"type": "MR",
		"updated": "OTK*VOR/DME*342.00/39.00"
	},
	{
		"name": "RFIKI",
		"latitude": "28-48-45.48 N",
		"longitude": "81-48-32.76 W",
		"state": "FLORIDA",
		"artcc": "ZJX",
		"type": "RNAV",
		"updated": "10/24/2007"
	},
	{
		"name": "RGOES",
		"latitude": "30-19-33.95 N",
		"longitude": "86-51-50.55 W",
		"state": "FLORIDA",
		"artcc": "ZJX",
		"type": "RNAV",
		"updated": "10/12/2012"
	},
	{
		"name": "RHOME",
		"latitude": "31-2-4.13 N",
		"longitude": "81-25-23.71 W",
		"state": "GEORGIA",
		"artcc": "ZJX",
		"type": "RNAV",
		"updated": "08/25/2009"
	},
	{
		"name": "RICBO",
		"latitude": "31-44-39.74 N",
		"longitude": "81-25-9.54 W",
		"state": "GEORGIA",
		"artcc": "ZJX",
		"type": "RNAV",
		"updated": "07/26/2017"
	},
	{
		"name": "RICKY",
		"latitude": "32-4-15.78 N",
		"longitude": "81-5-38.14 W",
		"state": "GEORGIA",
		"artcc": "ZJX",
		"type": "MR",
		"updated": "SAV*VORTAC*136.01/7.00"
	},
	{
		"name": "RILEY",
		"latitude": "32-42-7.23 N",
		"longitude": "80-14-39.7 W",
		"state": "SOUTH CAROLINA",
		"artcc": "ZJX",
		"type": "RNAV",
		"updated": "06/08/2011"
	},
	{
		"name": "RINCE",
		"latitude": "34-22-11.06 N",
		"longitude": "79-37-4.92 W",
		"state": "SOUTH CAROLINA",
		"artcc": "ZJX",
		"type": "RNAV",
		"updated": "04/01/2009"
	},
	{
		"name": "RINEE",
		"latitude": "29-16-23.11 N",
		"longitude": "80-49-43.94 W",
		"state": "FLORIDA",
		"artcc": "ZJX",
		"type": "RP",
		"updated": "OMN*VORTAC*096.84"
	},
	{
		"name": "RINRE",
		"latitude": "33-45-34.33 N",
		"longitude": "78-47-19.79 W",
		"state": "SOUTH CAROLINA",
		"artcc": "ZJX",
		"type": "RNAV",
		"updated": "08/09/2010"
	},
	{
		"name": "RISRE",
		"latitude": "28-59-57.5 N",
		"longitude": "80-44-19.05 W",
		"state": "FLORIDA",
		"artcc": "ZJX",
		"type": "RNAV",
		"updated": "10/12/2006"
	},
	{
		"name": "RIYSA",
		"latitude": "31-17-27.42 N",
		"longitude": "81-16-31.73 W",
		"state": "GEORGIA",
		"artcc": "ZJX",
		"type": "RNAV",
		"updated": "12/18/2002"
	},
	{
		"name": "RKEMP",
		"latitude": "31-35-17.15 N",
		"longitude": "85-42-24.24 W",
		"state": "ALABAMA",
		"artcc": "ZJX",
		"type": "MW",
		"updated": "09/19/2008"
	},
	{
		"name": "RLENE",
		"latitude": "31-58-23.53 N",
		"longitude": "81-4-56.63 W",
		"state": "GEORGIA",
		"artcc": "ZJX",
		"type": "RNAV",
		"updated": "08/25/2010"
	},
	{
		"name": "RLTID",
		"latitude": "30-39-41.52 N",
		"longitude": "85-55-40.43 W",
		"state": "FLORIDA",
		"artcc": "ZJX",
		"type": "RNAV",
		"updated": "02/25/2010"
	},
	{
		"name": "RNDAH",
		"latitude": "32-41-37.07 N",
		"longitude": "80-7-23.92 W",
		"state": "SOUTH CAROLINA",
		"artcc": "ZJX",
		"type": "RNAV",
		"updated": "07/07/2011"
	},
	{
		"name": "ROADZ",
		"latitude": "30-56-58.1 N",
		"longitude": "83-22-2.83 W",
		"state": "GEORGIA",
		"artcc": "ZJX",
		"type": "MR",
		"updated": "VAD*TACAN*269.00/9.00"
	},
	{
		"name": "ROBBO",
		"latitude": "34-12-2.76 N",
		"longitude": "80-18-46 W",
		"state": "SOUTH CAROLINA",
		"artcc": "ZJX",
		"type": "MR",
		"updated": "CTF*VOR/DME*187.00/27.00"
	},
	{
		"name": "ROCBO",
		"latitude": "31-45-13.77 N",
		"longitude": "81-25-49.38 W",
		"state": "GEORGIA",
		"artcc": "ZJX",
		"type": "MW",
		"updated": "SAV*VORTAC*214.77/29.27"
	},
	{
		"name": "ROCKM",
		"latitude": "31-46-45.87 N",
		"longitude": "83-29-33.31 W",
		"state": "GEORGIA",
		"artcc": "ZJX",
		"type": "RP",
		"updated": "PZD*VOR/DME*081.50"
	},
	{
		"name": "RODEZ",
		"latitude": "34-38-38.23 N",
		"longitude": "80-6-27.19 W",
		"state": "SOUTH CAROLINA",
		"artcc": "ZJX",
		"type": "RP",
		"updated": "FLO*VORTAC*320.89/33.25"
	},
	{
		"name": "ROGSY",
		"latitude": "30-0-44.5 N",
		"longitude": "81-52-19.71 W",
		"state": "FLORIDA",
		"artcc": "ZJX",
		"type": "RNAV",
		"updated": "10/08/2014"
	},
	{
		"name": "ROHLO",
		"latitude": "32-54-1.05 N",
		"longitude": "79-54-49.56 W",
		"state": "SOUTH CAROLINA",
		"artcc": "ZJX",
		"type": "RNAV",
		"updated": "07/05/2011"
	},
	{
		"name": "ROICE",
		"latitude": "30-56-15.26 N",
		"longitude": "86-52-20.52 W",
		"state": "FLORIDA",
		"artcc": "ZJX",
		"type": "RP",
		"updated": "CEW*VORTAC*300.81/12.00"
	},
	{
		"name": "ROKGO",
		"latitude": "30-27-39.65 N",
		"longitude": "87-54-21.1 W",
		"state": "ALABAMA",
		"artcc": "ZJX",
		"type": "RP",
		"updated": "RUJ*LD*139.76/13.90"
	},
	{
		"name": "ROLKE",
		"latitude": "29-12-47.13 N",
		"longitude": "80-57-55.92 W",
		"state": "FLORIDA",
		"artcc": "ZJX",
		"type": "RNAV",
		"updated": "03/27/2007"
	},
	{
		"name": "ROMEK",
		"latitude": "31-11-8.43 N",
		"longitude": "86-40-18.65 W",
		"state": "ALABAMA",
		"artcc": "ZJX",
		"type": "RP",
		"updated": "MVC*VORTAC*110.92/36.63"
	},
	{
		"name": "RONNS",
		"latitude": "30-9-0 N",
		"longitude": "88-1-0 W",
		"state": "FLORIDA",
		"artcc": "ZJX",
		"type": "RP",
		"updated": "06/16/1993"
	},
	{
		"name": "ROOFS",
		"latitude": "32-42-16.54 N",
		"longitude": "80-11-20.74 W",
		"state": "SOUTH CAROLINA",
		"artcc": "ZJX",
		"type": "RP",
		"updated": "ALD*VOR*109.00"
	},
	{
		"name": "RORDY",
		"latitude": "32-48-36.62 N",
		"longitude": "80-8-38.91 W",
		"state": "SOUTH CAROLINA",
		"artcc": "ZJX",
		"type": "RNAV",
		"updated": "06/13/2012"
	},
	{
		"name": "ROTOY",
		"latitude": "31-11-37.88 N",
		"longitude": "86-3-24 W",
		"state": "ALABAMA",
		"artcc": "ZJX",
		"type": "RNAV",
		"updated": "07/17/2009"
	},
	{
		"name": "ROXTI",
		"latitude": "30-53-39.54 N",
		"longitude": "85-0-12.06 W",
		"state": "FLORIDA",
		"artcc": "ZJX",
		"type": "CN",
		"updated": "03/20/2003"
	},
	{
		"name": "ROXXI",
		"latitude": "30-45-25.17 N",
		"longitude": "86-31-15.28 W",
		"state": "FLORIDA",
		"artcc": "ZJX",
		"type": "MW",
		"updated": "05/17/2013"
	},
	{
		"name": "ROYES",
		"latitude": "29-32-26.01 N",
		"longitude": "81-25-52.86 W",
		"state": "FLORIDA",
		"artcc": "ZJX",
		"type": "RP",
		"updated": "CRG*VORTAC*178.08/47.96"
	},
	{
		"name": "ROZAH",
		"latitude": "30-55-8.19 N",
		"longitude": "85-12-22.74 W",
		"state": "FLORIDA",
		"artcc": "ZJX",
		"type": "CN",
		"updated": "03/20/2003"
	},
	{
		"name": "ROZIE",
		"latitude": "29-54-55.95 N",
		"longitude": "87-8-29.87 W",
		"state": "FLORIDA",
		"artcc": "ZJX",
		"type": "MR",
		"updated": "NPA*TACAN*160.00/28.00"
	},
	{
		"name": "ROZKO",
		"latitude": "32-46-21.27 N",
		"longitude": "79-56-30.68 W",
		"state": "SOUTH CAROLINA",
		"artcc": "ZJX",
		"type": "RNAV",
		"updated": "07/05/2011"
	},
	{
		"name": "ROZZI",
		"latitude": "28-18-52.24 N",
		"longitude": "86-42-18.6 W",
		"state": "OFFSHORE GULF",
		"artcc": "ZJX",
		"type": "RNAV",
		"updated": "07/11/2001"
	},
	{
		"name": "RREHM",
		"latitude": "30-55-59.01 N",
		"longitude": "85-35-2.91 W",
		"state": "FLORIDA",
		"artcc": "ZJX",
		"type": "RNAV",
		"updated": "10/28/2011"
	},
	{
		"name": "RSRVE",
		"latitude": "33-12-35.14 N",
		"longitude": "79-40-24.98 W",
		"state": "SOUTH CAROLINA",
		"artcc": "ZJX",
		"type": "RNAV",
		"updated": "06/03/2011"
	},
	{
		"name": "RUBBN",
		"latitude": "30-34-46.64 N",
		"longitude": "86-44-12.26 W",
		"state": "FLORIDA",
		"artcc": "ZJX",
		"type": "MW",
		"updated": "01/29/2010"
	},
	{
		"name": "RUBKY",
		"latitude": "30-44-13.81 N",
		"longitude": "84-57-35.57 W",
		"state": "FLORIDA",
		"artcc": "ZJX",
		"type": "CN",
		"updated": "03/20/2003"
	},
	{
		"name": "RUBYS",
		"latitude": "32-8-43.13 N",
		"longitude": "80-37-49.89 W",
		"state": "SOUTH CAROLINA",
		"artcc": "ZJX",
		"type": "RP",
		"updated": "SAV*VORTAC*095.96"
	},
	{
		"name": "RUCKR",
		"latitude": "31-13-29.48 N",
		"longitude": "85-48-55.62 W",
		"state": "ALABAMA",
		"artcc": "ZJX",
		"type": "RP",
		"updated": "OZR*VOR/DME*/5.29"
	},
	{
		"name": "RUCOD",
		"latitude": "34-15-14.49 N",
		"longitude": "79-16-26.89 W",
		"state": "SOUTH CAROLINA",
		"artcc": "ZJX",
		"type": "RNAV",
		"updated": "08/28/2014"
	},
	{
		"name": "RUDDR",
		"latitude": "30-37-12.76 N",
		"longitude": "86-31-25.44 W",
		"state": "FLORIDA",
		"artcc": "ZJX",
		"type": "MR",
		"updated": "DWG*TACAN*359.00/8.50"
	},
	{
		"name": "RUMEE",
		"latitude": "30-31-6.98 N",
		"longitude": "81-51-53.97 W",
		"state": "FLORIDA",
		"artcc": "ZJX",
		"type": "RNAV",
		"updated": "08/26/2013"
	},
	{
		"name": "RUMTE",
		"latitude": "31-50-43.09 N",
		"longitude": "84-16-51.78 W",
		"state": "GEORGIA",
		"artcc": "ZJX",
		"type": "RNAV",
		"updated": "11/04/2011"
	},
	{
		"name": "RUNBE",
		"latitude": "30-36-19.57 N",
		"longitude": "86-56-35.18 W",
		"state": "FLORIDA",
		"artcc": "ZJX",
		"type": "MR",
		"updated": "CEW*VORTAC*223.00/19.00"
	},
	{
		"name": "RUNNE",
		"latitude": "28-19-27.95 N",
		"longitude": "82-3-51.94 W",
		"state": "FLORIDA",
		"artcc": "ZJX",
		"type": "RNAV",
		"updated": "11/21/2010"
	},
	{
		"name": "RUPQE",
		"latitude": "30-37-3.62 N",
		"longitude": "87-42-2.77 W",
		"state": "ALABAMA",
		"artcc": "ZJX",
		"type": "RNAV",
		"updated": "05/16/2016"
	},
	{
		"name": "RURAE",
		"latitude": "31-4-35.3 N",
		"longitude": "85-57-27.81 W",
		"state": "ALABAMA",
		"artcc": "ZJX",
		"type": "RNAV",
		"updated": "06/12/2014"
	},
	{
		"name": "RUSIF",
		"latitude": "28-19-45.44 N",
		"longitude": "82-37-56.74 W",
		"state": "FLORIDA",
		"artcc": "ZJX",
		"type": "RNAV",
		"updated": "05/26/2009"
	},
	{
		"name": "RUSTC",
		"latitude": "30-30-0 N",
		"longitude": "85-20-0 W",
		"state": "FLORIDA",
		"artcc": "ZJX",
		"type": "RNAV",
		"updated": "12/15/2016"
	},
	{
		"name": "RUTHI",
		"latitude": "30-28-4.79 N",
		"longitude": "86-30-36.4 W",
		"state": "FLORIDA",
		"artcc": "ZJX",
		"type": "MR",
		"updated": "VPS*LD*119.68"
	},
	{
		"name": "RUUBY",
		"latitude": "31-41-10.03 N",
		"longitude": "83-35-22.83 W",
		"state": "GEORGIA",
		"artcc": "ZJX",
		"type": "MR",
		"updated": "VAD*TACAN*338.00/48.00"
	},
	{
		"name": "RUVVO",
		"latitude": "33-29-47.06 N",
		"longitude": "80-49-13.41 W",
		"state": "SOUTH CAROLINA",
		"artcc": "ZJX",
		"type": "RNAV",
		"updated": "04/27/2010"
	},
	{
		"name": "RUXZO",
		"latitude": "28-59-48.43 N",
		"longitude": "81-22-16.05 W",
		"state": "FLORIDA",
		"artcc": "ZJX",
		"type": "RNAV",
		"updated": "04/12/2006"
	},
	{
		"name": "RUYOL",
		"latitude": "32-7-9.06 N",
		"longitude": "81-12-34 W",
		"state": "GEORGIA",
		"artcc": "ZJX",
		"type": "RP",
		"updated": "SAV*VORTAC*204.00/1.71"
	},
	{
		"name": "RYFLE",
		"latitude": "34-29-33.96 N",
		"longitude": "79-38-39.3 W",
		"state": "SOUTH CAROLINA",
		"artcc": "ZJX",
		"type": "RNAV",
		"updated": "05/13/2016"
	}
]
