	{
		"name": "SAATA",
		"latitude": "30-5-4.33 N",
		"longitude": "85-35-39.3 W",
		"state": "FLORIDA",
		"artcc": "ZJX",
		"type": "MR",
		"updated": "PAM*TACAN*303.00/1.30",
	},
	{
		"name": "SACKS",
		"latitude": "33-7-30.38 N",
		"longitude": "80-37-38.66 W",
		"state": "SOUTH CAROLINA",
		"artcc": "ZJX",
		"type": "RP",
		"updated": "CAE*VORTAC*155.87/48.79",
	},
	{
		"name": "SACOQ",
		"latitude": "31-20-19.63 N",
		"longitude": "86-10-18.34 W",
		"state": "ALABAMA",
		"artcc": "ZJX",
		"type": "RNAV",
		"updated": "07/12/2005",
	},
	{
		"name": "SACRO",
		"latitude": "28-44-34.45 N",
		"longitude": "81-17-56.78 W",
		"state": "FLORIDA",
		"artcc": "ZJX",
		"type": "RP",
		"updated": "DIZ*LD*005.47/20.21",
	},
	{
		"name": "SADEY",
		"latitude": "28-53-3.45 N",
		"longitude": "82-10-24.9 W",
		"state": "FLORIDA",
		"artcc": "ZJX",
		"type": "RP",
		"updated": "OCF*VORTAC*171.00/17.76",
	},
	{
		"name": "SAGPE",
		"latitude": "34-26-13.12 N",
		"longitude": "79-53-47.64 W",
		"state": "SOUTH CAROLINA",
		"artcc": "ZJX",
		"type": "RNAV",
		"updated": "06/08/2010",
	},
	{
		"name": "SAIML",
		"latitude": "30-51-44.63 N",
		"longitude": "84-48-54.07 W",
		"state": "GEORGIA",
		"artcc": "ZJX",
		"type": "RP",
		"updated": "MAI*VORTAC*074.00",
	},
	{
		"name": "SAKGO",
		"latitude": "28-11-57.55 N",
		"longitude": "82-27-43.37 W",
		"state": "FLORIDA",
		"artcc": "ZJX",
		"type": "RNAV",
		"updated": "03/26/2011",
	},
	{
		"name": "SAKYA",
		"latitude": "32-22-59.68 N",
		"longitude": "80-17-56.72 W",
		"state": "SOUTH CAROLINA",
		"artcc": "ZJX",
		"type": "MR",
		"updated": "NBC*TACAN*110.00/22.00",
	},
	{
		"name": "SALER",
		"latitude": "31-20-41.96 N",
		"longitude": "84-8-54.58 W",
		"state": "GEORGIA",
		"artcc": "ZJX",
		"type": "RP",
		"updated": "PZD*VOR/DME*160.19/19.99",
	},
	{
		"name": "SALLY",
		"latitude": "33-39-44.25 N",
		"longitude": "81-6-33.45 W",
		"state": "SOUTH CAROLINA",
		"artcc": "ZJX",
		"type": "RP",
		"updated": "CAE*VORTAC*195.38/12.00",
	},
	{
		"name": "SAMMI",
		"latitude": "33-46-43.12 N",
		"longitude": "81-38-40.65 W",
		"state": "SOUTH CAROLINA",
		"artcc": "ZJX",
		"type": "RP",
		"updated": "GRD*VORTAC*138.96",
	},
	{
		"name": "SAMMY",
		"latitude": "30-10-40.99 N",
		"longitude": "86-40-12.61 W",
		"state": "FLORIDA",
		"artcc": "ZJX",
		"type": "MR",
		"updated": "HRT*TACAN*176.00/15.00",
	},
	{
		"name": "SANDA",
		"latitude": "30-7-18.74 N",
		"longitude": "84-5-8.5 W",
		"state": "FLORIDA",
		"artcc": "ZJX",
		"type": "MR",
		"updated": "SZW*VORTAC*148.00/30.00",
	},
	{
		"name": "SARDY",
		"latitude": "33-4-35.62 N",
		"longitude": "81-43-44.23 W",
		"state": "GEORGIA",
		"artcc": "ZJX",
		"type": "RP",
		"updated": "ALD*VOR*281.00",
	},
	{
		"name": "SAUND",
		"latitude": "28-0-12.14 N",
		"longitude": "82-42-16.11 W",
		"state": "FLORIDA",
		"artcc": "ZJX",
		"type": "RNAV",
		"updated": "12/09/2010",
	},
	{
		"name": "SAUSE",
		"latitude": "30-57-9.25 N",
		"longitude": "81-31-12.4 W",
		"state": "GEORGIA",
		"artcc": "ZJX",
		"type": "RNAV",
		"updated": "08/25/2009",
	},
	{
		"name": "SAVAE",
		"latitude": "30-43-16.39 N",
		"longitude": "81-33-46.7 W",
		"state": "GEORGIA",
		"artcc": "ZJX",
		"type": "RNAV",
		"updated": "08/26/2013",
	},
	{
		"name": "SAWES",
		"latitude": "31-50-59.68 N",
		"longitude": "84-50-36.02 W",
		"state": "GEORGIA",
		"artcc": "ZJX",
		"type": "RP",
		"updated": "CSG*VORTAC*168.00",
	},
	{
		"name": "SAWGY",
		"latitude": "30-2-11.92 N",
		"longitude": "81-11-11.16 W",
		"state": "FLORIDA",
		"artcc": "ZJX",
		"type": "RP",
		"updated": "OMN*VORTAC*355.00/44.06",
	},
	{
		"name": "SBRRR",
		"latitude": "31-23-23 N",
		"longitude": "83-23-33 W",
		"state": "GEORGIA",
		"artcc": "ZJX",
		"type": "RNAV",
		"updated": "08/22/2017",
	},
	{
		"name": "SCAMS",
		"latitude": "34-37-21 N",
		"longitude": "80-31-37 W",
		"state": "SOUTH CAROLINA",
		"artcc": "ZJX",
		"type": "RNAV",
		"updated": "11/18/2016",
	},
	{
		"name": "SCARE",
		"latitude": "30-19-55.86 N",
		"longitude": "85-39-38.8 W",
		"state": "FLORIDA",
		"artcc": "ZJX",
		"type": "RNAV",
		"updated": "02/25/2010",
	},
	{
		"name": "SCOCH",
		"latitude": "30-11-27.25 N",
		"longitude": "87-19-11.49 W",
		"state": "FLORIDA",
		"artcc": "ZJX",
		"type": "MR",
		"updated": "NPA*TACAN*180.00/10.00",
	},
	{
		"name": "SCOTE",
		"latitude": "28-23-15.02 N",
		"longitude": "81-40-8.27 W",
		"state": "FLORIDA",
		"artcc": "ZJX",
		"type": "RP",
		"updated": "OCF*VORTAC*148.00",
	},
	{
		"name": "SEATE",
		"latitude": "28-10-50.99 N",
		"longitude": "82-52-50.91 W",
		"state": "FLORIDA",
		"artcc": "ZJX",
		"type": "RNAV",
		"updated": "07/02/2008",
	},
	{
		"name": "SEBAG",
		"latitude": "29-49-4.24 N",
		"longitude": "81-12-34.72 W",
		"state": "FLORIDA",
		"artcc": "ZJX",
		"type": "RP",
		"updated": "OMN*VORTAC*350.67/31.22",
	},
	{
		"name": "SEEDO",
		"latitude": "28-34-3.51 N",
		"longitude": "81-17-1.87 W",
		"state": "FLORIDA",
		"artcc": "ZJX",
		"type": "RP",
		"updated": "ARK*LD*005.48/9.07",
	},
	{
		"name": "SEELO",
		"latitude": "32-1-24.27 N",
		"longitude": "78-15-25.03 W",
		"state": "OFFSHORE ATLANTIC",
		"artcc": "ZJX",
		"type": "RNAV",
		"updated": "08/29/2005",
	},
	{
		"name": "SEELY",
		"latitude": "31-1-41.25 N",
		"longitude": "85-18-59.88 W",
		"state": "ALABAMA",
		"artcc": "ZJX",
		"type": "RNAV",
		"updated": "12/10/2015",
	},
	{
		"name": "SEISE",
		"latitude": "31-31-5.9 N",
		"longitude": "83-34-6.17 W",
		"state": "GEORGIA",
		"artcc": "ZJX",
		"type": "RNAV",
		"updated": "08/16/2017",
	},
	{
		"name": "SELER",
		"latitude": "32-12-39.52 N",
		"longitude": "80-47-3.88 W",
		"state": "SOUTH CAROLINA",
		"artcc": "ZJX",
		"type": "RP",
		"updated": "SAV*VORTAC*085.49/21.47",
	},
	{
		"name": "SELEY",
		"latitude": "29-59-39.49 N",
		"longitude": "85-29-2.84 W",
		"state": "FLORIDA",
		"artcc": "ZJX",
		"type": "MR",
		"updated": "PAM*TACAN*/6.63",
	},
	{
		"name": "SENLE",
		"latitude": "32-46-22.56 N",
		"longitude": "81-0-34.44 W",
		"state": "SOUTH CAROLINA",
		"artcc": "ZJX",
		"type": "MR",
		"updated": "NBC*TACAN*325.00/23.00",
	},
	{
		"name": "SEPIC",
		"latitude": "30-51-56.6 N",
		"longitude": "83-54-57.93 W",
		"state": "GEORGIA",
		"artcc": "ZJX",
		"type": "RNAV",
		"updated": "05/23/2017",
	},
	{
		"name": "SEROY",
		"latitude": "34-20-31.68 N",
		"longitude": "79-12-2.52 W",
		"state": "SOUTH CAROLINA",
		"artcc": "ZJX",
		"type": "RNAV",
		"updated": "08/28/2014",
	},
	{
		"name": "SEVAE",
		"latitude": "29-1-59.87 N",
		"longitude": "81-19-25.83 W",
		"state": "FLORIDA",
		"artcc": "ZJX",
		"type": "RNAV",
		"updated": "04/12/2006",
	},
	{
		"name": "SEYBO",
		"latitude": "31-57-24.34 N",
		"longitude": "83-7-9.05 W",
		"state": "GEORGIA",
		"artcc": "ZJX",
		"type": "RP",
		"updated": "VNA*VORTAC*127.47/24.65",
	},
	{
		"name": "SHANY",
		"latitude": "31-45-5.09 N",
		"longitude": "84-33-49.37 W",
		"state": "GEORGIA",
		"artcc": "ZJX",
		"type": "RP",
		"updated": "PZD*VOR/DME*294.65/15.03",
	},
	{
		"name": "SHARL",
		"latitude": "30-12-53.71 N",
		"longitude": "81-59-33.25 W",
		"state": "FLORIDA",
		"artcc": "ZJX",
		"type": "RNAV",
		"updated": "10/08/2014",
	},
	{
		"name": "SHEBA",
		"latitude": "34-7-37.16 N",
		"longitude": "80-3-29.75 W",
		"state": "SOUTH CAROLINA",
		"artcc": "ZJX",
		"type": "RP",
		"updated": "FLO*VORTAC*255.48/20.95",
	},
	{
		"name": "SHEMP",
		"latitude": "30-55-55.69 N",
		"longitude": "82-23-4.19 W",
		"state": "GEORGIA",
		"artcc": "ZJX",
		"type": "RP",
		"updated": "AMG*VORTAC*170.00/36.74",
	},
	{
		"name": "SHERS",
		"latitude": "31-10-54.94 N",
		"longitude": "82-38-48.14 W",
		"state": "GEORGIA",
		"artcc": "ZJX",
		"type": "RP",
		"updated": "AYS*VORTAC*221.58/7.00",
	},
	{
		"name": "SHIMM",
		"latitude": "28-57-59.24 N",
		"longitude": "81-55-40.58 W",
		"state": "FLORIDA",
		"artcc": "ZJX",
		"type": "RP",
		"updated": "OMN*VORTAC*245.00",
	},
	{
		"name": "SHINR",
		"latitude": "29-35-19.34 N",
		"longitude": "81-26-23.03 W",
		"state": "FLORIDA",
		"artcc": "ZJX",
		"type": "RP",
		"updated": "ORL*VORTAC*355.00/62.84",
	},
	{
		"name": "SHIPY",
		"latitude": "33-32-33.5 N",
		"longitude": "80-52-10.59 W",
		"state": "SOUTH CAROLINA",
		"artcc": "ZJX",
		"type": "RP",
		"updated": "CAE*VORTAC*155.87/20.98",
	},
	{
		"name": "SHLBI",
		"latitude": "33-48-52.41 N",
		"longitude": "79-54-18.96 W",
		"state": "SOUTH CAROLINA",
		"artcc": "ZJX",
		"type": "RNAV",
		"updated": "05/13/2016",
	},
	{
		"name": "SHOGI",
		"latitude": "31-16-49.68 N",
		"longitude": "82-23-55.57 W",
		"state": "GEORGIA",
		"artcc": "ZJX",
		"type": "RP",
		"updated": "AYS*VORTAC*085.30",
	},
	{
		"name": "SHORT",
		"latitude": "31-33-2.31 N",
		"longitude": "85-8-19.25 W",
		"state": "ALABAMA",
		"artcc": "ZJX",
		"type": "RP",
		"updated": "EUF*VORTAC*179.00",
	},
	{
		"name": "SHOTZ",
		"latitude": "32-53-39.39 N",
		"longitude": "79-45-19.21 W",
		"state": "SOUTH CAROLINA",
		"artcc": "ZJX",
		"type": "RNAV",
		"updated": "07/05/2011",
	},
	{
		"name": "SHOYU",
		"latitude": "34-24-24.88 N",
		"longitude": "80-7-17.97 W",
		"state": "SOUTH CAROLINA",
		"artcc": "ZJX",
		"type": "RP",
		"updated": "CTF*VOR/DME*155.45/16.45",
	},
	{
		"name": "SHRMP",
		"latitude": "32-42-43.15 N",
		"longitude": "79-53-46.24 W",
		"state": "SOUTH CAROLINA",
		"artcc": "ZJX",
		"type": "RP",
		"updated": "CHS*VORTAC*151.70/13.06",
	},
	{
		"name": "SHYPP",
		"latitude": "30-25-47.15 N",
		"longitude": "86-25-58.15 W",
		"state": "FLORIDA",
		"artcc": "ZJX",
		"type": "MR",
		"updated": "DWG*TACAN*/5.41",
	},
	{
		"name": "SIBJU",
		"latitude": "31-14-37.337 N",
		"longitude": "82-53-45.06 W",
		"state": "GEORGIA",
		"artcc": "ZJX",
		"type": "RNAV",
		"updated": "02/15/2018",
	},
	{
		"name": "SICCA",
		"latitude": "29-34-13.94 N",
		"longitude": "82-20-50.67 W",
		"state": "FLORIDA",
		"artcc": "ZJX",
		"type": "RNAV",
		"updated": "12/05/2007",
	},
	{
		"name": "SIDNY",
		"latitude": "30-8-51.62 N",
		"longitude": "87-26-4.09 W",
		"state": "FLORIDA",
		"artcc": "ZJX",
		"type": "MR",
		"updated": "NPA*TACAN*205.00/14.00",
	},
	{
		"name": "SIDOE",
		"latitude": "30-11-19.14 N",
		"longitude": "85-40-14.41 W",
		"state": "FLORIDA",
		"artcc": "ZJX",
		"type": "RNAV",
		"updated": "07/15/2013",
	},
	{
		"name": "SIKDE",
		"latitude": "30-23-51.64 N",
		"longitude": "85-48-45.91 W",
		"state": "FLORIDA",
		"artcc": "ZJX",
		"type": "RP",
		"updated": "PUK*LD*342.35/3.51",
	},
	{
		"name": "SIKLE",
		"latitude": "30-41-21.69 N",
		"longitude": "87-0-33.94 W",
		"state": "FLORIDA",
		"artcc": "ZJX",
		"type": "MR",
		"updated": "NGS*TACAN*322.00/5.80",
	},
	{
		"name": "SIKOE",
		"latitude": "30-21-51.32 N",
		"longitude": "83-0-9.28 W",
		"state": "FLORIDA",
		"artcc": "ZJX",
		"type": "RNAV",
		"updated": "02/11/2008",
	},
	{
		"name": "SIMNS",
		"latitude": "30-27-49.89 N",
		"longitude": "86-48-49.96 W",
		"state": "FLORIDA",
		"artcc": "ZJX",
		"type": "MW",
		"updated": "01/29/2010",
	},
	{
		"name": "SINBY",
		"latitude": "32-7-38.88 N",
		"longitude": "81-5-6.83 W",
		"state": "SOUTH CAROLINA",
		"artcc": "ZJX",
		"type": "RNAV",
		"updated": "03/30/2018",
	},
	{
		"name": "SINUS",
		"latitude": "30-18-15.52 N",
		"longitude": "87-53-27.27 W",
		"state": "ALABAMA",
		"artcc": "ZJX",
		"type": "MR",
		"updated": "NPA*TACAN*260.00/30.00",
	},
	{
		"name": "SISKE",
		"latitude": "30-17-22.25 N",
		"longitude": "82-51-57.6 W",
		"state": "FLORIDA",
		"artcc": "ZJX",
		"type": "RNAV",
		"updated": "02/12/2008",
	},
	{
		"name": "SKEAN",
		"latitude": "30-0-25.75 N",
		"longitude": "86-44-7.13 W",
		"state": "FLORIDA",
		"artcc": "ZJX",
		"type": "MR",
		"updated": "HRT*TACAN*186.00/25.00",
	},
	{
		"name": "SKILR",
		"latitude": "33-0-37.95 N",
		"longitude": "79-43-29.37 W",
		"state": "SOUTH CAROLINA",
		"artcc": "ZJX",
		"type": "RNAV",
		"updated": "06/03/2011",
	},
	{
		"name": "SKIMS",
		"latitude": "31-12-28.74 N",
		"longitude": "83-7-53.52 W",
		"state": "GEORGIA",
		"artcc": "ZJX",
		"type": "RNAV",
		"updated": "12/28/2015",
	},
	{
		"name": "SKIPO",
		"latitude": "31-32-57.77 N",
		"longitude": "85-35-19.96 W",
		"state": "ALABAMA",
		"artcc": "ZJX",
		"type": "RP",
		"updated": "OZR*VOR/DME*025.76",
	},
	{
		"name": "SKITR",
		"latitude": "33-52-13.29 N",
		"longitude": "80-49-34.9 W",
		"state": "SOUTH CAROLINA",
		"artcc": "ZJX",
		"type": "RP",
		"updated": "CAE*VORTAC*087.98",
	},
	{
		"name": "SMALZ",
		"latitude": "32-28-33 N",
		"longitude": "81-31-41 W",
		"state": "GEORGIA",
		"artcc": "ZJX",
		"type": "RNAV",
		"updated": "01/25/2018",
	},
	{
		"name": "SMELZ",
		"latitude": "28-4-59 N",
		"longitude": "82-6-34 W",
		"state": "FLORIDA",
		"artcc": "ZJX",
		"type": "RNAV",
		"updated": "07/07/2005",
	},
	{
		"name": "SMILY",
		"latitude": "32-41-45.05 N",
		"longitude": "80-8-5.32 W",
		"state": "SOUTH CAROLINA",
		"artcc": "ZJX",
		"type": "RNAV",
		"updated": "06/03/2011",
	},
	{
		"name": "SMURF",
		"latitude": "30-38-45.41 N",
		"longitude": "86-57-42.31 W",
		"state": "FLORIDA",
		"artcc": "ZJX",
		"type": "MR",
		"updated": "NDZ*LD*139.12/4.86",
	},
	{
		"name": "SMYRA",
		"latitude": "29-0-19.48 N",
		"longitude": "80-59-34.51 W",
		"state": "FLORIDA",
		"artcc": "ZJX",
		"type": "RP",
		"updated": "OMN*VORTAC*160.53/18.90",
	},
	{
		"name": "SNABS",
		"latitude": "30-25-13.31 N",
		"longitude": "78-31-13.29 W",
		"state": "OFFSHORE ATLANTIC",
		"artcc": "ZJX",
		"type": "RNAV",
		"updated": "08/29/2005",
	},
	{
		"name": "SNARL",
		"latitude": "30-19-40.64 N",
		"longitude": "81-59-11.42 W",
		"state": "FLORIDA",
		"artcc": "ZJX",
		"type": "MW",
		"updated": "05/12/2015",
	},
	{
		"name": "SNEAD",
		"latitude": "30-41-28.69 N",
		"longitude": "84-48-45.51 W",
		"state": "FLORIDA",
		"artcc": "ZJX",
		"type": "RP",
		"updated": "PZD*VOR/DME*207.00",
	},
	{
		"name": "SNOBB",
		"latitude": "32-53-45.1 N",
		"longitude": "79-53-37.97 W",
		"state": "SOUTH CAROLINA",
		"artcc": "ZJX",
		"type": "RNAV",
		"updated": "06/13/2012",
	},
	{
		"name": "SNOOC",
		"latitude": "30-12-12.78 N",
		"longitude": "80-58-1.4 W",
		"state": "FLORIDA",
		"artcc": "ZJX",
		"type": "RP",
		"updated": "CRG*VORTAC*108.88/29.35",
	},
	{
		"name": "SNWCH",
		"latitude": "30-19-51.8 N",
		"longitude": "87-19-22.62 W",
		"state": "FLORIDA",
		"artcc": "ZJX",
		"type": "MW",
		"updated": "05/01/2008",
	},
	{
		"name": "SODKE",
		"latitude": "34-6-37.79 N",
		"longitude": "81-41-41.33 W",
		"state": "SOUTH CAROLINA",
		"artcc": "ZJX",
		"type": "RNAV",
		"updated": "05/27/2009",
	},
	{
		"name": "SODOC",
		"latitude": "34-12-10.94 N",
		"longitude": "78-48-25.55 W",
		"state": "NORTH CAROLINA",
		"artcc": "ZJX",
		"type": "RNAV",
		"updated": "05/05/2009",
	},
	{
		"name": "SOGTY",
		"latitude": "32-50-59.85 N",
		"longitude": "80-0-1.33 W",
		"state": "SOUTH CAROLINA",
		"artcc": "ZJX",
		"type": "RP",
		"updated": "CHS*VORTAC*/3.26",
	},
	{
		"name": "SOLSE",
		"latitude": "30-16-6.34 N",
		"longitude": "81-52-27.84 W",
		"state": "FLORIDA",
		"artcc": "ZJX",
		"type": "RNAV",
		"updated": "10/08/2014",
	},
	{
		"name": "SOMVE",
		"latitude": "33-38-26.9 N",
		"longitude": "78-55-6.98 W",
		"state": "SOUTH CAROLINA",
		"artcc": "ZJX",
		"type": "RP",
		"updated": "02/20/2018",
	},
	{
		"name": "SONIA",
		"latitude": "30-32-38.88 N",
		"longitude": "81-46-15.92 W",
		"state": "FLORIDA",
		"artcc": "ZJX",
		"type": "RP",
		"updated": "CRG*VORTAC*315.28/18.29",
	},
	{
		"name": "SOOOP",
		"latitude": "32-22-23 N",
		"longitude": "80-33-51 W",
		"state": "SOUTH CAROLINA",
		"artcc": "ZJX",
		"type": "RNAV",
		"updated": "01/12/2018",
	},
	{
		"name": "SOSRE",
		"latitude": "30-59-10.82 N",
		"longitude": "82-41-40.23 W",
		"state": "GEORGIA",
		"artcc": "ZJX",
		"type": "RNAV",
		"updated": "05/01/2015",
	},
	{
		"name": "SOTCO",
		"latitude": "28-33-14.59 N",
		"longitude": "81-18-35.1 W",
		"state": "FLORIDA",
		"artcc": "ZJX",
		"type": "RP",
		"updated": "ORL*VORTAC*/1.50",
	},
	{
		"name": "SOTOY",
		"latitude": "30-16-52.08 N",
		"longitude": "84-6-36.46 W",
		"state": "FLORIDA",
		"artcc": "ZJX",
		"type": "RNAV",
		"updated": "05/19/2015",
	},
	{
		"name": "SOVIE",
		"latitude": "32-7-47.14 N",
		"longitude": "81-20-9.44 W",
		"state": "GEORGIA",
		"artcc": "ZJX",
		"type": "RNAV",
		"updated": "05/26/2009",
	},
	{
		"name": "SOVRE",
		"latitude": "31-6-37.56 N",
		"longitude": "86-5-4.63 W",
		"state": "ALABAMA",
		"artcc": "ZJX",
		"type": "RNAV",
		"updated": "06/12/2014",
	},
	{
		"name": "SOWMU",
		"latitude": "29-21-41.68 N",
		"longitude": "82-7-40.62 W",
		"state": "FLORIDA",
		"artcc": "ZJX",
		"type": "RNAV",
		"updated": "10/29/2008",
	},
	{
		"name": "SOXCO",
		"latitude": "31-13-16.54 N",
		"longitude": "87-13-18.25 W",
		"state": "ALABAMA",
		"artcc": "ZJX",
		"type": "RNAV",
		"updated": "02/01/2010",
	},
	{
		"name": "SOYOP",
		"latitude": "33-56-57.95 N",
		"longitude": "81-16-34.67 W",
		"state": "SOUTH CAROLINA",
		"artcc": "ZJX",
		"type": "RNAV",
		"updated": "11/07/2011",
	},
	{
		"name": "SOYYA",
		"latitude": "30-52-17.68 N",
		"longitude": "85-13-29.75 W",
		"state": "FLORIDA",
		"artcc": "ZJX",
		"type": "RP",
		"updated": "SMY*NDB*000.00",
	},
	{
		"name": "SPADD",
		"latitude": "30-23-30.62 N",
		"longitude": "84-17-19.6 W",
		"state": "FLORIDA",
		"artcc": "ZJX",
		"type": "RP",
		"updated": "SZW*VORTAC*153.81",
	},
	{
		"name": "SPATO",
		"latitude": "32-45-43.24 N",
		"longitude": "80-0-56.91 W",
		"state": "SOUTH CAROLINA",
		"artcc": "ZJX",
		"type": "RP",
		"updated": "CHS*VORTAC*177.00/8.00",
	},
	{
		"name": "SPIKY",
		"latitude": "32-22-23.88 N",
		"longitude": "78-26-20.04 W",
		"state": "OFFSHORE ATLANTIC",
		"artcc": "ZJX",
		"type": "RNAV",
		"updated": "11/15/2013",
	},
	{
		"name": "SPINR",
		"latitude": "28-36-43.83 N",
		"longitude": "81-11-2.08 W",
		"state": "FLORIDA",
		"artcc": "ZJX",
		"type": "RP",
		"updated": "ORL*VORTAC*062.46/9.00",
	},
	{
		"name": "SPLSH",
		"latitude": "30-8-3.61 N",
		"longitude": "85-51-7.74 W",
		"state": "FLORIDA",
		"artcc": "ZJX",
		"type": "MR",
		"updated": "PAM*TACAN*288.00/15.00",
	},
	{
		"name": "SPONG",
		"latitude": "32-29-36.13 N",
		"longitude": "81-23-13.03 W",
		"state": "GEORGIA",
		"artcc": "ZJX",
		"type": "RP",
		"updated": "SAV*VORTAC*341.37/22.87",
	},
	{
		"name": "SPRKS",
		"latitude": "31-10-21.95 N",
		"longitude": "83-26-45.01 W",
		"state": "GEORGIA",
		"artcc": "ZJX",
		"type": "MR",
		"updated": "OTK*VOR/DME*342.00/25.00",
	},
	{
		"name": "SPRNG",
		"latitude": "30-0-12.73 N",
		"longitude": "82-41-22.4 W",
		"state": "FLORIDA",
		"artcc": "ZJX",
		"type": "RNAV",
		"updated": "02/15/2010",
	},
	{
		"name": "SRAVN",
		"latitude": "29-50-0 N",
		"longitude": "85-10-0 W",
		"state": "FLORIDA",
		"artcc": "ZJX",
		"type": "RNAV",
		"updated": "12/15/2016",
	},
	{
		"name": "SRKIS",
		"latitude": "32-0-1.83 N",
		"longitude": "80-51-44.9 W",
		"state": "GEORGIA",
		"artcc": "ZJX",
		"type": "MW",
		"updated": "04/16/2009",
	},
	{
		"name": "SSAWW",
		"latitude": "30-40-10.68 N",
		"longitude": "81-27-32.85 W",
		"state": "FLORIDA",
		"artcc": "ZJX",
		"type": "RNAV",
		"updated": "08/26/2013",
	},
	{
		"name": "STAAR",
		"latitude": "29-51-24.56 N",
		"longitude": "87-19-35.39 W",
		"state": "FLORIDA",
		"artcc": "ZJX",
		"type": "MR",
		"updated": "NPA*TACAN*180.00/30.00",
	},
	{
		"name": "STANP",
		"latitude": "34-18-15.17 N",
		"longitude": "81-24-42.17 W",
		"state": "SOUTH CAROLINA",
		"artcc": "ZJX",
		"type": "RNAV",
		"updated": "07/05/2011",
	},
	{
		"name": "STARY",
		"latitude": "31-12-4.7 N",
		"longitude": "81-8-40.48 W",
		"state": "GEORGIA",
		"artcc": "ZJX",
		"type": "RP",
		"updated": "CRG*VORTAC*023.00/54.97",
	},
	{
		"name": "STEET",
		"latitude": "33-48-53 N",
		"longitude": "81-22-34.69 W",
		"state": "SOUTH CAROLINA",
		"artcc": "ZJX",
		"type": "RP",
		"updated": "ALD*VOR*356.00",
	},
	{
		"name": "STNNS",
		"latitude": "32-49-8.58 N",
		"longitude": "79-58-24.44 W",
		"state": "SOUTH CAROLINA",
		"artcc": "ZJX",
		"type": "RNAV",
		"updated": "06/13/2012",
	},
	{
		"name": "STOAS",
		"latitude": "32-57-33.9 N",
		"longitude": "80-42-41.59 W",
		"state": "SOUTH CAROLINA",
		"artcc": "ZJX",
		"type": "RP",
		"updated": "VAN*VORTAC*209.28",
	},
	{
		"name": "STOCR",
		"latitude": "34-36-16.16 N",
		"longitude": "80-20-21.46 W",
		"state": "SOUTH CAROLINA",
		"artcc": "ZJX",
		"type": "RNAV",
		"updated": "05/13/2016",
	},
	{
		"name": "STRKE",
		"latitude": "31-24-5.7 N",
		"longitude": "84-35-32.5 W",
		"state": "GEORGIA",
		"artcc": "ZJX",
		"type": "RNAV",
		"updated": "02/11/2011",
	},
	{
		"name": "STTAR",
		"latitude": "30-25-4.19 N",
		"longitude": "86-26-46.14 W",
		"state": "FLORIDA",
		"artcc": "ZJX",
		"type": "MR",
		"updated": "DWG*TACAN*133.00/5.30",
	},
	{
		"name": "STUGE",
		"latitude": "33-10-0.33 N",
		"longitude": "81-29-0.55 W",
		"state": "SOUTH CAROLINA",
		"artcc": "ZJX",
		"type": "RP",
		"updated": "ALD*VOR*314.83",
	},
	{
		"name": "STUPE",
		"latitude": "34-22-44.61 N",
		"longitude": "81-2-53.97 W",
		"state": "SOUTH CAROLINA",
		"artcc": "ZJX",
		"type": "RNAV",
		"updated": "10/11/2017",
	},
	{
		"name": "STWRT",
		"latitude": "33-38-7.15 N",
		"longitude": "81-28-37.62 W",
		"state": "SOUTH CAROLINA",
		"artcc": "ZJX",
		"type": "RP",
		"updated": "CAE*VORTAC*240.00/25.00",
	},
	{
		"name": "SUAVE",
		"latitude": "30-31-48.38 N",
		"longitude": "86-38-9.75 W",
		"state": "FLORIDA",
		"artcc": "ZJX",
		"type": "MW",
		"updated": "01/29/2010",
	},
	{
		"name": "SUBER",
		"latitude": "30-27-24.49 N",
		"longitude": "81-6-45.46 W",
		"state": "FLORIDA",
		"artcc": "ZJX",
		"type": "RP",
		"updated": "OMN*VORTAC*360.00/69.04",
	},
	{
		"name": "SUESS",
		"latitude": "30-44-18.06 N",
		"longitude": "82-32-34.21 W",
		"state": "GEORGIA",
		"artcc": "ZJX",
		"type": "RP",
		"updated": "OTK*VOR/DME*095.60",
	},
	{
		"name": "SUKEE",
		"latitude": "28-52-39.77 N",
		"longitude": "81-58-49.34 W",
		"state": "FLORIDA",
		"artcc": "ZJX",
		"type": "RNAV",
		"updated": "12/05/2007",
	},
	{
		"name": "SUNOE",
		"latitude": "33-38-35.51 N",
		"longitude": "80-54-39.46 W",
		"state": "SOUTH CAROLINA",
		"artcc": "ZJX",
		"type": "RNAV",
		"updated": "09/09/2005",
	},
	{
		"name": "SURRO",
		"latitude": "31-44-9.41 N",
		"longitude": "82-17-52.65 W",
		"state": "GEORGIA",
		"artcc": "ZJX",
		"type": "WP",
		"updated": "AMG*VORTAC*042.00/16.10",
	},
	{
		"name": "SUSAN",
		"latitude": "31-1-13.51 N",
		"longitude": "85-24-2.7 W",
		"state": "FLORIDA",
		"artcc": "ZJX",
		"type": "RP",
		"updated": "RRS*VORTAC*172.33/15.89",
	},
	{
		"name": "SUSIE",
		"latitude": "30-0-55.59 N",
		"longitude": "85-11-39.45 W",
		"state": "FLORIDA",
		"artcc": "ZJX",
		"type": "MR",
		"updated": "PAM*TACAN*104.00/20.00",
	},
	{
		"name": "SUTME",
		"latitude": "32-20-3.8 N",
		"longitude": "81-12-5.94 W",
		"state": "GEORGIA",
		"artcc": "ZJX",
		"type": "RNAV",
		"updated": "07/14/2005",
	},
	{
		"name": "SUVAE",
		"latitude": "32-42-21.87 N",
		"longitude": "79-54-2.6 W",
		"state": "SOUTH CAROLINA",
		"artcc": "ZJX",
		"type": "RNAV",
		"updated": "06/08/2011",
	},
	{
		"name": "SUVEE",
		"latitude": "33-59-32.09 N",
		"longitude": "80-27-21.91 W",
		"state": "SOUTH CAROLINA",
		"artcc": "ZJX",
		"type": "MR",
		"updated": "SSC*TACAN*/1.00",
	},
	{
		"name": "SWABE",
		"latitude": "28-35-16.32 N",
		"longitude": "83-6-31.16 W",
		"state": "FLORIDA",
		"artcc": "ZJX",
		"type": "RP",
		"updated": "CTY*VORTAC*184.99/60.60",
	},
	{
		"name": "SWAMY",
		"latitude": "30-32-57.72 N",
		"longitude": "82-18-25.03 W",
		"state": "FLORIDA",
		"artcc": "ZJX",
		"type": "WP",
		"updated": "AMG*VORTAC*170.00/60.00",
	},
	{
		"name": "SWLTR",
		"latitude": "28-31-27.39 N",
		"longitude": "81-23-16.8 W",
		"state": "FLORIDA",
		"artcc": "ZJX",
		"type": "RP",
		"updated": "ORL*VORTAC*/3.01",
	},
	{
		"name": "SWPFX",
		"latitude": "33-22-59.39 N",
		"longitude": "79-53-49.41 W",
		"state": "SOUTH CAROLINA",
		"artcc": "ZJX",
		"type": "RNAV",
		"updated": "07/05/2011",
	},
	{
		"name": "SWTEA",
		"latitude": "33-43-30.85 N",
		"longitude": "81-48-47.86 W",
		"state": "SOUTH CAROLINA",
		"artcc": "ZJX",
		"type": "RNAV",
		"updated": "09/15/2010",
	},
