	{
		"name": "TABIR",
		"latitude": "28-25-11.44 N",
		"longitude": "83-0-11.73 W",
		"state": "FLORIDA",
		"artcc": "ZJX",
		"type": "RP",
		"updated": "PIE*VORTAC*330.18/35.00",
	},
	{
		"name": "TACOT",
		"latitude": "28-41-24.96 N",
		"longitude": "81-17-54.79 W",
		"state": "FLORIDA",
		"artcc": "ZJX",
		"type": "RP",
		"updated": "DIZ*LD*005.47/17.06",
	},
	{
		"name": "TACUR",
		"latitude": "29-6-1.77 N",
		"longitude": "81-14-32.39 W",
		"state": "FLORIDA",
		"artcc": "ZJX",
		"type": "RNAV",
		"updated": "04/05/2004",
	},
	{
		"name": "TADVE",
		"latitude": "30-24-52.17 N",
		"longitude": "81-37-34.46 W",
		"state": "FLORIDA",
		"artcc": "ZJX",
		"type": "RNAV",
		"updated": "07/11/2017",
	},
	{
		"name": "TAKKY",
		"latitude": "31-24-50.71 N",
		"longitude": "85-28-8.16 W",
		"state": "ALABAMA",
		"artcc": "ZJX",
		"type": "RP",
		"updated": "OZR*VOR/DME*055.00",
	},
	{
		"name": "TALZA",
		"latitude": "28-56-36.86 N",
		"longitude": "82-13-21.85 W",
		"state": "FLORIDA",
		"artcc": "ZJX",
		"type": "RP",
		"updated": "OCF*VORTAC*/14.00",
	},
	{
		"name": "TAMEE",
		"latitude": "30-34-53.17 N",
		"longitude": "86-29-26.82 W",
		"state": "FLORIDA",
		"artcc": "ZJX",
		"type": "MR",
		"updated": "CEW*VORTAC*143.33",
	},
	{
		"name": "TASCH",
		"latitude": "30-32-5.6 N",
		"longitude": "82-2-51.13 W",
		"state": "GEORGIA",
		"artcc": "ZJX",
		"type": "RNAV",
		"updated": "08/26/2013",
	},
	{
		"name": "TASTY",
		"latitude": "33-30-17.41 N",
		"longitude": "80-44-29.41 W",
		"state": "SOUTH CAROLINA",
		"artcc": "ZJX",
		"type": "RNAV",
		"updated": "05/06/2016",
	},
	{
		"name": "TATGE",
		"latitude": "28-58-26.73 N",
		"longitude": "80-58-30.4 W",
		"state": "FLORIDA",
		"artcc": "ZJX",
		"type": "RNAV",
		"updated": "10/12/2006",
	},
	{
		"name": "TATYU",
		"latitude": "31-58-45.98 N",
		"longitude": "82-51-56.25 W",
		"state": "GEORGIA",
		"artcc": "ZJX",
		"type": "RNAV",
		"updated": "06/16/2008",
	},
	{
		"name": "TAWKE",
		"latitude": "31-15-52.74 N",
		"longitude": "81-13-5.88 W",
		"state": "GEORGIA",
		"artcc": "ZJX",
		"type": "RNAV",
		"updated": "09/15/2009",
	},
	{
		"name": "TAYLA",
		"latitude": "29-47-12.66 N",
		"longitude": "82-7-41.69 W",
		"state": "FLORIDA",
		"artcc": "ZJX",
		"type": "RP",
		"updated": "GNV*VORTAC*057.09/9.45",
	},
	{
		"name": "TAZAN",
		"latitude": "30-11-38.83 N",
		"longitude": "82-41-3.2 W",
		"state": "FLORIDA",
		"artcc": "ZJX",
		"type": "RNAV",
		"updated": "02/27/2013",
	},
	{
		"name": "TBACK",
		"latitude": "28-35-53.15 N",
		"longitude": "81-17-3.01 W",
		"state": "FLORIDA",
		"artcc": "ZJX",
		"type": "RNAV",
		"updated": "11/20/2003",
	},
	{
		"name": "TBEAU",
		"latitude": "28-38-2.75 N",
		"longitude": "81-31-49.8 W",
		"state": "FLORIDA",
		"artcc": "ZJX",
		"type": "RNAV",
		"updated": "08/11/2012",
	},
	{
		"name": "TEASY",
		"latitude": "30-51-17.25 N",
		"longitude": "86-59-9.14 W",
		"state": "FLORIDA",
		"artcc": "ZJX",
		"type": "MW",
		"updated": "03/04/2010",
	},
	{
		"name": "TEBOW",
		"latitude": "30-5-45.93 N",
		"longitude": "82-4-32.7 W",
		"state": "FLORIDA",
		"artcc": "ZJX",
		"type": "RNAV",
		"updated": "09/17/2014",
	},
	{
		"name": "TEEGN",
		"latitude": "28-11-17.95 N",
		"longitude": "83-3-47.7 W",
		"state": "FLORIDA",
		"artcc": "ZJX",
		"type": "RNAV",
		"updated": "11/21/2010",
	},
	{
		"name": "TEEZY",
		"latitude": "30-10-59.2 N",
		"longitude": "87-41-21.06 W",
		"state": "ALABAMA",
		"artcc": "ZJX",
		"type": "RNAV",
		"updated": "06/06/2011",
	},
	{
		"name": "TEKAY",
		"latitude": "30-3-38.05 N",
		"longitude": "86-31-15.12 W",
		"state": "FLORIDA",
		"artcc": "ZJX",
		"type": "MR",
		"updated": "DWG*TACAN*180.00/25.00",
	},
	{
		"name": "TELOE",
		"latitude": "32-7-34.36 N",
		"longitude": "80-58-2.69 W",
		"state": "SOUTH CAROLINA",
		"artcc": "ZJX",
		"type": "RNAV",
		"updated": "07/14/2005",
	},
	{
		"name": "TENNI",
		"latitude": "34-46-53.8 N",
		"longitude": "80-3-48.68 W",
		"state": "SOUTH CAROLINA",
		"artcc": "ZJX",
		"type": "RP",
		"updated": "FLO*VORTAC*331.60",
	},
	{
		"name": "TENUY",
		"latitude": "28-45-3.68 N",
		"longitude": "81-39-45.96 W",
		"state": "FLORIDA",
		"artcc": "ZJX",
		"type": "RNAV",
		"updated": "11/01/2013",
	},
	{
		"name": "TEPEE",
		"latitude": "28-0-1.13 N",
		"longitude": "82-21-59.53 W",
		"state": "FLORIDA",
		"artcc": "ZJX",
		"type": "RP",
		"updated": "PIE*VORTAC*076.77",
	},
	{
		"name": "TEPID",
		"latitude": "34-14-56.77 N",
		"longitude": "81-10-18.45 W",
		"state": "SOUTH CAROLINA",
		"artcc": "ZJX",
		"type": "RNAV",
		"updated": "10/11/2017",
	},
	{
		"name": "TEPTE",
		"latitude": "30-1-32.46 N",
		"longitude": "83-35-8.71 W",
		"state": "FLORIDA",
		"artcc": "ZJX",
		"type": "RNAV",
		"updated": "08/08/2010",
	},
	{
		"name": "TERBE",
		"latitude": "31-54-44.8 N",
		"longitude": "81-11-54.41 W",
		"state": "GEORGIA",
		"artcc": "ZJX",
		"type": "RNAV",
		"updated": "05/26/2009",
	},
	{
		"name": "TERES",
		"latitude": "29-56-7.76 N",
		"longitude": "84-20-8.51 W",
		"state": "FLORIDA",
		"artcc": "ZJX",
		"type": "RP",
		"updated": "OTK*VOR/DME*229.57",
	},
	{
		"name": "TERLY",
		"latitude": "32-35-28.31 N",
		"longitude": "80-29-7.78 W",
		"state": "SOUTH CAROLINA",
		"artcc": "ZJX",
		"type": "RP",
		"updated": "SAV*VORTAC*059.51/45.00",
	},
	{
		"name": "TERZE",
		"latitude": "30-26-40.49 N",
		"longitude": "87-5-46.43 W",
		"state": "FLORIDA",
		"artcc": "ZJX",
		"type": "RNAV",
		"updated": "07/05/2007",
	},
	{
		"name": "TESNE",
		"latitude": "30-18-41.35 N",
		"longitude": "86-40-45.37 W",
		"state": "FLORIDA",
		"artcc": "ZJX",
		"type": "MR",
		"updated": "HRT*TACAN*/7.00",
	},
	{
		"name": "TETOO",
		"latitude": "31-18-38.8 N",
		"longitude": "83-44-14.13 W",
		"state": "GEORGIA",
		"artcc": "ZJX",
		"type": "MR",
		"updated": "VAD*TACAN*310.00/35.00",
	},
	{
		"name": "TEWUN",
		"latitude": "30-45-25.04 N",
		"longitude": "83-59-41.72 W",
		"state": "GEORGIA",
		"artcc": "ZJX",
		"type": "RP",
		"updated": "OTK*VOR/DME*270.00/37.00",
	},
	{
		"name": "TEXXS",
		"latitude": "30-22-30.26 N",
		"longitude": "86-19-21.07 W",
		"state": "FLORIDA",
		"artcc": "ZJX",
		"type": "MR",
		"updated": "DWG*TACAN*120.92/12.00",
	},
	{
		"name": "THEOX",
		"latitude": "28-8-43 N",
		"longitude": "82-10-25 W",
		"state": "FLORIDA",
		"artcc": "ZJX",
		"type": "RNAV",
		"updated": "08/17/2017",
	},
	{
		"name": "THHUD",
		"latitude": "31-50-50 N",
		"longitude": "83-46-46 W",
		"state": "GEORGIA",
		"artcc": "ZJX",
		"type": "RNAV",
		"updated": "08/22/2017",
	},
	{
		"name": "TIARA",
		"latitude": "34-33-15.38 N",
		"longitude": "80-12-51.31 W",
		"state": "SOUTH CAROLINA",
		"artcc": "ZJX",
		"type": "RP",
		"updated": "CTF*VOR/DME*155.45/6.50",
	},
	{
		"name": "TIBOC",
		"latitude": "33-53-55.77 N",
		"longitude": "81-9-32.92 W",
		"state": "SOUTH CAROLINA",
		"artcc": "ZJX",
		"type": "RNAV",
		"updated": "07/12/2005",
	},
	{
		"name": "TIDOE",
		"latitude": "30-34-9.78 N",
		"longitude": "86-46-10.77 W",
		"state": "FLORIDA",
		"artcc": "ZJX",
		"type": "MR",
		"updated": "DWG*TACAN*293.00/14.00",
	},
	{
		"name": "TIDTO",
		"latitude": "31-24-5.09 N",
		"longitude": "82-31-55.47 W",
		"state": "GEORGIA",
		"artcc": "ZJX",
		"type": "CN",
		"updated": "07/03/2003",
	},
	{
		"name": "TIGAE",
		"latitude": "29-5-10.14 N",
		"longitude": "81-17-25.57 W",
		"state": "FLORIDA",
		"artcc": "ZJX",
		"type": "RP",
		"updated": "OMN*VORTAC*215.74",
	},
	{
		"name": "TIGEE",
		"latitude": "31-5-49.27 N",
		"longitude": "83-30-12.13 W",
		"state": "GEORGIA",
		"artcc": "ZJX",
		"type": "RNAV",
		"updated": "02/07/2013",
	},
	{
		"name": "TIGLE",
		"latitude": "30-27-16.21 N",
		"longitude": "87-17-15.48 W",
		"state": "FLORIDA",
		"artcc": "ZJX",
		"type": "RNAV",
		"updated": "06/20/2012",
	},
	{
		"name": "TIKIE",
		"latitude": "32-30-44.37 N",
		"longitude": "81-45-53.23 W",
		"state": "GEORGIA",
		"artcc": "ZJX",
		"type": "RNAV",
		"updated": "07/12/2007",
	},
	{
		"name": "TIKRY",
		"latitude": "30-33-29.08 N",
		"longitude": "81-29-49.56 W",
		"state": "FLORIDA",
		"artcc": "ZJX",
		"type": "RP",
		"updated": "CRG*VORTAC*005.90",
	},
	{
		"name": "TIKUY",
		"latitude": "28-52-11.52 N",
		"longitude": "81-8-49.65 W",
		"state": "FLORIDA",
		"artcc": "ZJX",
		"type": "RP",
		"updated": "OMN*VORTAC*184.00/26.00",
	},
	{
		"name": "TILEE",
		"latitude": "32-7-50.39 N",
		"longitude": "81-27-14.08 W",
		"state": "GEORGIA",
		"artcc": "ZJX",
		"type": "RNAV",
		"updated": "07/14/2005",
	},
	{
		"name": "TILLS",
		"latitude": "32-28-44.1 N",
		"longitude": "81-14-4.86 W",
		"state": "GEORGIA",
		"artcc": "ZJX",
		"type": "RP",
		"updated": "SAV*VORTAC*000.82/20.00",
	},
	{
		"name": "TIMIE",
		"latitude": "29-0-49.74 N",
		"longitude": "80-44-24.64 W",
		"state": "FLORIDA",
		"artcc": "ZJX",
		"type": "RNAV",
		"updated": "01/22/2009",
	},
	{
		"name": "TIMPE",
		"latitude": "29-43-29.13 N",
		"longitude": "82-13-45.86 W",
		"state": "FLORIDA",
		"artcc": "ZJX",
		"type": "RP",
		"updated": "GNV*VORTAC*053.35/3.00",
	},
	{
		"name": "TINBE",
		"latitude": "30-25-0.89 N",
		"longitude": "86-58-25.12 W",
		"state": "FLORIDA",
		"artcc": "ZJX",
		"type": "MR",
		"updated": "NGS*TACAN*188.00/12.00",
	},
	{
		"name": "TIPGE",
		"latitude": "34-19-0.03 N",
		"longitude": "79-5-2.1 W",
		"state": "NORTH CAROLINA",
		"artcc": "ZJX",
		"type": "RNAV",
		"updated": "09/05/2014",
	},
	{
		"name": "TIPOE",
		"latitude": "32-57-27.1 N",
		"longitude": "80-4-54.74 W",
		"state": "SOUTH CAROLINA",
		"artcc": "ZJX",
		"type": "RNAV",
		"updated": "06/13/2012",
	},
	{
		"name": "TIYOB",
		"latitude": "28-4-1.56 N",
		"longitude": "82-19-17.64 W",
		"state": "FLORIDA",
		"artcc": "ZJX",
		"type": "RNAV",
		"updated": "04/19/2012",
	},
	{
		"name": "TIYUN",
		"latitude": "31-2-24.07 N",
		"longitude": "85-49-19.6 W",
		"state": "ALABAMA",
		"artcc": "ZJX",
		"type": "RNAV",
		"updated": "06/12/2014",
	},
	{
		"name": "TIZRO",
		"latitude": "28-5-21.26 N",
		"longitude": "82-8-25.7 W",
		"state": "FLORIDA",
		"artcc": "ZJX",
		"type": "WP",
		"updated": "11/02/1998",
	},
	{
		"name": "TNPIN",
		"latitude": "34-22-19.02 N",
		"longitude": "79-43-7.21 W",
		"state": "SOUTH CAROLINA",
		"artcc": "ZJX",
		"type": "RNAV",
		"updated": "04/01/2009",
	},
	{
		"name": "TOCOB",
		"latitude": "28-11-55.15 N",
		"longitude": "82-14-8.49 W",
		"state": "FLORIDA",
		"artcc": "ZJX",
		"type": "RNAV",
		"updated": "03/26/2011",
	},
	{
		"name": "TOCOP",
		"latitude": "28-45-12.8 N",
		"longitude": "82-19-26.47 W",
		"state": "FLORIDA",
		"artcc": "ZJX",
		"type": "RNAV",
		"updated": "02/27/2012",
	},
	{
		"name": "TOGKU",
		"latitude": "31-6-19.29 N",
		"longitude": "81-33-57.42 W",
		"state": "GEORGIA",
		"artcc": "ZJX",
		"type": "CN",
		"updated": "07/03/2003",
	},
	{
		"name": "TOHCI",
		"latitude": "29-40-4.57 N",
		"longitude": "81-26-53.7 W",
		"state": "FLORIDA",
		"artcc": "ZJX",
		"type": "RNAV",
		"updated": "08/20/2010",
	},
	{
		"name": "TOKUC",
		"latitude": "30-4-33.47 N",
		"longitude": "82-22-8.31 W",
		"state": "FLORIDA",
		"artcc": "ZJX",
		"type": "RNAV",
		"updated": "06/12/2008",
	},
	{
		"name": "TOLBY",
		"latitude": "29-42-23.25 N",
		"longitude": "82-12-4.01 W",
		"state": "FLORIDA",
		"artcc": "ZJX",
		"type": "RNAV",
		"updated": "11/21/2008",
	},
	{
		"name": "TOLEE",
		"latitude": "31-12-24.64 N",
		"longitude": "84-52-3.29 W",
		"state": "GEORGIA",
		"artcc": "ZJX",
		"type": "RNAV",
		"updated": "10/24/2011",
	},
	{
		"name": "TOLLS",
		"latitude": "34-12-38.53 N",
		"longitude": "80-29-26.75 W",
		"state": "SOUTH CAROLINA",
		"artcc": "ZJX",
		"type": "RP",
		"updated": "SSC*TACAN*360.00/14.00",
	},
	{
		"name": "TOMDY",
		"latitude": "30-56-6.64 N",
		"longitude": "81-25-24.93 W",
		"state": "GEORGIA",
		"artcc": "ZJX",
		"type": "RP",
		"updated": "SSI*VORTAC*174.51/7.00",
	},
	{
		"name": "TOMMA",
		"latitude": "30-22-21.27 N",
		"longitude": "86-19-2.95 W",
		"state": "FLORIDA",
		"artcc": "ZJX",
		"type": "MR",
		"updated": "VPS*LD*119.68",
	},
	{
		"name": "TONOW",
		"latitude": "30-57-8.76 N",
		"longitude": "81-31-11.49 W",
		"state": "GEORGIA",
		"artcc": "ZJX",
		"type": "CN",
		"updated": "07/03/2003",
	},
	{
		"name": "TOPVE",
		"latitude": "30-9-42.8 N",
		"longitude": "87-2-0 W",
		"state": "FLORIDA",
		"artcc": "ZJX",
		"type": "MW",
		"updated": "07/08/2016",
	},
	{
		"name": "TOROE",
		"latitude": "30-21-51.78 N",
		"longitude": "87-17-26.07 W",
		"state": "FLORIDA",
		"artcc": "ZJX",
		"type": "MR",
		"updated": "NPA*TACAN*073.00/1.40",
	},
	{
		"name": "TORRY",
		"latitude": "30-25-19.97 N",
		"longitude": "78-51-49.52 W",
		"state": "FLORIDA",
		"artcc": "ZJX",
		"type": "RP",
		"updated": "CRG*VORTAC*090.00/137.40",
	},
	{
		"name": "TOSCU",
		"latitude": "33-31-31.41 N",
		"longitude": "80-47-19.87 W",
		"state": "SOUTH CAROLINA",
		"artcc": "ZJX",
		"type": "RNAV",
		"updated": "04/27/2010",
	},
	{
		"name": "TOSEA",
		"latitude": "32-14-3.03 N",
		"longitude": "81-12-3.19 W",
		"state": "GEORGIA",
		"artcc": "ZJX",
		"type": "RNAV",
		"updated": "05/26/2009",
	},
	{
		"name": "TOSKE",
		"latitude": "30-22-4.98 N",
		"longitude": "85-47-33.95 W",
		"state": "FLORIDA",
		"artcc": "ZJX",
		"type": "MR",
		"updated": "PAM*TACAN*331.00/21.00",
	},
	{
		"name": "TOTWY",
		"latitude": "30-12-55.36 N",
		"longitude": "81-55-48.51 W",
		"state": "FLORIDA",
		"artcc": "ZJX",
		"type": "RNAV",
		"updated": "11/01/2010",
	},
	{
		"name": "TOWEY",
		"latitude": "34-38-55.5 N",
		"longitude": "79-37-40.94 W",
		"state": "SOUTH CAROLINA",
		"artcc": "ZJX",
		"type": "RP",
		"updated": "CTF*VOR/DME*093.00",
	},
	{
		"name": "TOWWE",
		"latitude": "29-52-35.08 N",
		"longitude": "85-23-43.33 W",
		"state": "FLORIDA",
		"artcc": "ZJX",
		"type": "MR",
		"updated": "PAM*TACAN*146.00/15.00",
	},
	{
		"name": "TRANK",
		"latitude": "31-38-57.55 N",
		"longitude": "83-37-5.98 W",
		"state": "GEORGIA",
		"artcc": "ZJX",
		"type": "RNAV",
		"updated": "08/16/2017",
	},
	{
		"name": "TRAPR",
		"latitude": "28-39-44.33 N",
		"longitude": "82-6-59.58 W",
		"state": "FLORIDA",
		"artcc": "ZJX",
		"type": "RNAV",
		"updated": "11/21/2010",
	},
	{
		"name": "TRAUT",
		"latitude": "30-45-6.45 N",
		"longitude": "86-31-15.62 W",
		"state": "FLORIDA",
		"artcc": "ZJX",
		"type": "MR",
		"updated": "DWG*TACAN*/16.38",
	},
	{
		"name": "TREAL",
		"latitude": "33-4-10.94 N",
		"longitude": "81-26-27.8 W",
		"state": "SOUTH CAROLINA",
		"artcc": "ZJX",
		"type": "RP",
		"updated": "CAE*VORTAC*204.50/51.01",
	},
	{
		"name": "TROCK",
		"latitude": "34-28-49.66 N",
		"longitude": "79-24-7.55 W",
		"state": "SOUTH CAROLINA",
		"artcc": "ZJX",
		"type": "RP",
		"updated": "FLO*VORTAC*043.45/19.50",
	},
	{
		"name": "TROJN",
		"latitude": "30-50-19.84 N",
		"longitude": "87-12-30.19 W",
		"state": "FLORIDA",
		"artcc": "ZJX",
		"type": "MR",
		"updated": "NSE*TACAN*307.00/12.00",
	},
	{
		"name": "TROUT",
		"latitude": "30-23-0.9 N",
		"longitude": "76-59-58.66 W",
		"state": "FLORIDA",
		"artcc": "ZJX",
		"type": "RP",
		"updated": "05/07/1985",
	},
	{
		"name": "TROWT",
		"latitude": "29-22-43.67 N",
		"longitude": "84-58-31.55 W",
		"state": "FLORIDA",
		"artcc": "ZJX",
		"type": "MR",
		"updated": "PAM*TACAN*147.00/52.00",
	},
	{
		"name": "TRTLS",
		"latitude": "33-13-58.36 N",
		"longitude": "80-40-24.51 W",
		"state": "SOUTH CAROLINA",
		"artcc": "ZJX",
		"type": "RNAV",
		"updated": "07/05/2011",
	},
	{
		"name": "TRUET",
		"latitude": "32-18-4.71 N",
		"longitude": "82-35-9.31 W",
		"state": "GEORGIA",
		"artcc": "ZJX",
		"type": "RP",
		"updated": "DBN*VORTAC*146.64/20.00",
	},
	{
		"name": "TRUEX",
		"latitude": "34-35-55.48 N",
		"longitude": "80-21-18.36 W",
		"state": "SOUTH CAROLINA",
		"artcc": "ZJX",
		"type": "RNAV",
		"updated": "04/09/2014",
	},
	{
		"name": "TTIGR",
		"latitude": "28-43-13 N",
		"longitude": "81-38-59 W",
		"state": "FLORIDA",
		"artcc": "ZJX",
		"type": "RNAV",
		"updated": "10/24/2007",
	},
	{
		"name": "TTREE",
		"latitude": "31-9-2.68 N",
		"longitude": "83-29-17.38 W",
		"state": "GEORGIA",
		"artcc": "ZJX",
		"type": "MR",
		"updated": "VAD*TACAN*310.00/19.00",
	},
	{
		"name": "TTUNA",
		"latitude": "30-16-7.73 N",
		"longitude": "87-19-50.18 W",
		"state": "FLORIDA",
		"artcc": "ZJX",
		"type": "MW",
		"updated": "05/01/2008",
	},
	{
		"name": "TUCCR",
		"latitude": "30-18-52.08 N",
		"longitude": "81-48-17.51 W",
		"state": "FLORIDA",
		"artcc": "ZJX",
		"type": "RP",
		"updated": "CRG*VORTAC*267.63",
	},
	{
		"name": "TUCHO",
		"latitude": "28-56-37.11 N",
		"longitude": "82-7-39.91 W",
		"state": "FLORIDA",
		"artcc": "ZJX",
		"type": "RNAV",
		"updated": "10/29/2008",
	},
	{
		"name": "TUCKE",
		"latitude": "28-19-38.95 N",
		"longitude": "82-38-44.26 W",
		"state": "FLORIDA",
		"artcc": "ZJX",
		"type": "RNAV",
		"updated": "07/02/2008",
	},
	{
		"name": "TUFER",
		"latitude": "30-16-39.95 N",
		"longitude": "86-31-15.12 W",
		"state": "FLORIDA",
		"artcc": "ZJX",
		"type": "MR",
		"updated": "DWG*TACAN*180.00/12.00",
	},
	{
		"name": "TUFFE",
		"latitude": "28-33-21.52 N",
		"longitude": "81-19-41.32 W",
		"state": "FLORIDA",
		"artcc": "ZJX",
		"type": "RP",
		"updated": "TFE*LD*005.45/8.63",
	},
	{
		"name": "TUKSE",
		"latitude": "29-38-51.69 N",
		"longitude": "82-3-21.18 W",
		"state": "FLORIDA",
		"artcc": "ZJX",
		"type": "RNAV",
		"updated": "05/31/2005",
	},
	{
		"name": "TUMPY",
		"latitude": "28-10-34.98 N",
		"longitude": "82-25-47.04 W",
		"state": "FLORIDA",
		"artcc": "ZJX",
		"type": "RP",
		"updated": "PIE*VORTAC*045.00/21.00",
	},
	{
		"name": "TUMSE",
		"latitude": "32-56-43.37 N",
		"longitude": "80-4-21.56 W",
		"state": "SOUTH CAROLINA",
		"artcc": "ZJX",
		"type": "RNAV",
		"updated": "08/10/2010",
	},
	{
		"name": "TUMVY",
		"latitude": "31-14-5.84 N",
		"longitude": "83-39-52.19 W",
		"state": "GEORGIA",
		"artcc": "ZJX",
		"type": "RNAV",
		"updated": "03/23/2007",
	},
	{
		"name": "TUNJU",
		"latitude": "30-4-18.9 N",
		"longitude": "81-30-51.97 W",
		"state": "FLORIDA",
		"artcc": "ZJX",
		"type": "RNAV",
		"updated": "01/26/2009",
	},
	{
		"name": "TUPGE",
		"latitude": "31-26-28.38 N",
		"longitude": "84-9-40.02 W",
		"state": "GEORGIA",
		"artcc": "ZJX",
		"type": "RNAV",
		"updated": "07/15/2009",
	},
	{
		"name": "TUPPS",
		"latitude": "31-21-14.84 N",
		"longitude": "85-31-53.67 W",
		"state": "ALABAMA",
		"artcc": "ZJX",
		"type": "MR",
		"updated": "OZR*VOR/DME*065.95/11.23",
	},
	{
		"name": "TURLE",
		"latitude": "29-49-35.77 N",
		"longitude": "82-4-2.52 W",
		"state": "FLORIDA",
		"artcc": "ZJX",
		"type": "RP",
		"updated": "GNV*VORTAC*057.09/13.42",
	},
	{
		"name": "TUSKS",
		"latitude": "30-28-16.24 N",
		"longitude": "87-1-58.39 W",
		"state": "FLORIDA",
		"artcc": "ZJX",
		"type": "MW",
		"updated": "02/24/2016",
	},
	{
		"name": "TUSNE",
		"latitude": "30-51-44.83 N",
		"longitude": "86-31-8.19 W",
		"state": "FLORIDA",
		"artcc": "ZJX",
		"type": "MR",
		"updated": "DWG*TACAN*/23.00",
	},
	{
		"name": "TWETY",
		"latitude": "30-36-30.2 N",
		"longitude": "82-19-7.5 W",
		"state": "FLORIDA",
		"artcc": "ZJX",
		"type": "RNAV",
		"updated": "10/24/2007",
	},
	{
		"name": "TWNNZ",
		"latitude": "28-46-54.68 N",
		"longitude": "81-8-44.68 W",
		"state": "FLORIDA",
		"artcc": "ZJX",
		"type": "RP",
		"updated": "ORL*VORTAC*034.87",
	},
	{
		"name": "TWONA",
		"latitude": "28-36-13 N",
		"longitude": "81-25-27 W",
		"state": "FLORIDA",
		"artcc": "ZJX",
		"type": "RNAV",
		"updated": "10/24/2007",
	},
	{
		"name": "TXNBX",
		"latitude": "30-3-0 N",
		"longitude": "87-47-0 W",
		"state": "FLORIDA",
		"artcc": "ZJX",
		"type": "RNAV",
		"updated": "12/21/2016",
	},
	{
		"name": "TYBEE",
		"latitude": "31-50-16.99 N",
		"longitude": "80-52-12.82 W",
		"state": "GEORGIA",
		"artcc": "ZJX",
		"type": "RP",
		"updated": "CRG*VORTAC*023.00/95.61",
	},
	{
		"name": "TYBOX",
		"latitude": "30-10-44.13 N",
		"longitude": "85-35-40.4 W",
		"state": "FLORIDA",
		"artcc": "ZJX",
		"type": "RNAV",
		"updated": "04/19/2012",
	},
	{
		"name": "TYDOE",
		"latitude": "32-49-16.95 N",
		"longitude": "81-33-41.89 W",
		"state": "GEORGIA",
		"artcc": "ZJX",
		"type": "RP",
		"updated": "CAE*VORTAC*204.50/67.08",
	},
	{
		"name": "TYLOR",
		"latitude": "32-52-14.68 N",
		"longitude": "80-11-27.96 W",
		"state": "SOUTH CAROLINA",
		"artcc": "ZJX",
		"type": "RNAV",
		"updated": "07/05/2011",
	},
	{
		"name": "TYLUR",
		"latitude": "30-23-28.46 N",
		"longitude": "86-32-17.54 W",
		"state": "FLORIDA",
		"artcc": "ZJX",
		"type": "MW",
		"updated": "04/02/2007",
	},
	{
		"name": "TYNES",
		"latitude": "31-51-51.84 N",
		"longitude": "81-32-5.13 W",
		"state": "GEORGIA",
		"artcc": "ZJX",
		"type": "RNAV",
		"updated": "06/28/2017",
	},
	{
		"name": "TYPAL",
		"latitude": "28-50-26.27 N",
		"longitude": "80-54-26.57 W",
		"state": "FLORIDA",
		"artcc": "ZJX",
		"type": "RNAV",
		"updated": "02/27/2015",
	},
