[
	{
		"name": "UBEDY",
		"latitude": "31-4-10.16 N",
		"longitude": "83-32-16.95 W",
		"state": "GEORGIA",
		"artcc": "ZJX",
		"type": "RNAV",
		"updated": "02/07/2013"
	},
	{
		"name": "UBHAX",
		"latitude": "34-25-25.89 N",
		"longitude": "79-16-14.05 W",
		"state": "SOUTH CAROLINA",
		"artcc": "ZJX",
		"type": "RNAV",
		"updated": "08/28/2014"
	},
	{
		"name": "UBYAH",
		"latitude": "31-27-5.62 N",
		"longitude": "82-52-58.45 W",
		"state": "GEORGIA",
		"artcc": "ZJX",
		"type": "RP",
		"updated": "AYS*VORTAC*303.12"
	},
	{
		"name": "UCAFO",
		"latitude": "29-26-19.17 N",
		"longitude": "82-25-10.68 W",
		"state": "FLORIDA",
		"artcc": "ZJX",
		"type": "RP",
		"updated": "OCF*VORTAC*327.08"
	},
	{
		"name": "UCERI",
		"latitude": "33-39-27.13 N",
		"longitude": "80-46-47.57 W",
		"state": "SOUTH CAROLINA",
		"artcc": "ZJX",
		"type": "RNAV",
		"updated": "04/27/2010"
	},
	{
		"name": "UCETA",
		"latitude": "32-12-41.41 N",
		"longitude": "80-57-55.13 W",
		"state": "SOUTH CAROLINA",
		"artcc": "ZJX",
		"type": "RNAV",
		"updated": "08/25/2010"
	},
	{
		"name": "UCKOR",
		"latitude": "30-9-26.98 N",
		"longitude": "87-18-44.91 W",
		"state": "FLORIDA",
		"artcc": "ZJX",
		"type": "MR",
		"updated": "NPA*TACAN*178.00/12.00"
	},
	{
		"name": "UCVIK",
		"latitude": "32-15-1.92 N",
		"longitude": "81-41-22.3 W",
		"state": "GEORGIA",
		"artcc": "ZJX",
		"type": "RNAV",
		"updated": "07/01/2014"
	},
	{
		"name": "UDAQI",
		"latitude": "30-25-36.4 N",
		"longitude": "81-55-33.99 W",
		"state": "FLORIDA",
		"artcc": "ZJX",
		"type": "RNAV",
		"updated": "11/03/2011"
	},
	{
		"name": "UDIGY",
		"latitude": "28-52-0.52 N",
		"longitude": "82-31-0.28 W",
		"state": "FLORIDA",
		"artcc": "ZJX",
		"type": "RNAV",
		"updated": "06/27/2013"
	},
	{
		"name": "UDOYE",
		"latitude": "30-33-43.21 N",
		"longitude": "87-51-27.59 W",
		"state": "ALABAMA",
		"artcc": "ZJX",
		"type": "RNAV",
		"updated": "03/24/2011"
	},
	{
		"name": "UDUZI",
		"latitude": "28-52-47.17 N",
		"longitude": "81-27-17.6 W",
		"state": "FLORIDA",
		"artcc": "ZJX",
		"type": "RNAV",
		"updated": "05/10/2013"
	},
	{
		"name": "UDUZO",
		"latitude": "30-0-45.54 N",
		"longitude": "81-25-17.39 W",
		"state": "FLORIDA",
		"artcc": "ZJX",
		"type": "RNAV",
		"updated": "01/26/2009"
	},
	{
		"name": "UFAXU",
		"latitude": "31-27-37.01 N",
		"longitude": "85-36-48.14 W",
		"state": "ALABAMA",
		"artcc": "ZJX",
		"type": "RP",
		"updated": "OZR*VOR/DME*029.83"
	},
	{
		"name": "UFEBA",
		"latitude": "30-19-51.34 N",
		"longitude": "86-24-34.31 W",
		"state": "FLORIDA",
		"artcc": "ZJX",
		"type": "RNAV",
		"updated": "06/09/2011"
	},
	{
		"name": "UFIPI",
		"latitude": "28-55-42.55 N",
		"longitude": "81-27-33.94 W",
		"state": "FLORIDA",
		"artcc": "ZJX",
		"type": "RNAV",
		"updated": "04/12/2006"
	},
	{
		"name": "UFLIX",
		"latitude": "28-3-36.8 N",
		"longitude": "82-15-45.63 W",
		"state": "FLORIDA",
		"artcc": "ZJX",
		"type": "RNAV",
		"updated": "10/26/2010"
	},
	{
		"name": "UGENE",
		"latitude": "30-10-8.01 N",
		"longitude": "82-13-49.79 W",
		"state": "FLORIDA",
		"artcc": "ZJX",
		"type": "RP",
		"updated": "AMG*VORTAC*170.00/83.12"
	},
	{
		"name": "UGLUF",
		"latitude": "29-30-13.28 N",
		"longitude": "83-14-59.28 W",
		"state": "FLORIDA",
		"artcc": "ZJX",
		"type": "RNAV",
		"updated": "10/11/2010"
	},
	{
		"name": "UGMAH",
		"latitude": "28-46-52.26 N",
		"longitude": "81-27-16.02 W",
		"state": "FLORIDA",
		"artcc": "ZJX",
		"type": "RP",
		"updated": "ORL*VORTAC*336.20"
	},
	{
		"name": "UHXAZ",
		"latitude": "27-59-5.9 N",
		"longitude": "82-22-32.29 W",
		"state": "FLORIDA",
		"artcc": "ZJX",
		"type": "RNAV",
		"updated": "11/03/2011"
	},
	{
		"name": "UJURO",
		"latitude": "28-0-45.55 N",
		"longitude": "82-21-23.75 W",
		"state": "FLORIDA",
		"artcc": "ZJX",
		"type": "RNAV",
		"updated": "10/08/2014"
	},
	{
		"name": "UKOKA",
		"latitude": "30-38-53.7 N",
		"longitude": "77-0-0 W",
		"state": "OFFSHORE ATLANTIC",
		"artcc": "ZJX",
		"type": "RNAV",
		"updated": "04/10/2008"
	},
	{
		"name": "UKUTE",
		"latitude": "31-55-41.41 N",
		"longitude": "82-41-21.38 W",
		"state": "GEORGIA",
		"artcc": "ZJX",
		"type": "RNAV",
		"updated": "06/16/2008"
	},
	{
		"name": "ULIRY",
		"latitude": "31-34-26.99 N",
		"longitude": "82-31-52.81 W",
		"state": "GEORGIA",
		"artcc": "ZJX",
		"type": "RNAV",
		"updated": "01/27/2014"
	},
	{
		"name": "ULMUY",
		"latitude": "32-26-41.81 N",
		"longitude": "81-41-44.25 W",
		"state": "GEORGIA",
		"artcc": "ZJX",
		"type": "RNAV",
		"updated": "07/01/2014"
	},
	{
		"name": "ULTRO",
		"latitude": "34-17-40.63 N",
		"longitude": "80-12-18.66 W",
		"state": "SOUTH CAROLINA",
		"artcc": "ZJX",
		"type": "MR",
		"updated": "SSC*TACAN*042.35/23.00"
	},
	{
		"name": "UMAGE",
		"latitude": "34-23-1.21 N",
		"longitude": "79-57-35.33 W",
		"state": "SOUTH CAROLINA",
		"artcc": "ZJX",
		"type": "RNAV",
		"updated": "06/13/2007"
	},
	{
		"name": "UMELY",
		"latitude": "31-31-11.14 N",
		"longitude": "85-26-44.32 W",
		"state": "ALABAMA",
		"artcc": "ZJX",
		"type": "RNAV",
		"updated": "06/20/2012"
	},
	{
		"name": "UMRAW",
		"latitude": "30-48-39.19 N",
		"longitude": "83-41-31.52 W",
		"state": "GEORGIA",
		"artcc": "ZJX",
		"type": "RNAV",
		"updated": "06/27/2013"
	},
	{
		"name": "UNIKE",
		"latitude": "31-36-37.69 N",
		"longitude": "84-6-51.49 W",
		"state": "GEORGIA",
		"artcc": "ZJX",
		"type": "RNAV",
		"updated": "07/15/2009"
	},
	{
		"name": "UNJAM",
		"latitude": "34-12-56.5 N",
		"longitude": "80-48-10.81 W",
		"state": "SOUTH CAROLINA",
		"artcc": "ZJX",
		"type": "RNAV",
		"updated": "11/10/2016"
	},
	{
		"name": "UNSEH",
		"latitude": "31-26-56.04 N",
		"longitude": "82-53-6.94 W",
		"state": "GEORGIA",
		"artcc": "ZJX",
		"type": "RNAV",
		"updated": "07/10/2011"
	},
	{
		"name": "UPTON",
		"latitude": "31-30-22.68 N",
		"longitude": "82-47-24.08 W",
		"state": "GEORGIA",
		"artcc": "ZJX",
		"type": "RP",
		"updated": "AYS*VORTAC*319.83/18.57"
	},
	{
		"name": "URICU",
		"latitude": "33-14-45.14 N",
		"longitude": "79-58-10.67 W",
		"state": "SOUTH CAROLINA",
		"artcc": "ZJX",
		"type": "RNAV",
		"updated": "12/05/2008"
	},
	{
		"name": "URIVE",
		"latitude": "28-8-5.19 N",
		"longitude": "82-2-24.44 W",
		"state": "FLORIDA",
		"artcc": "ZJX",
		"type": "RP",
		"updated": "LAL*VORTAC*350.10/9.00"
	},
	{
		"name": "URIVY",
		"latitude": "30-22-24.09 N",
		"longitude": "87-53-32.41 W",
		"state": "ALABAMA",
		"artcc": "ZJX",
		"type": "RP",
		"updated": "NUN*VOR*257.56"
	},
	{
		"name": "URTIC",
		"latitude": "28-52-7.69 N",
		"longitude": "82-47-48.88 W",
		"state": "FLORIDA",
		"artcc": "ZJX",
		"type": "RNAV",
		"updated": "06/27/2013"
	},
	{
		"name": "USERY",
		"latitude": "31-23-16.17 N",
		"longitude": "85-31-42.71 W",
		"state": "ALABAMA",
		"artcc": "ZJX",
		"type": "RP",
		"updated": "OZR*VOR/DME*057.95"
	},
	{
		"name": "USEWA",
		"latitude": "29-39-20.72 N",
		"longitude": "82-23-0.97 W",
		"state": "FLORIDA",
		"artcc": "ZJX",
		"type": "RP",
		"updated": "GNV*VORTAC*253.40/6.18"
	},
	{
		"name": "USODE",
		"latitude": "33-39-27.69 N",
		"longitude": "81-20-54.24 W",
		"state": "SOUTH CAROLINA",
		"artcc": "ZJX",
		"type": "RNAV",
		"updated": "04/03/2012"
	},
	{
		"name": "USPEC",
		"latitude": "31-1-43.47 N",
		"longitude": "85-46-48.98 W",
		"state": "ALABAMA",
		"artcc": "ZJX",
		"type": "RNAV",
		"updated": "06/12/2014"
	},
	{
		"name": "USSAD",
		"latitude": "32-18-47.78 N",
		"longitude": "80-44-28.68 W",
		"state": "SOUTH CAROLINA",
		"artcc": "ZJX",
		"type": "MR",
		"updated": "NBC*TACAN*192.00/10.00"
	},
	{
		"name": "UTACU",
		"latitude": "32-43-13.45 N",
		"longitude": "79-44-3.7 W",
		"state": "SOUTH CAROLINA",
		"artcc": "ZJX",
		"type": "RNAV",
		"updated": "04/26/2013"
	},
	{
		"name": "UTAWI",
		"latitude": "28-25-0.77 N",
		"longitude": "82-2-19.52 W",
		"state": "FLORIDA",
		"artcc": "ZJX",
		"type": "RNAV",
		"updated": "12/09/2010"
	},
	{
		"name": "UTIKE",
		"latitude": "33-47-55.44 N",
		"longitude": "79-46-31 W",
		"state": "SOUTH CAROLINA",
		"artcc": "ZJX",
		"type": "RNAV",
		"updated": "02/02/2007"
	},
	{
		"name": "UTIMY",
		"latitude": "28-46-54.83 N",
		"longitude": "81-7-53.04 W",
		"state": "FLORIDA",
		"artcc": "ZJX",
		"type": "RP",
		"updated": "ORL*VORTAC*036.85"
	},
	{
		"name": "UTOBE",
		"latitude": "27-59-15.74 N",
		"longitude": "82-23-20.3 W",
		"state": "FLORIDA",
		"artcc": "ZJX",
		"type": "RNAV",
		"updated": "04/19/2012"
	},
	{
		"name": "UTOGY",
		"latitude": "33-46-40.36 N",
		"longitude": "79-56-13.5 W",
		"state": "SOUTH CAROLINA",
		"artcc": "ZJX",
		"type": "RNAV",
		"updated": "05/24/2017"
	},
	{
		"name": "UTOYI",
		"latitude": "33-1-54.65 N",
		"longitude": "81-17-3.47 W",
		"state": "SOUTH CAROLINA",
		"artcc": "ZJX",
		"type": "RNAV",
		"updated": "08/19/2013"
	},
	{
		"name": "UTOZE",
		"latitude": "29-29-57.36 N",
		"longitude": "82-18-33.21 W",
		"state": "FLORIDA",
		"artcc": "ZJX",
		"type": "RNAV",
		"updated": "02/01/2007"
	},
	{
		"name": "UTUYO",
		"latitude": "33-7-17.5 N",
		"longitude": "80-11-58.96 W",
		"state": "SOUTH CAROLINA",
		"artcc": "ZJX",
		"type": "RNAV",
		"updated": "06/08/2010"
	},
	{
		"name": "UVEWU",
		"latitude": "34-42-45.91 N",
		"longitude": "80-23-17.47 W",
		"state": "SOUTH CAROLINA",
		"artcc": "ZJX",
		"type": "RNAV",
		"updated": "01/25/2017"
	},
	{
		"name": "UVITE",
		"latitude": "32-4-57.82 N",
		"longitude": "81-13-24.07 W",
		"state": "GEORGIA",
		"artcc": "ZJX",
		"type": "RP",
		"updated": "SAV*VORTAC*204.00/4.00"
	},
	{
		"name": "UWAZE",
		"latitude": "30-30-56.96 N",
		"longitude": "87-42-3.15 W",
		"state": "ALABAMA",
		"artcc": "ZJX",
		"type": "RNAV",
		"updated": "05/16/2016"
	},
	{
		"name": "UWBUY",
		"latitude": "30-32-47.16 N",
		"longitude": "81-46-7.17 W",
		"state": "FLORIDA",
		"artcc": "ZJX",
		"type": "RP",
		"updated": "CRG*VORTAC*315.86/18.29"
	},
	{
		"name": "UXDEP",
		"latitude": "33-52-10.91 N",
		"longitude": "78-58-33.06 W",
		"state": "SOUTH CAROLINA",
		"artcc": "ZJX",
		"type": "RP",
		"updated": "CRE*VORTAC*287.98"
	},
	{
		"name": "UXFIM",
		"latitude": "28-46-55.04 N",
		"longitude": "81-0-31.89 W",
		"state": "FLORIDA",
		"artcc": "ZJX",
		"type": "RP",
		"updated": "OMN*VORTAC*170.05"
	},
	{
		"name": "UXPIG",
		"latitude": "34-0-53.22 N",
		"longitude": "80-52-49.54 W",
		"state": "SOUTH CAROLINA",
		"artcc": "ZJX",
		"type": "RNAV",
		"updated": "07/12/2005"
	},
	{
		"name": "UXTAR",
		"latitude": "34-8-1.71 N",
		"longitude": "78-39-56.08 W",
		"state": "NORTH CAROLINA",
		"artcc": "ZJX",
		"type": "RNAV",
		"updated": "02/09/2018"
	},
	{
		"name": "UYAYE",
		"latitude": "29-19-22.8 N",
		"longitude": "82-30-36.81 W",
		"state": "FLORIDA",
		"artcc": "ZJX",
		"type": "RP",
		"updated": "02/02/2007"
	},
	{
		"name": "UZADY",
		"latitude": "32-46-18.77 N",
		"longitude": "80-2-46.88 W",
		"state": "SOUTH CAROLINA",
		"artcc": "ZJX",
		"type": "RNAV",
		"updated": "06/13/2012"
	},
	{
		"name": "UZBIN",
		"latitude": "31-6-33.61 N",
		"longitude": "86-15-6.15 W",
		"state": "ALABAMA",
		"artcc": "ZJX",
		"type": "RNAV",
		"updated": "09/01/2009"
	},
	{
		"name": "UZIVI",
		"latitude": "30-9-13.51 N",
		"longitude": "83-35-1.68 W",
		"state": "FLORIDA",
		"artcc": "ZJX",
		"type": "RNAV",
		"updated": "08/08/2010"
	},
	{
		"name": "UZLEL",
		"latitude": "28-28-48.9 N",
		"longitude": "81-27-36.04 W",
		"state": "FLORIDA",
		"artcc": "ZJX",
		"type": "RNAV",
		"updated": "02/09/2018"
	},
	{
		"name": "UZUBU",
		"latitude": "28-34-37.82 N",
		"longitude": "81-29-26.28 W",
		"state": "FLORIDA",
		"artcc": "ZJX",
		"type": "RNAV",
		"updated": "08/11/2012"
	}
]
