	{
		"name": "WABEN",
		"latitude": "30-40-12.23 N",
		"longitude": "87-14-26.47 W",
		"state": "FLORIDA",
		"artcc": "ZJX",
		"type": "RNAV",
		"updated": "06/20/2012",
	},
	{
		"name": "WABIT",
		"latitude": "31-40-17.85 N",
		"longitude": "82-0-25.62 W",
		"state": "GEORGIA",
		"artcc": "ZJX",
		"type": "RP",
		"updated": "AMG*VORTAC*072.38/26.91",
	},
	{
		"name": "WABKO",
		"latitude": "30-10-31.92 N",
		"longitude": "87-36-56.77 W",
		"state": "FLORIDA",
		"artcc": "ZJX",
		"type": "MR",
		"updated": "NPA*TACAN*234.00/19.00",
	},
	{
		"name": "WABLO",
		"latitude": "32-46-20.82 N",
		"longitude": "80-0-33.2 W",
		"state": "SOUTH CAROLINA",
		"artcc": "ZJX",
		"type": "RNAV",
		"updated": "07/05/2011",
	},
	{
		"name": "WABSO",
		"latitude": "30-21-10.29 N",
		"longitude": "81-53-1.07 W",
		"state": "FLORIDA",
		"artcc": "ZJX",
		"type": "MR",
		"updated": "NRB*TACAN*268.00/24.00",
	},
	{
		"name": "WABUK",
		"latitude": "31-7-50.91 N",
		"longitude": "85-21-19.21 W",
		"state": "ALABAMA",
		"artcc": "ZJX",
		"type": "RP",
		"updated": "RRS*VORTAC*155.00/10.00",
	},
	{
		"name": "WADEB",
		"latitude": "32-7-55.53 N",
		"longitude": "81-41-22.37 W",
		"state": "GEORGIA",
		"artcc": "ZJX",
		"type": "RP",
		"updated": "SAV*VORTAC*/25.00",
	},
	{
		"name": "WADED",
		"latitude": "34-8-3.55 N",
		"longitude": "78-53-50.99 W",
		"state": "SOUTH CAROLINA",
		"artcc": "ZJX",
		"type": "RNAV",
		"updated": "06/03/2009",
	},
	{
		"name": "WADIG",
		"latitude": "30-44-10.93 N",
		"longitude": "81-33-13.46 W",
		"state": "GEORGIA",
		"artcc": "ZJX",
		"type": "RNAV",
		"updated": "08/26/2013",
	},
	{
		"name": "WADLO",
		"latitude": "31-28-44.88 N",
		"longitude": "85-42-42.07 W",
		"state": "ALABAMA",
		"artcc": "ZJX",
		"type": "RNAV",
		"updated": "04/19/2013",
	},
	{
		"name": "WADOR",
		"latitude": "30-22-21.43 N",
		"longitude": "81-45-49.02 W",
		"state": "FLORIDA",
		"artcc": "ZJX",
		"type": "RNAV",
		"updated": "08/26/2013",
	},
	{
		"name": "WAGKY",
		"latitude": "31-21-38.69 N",
		"longitude": "85-6-16.34 W",
		"state": "ALABAMA",
		"artcc": "ZJX",
		"type": "RNAV",
		"updated": "03/26/2012",
	},
	{
		"name": "WAGRA",
		"latitude": "33-49-59.02 N",
		"longitude": "78-41-30.51 W",
		"state": "SOUTH CAROLINA",
		"artcc": "ZJX",
		"type": "RP",
		"updated": "CRE*VORTAC*057.87/2.00",
	},
	{
		"name": "WAJQO",
		"latitude": "29-39-35.25 N",
		"longitude": "82-10-9.72 W",
		"state": "FLORIDA",
		"artcc": "ZJX",
		"type": "RP",
		"updated": "OCF*VORTAC*005.89",
	},
	{
		"name": "WAKIE",
		"latitude": "31-38-19.6 N",
		"longitude": "82-26-30.56 W",
		"state": "GEORGIA",
		"artcc": "ZJX",
		"type": "RP",
		"updated": "AMG*VORTAC*029.00/7.00",
	},
	{
		"name": "WALEN",
		"latitude": "31-1-41.39 N",
		"longitude": "85-3-17.17 W",
		"state": "ALABAMA",
		"artcc": "ZJX",
		"type": "RNAV",
		"updated": "12/10/2015",
	},
	{
		"name": "WALIR",
		"latitude": "34-22-24.87 N",
		"longitude": "80-8-2.06 W",
		"state": "SOUTH CAROLINA",
		"artcc": "ZJX",
		"type": "RNAV",
		"updated": "07/12/2017",
	},
	{
		"name": "WALMO",
		"latitude": "31-20-24.88 N",
		"longitude": "81-21-14.49 W",
		"state": "GEORGIA",
		"artcc": "ZJX",
		"type": "RNAV",
		"updated": "12/18/2002",
	},
	{
		"name": "WALOP",
		"latitude": "30-31-22 N",
		"longitude": "83-6-30 W",
		"state": "FLORIDA",
		"artcc": "ZJX",
		"type": "RNAV",
		"updated": "08/26/2013",
	},
	{
		"name": "WALPI",
		"latitude": "31-13-18.92 N",
		"longitude": "83-25-18.64 W",
		"state": "GEORGIA",
		"artcc": "ZJX",
		"type": "RP",
		"updated": "OTK*VOR/DME*346.54/27.43",
	},
	{
		"name": "WALTR",
		"latitude": "28-4-42.11 N",
		"longitude": "82-54-50.67 W",
		"state": "FLORIDA",
		"artcc": "ZJX",
		"type": "RP",
		"updated": "SRQ*VOR/DME*340.17/44.29",
	},
	{
		"name": "WAMAL",
		"latitude": "29-3-47.44 N",
		"longitude": "81-20-47.76 W",
		"state": "FLORIDA",
		"artcc": "ZJX",
		"type": "RP",
		"updated": "OMN*VORTAC*220.59/18.90",
	},
	{
		"name": "WANDO",
		"latitude": "33-2-3.39 N",
		"longitude": "79-50-27.43 W",
		"state": "SOUTH CAROLINA",
		"artcc": "ZJX",
		"type": "RP",
		"updated": "CHS*VORTAC*054.80/13.00",
	},
	{
		"name": "WANRA",
		"latitude": "32-41-40.26 N",
		"longitude": "80-41-9.76 W",
		"state": "SOUTH CAROLINA",
		"artcc": "ZJX",
		"type": "MR",
		"updated": "NBC*TACAN*012.00/13.00",
	},
	{
		"name": "WAPCE",
		"latitude": "31-24-25.5 N",
		"longitude": "85-26-44.15 W",
		"state": "ALABAMA",
		"artcc": "ZJX",
		"type": "RNAV",
		"updated": "06/20/2012",
	},
	{
		"name": "WAPIM",
		"latitude": "30-26-47.1 N",
		"longitude": "84-21-45.08 W",
		"state": "FLORIDA",
		"artcc": "ZJX",
		"type": "RP",
		"updated": "SZW*VORTAC*172.85/6.60",
	},
	{
		"name": "WARLY",
		"latitude": "30-17-25.69 N",
		"longitude": "87-26-47.14 W",
		"state": "ALABAMA",
		"artcc": "ZJX",
		"type": "RP",
		"updated": "NUN*VOR*206.84",
	},
	{
		"name": "WARNR",
		"latitude": "34-28-13.23 N",
		"longitude": "80-0-25.48 W",
		"state": "SOUTH CAROLINA",
		"artcc": "ZJX",
		"type": "RP",
		"updated": "FLO*VORTAC*312.38/22.46",
	},
	{
		"name": "WARUK",
		"latitude": "30-29-50.95 N",
		"longitude": "87-52-11.93 W",
		"state": "ALABAMA",
		"artcc": "ZJX",
		"type": "RNAV",
		"updated": "03/24/2011",
	},
	{
		"name": "WASSA",
		"latitude": "32-0-17.03 N",
		"longitude": "80-59-10.15 W",
		"state": "GEORGIA",
		"artcc": "ZJX",
		"type": "MR",
		"updated": "SVN*LD*E CRS/9.31",
	},
	{
		"name": "WATKI",
		"latitude": "29-41-5.71 N",
		"longitude": "83-10-14.06 W",
		"state": "FLORIDA",
		"artcc": "ZJX",
		"type": "RNAV",
		"updated": "10/14/2010",
	},
	{
		"name": "WATMA",
		"latitude": "32-35-38.04 N",
		"longitude": "80-56-5.36 W",
		"state": "SOUTH CAROLINA",
		"artcc": "ZJX",
		"type": "MR",
		"updated": "NBC*TACAN*307.00/13.00",
	},
	{
		"name": "WAVKA",
		"latitude": "31-41-29.97 N",
		"longitude": "84-1-42 W",
		"state": "GEORGIA",
		"artcc": "ZJX",
		"type": "RNAV",
		"updated": "07/15/2009",
	},
	{
		"name": "WBODY",
		"latitude": "34-8-54.39 N",
		"longitude": "81-37-55.13 W",
		"state": "SOUTH CAROLINA",
		"artcc": "ZJX",
		"type": "RNAV",
		"updated": "11/10/2016",
	},
	{
		"name": "WEBBE",
		"latitude": "28-51-58.81 N",
		"longitude": "82-27-35.76 W",
		"state": "FLORIDA",
		"artcc": "ZJX",
		"type": "RNAV",
		"updated": "06/27/2013",
	},
	{
		"name": "WEBBS",
		"latitude": "28-30-50.09 N",
		"longitude": "82-6-26.63 W",
		"state": "FLORIDA",
		"artcc": "ZJX",
		"type": "RP",
		"updated": "ORL*VORTAC*267.77",
	},
	{
		"name": "WEDEP",
		"latitude": "33-19-13.66 N",
		"longitude": "79-53-13.72 W",
		"state": "SOUTH CAROLINA",
		"artcc": "ZJX",
		"type": "RNAV",
		"updated": "12/05/2008",
	},
	{
		"name": "WEDIP",
		"latitude": "31-17-47.08 N",
		"longitude": "86-20-44.71 W",
		"state": "ALABAMA",
		"artcc": "ZJX",
		"type": "RNAV",
		"updated": "06/09/2011",
	},
	{
		"name": "WEDOM",
		"latitude": "30-57-8.04 N",
		"longitude": "86-33-14.32 W",
		"state": "FLORIDA",
		"artcc": "ZJX",
		"type": "RNAV",
		"updated": "08/20/2004",
	},
	{
		"name": "WEDUS",
		"latitude": "30-29-28.2 N",
		"longitude": "86-57-36.34 W",
		"state": "FLORIDA",
		"artcc": "ZJX",
		"type": "MR",
		"updated": "NGS*TACAN*188.00/7.50",
	},
	{
		"name": "WEEMS",
		"latitude": "30-42-40.95 N",
		"longitude": "83-13-43.65 W",
		"state": "GEORGIA",
		"artcc": "ZJX",
		"type": "MR",
		"updated": "VAD*TACAN*190.00/15.00",
	},
	{
		"name": "WEGAP",
		"latitude": "30-5-8.85 N",
		"longitude": "85-35-27.81 W",
		"state": "FLORIDA",
		"artcc": "ZJX",
		"type": "MR",
		"updated": "PAM*TACAN*310.00/1.20",
	},
	{
		"name": "WEGDU",
		"latitude": "30-30-28.67 N",
		"longitude": "86-30-32.89 W",
		"state": "FLORIDA",
		"artcc": "ZJX",
		"type": "MR",
		"updated": "CAH*LD*012.19/2.30",
	},
	{
		"name": "WEGOR",
		"latitude": "28-59-3.94 N",
		"longitude": "80-49-48.34 W",
		"state": "FLORIDA",
		"artcc": "ZJX",
		"type": "RNAV",
		"updated": "10/12/2006",
	},
	{
		"name": "WEGSO",
		"latitude": "29-6-46.74 N",
		"longitude": "82-19-12.86 W",
		"state": "FLORIDA",
		"artcc": "ZJX",
		"type": "RNAV",
		"updated": "02/27/2012",
	},
	{
		"name": "WEKAG",
		"latitude": "33-22-38.22 N",
		"longitude": "79-57-36.11 W",
		"state": "SOUTH CAROLINA",
		"artcc": "ZJX",
		"type": "RNAV",
		"updated": "12/05/2008",
	},
	{
		"name": "WEKDU",
		"latitude": "32-38-41.25 N",
		"longitude": "80-41-35.8 W",
		"state": "SOUTH CAROLINA",
		"artcc": "ZJX",
		"type": "MR",
		"updated": "NBC*TACAN*012.00/10.00",
	},
	{
		"name": "WEKLU",
		"latitude": "29-11-23.29 N",
		"longitude": "81-7-14.04 W",
		"state": "FLORIDA",
		"artcc": "ZJX",
		"type": "RNAV",
		"updated": "04/12/2006",
	},
	{
		"name": "WEKNG",
		"latitude": "32-58-9.91 N",
		"longitude": "80-12-5.09 W",
		"state": "SOUTH CAROLINA",
		"artcc": "ZJX",
		"type": "RNAV",
		"updated": "06/13/2012",
	},
	{
		"name": "WELMU",
		"latitude": "30-20-6.08 N",
		"longitude": "84-11-51 W",
		"state": "FLORIDA",
		"artcc": "ZJX",
		"type": "RNAV",
		"updated": "11/02/2017",
	},
	{
		"name": "WELUP",
		"latitude": "28-11-56.52 N",
		"longitude": "82-20-55.93 W",
		"state": "FLORIDA",
		"artcc": "ZJX",
		"type": "RNAV",
		"updated": "04/23/2010",
	},
	{
		"name": "WEMSA",
		"latitude": "32-30-7.21 N",
		"longitude": "80-41-51.51 W",
		"state": "SOUTH CAROLINA",
		"artcc": "ZJX",
		"type": "MR",
		"updated": "NBC*TACAN*040.99/1.70",
	},
	{
		"name": "WENEX",
		"latitude": "32-55-56.27 N",
		"longitude": "80-3-45.83 W",
		"state": "SOUTH CAROLINA",
		"artcc": "ZJX",
		"type": "RP",
		"updated": "CHS*VORTAC*/2.60",
	},
	{
		"name": "WENGU",
		"latitude": "28-11-39.89 N",
		"longitude": "82-29-51.75 W",
		"state": "FLORIDA",
		"artcc": "ZJX",
		"type": "RNAV",
		"updated": "07/14/2008",
	},
	{
		"name": "WEPAT",
		"latitude": "28-46-12.24 N",
		"longitude": "81-1-2.74 W",
		"state": "FLORIDA",
		"artcc": "ZJX",
		"type": "RNAV",
		"updated": "08/12/2008",
	},
	{
		"name": "WERPO",
		"latitude": "28-25-47.67 N",
		"longitude": "81-32-9.35 W",
		"state": "FLORIDA",
		"artcc": "ZJX",
		"type": "RP",
		"updated": "ORL*VORTAC*237.61",
	},
	{
		"name": "WERUV",
		"latitude": "29-35-37.25 N",
		"longitude": "82-12-3.01 W",
		"state": "FLORIDA",
		"artcc": "ZJX",
		"type": "RNAV",
		"updated": "11/02/2017",
	},
	{
		"name": "WESAS",
		"latitude": "28-37-50.51 N",
		"longitude": "82-20-17.36 W",
		"state": "FLORIDA",
		"artcc": "ZJX",
		"type": "RNAV",
		"updated": "02/27/2012",
	},
	{
		"name": "WESEL",
		"latitude": "33-26-55.05 N",
		"longitude": "79-52-53.75 W",
		"state": "SOUTH CAROLINA",
		"artcc": "ZJX",
		"type": "RP",
		"updated": "VAN*VORTAC*099.00",
	},
	{
		"name": "WESJY",
		"latitude": "30-12-36.14 N",
		"longitude": "85-26-41.5 W",
		"state": "FLORIDA",
		"artcc": "ZJX",
		"type": "RNAV",
		"updated": "04/19/2012",
	},
	{
		"name": "WETEL",
		"latitude": "34-28-56.54 N",
		"longitude": "80-24-24.12 W",
		"state": "SOUTH CAROLINA",
		"artcc": "ZJX",
		"type": "RP",
		"updated": "CTF*VOR/DME*216.00/12.00",
	},
	{
		"name": "WETGO",
		"latitude": "30-20-26.59 N",
		"longitude": "86-40-53.9 W",
		"state": "FLORIDA",
		"artcc": "ZJX",
		"type": "MR",
		"updated": "HRT*TACAN*/5.20",
	},
	{
		"name": "WETVO",
		"latitude": "31-43-54.09 N",
		"longitude": "84-16-21.4 W",
		"state": "GEORGIA",
		"artcc": "ZJX",
		"type": "RNAV",
		"updated": "12/11/2006",
	},
	{
		"name": "WEVEX",
		"latitude": "34-13-31.05 N",
		"longitude": "80-39-12.81 W",
		"state": "SOUTH CAROLINA",
		"artcc": "ZJX",
		"type": "RNAV",
		"updated": "09/06/2007",
	},
	{
		"name": "WEVLU",
		"latitude": "33-32-41.81 N",
		"longitude": "80-37-57.11 W",
		"state": "SOUTH CAROLINA",
		"artcc": "ZJX",
		"type": "RNAV",
		"updated": "04/27/2010",
	},
	{
		"name": "WEVOB",
		"latitude": "31-2-26.51 N",
		"longitude": "83-44-47.31 W",
		"state": "GEORGIA",
		"artcc": "ZJX",
		"type": "RNAV",
		"updated": "04/15/2014",
	},
	{
		"name": "WEWAH",
		"latitude": "30-9-8.37 N",
		"longitude": "85-24-9.63 W",
		"state": "FLORIDA",
		"artcc": "ZJX",
		"type": "MR",
		"updated": "PAM*TACAN*066.00/10.00",
	},
	{
		"name": "WEXUR",
		"latitude": "29-38-36.82 N",
		"longitude": "81-46-33.99 W",
		"state": "FLORIDA",
		"artcc": "ZJX",
		"type": "RNAV",
		"updated": "11/02/2017",
	},
	{
		"name": "WHYDE",
		"latitude": "30-18-39.14 N",
		"longitude": "81-32-5.23 W",
		"state": "FLORIDA",
		"artcc": "ZJX",
		"type": "RNAV",
		"updated": "05/27/2014",
	},
	{
		"name": "WIBEM",
		"latitude": "32-36-50.73 N",
		"longitude": "80-36-4.87 W",
		"state": "SOUTH CAROLINA",
		"artcc": "ZJX",
		"type": "MR",
		"updated": "NBC*TACAN*041.00/10.00",
	},
	{
		"name": "WIBIK",
		"latitude": "30-14-53.93 N",
		"longitude": "87-42-3.98 W",
		"state": "ALABAMA",
		"artcc": "ZJX",
		"type": "RNAV",
		"updated": "05/16/2016",
	},
	{
		"name": "WIBIN",
		"latitude": "31-19-34.06 N",
		"longitude": "85-49-24.28 W",
		"state": "ALABAMA",
		"artcc": "ZJX",
		"type": "MR",
		"updated": "OZR*VOR/DME*307.47",
	},
	{
		"name": "WIBSI",
		"latitude": "33-0-25.37 N",
		"longitude": "80-40-8.84 W",
		"state": "SOUTH CAROLINA",
		"artcc": "ZJX",
		"type": "RNAV",
		"updated": "01/01/2010",
	},
	{
		"name": "WIBSU",
		"latitude": "34-9-35.09 N",
		"longitude": "81-15-23.08 W",
		"state": "SOUTH CAROLINA",
		"artcc": "ZJX",
		"type": "RNAV",
		"updated": "06/06/2012",
	},
	{
		"name": "WIDER",
		"latitude": "34-9-27.05 N",
		"longitude": "81-16-26.39 W",
		"state": "SOUTH CAROLINA",
		"artcc": "ZJX",
		"type": "RP",
		"updated": "CAE*VORTAC*330.66/21.07",
	},
	{
		"name": "WIDPU",
		"latitude": "32-1-57.12 N",
		"longitude": "82-47-23.93 W",
		"state": "GEORGIA",
		"artcc": "ZJX",
		"type": "RNAV",
		"updated": "06/16/2008",
	},
	{
		"name": "WIGAS",
		"latitude": "34-38-36.35 N",
		"longitude": "79-47-59.39 W",
		"state": "SOUTH CAROLINA",
		"artcc": "ZJX",
		"type": "RNAV",
		"updated": "05/22/2007",
	},
	{
		"name": "WIGER",
		"latitude": "30-34-48.25 N",
		"longitude": "81-25-28.9 W",
		"state": "FLORIDA",
		"artcc": "ZJX",
		"type": "RP",
		"updated": "CRG*VORTAC*020.00/15.10",
	},
	{
		"name": "WIGID",
		"latitude": "31-6-21.4 N",
		"longitude": "81-33-56.07 W",
		"state": "GEORGIA",
		"artcc": "ZJX",
		"type": "RP",
		"updated": "SSI*VORTAC*302.33/7.00",
	},
	{
		"name": "WIGUT",
		"latitude": "29-41-31.93 N",
		"longitude": "82-16-50.03 W",
		"state": "FLORIDA",
		"artcc": "ZJX",
		"type": "RP",
		"updated": "GNV*VORTAC*274.76/1.00",
	},
	{
		"name": "WIGVO",
		"latitude": "32-27-24 N",
		"longitude": "82-2-18 W",
		"state": "GEORGIA",
		"artcc": "ZTL",
		"type": "RNAV",
		"updated": "01/16/2018",
	},
	{
		"name": "WIKEM",
		"latitude": "30-47-15.19 N",
		"longitude": "84-11-34.76 W",
		"state": "GEORGIA",
		"artcc": "ZJX",
		"type": "RNAV",
		"updated": "05/23/2017",
	},
	{
		"name": "WIKET",
		"latitude": "31-19-30.83 N",
		"longitude": "82-23-58.06 W",
		"state": "GEORGIA",
		"artcc": "ZJX",
		"type": "RP",
		"updated": "AYS*VORTAC*067.47",
	},
	{
		"name": "WILDS",
		"latitude": "34-27-31.75 N",
		"longitude": "78-48-24.68 W",
		"state": "NORTH CAROLINA",
		"artcc": "ZJX",
		"type": "RP",
		"updated": "FAY*VOR/DME*177.88/31.73",
	},
	{
		"name": "WILIT",
		"latitude": "33-29-30.86 N",
		"longitude": "79-27-38.84 W",
		"state": "SOUTH CAROLINA",
		"artcc": "ZJX",
		"type": "RNAV",
		"updated": "07/05/2011",
	},
	{
		"name": "WILMU",
		"latitude": "31-3-36.23 N",
		"longitude": "83-11-7.18 W",
		"state": "GEORGIA",
		"artcc": "ZJX",
		"type": "MR",
		"updated": "VAD*TACAN*007.00/6.00",
	},
	{
		"name": "WILON",
		"latitude": "29-25-4.24 N",
		"longitude": "82-41-35.61 W",
		"state": "FLORIDA",
		"artcc": "ZJX",
		"type": "RP",
		"updated": "CTY*VORTAC*122.13/21.54",
	},
	{
		"name": "WILRO",
		"latitude": "33-7-29.44 N",
		"longitude": "80-6-10.91 W",
		"state": "SOUTH CAROLINA",
		"artcc": "ZJX",
		"type": "RNAV",
		"updated": "12/05/2008",
	},
	{
		"name": "WILSI",
		"latitude": "34-34-39.29 N",
		"longitude": "80-0-19.12 W",
		"state": "SOUTH CAROLINA",
		"artcc": "ZJX",
		"type": "RNAV",
		"updated": "06/08/2010",
	},
	{
		"name": "WINOV",
		"latitude": "30-14-55.07 N",
		"longitude": "81-32-28.7 W",
		"state": "FLORIDA",
		"artcc": "ZJX",
		"type": "RP",
		"updated": "NIP*TACAN*089.20/7.00",
	},
	{
		"name": "WIPKE",
		"latitude": "32-45-36.61 N",
		"longitude": "80-59-48.55 W",
		"state": "SOUTH CAROLINA",
		"artcc": "ZJX",
		"type": "MR",
		"updated": "NBC*TACAN*325.00/22.00",
	},
	{
		"name": "WIPLI",
		"latitude": "32-5-2.21 N",
		"longitude": "80-51-30.54 W",
		"state": "SOUTH CAROLINA",
		"artcc": "ZJX",
		"type": "MW",
		"updated": "05/11/2009",
	},
	{
		"name": "WIPOL",
		"latitude": "34-18-17.83 N",
		"longitude": "78-40-21.29 W",
		"state": "NORTH CAROLINA",
		"artcc": "ZJX",
		"type": "RNAV",
		"updated": "02/29/2016",
	},
	{
		"name": "WIPPS",
		"latitude": "31-58-14.43 N",
		"longitude": "84-18-55.28 W",
		"state": "GEORGIA",
		"artcc": "ZJX",
		"type": "RP",
		"updated": "PZD*VOR/DME*358.56/18.92",
	},
	{
		"name": "WIPSO",
		"latitude": "28-12-16.45 N",
		"longitude": "82-44-21.23 W",
		"state": "FLORIDA",
		"artcc": "ZJX",
		"type": "RP",
		"updated": "PIE*VORTAC*/18.00",
	},
	{
		"name": "WIPUD",
		"latitude": "33-16-24.2 N",
		"longitude": "80-2-8.76 W",
		"state": "SOUTH CAROLINA",
		"artcc": "ZJX",
		"type": "RP",
		"updated": "CHS*VORTAC*005.26/22.70",
	},
	{
		"name": "WIRAB",
		"latitude": "32-22-15.46 N",
		"longitude": "80-19-5.09 W",
		"state": "SOUTH CAROLINA",
		"artcc": "ZJX",
		"type": "MR",
		"updated": "NBC*TACAN*110.00/21.00",
	},
	{
		"name": "WIRAT",
		"latitude": "30-16-58.32 N",
		"longitude": "83-4-37.37 W",
		"state": "FLORIDA",
		"artcc": "ZJX",
		"type": "RNAV",
		"updated": "11/01/2013",
	},
	{
		"name": "WIREB",
		"latitude": "32-24-30 N",
		"longitude": "80-32-20.07 W",
		"state": "SOUTH CAROLINA",
		"artcc": "ZJX",
		"type": "MR",
		"updated": "NBC*TACAN*120.00/10.00",
	},
	{
		"name": "WIRET",
		"latitude": "29-42-1.49 N",
		"longitude": "83-2-7.53 W",
		"state": "FLORIDA",
		"artcc": "ZJX",
		"type": "RNAV",
		"updated": "10/11/2010",
	},
	{
		"name": "WISPO",
		"latitude": "29-17-48.88 N",
		"longitude": "80-46-10.74 W",
		"state": "FLORIDA",
		"artcc": "ZJX",
		"type": "RP",
		"updated": "OMN*VORTAC*091.12/18.00",
	},
	{
		"name": "WISPR",
		"latitude": "32-1-58.86 N",
		"longitude": "81-13-30.7 W",
		"state": "GEORGIA",
		"artcc": "ZJX",
		"type": "RNAV",
		"updated": "07/01/2014",
	},
	{
		"name": "WITHE",
		"latitude": "34-37-55.38 N",
		"longitude": "80-30-21.71 W",
		"state": "SOUTH CAROLINA",
		"artcc": "ZJX",
		"type": "RNAV",
		"updated": "01/25/2017",
	},
	{
		"name": "WIUMS",
		"latitude": "32-10-46.77 N",
		"longitude": "80-46-5.09 W",
		"state": "SOUTH CAROLINA",
		"artcc": "ZJX",
		"type": "RNAV",
		"updated": "06/16/2008",
	},
	{
		"name": "WIVAN",
		"latitude": "33-52-7.55 N",
		"longitude": "78-8-17.04 W",
		"state": "NORTH CAROLINA",
		"artcc": "ZJX",
		"type": "RNAV",
		"updated": "02/26/2010",
	},
	{
		"name": "WIVEL",
		"latitude": "33-7-35.98 N",
		"longitude": "80-36-11.47 W",
		"state": "SOUTH CAROLINA",
		"artcc": "ZJX",
		"type": "RNAV",
		"updated": "01/01/2010",
	},
	{
		"name": "WIWHE",
		"latitude": "31-3-11.97 N",
		"longitude": "82-33-19.57 W",
		"state": "GEORGIA",
		"artcc": "ZJX",
		"type": "RP",
		"updated": "AYS*VORTAC*179.77/12.94",
	},
	{
		"name": "WIXES",
		"latitude": "30-20-43.15 N",
		"longitude": "86-40-36.79 W",
		"state": "FLORIDA",
		"artcc": "ZJX",
		"type": "MR",
		"updated": "HRT*TACAN*175.00/5.00",
	},
	{
		"name": "WIXON",
		"latitude": "32-44-34.12 N",
		"longitude": "81-15-46.97 W",
		"state": "SOUTH CAROLINA",
		"artcc": "ZJX",
		"type": "RP",
		"updated": "SAV*VORTAC*000.82/35.87",
	},
	{
		"name": "WIZZZ",
		"latitude": "33-45-50.97 N",
		"longitude": "81-47-5.77 W",
		"state": "SOUTH CAROLINA",
		"artcc": "ZJX",
		"type": "RNAV",
		"updated": "07/26/2016",
	},
	{
		"name": "WOBTA",
		"latitude": "30-20-10.06 N",
		"longitude": "81-41-2.12 W",
		"state": "FLORIDA",
		"artcc": "ZJX",
		"type": "RNAV",
		"updated": "07/11/2017",
	},
	{
		"name": "WODAM",
		"latitude": "31-29-42.51 N",
		"longitude": "83-19-9.11 W",
		"state": "GEORGIA",
		"artcc": "ZJX",
		"type": "RNAV",
		"updated": "07/19/2011",
	},
	{
		"name": "WODET",
		"latitude": "32-14-11.64 N",
		"longitude": "83-10-59.13 W",
		"state": "GEORGIA",
		"artcc": "ZJX",
		"type": "MR",
		"updated": "MCN*VORTAC*138.00/36.00",
	},
	{
		"name": "WODKU",
		"latitude": "30-14-39.05 N",
		"longitude": "81-53-35.42 W",
		"state": "FLORIDA",
		"artcc": "ZJX",
		"type": "RNAV",
		"updated": "06/09/2014",
	},
	{
		"name": "WOGAD",
		"latitude": "29-15-28.67 N",
		"longitude": "80-51-54.57 W",
		"state": "FLORIDA",
		"artcc": "ZJX",
		"type": "RNAV",
		"updated": "08/13/2014",
	},
	{
		"name": "WOGEF",
		"latitude": "31-11-21.19 N",
		"longitude": "86-10-48.2 W",
		"state": "ALABAMA",
		"artcc": "ZJX",
		"type": "RNAV",
		"updated": "08/10/2009",
	},
	{
		"name": "WOHPY",
		"latitude": "31-50-16.92 N",
		"longitude": "81-12-37.21 W",
		"state": "GEORGIA",
		"artcc": "ZJX",
		"type": "RP",
		"updated": "SVN*VOR/DME*200.83/11.00",
	},
	{
		"name": "WOKNI",
		"latitude": "34-39-11.1 N",
		"longitude": "79-40-52.26 W",
		"state": "SOUTH CAROLINA",
		"artcc": "ZJX",
		"type": "RNAV",
		"updated": "09/12/2013",
	},
	{
		"name": "WOKUR",
		"latitude": "29-35-4.13 N",
		"longitude": "81-26-38.27 W",
		"state": "FLORIDA",
		"artcc": "ZJX",
		"type": "RNAV",
		"updated": "08/20/2010",
	},
	{
		"name": "WOLQU",
		"latitude": "30-32-50.42 N",
		"longitude": "81-46-31.54 W",
		"state": "FLORIDA",
		"artcc": "ZJX",
		"type": "RNAV",
		"updated": "11/03/2011",
	},
	{
		"name": "WOMKA",
		"latitude": "30-50-50.57 N",
		"longitude": "84-4-30.83 W",
		"state": "GEORGIA",
		"artcc": "ZJX",
		"type": "RNAV",
		"updated": "07/08/2011",
	},
	{
		"name": "WOMUT",
		"latitude": "34-18-35.52 N",
		"longitude": "80-2-40.15 W",
		"state": "SOUTH CAROLINA",
		"artcc": "ZJX",
		"type": "RNAV",
		"updated": "06/13/2007",
	},
	{
		"name": "WOMVO",
		"latitude": "30-24-38.92 N",
		"longitude": "81-35-28.04 W",
		"state": "FLORIDA",
		"artcc": "ZJX",
		"type": "RNAV",
		"updated": "11/29/2012",
	},
	{
		"name": "WONEN",
		"latitude": "36-20-28.63 N",
		"longitude": "75-48-28.6 W",
		"state": "NORTH CAROLINA",
		"artcc": "ZJX",
		"type": "RNAV",
		"updated": "01/17/2018",
	},
	{
		"name": "WONLA",
		"latitude": "30-52-36.06 N",
		"longitude": "83-11-30.59 W",
		"state": "GEORGIA",
		"artcc": "ZJX",
		"type": "MR",
		"updated": "VAD*TACAN*/4.99",
	},
	{
		"name": "WOPAX",
		"latitude": "30-54-2.61 N",
		"longitude": "83-51-52.15 W",
		"state": "GEORGIA",
		"artcc": "ZJX",
		"type": "RNAV",
		"updated": "07/08/2011",
	},
	{
		"name": "WOPEL",
		"latitude": "30-45-12.61 N",
		"longitude": "83-18-19.97 W",
		"state": "GEORGIA",
		"artcc": "ZJX",
		"type": "RNAV",
		"updated": "09/30/2013",
	},
	{
		"name": "WOPOX",
		"latitude": "30-19-35.58 N",
		"longitude": "87-23-4.26 W",
		"state": "FLORIDA",
		"artcc": "ZJX",
		"type": "MR",
		"updated": "NPA*TACAN*241.00/4.00",
	},
	{
		"name": "WOPSU",
		"latitude": "33-54-35 N",
		"longitude": "79-7-20.45 W",
		"state": "SOUTH CAROLINA",
		"artcc": "ZJX",
		"type": "RNAV",
		"updated": "05/31/2012",
	},
	{
		"name": "WOQTA",
		"latitude": "30-31-55.09 N",
		"longitude": "81-34-58.35 W",
		"state": "FLORIDA",
		"artcc": "ZJX",
		"type": "RNAV",
		"updated": "11/03/2011",
	},
	{
		"name": "WORAG",
		"latitude": "30-9-37.26 N",
		"longitude": "87-8-20.24 W",
		"state": "FLORIDA",
		"artcc": "ZJX",
		"type": "MR",
		"updated": "NPA*TACAN*141.00/15.00",
	},
	{
		"name": "WORER",
		"latitude": "30-8-26.35 N",
		"longitude": "81-42-52.2 W",
		"state": "FLORIDA",
		"artcc": "ZJX",
		"type": "MR",
		"updated": "NIP*TACAN*206.00/6.00",
	},
	{
		"name": "WORGO",
		"latitude": "31-17-55.76 N",
		"longitude": "81-21-54.78 W",
		"state": "GEORGIA",
		"artcc": "ZJX",
		"type": "RNAV",
		"updated": "09/15/2009",
	},
	{
		"name": "WORIB",
		"latitude": "32-2-33.76 N",
		"longitude": "80-58-7.31 W",
		"state": "GEORGIA",
		"artcc": "ZJX",
		"type": "RNAV",
		"updated": "07/14/2005",
	},
	{
		"name": "WORMS",
		"latitude": "29-0-45.55 N",
		"longitude": "81-22-48.63 W",
		"state": "FLORIDA",
		"artcc": "ZJX",
		"type": "RP",
		"updated": "OMN*VORTAC*219.00",
	},
	{
		"name": "WOROB",
		"latitude": "28-44-46.84 N",
		"longitude": "81-34-5.19 W",
		"state": "FLORIDA",
		"artcc": "ZJX",
		"type": "RNAV",
		"updated": "11/01/2013",
	},
	{
		"name": "WOSAK",
		"latitude": "28-47-37.74 N",
		"longitude": "81-51-18.19 W",
		"state": "FLORIDA",
		"artcc": "ZJX",
		"type": "RNAV",
		"updated": "07/15/2008",
	},
	{
		"name": "WOSEL",
		"latitude": "30-20-33.38 N",
		"longitude": "87-20-30.28 W",
		"state": "FLORIDA",
		"artcc": "ZJX",
		"type": "MR",
		"updated": "NPA*TACAN*234.00/1.60",
	},
	{
		"name": "WOSON",
		"latitude": "34-28-11.74 N",
		"longitude": "80-26-31.69 W",
		"state": "SOUTH CAROLINA",
		"artcc": "ZJX",
		"type": "RNAV",
		"updated": "09/06/2007",
	},
	{
		"name": "WOSUG",
		"latitude": "31-54-42.72 N",
		"longitude": "81-17-46.85 W",
		"state": "GEORGIA",
		"artcc": "ZJX",
		"type": "RNAV",
		"updated": "05/26/2009",
	},
	{
		"name": "WOSVU",
		"latitude": "34-25-7.51 N",
		"longitude": "80-8-34.76 W",
		"state": "SOUTH CAROLINA",
		"artcc": "ZJX",
		"type": "RNAV",
		"updated": "04/21/2017",
	},
	{
		"name": "WOTAX",
		"latitude": "29-40-38.68 N",
		"longitude": "82-19-3.9 W",
		"state": "FLORIDA",
		"artcc": "ZJX",
		"type": "RP",
		"updated": "GNV*VORTAC*253.40/2.50",
	},
	{
		"name": "WOUND",
		"latitude": "30-11-45.93 N",
		"longitude": "84-8-17.4 W",
		"state": "FLORIDA",
		"artcc": "ZJX",
		"type": "RP",
		"updated": "GEF*VORTAC*220.00",
	},
	{
		"name": "WOVIN",
		"latitude": "32-15-44.9 N",
		"longitude": "80-40-31.92 W",
		"state": "SOUTH CAROLINA",
		"artcc": "ZJX",
		"type": "RP",
		"updated": "HXD*LE*033.05/3.00",
	},
	{
		"name": "WOVLU",
		"latitude": "28-18-56.01 N",
		"longitude": "82-9-10.04 W",
		"state": "FLORIDA",
		"artcc": "ZJX",
		"type": "RNAV",
		"updated": "12/09/2010",
	},
	{
		"name": "WOXED",
		"latitude": "31-9-35.1 N",
		"longitude": "81-26-14.83 W",
		"state": "GEORGIA",
		"artcc": "ZJX",
		"type": "RNAV",
		"updated": "05/13/2011",
	},
	{
		"name": "WOXIT",
		"latitude": "32-12-51 N",
		"longitude": "81-27-11.12 W",
		"state": "GEORGIA",
		"artcc": "ZJX",
		"type": "RNAV",
		"updated": "05/26/2009",
	},
	{
		"name": "WRHWK",
		"latitude": "31-33-43 N",
		"longitude": "83-10-0 W",
		"state": "GEORGIA",
		"artcc": "ZJX",
		"type": "RNAV",
		"updated": "08/22/2017",
	},
	{
		"name": "WUBLA",
		"latitude": "30-41-14.72 N",
		"longitude": "87-1-10.43 W",
		"state": "FLORIDA",
		"artcc": "ZJX",
		"type": "MR",
		"updated": "NSE*TACAN*184.00/2.19",
	},
	{
		"name": "WUBSU",
		"latitude": "31-4-56.89 N",
		"longitude": "83-46-19.73 W",
		"state": "GEORGIA",
		"artcc": "ZJX",
		"type": "RP",
		"updated": "GEF*VORTAC*000.02/31.80",
	},
	{
		"name": "WUDOM",
		"latitude": "29-53-46.09 N",
		"longitude": "85-22-10.64 W",
		"state": "FLORIDA",
		"artcc": "ZJX",
		"type": "MR",
		"updated": "PAM*TACAN*/15.00",
	},
	{
		"name": "WUDUK",
		"latitude": "34-26-29.23 N",
		"longitude": "79-53-31.42 W",
		"state": "SOUTH CAROLINA",
		"artcc": "ZJX",
		"type": "RP",
		"updated": "FLO*VORTAC*320.00/17.10",
	},
	{
		"name": "WUGUG",
		"latitude": "29-39-19.87 N",
		"longitude": "81-45-19.44 W",
		"state": "FLORIDA",
		"artcc": "ZJX",
		"type": "RNAV",
		"updated": "08/20/2010",
	},
	{
		"name": "WUKAS",
		"latitude": "30-10-46.74 N",
		"longitude": "85-50-1.77 W",
		"state": "FLORIDA",
		"artcc": "ZJX",
		"type": "MR",
		"updated": "PAM*TACAN*299.00/15.00",
	},
	{
		"name": "WUKBU",
		"latitude": "31-19-31.8 N",
		"longitude": "85-24-59.62 W",
		"state": "ALABAMA",
		"artcc": "ZJX",
		"type": "RNAV",
		"updated": "04/19/2013",
	},
	{
		"name": "WUKSO",
		"latitude": "30-8-24.79 N",
		"longitude": "81-35-45.49 W",
		"state": "FLORIDA",
		"artcc": "ZJX",
		"type": "RP",
		"updated": "NIP*TACAN*150.00/7.00",
	},
	{
		"name": "WULKA",
		"latitude": "33-23-19.12 N",
		"longitude": "80-52-30.11 W",
		"state": "SOUTH CAROLINA",
		"artcc": "ZJX",
		"type": "RNAV",
		"updated": "11/17/2010",
	},
	{
		"name": "WULUK",
		"latitude": "30-57-29.24 N",
		"longitude": "84-52-48.18 W",
		"state": "GEORGIA",
		"artcc": "ZJX",
		"type": "RNAV",
		"updated": "10/24/2011",
	},
	{
		"name": "WUMIS",
		"latitude": "34-1-58.33 N",
		"longitude": "80-19-10.64 W",
		"state": "SOUTH CAROLINA",
		"artcc": "ZJX",
		"type": "RP",
		"updated": "SMS*LD*050.17/3.68",
	},
	{
		"name": "WUMOM",
		"latitude": "31-16-9.79 N",
		"longitude": "83-17-7.82 W",
		"state": "GEORGIA",
		"artcc": "ZJX",
		"type": "RNAV",
		"updated": "02/07/2013",
	},
	{
		"name": "WUNDA",
		"latitude": "30-8-43.44 N",
		"longitude": "85-40-4.46 W",
		"state": "FLORIDA",
		"artcc": "ZJX",
		"type": "MW",
		"updated": "04/13/2017",
	},
	{
		"name": "WUPER",
		"latitude": "30-39-32.03 N",
		"longitude": "87-1-14.58 W",
		"state": "FLORIDA",
		"artcc": "ZJX",
		"type": "MR",
		"updated": "NSE*TACAN*184.00/3.90",
	},
	{
		"name": "WURGO",
		"latitude": "30-22-42.26 N",
		"longitude": "86-40-56.08 W",
		"state": "FLORIDA",
		"artcc": "ZJX",
		"type": "MR",
		"updated": "HRT*TACAN*172.00/3.00",
	},
	{
		"name": "WURLI",
		"latitude": "31-9-39.6 N",
		"longitude": "83-11-20.61 W",
		"state": "GEORGIA",
		"artcc": "ZJX",
		"type": "MR",
		"updated": "VAD*TACAN*/12.03",
	},
	{
		"name": "WUSAL",
		"latitude": "32-29-32.3 N",
		"longitude": "80-44-32.63 W",
		"state": "SOUTH CAROLINA",
		"artcc": "ZJX",
		"type": "MR",
		"updated": "NBC*TACAN*307.00/1.50",
	},
	{
		"name": "WUSOD",
		"latitude": "33-50-6.39 N",
		"longitude": "81-15-13.73 W",
		"state": "SOUTH CAROLINA",
		"artcc": "ZJX",
		"type": "RNAV",
		"updated": "11/07/2011",
	},
	{
		"name": "WUSUB",
		"latitude": "28-44-6.46 N",
		"longitude": "82-47-52.63 W",
		"state": "FLORIDA",
		"artcc": "ZJX",
		"type": "RNAV",
		"updated": "06/25/2013",
	},
	{
		"name": "WUTAL",
		"latitude": "31-11-23.95 N",
		"longitude": "87-4-16.56 W",
		"state": "ALABAMA",
		"artcc": "ZJX",
		"type": "RNAV",
		"updated": "02/27/2013",
	},
	{
		"name": "WUTAR",
		"latitude": "30-24-38.87 N",
		"longitude": "86-31-38.89 W",
		"state": "FLORIDA",
		"artcc": "ZJX",
		"type": "MW",
		"updated": "05/17/2013",
	},
	{
		"name": "WUTNA",
		"latitude": "32-20-5.6 N",
		"longitude": "81-6-11.87 W",
		"state": "SOUTH CAROLINA",
		"artcc": "ZJX",
		"type": "RNAV",
		"updated": "07/14/2005",
	},
	{
		"name": "WUTOG",
		"latitude": "30-27-18.76 N",
		"longitude": "81-39-12.83 W",
		"state": "FLORIDA",
		"artcc": "ZJX",
		"type": "RP",
		"updated": "11/03/2011",
	},
	{
		"name": "WUTUX",
		"latitude": "30-2-17.11 N",
		"longitude": "81-59-8.69 W",
		"state": "FLORIDA",
		"artcc": "ZJX",
		"type": "RP",
		"updated": "NIP*TACAN*240.00/20.00",
	},
	{
		"name": "WUVIN",
		"latitude": "30-26-15.04 N",
		"longitude": "84-14-19.8 W",
		"state": "FLORIDA",
		"artcc": "ZJX",
		"type": "RNAV",
		"updated": "11/02/2017",
	},
	{
		"name": "WUVRO",
		"latitude": "31-29-25.13 N",
		"longitude": "85-34-3.49 W",
		"state": "ALABAMA",
		"artcc": "ZJX",
		"type": "RP",
		"updated": "OZR*VOR/DME*034.55",
	},
	{
		"name": "WUVUB",
		"latitude": "32-27-44.99 N",
		"longitude": "80-44-22.31 W",
		"state": "SOUTH CAROLINA",
		"artcc": "ZJX",
		"type": "MR",
		"updated": "NBC*TACAN*233.70/1.50",
	},
	{
		"name": "WUXEV",
		"latitude": "33-49-39.16 N",
		"longitude": "80-35-34.13 W",
		"state": "SOUTH CAROLINA",
		"artcc": "ZJX",
		"type": "MR",
		"updated": "SSC*TACAN*/11.00",
	},
	{
		"name": "WYATT",
		"latitude": "31-19-22.44 N",
		"longitude": "84-37-30.4 W",
		"state": "GEORGIA",
		"artcc": "ZJX",
		"type": "RP",
		"updated": "CTY*VORTAC*324.01/131.64",
	},
	{
		"name": "WYLDR",
		"latitude": "30-37-13.38 N",
		"longitude": "86-27-51.37 W",
		"state": "FLORIDA",
		"artcc": "ZJX",
		"type": "RP",
		"updated": "DWG*TACAN*019.00/9.00",
	},
	{
		"name": "WYTOK",
		"latitude": "31-12-25.49 N",
		"longitude": "81-3-2.01 W",
		"state": "OFFSHORE ATLANTIC",
		"artcc": "ZJX",
		"type": "RNAV",
		"updated": "08/26/2013",
	},
