[
	{
		"name": "XATAH",
		"latitude": "31-25-44.78 N",
		"longitude": "83-26-56.28 W",
		"state": "GEORGIA",
		"artcc": "ZJX",
		"type": "RNAV",
		"updated": "06/14/2016"
	},
	{
		"name": "XBEGN",
		"latitude": "30-21-35.05 N",
		"longitude": "84-21-20.43 W",
		"state": "FLORIDA",
		"artcc": "ZJX",
		"type": "RP",
		"updated": "SZW*VORTAC*173.39/11.80"
	},
	{
		"name": "XEGXY",
		"latitude": "30-27-15.29 N",
		"longitude": "84-21-33.92 W",
		"state": "FLORIDA",
		"artcc": "ZJX",
		"type": "RNAV",
		"updated": "11/29/2012"
	},
	{
		"name": "XEHMO",
		"latitude": "29-9-20.6 N",
		"longitude": "81-28-45.1 W",
		"state": "FLORIDA",
		"artcc": "ZJX",
		"type": "RNAV",
		"updated": "04/12/2006"
	},
	{
		"name": "XIGIQ",
		"latitude": "30-21-5.3 N",
		"longitude": "84-21-30.05 W",
		"state": "FLORIDA",
		"artcc": "ZJX",
		"type": "RP",
		"updated": "TLH*LD*184.49/3.82"
	},
	{
		"name": "XIKHO",
		"latitude": "31-30-44.09 N",
		"longitude": "84-13-4.89 W",
		"state": "GEORGIA",
		"artcc": "ZJX",
		"type": "RP",
		"updated": "ABY*LD*227.10/2.66"
	},
	{
		"name": "XIPSY",
		"latitude": "30-18-21.75 N",
		"longitude": "84-33-14.25 W",
		"state": "FLORIDA",
		"artcc": "ZJX",
		"type": "RNAV",
		"updated": "11/20/2002"
	},
	{
		"name": "XIRCI",
		"latitude": "34-41-58.37 N",
		"longitude": "80-1-18.91 W",
		"state": "SOUTH CAROLINA",
		"artcc": "ZJX",
		"type": "RP",
		"updated": "CTF*VOR/DME*079.72/12.86"
	},
	{
		"name": "XIVXU",
		"latitude": "30-32-13.87 N",
		"longitude": "81-35-24.26 W",
		"state": "FLORIDA",
		"artcc": "ZJX",
		"type": "RNAV",
		"updated": "10/16/2013"
	},
	{
		"name": "XOTNE",
		"latitude": "30-23-27.44 N",
		"longitude": "84-23-56.17 W",
		"state": "FLORIDA",
		"artcc": "ZJX",
		"type": "RNAV",
		"updated": "05/19/2015"
	}
]
