[
	{
		"name": "ACAGU",
		"latitude": "36-48-58.34 N",
		"longitude": "103-11-42.95 W",
		"state": "NEW MEXICO",
		"artcc": "ZAB",
		"type": "RP",
		"updated": "TBE*VOR/DME*131.62/32.88"
	},
	{
		"name": "ACELI",
		"latitude": "35-25-22.88 N",
		"longitude": "108-5-28.49 W",
		"state": "NEW MEXICO",
		"artcc": "ZAB",
		"type": "RNAV",
		"updated": "09/04/2003"
	},
	{
		"name": "ACERO",
		"latitude": "36-21-48.69 N",
		"longitude": "103-12-43.88 W",
		"state": "NEW MEXICO",
		"artcc": "ZAB",
		"type": "RNAV",
		"updated": "07/11/2013"
	},
	{
		"name": "ACMIE",
		"latitude": "34-56-56.17 N",
		"longitude": "106-40-29.6 W",
		"state": "NEW MEXICO",
		"artcc": "ZAB",
		"type": "RNAV",
		"updated": "03/13/2014"
	},
	{
		"name": "ACOMA",
		"latitude": "34-53-15.74 N",
		"longitude": "107-25-18.56 W",
		"state": "NEW MEXICO",
		"artcc": "ZAB",
		"type": "RP",
		"updated": "ONM*VORTAC*305.00"
	},
	{
		"name": "ACRES",
		"latitude": "32-26-30.05 N",
		"longitude": "105-47-14.21 W",
		"state": "NEW MEXICO",
		"artcc": "ZAB",
		"type": "MR",
		"updated": "HMN*TACAN*137.00/30.00"
	},
	{
		"name": "ADABY",
		"latitude": "35-28-33.58 N",
		"longitude": "108-52-21.41 W",
		"state": "NEW MEXICO",
		"artcc": "ZAB",
		"type": "WP",
		"updated": "02/15/1996"
	},
	{
		"name": "ADOZO",
		"latitude": "36-24-20.68 N",
		"longitude": "104-53-57.63 W",
		"state": "NEW MEXICO",
		"artcc": "ZAB",
		"type": "RP",
		"updated": "CIM*VORTAC*181.47/5.30"
	},
	{
		"name": "ADWOT",
		"latitude": "33-25-43.93 N",
		"longitude": "112-4-8.12 W",
		"state": "ARIZONA",
		"artcc": "ZAB",
		"type": "RNAV",
		"updated": "01/13/2009"
	},
	{
		"name": "ADYAN",
		"latitude": "33-52-45.15 N",
		"longitude": "109-53-7.46 W",
		"state": "ARIZONA",
		"artcc": "ZAB",
		"type": "RP",
		"updated": "IWA*VORTAC*055.22/95.00"
	},
	{
		"name": "ADYOS",
		"latitude": "35-2-51.54 N",
		"longitude": "106-55-28.98 W",
		"state": "NEW MEXICO",
		"artcc": "ZAB",
		"type": "RNAV",
		"updated": "11/18/2012"
	},
	{
		"name": "AEJAY",
		"latitude": "33-22-29.1 N",
		"longitude": "111-28-35.38 W",
		"state": "ARIZONA",
		"artcc": "ZAB",
		"type": "RNAV",
		"updated": "08/08/2014"
	},
	{
		"name": "AFXUR",
		"latitude": "33-38-28.65 N",
		"longitude": "111-53-59.51 W",
		"state": "ARIZONA",
		"artcc": "ZAB",
		"type": "RNAV",
		"updated": "05/12/2009"
	},
	{
		"name": "AGAZY",
		"latitude": "31-11-44.21 N",
		"longitude": "104-8-10.14 W",
		"state": "TEXAS",
		"artcc": "ZAB",
		"type": "RP",
		"updated": "PEQ*VOR/DME*229.55"
	},
	{
		"name": "AGERE",
		"latitude": "33-14-45.8 N",
		"longitude": "112-27-21.64 W",
		"state": "ARIZONA",
		"artcc": "ZAB",
		"type": "RNAV",
		"updated": "09/03/2010"
	},
	{
		"name": "AGGLA",
		"latitude": "33-19-25.11 N",
		"longitude": "112-21-26.94 W",
		"state": "ARIZONA",
		"artcc": "ZAB",
		"type": "RNAV",
		"updated": "08/08/2014"
	},
	{
		"name": "AGOPE",
		"latitude": "31-45-42.9 N",
		"longitude": "106-10-26.42 W",
		"state": "TEXAS",
		"artcc": "ZAB",
		"type": "RNAV",
		"updated": "04/01/2012"
	},
	{
		"name": "AGUAS",
		"latitude": "31-53-45.99 N",
		"longitude": "106-16-3.69 W",
		"state": "TEXAS",
		"artcc": "ZAB",
		"type": "RP",
		"updated": "EWM*VORTAC*163.87"
	},
	{
		"name": "AHHIC",
		"latitude": "31-28-38.65 N",
		"longitude": "110-53-20.06 W",
		"state": "ARIZONA",
		"artcc": "ZAB",
		"type": "CN",
		"updated": "12/21/1999"
	},
	{
		"name": "AHPAZ",
		"latitude": "34-19-11.57 N",
		"longitude": "109-57-31.2 W",
		"state": "ARIZONA",
		"artcc": "ZAB",
		"type": "CN",
		"updated": "12/21/1999"
	},
	{
		"name": "AKACU",
		"latitude": "31-20-44 N",
		"longitude": "110-51-18 W",
		"state": "ARIZONA",
		"artcc": "ZAB",
		"type": "RP",
		"updated": "OLS*VOR/DME*172.32/4.17"
	},
	{
		"name": "AKADE",
		"latitude": "31-43-19.57 N",
		"longitude": "106-19-4.58 W",
		"state": "TEXAS",
		"artcc": "ZAB",
		"type": "RNAV",
		"updated": "12/19/2011"
	},
	{
		"name": "AKASE",
		"latitude": "32-3-31.18 N",
		"longitude": "105-46-26.62 W",
		"state": "NEW MEXICO",
		"artcc": "ZAB",
		"type": "RNAV",
		"updated": "11/28/2016"
	},
	{
		"name": "AKIXE",
		"latitude": "31-57-53.28 N",
		"longitude": "110-45-55.49 W",
		"state": "ARIZONA",
		"artcc": "ZAB",
		"type": "RNAV",
		"updated": "11/16/2010"
	},
	{
		"name": "AKYIV",
		"latitude": "33-14-18.23 N",
		"longitude": "111-34-49.41 W",
		"state": "ARIZONA",
		"artcc": "ZAB",
		"type": "RNAV",
		"updated": "10/26/2011"
	},
	{
		"name": "ALBNY",
		"latitude": "33-16-27.62 N",
		"longitude": "111-37-0.8 W",
		"state": "ARIZONA",
		"artcc": "ZAB",
		"type": "RP",
		"updated": "IWA*VORTAC*121.81/2.45"
	},
	{
		"name": "ALEYI",
		"latitude": "35-36-40.02 N",
		"longitude": "106-4-20.32 W",
		"state": "NEW MEXICO",
		"artcc": "ZAB",
		"type": "RNAV",
		"updated": "10/28/2003"
	},
	{
		"name": "ALEYS",
		"latitude": "33-17-48.11 N",
		"longitude": "112-2-56.63 W",
		"state": "ARIZONA",
		"artcc": "ZAB",
		"type": "RP",
		"updated": "PXR*VORTAC*193.92"
	},
	{
		"name": "ALIBY",
		"latitude": "31-55-16.62 N",
		"longitude": "107-46-44.11 W",
		"state": "NEW MEXICO",
		"artcc": "ZAB",
		"type": "RP",
		"updated": "SSO*VORTAC*092.00/78.46"
	},
	{
		"name": "ALIEE",
		"latitude": "33-13-40.84 N",
		"longitude": "111-30-38.08 W",
		"state": "ARIZONA",
		"artcc": "ZAB",
		"type": "RNAV",
		"updated": "04/23/2012"
	},
	{
		"name": "ALKEM",
		"latitude": "29-48-28 N",
		"longitude": "104-35-13 W",
		"state": "TEXAS",
		"artcc": "ZAB",
		"type": "RP",
		"updated": "09/15/2016"
	},
	{
		"name": "ALLIB",
		"latitude": "35-51-11.44 N",
		"longitude": "100-27-17.25 W",
		"state": "TEXAS",
		"artcc": "ZAB",
		"type": "RNAV",
		"updated": "03/02/2017"
	},
	{
		"name": "ALLIS",
		"latitude": "33-26-57.18 N",
		"longitude": "112-37-31.64 W",
		"state": "ARIZONA",
		"artcc": "ZAB",
		"type": "RP",
		"updated": "BXK*VORTAC*077.40/10.00"
	},
	{
		"name": "ALMON",
		"latitude": "32-23-0.78 N",
		"longitude": "111-29-41.13 W",
		"state": "ARIZONA",
		"artcc": "ZAB",
		"type": "RP",
		"updated": "TFD*VORTAC*133.00/36.67"
	},
	{
		"name": "ALOGE",
		"latitude": "33-25-43.93 N",
		"longitude": "112-4-11.71 W",
		"state": "ARIZONA",
		"artcc": "ZAB",
		"type": "RP",
		"updated": "AHA*LD*258.03/3.62"
	},
	{
		"name": "ALVRZ",
		"latitude": "34-56-15.21 N",
		"longitude": "106-28-8.3 W",
		"state": "NEW MEXICO",
		"artcc": "ZAB",
		"type": "RNAV",
		"updated": "03/13/2014"
	},
	{
		"name": "AMACO",
		"latitude": "35-17-41.79 N",
		"longitude": "101-37-48.28 W",
		"state": "TEXAS",
		"artcc": "ZAB",
		"type": "RNAV",
		"updated": "11/29/2010"
	},
	{
		"name": "AMBRR",
		"latitude": "33-17-27.65 N",
		"longitude": "112-20-50.07 W",
		"state": "ARIZONA",
		"artcc": "ZAB",
		"type": "RP",
		"updated": "IWA*VORTAC*256.00/35.00"
	},
	{
		"name": "AMRRA",
		"latitude": "34-58-38.48 N",
		"longitude": "106-58-25.94 W",
		"state": "NEW MEXICO",
		"artcc": "ZAB",
		"type": "RNAV",
		"updated": "11/24/2012"
	},
	{
		"name": "AMUKI",
		"latitude": "29-30-58 N",
		"longitude": "104-17-39 W",
		"state": "",
		"artcc": "ZAB",
		"type": "RP",
		"updated": "11/15/2007"
	},
	{
		"name": "AMXUK",
		"latitude": "32-57-39.93 N",
		"longitude": "109-23-29.32 W",
		"state": "ARIZONA",
		"artcc": "ZAB",
		"type": "RNAV",
		"updated": "01/05/2011"
	},
	{
		"name": "ANCHO",
		"latitude": "33-36-28.96 N",
		"longitude": "105-59-58.77 W",
		"state": "NEW MEXICO",
		"artcc": "ZAB",
		"type": "MR",
		"updated": "HMN*TACAN*357.00/45.00"
	},
	{
		"name": "ANEKE",
		"latitude": "36-14-33.67 N",
		"longitude": "105-14-5.08 W",
		"state": "NEW MEXICO",
		"artcc": "ZAB",
		"type": "RNAV",
		"updated": "05/30/2008"
	},
	{
		"name": "ANGRY",
		"latitude": "33-22-55.32 N",
		"longitude": "112-13-19.85 W",
		"state": "ARIZONA",
		"artcc": "ZAB",
		"type": "RNAV",
		"updated": "09/04/2001"
	},
	{
		"name": "ANIMA",
		"latitude": "31-54-57.69 N",
		"longitude": "108-30-51.33 W",
		"state": "NEW MEXICO",
		"artcc": "ZAB",
		"type": "RP",
		"updated": "DMN*VORTAC*233.67/51.08"
	},
	{
		"name": "ANJIE",
		"latitude": "31-42-55.1 N",
		"longitude": "106-7-33.02 W",
		"state": "TEXAS",
		"artcc": "ZAB",
		"type": "MR",
		"updated": "ELP*VORTAC*115.00/10.00"
	},
	{
		"name": "ANNDD",
		"latitude": "33-36-31.62 N",
		"longitude": "112-2-28.44 W",
		"state": "ARIZONA",
		"artcc": "ZAB",
		"type": "RNAV",
		"updated": "05/12/2009"
	},
	{
		"name": "ANNES",
		"latitude": "36-36-33.41 N",
		"longitude": "104-41-51.17 W",
		"state": "NEW MEXICO",
		"artcc": "ZAB",
		"type": "RP",
		"updated": "CIM*VORTAC*037.00/11.00"
	},
	{
		"name": "ANNTI",
		"latitude": "33-52-47.1 N",
		"longitude": "112-3-11.28 W",
		"state": "ARIZONA",
		"artcc": "ZAB",
		"type": "RNAV",
		"updated": "08/08/2014"
	},
	{
		"name": "ANZEL",
		"latitude": "33-21-36.11 N",
		"longitude": "111-47-59.46 W",
		"state": "ARIZONA",
		"artcc": "ZAB",
		"type": "RNAV",
		"updated": "08/08/2014"
	},
	{
		"name": "APACI",
		"latitude": "32-9-35 N",
		"longitude": "110-19-54 W",
		"state": "ARIZONA",
		"artcc": "ZAB",
		"type": "RNAV",
		"updated": "01/17/2007"
	},
	{
		"name": "APEMY",
		"latitude": "35-11-21.18 N",
		"longitude": "112-59-48.05 W",
		"state": "ARIZONA",
		"artcc": "ZAB",
		"type": "CN",
		"updated": "12/04/2014"
	},
	{
		"name": "APUVE",
		"latitude": "31-47-41.79 N",
		"longitude": "106-7-46.52 W",
		"state": "TEXAS",
		"artcc": "ZAB",
		"type": "RNAV",
		"updated": "07/16/2015"
	},
	{
		"name": "AQZED",
		"latitude": "33-26-41.13 N",
		"longitude": "104-20-47.95 W",
		"state": "NEW MEXICO",
		"artcc": "ZAB",
		"type": "RNAV",
		"updated": "07/31/2006"
	},
	{
		"name": "ARABE",
		"latitude": "35-19-24.52 N",
		"longitude": "108-57-19.64 W",
		"state": "NEW MEXICO",
		"artcc": "ZAB",
		"type": "RP",
		"updated": "GUP*VORTAC*190.00/10.00"
	},
	{
		"name": "ARERE",
		"latitude": "32-18-57.96 N",
		"longitude": "110-53-8.88 W",
		"state": "ARIZONA",
		"artcc": "ZAB",
		"type": "RNAV",
		"updated": "04/06/2001"
	},
	{
		"name": "ARJAY",
		"latitude": "34-9-8.79 N",
		"longitude": "103-36-58.05 W",
		"state": "NEW MEXICO",
		"artcc": "ZAB",
		"type": "MR",
		"updated": "CVS*TACAN*215.00/20.00"
	},
	{
		"name": "ARLIN",
		"latitude": "33-17-1.37 N",
		"longitude": "112-41-6.47 W",
		"state": "ARIZONA",
		"artcc": "ZAB",
		"type": "RP",
		"updated": "BXK*VORTAC*131.38"
	},
	{
		"name": "AROYO",
		"latitude": "35-6-29.09 N",
		"longitude": "107-6-38.49 W",
		"state": "NEW MEXICO",
		"artcc": "ZAB",
		"type": "RP",
		"updated": "ONM*VORTAC*329.78"
	},
	{
		"name": "ARRIN",
		"latitude": "34-3-57.11 N",
		"longitude": "107-52-32.18 W",
		"state": "NEW MEXICO",
		"artcc": "ZAB",
		"type": "WP",
		"updated": "ONM*VORTAC*240.00/55.00"
	},
	{
		"name": "ARSON",
		"latitude": "32-46-36.96 N",
		"longitude": "113-28-17.28 W",
		"state": "ARIZONA",
		"artcc": "ZAB",
		"type": "MR",
		"updated": "BXK*VORTAC*205.00/52.00"
	},
	{
		"name": "ARUJU",
		"latitude": "32-56-59.58 N",
		"longitude": "109-44-56.06 W",
		"state": "ARIZONA",
		"artcc": "ZAB",
		"type": "RNAV",
		"updated": "05/05/2010"
	},
	{
		"name": "ARULY",
		"latitude": "33-14-30.51 N",
		"longitude": "111-54-56.38 W",
		"state": "ARIZONA",
		"artcc": "ZAB",
		"type": "RP",
		"updated": "PXR*VORTAC*154.52"
	},
	{
		"name": "ARUZI",
		"latitude": "35-5-6.75 N",
		"longitude": "101-49-34.34 W",
		"state": "TEXAS",
		"artcc": "ZAB",
		"type": "RNAV",
		"updated": "03/26/2013"
	},
	{
		"name": "ARVEY",
		"latitude": "31-41-38.57 N",
		"longitude": "110-58-50.88 W",
		"state": "ARIZONA",
		"artcc": "ZAB",
		"type": "RP",
		"updated": "OLS*VOR/DME*326.00/18.03"
	},
	{
		"name": "ASIDE",
		"latitude": "35-17-20.12 N",
		"longitude": "106-44-25.88 W",
		"state": "NEW MEXICO",
		"artcc": "ZAB",
		"type": "RNAV",
		"updated": "11/24/2012"
	},
	{
		"name": "ASONE",
		"latitude": "32-5-32.5 N",
		"longitude": "110-54-41.48 W",
		"state": "ARIZONA",
		"artcc": "ZAB",
		"type": "RP",
		"updated": "TUS*LD*SE CRS/0.49"
	},
	{
		"name": "ASOYA",
		"latitude": "35-56-7.85 N",
		"longitude": "103-31-4.28 W",
		"state": "NEW MEXICO",
		"artcc": "ZAB",
		"type": "RP",
		"updated": "DHT*VORTAC*247.13/48.28"
	},
	{
		"name": "ASTAH",
		"latitude": "35-0-57.02 N",
		"longitude": "106-45-5.63 W",
		"state": "NEW MEXICO",
		"artcc": "ZAB",
		"type": "RNAV",
		"updated": "03/06/2014"
	},
	{
		"name": "ATEGE",
		"latitude": "33-42-27.15 N",
		"longitude": "112-30-26.11 W",
		"state": "ARIZONA",
		"artcc": "ZAB",
		"type": "MR",
		"updated": "LUF*TACAN*315.00/12.00"
	},
	{
		"name": "ATGIY",
		"latitude": "31-1-55.22 N",
		"longitude": "103-6-8.98 W",
		"state": "TEXAS",
		"artcc": "ZAB",
		"type": "RNAV",
		"updated": "07/14/2009"
	},
	{
		"name": "ATKNN",
		"latitude": "31-48-25.91 N",
		"longitude": "106-35-2.27 W",
		"state": "NEW MEXICO",
		"artcc": "ZAB",
		"type": "RNAV",
		"updated": "02/14/2014"
	},
	{
		"name": "ATOGE",
		"latitude": "31-58-6.05 N",
		"longitude": "110-45-58.96 W",
		"state": "ARIZONA",
		"artcc": "ZAB",
		"type": "RNAV",
		"updated": "07/19/2007"
	},
	{
		"name": "ATOMK",
		"latitude": "35-57-20.71 N",
		"longitude": "106-56-34.93 W",
		"state": "NEW MEXICO",
		"artcc": "ZAB",
		"type": "RNAV",
		"updated": "11/18/2012"
	},
	{
		"name": "ATUCU",
		"latitude": "35-25-11.73 N",
		"longitude": "107-50-35.06 W",
		"state": "NEW MEXICO",
		"artcc": "ZAB",
		"type": "RNAV",
		"updated": "09/04/2003"
	},
	{
		"name": "AUXFL",
		"latitude": "34-57-19.62 N",
		"longitude": "106-35-14.14 W",
		"state": "NEW MEXICO",
		"artcc": "ZAB",
		"type": "RNAV",
		"updated": "06/06/2017"
	},
	{
		"name": "AVANS",
		"latitude": "34-56-3.67 N",
		"longitude": "110-27-30.97 W",
		"state": "ARIZONA",
		"artcc": "ZAB",
		"type": "RP",
		"updated": "INW*VORTAC*100.59/18.25"
	},
	{
		"name": "AVENT",
		"latitude": "33-41-31.73 N",
		"longitude": "112-2-9.93 W",
		"state": "ARIZONA",
		"artcc": "ZAB",
		"type": "RP",
		"updated": "PXR*VORTAC*336.00/15.87"
	},
	{
		"name": "AVOME",
		"latitude": "32-10-35.15 N",
		"longitude": "110-43-19.92 W",
		"state": "ARIZONA",
		"artcc": "ZAB",
		"type": "RNAV",
		"updated": "04/06/2001"
	},
	{
		"name": "AVONA",
		"latitude": "33-26-32.04 N",
		"longitude": "112-19-32.34 W",
		"state": "ARIZONA",
		"artcc": "ZAB",
		"type": "RP",
		"updated": "PXR*VORTAC*259.87/17.86"
	},
	{
		"name": "AWASH",
		"latitude": "35-16-35.43 N",
		"longitude": "106-59-15.33 W",
		"state": "NEW MEXICO",
		"artcc": "ZAB",
		"type": "RP",
		"updated": "ABQ*VORTAC*316.00/16.00"
	},
	{
		"name": "AWRES",
		"latitude": "34-22-10.67 N",
		"longitude": "103-20-25.62 W",
		"state": "NEW MEXICO",
		"artcc": "ZAB",
		"type": "MR",
		"updated": "CVS*TACAN*/1.11"
	},
	{
		"name": "AXARY",
		"latitude": "32-13-50.11 N",
		"longitude": "107-24-58.41 W",
		"state": "NEW MEXICO",
		"artcc": "ZAB",
		"type": "RP",
		"updated": "DMN*VORTAC*093.57/10.00"
	},
	{
		"name": "AXEPE",
		"latitude": "32-4-35.42 N",
		"longitude": "104-31-59.48 W",
		"state": "NEW MEXICO",
		"artcc": "ZAB",
		"type": "RP",
		"updated": "CNM*VORTAC*223.50/19.00"
	},
	{
		"name": "AXESE",
		"latitude": "31-58-6.71 N",
		"longitude": "111-6-57.46 W",
		"state": "ARIZONA",
		"artcc": "ZAB",
		"type": "RNAV",
		"updated": "11/16/2010"
	},
	{
		"name": "AXIPE",
		"latitude": "36-42-24.79 N",
		"longitude": "105-36-31.28 W",
		"state": "NEW MEXICO",
		"artcc": "ZAB",
		"type": "RNAV",
		"updated": "11/01/2001"
	},
	{
		"name": "AYOPE",
		"latitude": "32-25-55.23 N",
		"longitude": "104-19-19.38 W",
		"state": "NEW MEXICO",
		"artcc": "ZAB",
		"type": "RNAV",
		"updated": "06/27/2013"
	},
	{
		"name": "AYUNI",
		"latitude": "34-43-3.99 N",
		"longitude": "106-44-44.62 W",
		"state": "NEW MEXICO",
		"artcc": "ZAB",
		"type": "RNAV",
		"updated": "07/21/2004"
	},
	{
		"name": "AZCAF",
		"latitude": "33-37-6.83 N",
		"longitude": "111-54-54.83 W",
		"state": "ARIZONA",
		"artcc": "ZAB",
		"type": "RNAV",
		"updated": "12/16/2011"
	},
	{
		"name": "AZCRD",
		"latitude": "33-23-39.19 N",
		"longitude": "111-50-15.49 W",
		"state": "ARIZONA",
		"artcc": "ZAB",
		"type": "RNAV",
		"updated": "08/08/2014"
	},
	{
		"name": "AZEKE",
		"latitude": "32-55-25.31 N",
		"longitude": "111-32-6.98 W",
		"state": "ARIZONA",
		"artcc": "ZAB",
		"type": "WP",
		"updated": "TFD*VORTAC*071.05/19.00"
	},
	{
		"name": "AZNUP",
		"latitude": "33-48-28.69 N",
		"longitude": "112-18-42.16 W",
		"state": "ARIZONA",
		"artcc": "ZAB",
		"type": "RNAV",
		"updated": "04/05/2005"
	}
]
