	{
		"name": "BABBS",
		"latitude": "34-21-56.6 N",
		"longitude": "102-59-32.57 W",
		"state": "TEXAS",
		"artcc": "ZAB",
		"type": "RNAV",
		"updated": "07/20/2004",
	},
	{
		"name": "BABEL",
		"latitude": "35-54-9.36 N",
		"longitude": "102-6-35.76 W",
		"state": "TEXAS",
		"artcc": "ZAB",
		"type": "RP",
		"updated": "DHT*VORTAC*106.00/24.00",
	},
	{
		"name": "BABOO",
		"latitude": "31-35-12.13 N",
		"longitude": "110-39-35.04 W",
		"state": "ARIZONA",
		"artcc": "ZAB",
		"type": "RNAV",
		"updated": "07/13/2011",
	},
	{
		"name": "BABYY",
		"latitude": "35-9-55.26 N",
		"longitude": "107-15-9.76 W",
		"state": "NEW MEXICO",
		"artcc": "ZAB",
		"type": "RNAV",
		"updated": "11/18/2012",
	},
	{
		"name": "BALSM",
		"latitude": "32-19-26.44 N",
		"longitude": "106-20-16.06 W",
		"state": "NEW MEXICO",
		"artcc": "ZAB",
		"type": "MR",
		"updated": "EWM*VORTAC*339.00/22.50",
	},
	{
		"name": "BALTE",
		"latitude": "33-25-43.79 N",
		"longitude": "112-12-40.72 W",
		"state": "ARIZONA",
		"artcc": "ZAB",
		"type": "RP",
		"updated": "AHA*LD*258.03/10.72",
	},
	{
		"name": "BANYO",
		"latitude": "33-50-28.63 N",
		"longitude": "112-4-27.13 W",
		"state": "ARIZONA",
		"artcc": "ZAB",
		"type": "RP",
		"updated": "PXR*VORTAC*336.00/25.00",
	},
	{
		"name": "BANZO",
		"latitude": "34-38-27.58 N",
		"longitude": "110-3-1.17 W",
		"state": "ARIZONA",
		"artcc": "ZAB",
		"type": "RNAV",
		"updated": "02/09/2018",
	},
	{
		"name": "BAPPA",
		"latitude": "33-42-23.06 N",
		"longitude": "112-11-30.15 W",
		"state": "ARIZONA",
		"artcc": "ZAB",
		"type": "RNAV",
		"updated": "09/03/2010",
	},
	{
		"name": "BARDO",
		"latitude": "34-41-14.14 N",
		"longitude": "103-0-38.5 W",
		"state": "TEXAS",
		"artcc": "ZAB",
		"type": "MR",
		"updated": "CVS*TACAN*028.00/24.00",
	},
	{
		"name": "BARLL",
		"latitude": "33-25-36.59 N",
		"longitude": "111-32-56.43 W",
		"state": "ARIZONA",
		"artcc": "ZAB",
		"type": "RNAV",
		"updated": "03/29/2018",
	},
	{
		"name": "BARRZ",
		"latitude": "34-24-12.14 N",
		"longitude": "103-17-59.05 W",
		"state": "NEW MEXICO",
		"artcc": "ZAB",
		"type": "MR",
		"updated": "CVS*TACAN*/1.77",
	},
	{
		"name": "BASER",
		"latitude": "32-33-2.94 N",
		"longitude": "111-37-55.09 W",
		"state": "ARIZONA",
		"artcc": "ZAB",
		"type": "RP",
		"updated": "TUS*VORTAC*295.00/45.54",
	},
	{
		"name": "BASHA",
		"latitude": "33-16-43.83 N",
		"longitude": "111-57-0.41 W",
		"state": "ARIZONA",
		"artcc": "ZAB",
		"type": "RNAV",
		"updated": "11/24/2010",
	},
	{
		"name": "BASSL",
		"latitude": "33-33-33.95 N",
		"longitude": "111-40-42.04 W",
		"state": "ARIZONA",
		"artcc": "ZAB",
		"type": "RNAV",
		"updated": "11/30/2010",
	},
	{
		"name": "BAVLY",
		"latitude": "32-37-52.04 N",
		"longitude": "107-51-40.53 W",
		"state": "NEW MEXICO",
		"artcc": "ZAB",
		"type": "RNAV",
		"updated": "05/31/2006",
	},
	{
		"name": "BAVPE",
		"latitude": "35-35-22.21 N",
		"longitude": "111-52-49.6 W",
		"state": "ARIZONA",
		"artcc": "ZAB",
		"type": "RP",
		"updated": "PGS*VOR/DME*076.00/81.44",
	},
	{
		"name": "BAXKU",
		"latitude": "33-3-40.1 N",
		"longitude": "109-52-46.56 W",
		"state": "ARIZONA",
		"artcc": "ZAB",
		"type": "RNAV",
		"updated": "05/05/2010",
	},
	{
		"name": "BAXTU",
		"latitude": "35-34-25.65 N",
		"longitude": "108-31-20.37 W",
		"state": "NEW MEXICO",
		"artcc": "ZAB",
		"type": "RNAV",
		"updated": "09/27/2004",
	},
	{
		"name": "BAYBI",
		"latitude": "32-45-57.23 N",
		"longitude": "111-5-50.17 W",
		"state": "ARIZONA",
		"artcc": "ZAB",
		"type": "RP",
		"updated": "PXR*VORTAC*120.00/59.43",
	},
	{
		"name": "BAYTA",
		"latitude": "33-30-4.76 N",
		"longitude": "111-22-41.12 W",
		"state": "ARIZONA",
		"artcc": "ZAB",
		"type": "RP",
		"updated": "PXR*VORTAC*070.00/30.00",
	},
	{
		"name": "BBALL",
		"latitude": "32-57-56.84 N",
		"longitude": "111-29-21.62 W",
		"state": "ARIZONA",
		"artcc": "ZAB",
		"type": "RP",
		"updated": "PXR*VORTAC*127.00/37.00",
	},
	{
		"name": "BDWIL",
		"latitude": "33-54-33.98 N",
		"longitude": "112-9-24.63 W",
		"state": "ARIZONA",
		"artcc": "ZAB",
		"type": "RNAV",
		"updated": "11/30/2010",
	},
	{
		"name": "BEAHR",
		"latitude": "31-43-53.35 N",
		"longitude": "106-5-6.39 W",
		"state": "TEXAS",
		"artcc": "ZAB",
		"type": "RNAV",
		"updated": "11/21/2011",
	},
	{
		"name": "BEANN",
		"latitude": "34-50-4.39 N",
		"longitude": "106-22-42.37 W",
		"state": "NEW MEXICO",
		"artcc": "ZAB",
		"type": "RP",
		"updated": "ABQ*VORTAC*107.00/25.00",
	},
	{
		"name": "BECCK",
		"latitude": "33-15-31.99 N",
		"longitude": "111-44-8.57 W",
		"state": "ARIZONA",
		"artcc": "ZAB",
		"type": "MR",
		"updated": "IWA*VORTAC*225.00/5.00",
	},
	{
		"name": "BECON",
		"latitude": "31-47-17.58 N",
		"longitude": "106-42-45.17 W",
		"state": "NEW MEXICO",
		"artcc": "ZAB",
		"type": "RP",
		"updated": "TCS*VORTAC*149.00/94.00",
	},
	{
		"name": "BEGGR",
		"latitude": "35-6-35.55 N",
		"longitude": "107-16-8.75 W",
		"state": "NEW MEXICO",
		"artcc": "ZAB",
		"type": "RNAV",
		"updated": "11/18/2012",
	},
	{
		"name": "BELLA",
		"latitude": "31-36-36.6 N",
		"longitude": "110-5-46.17 W",
		"state": "ARIZONA",
		"artcc": "ZAB",
		"type": "RP",
		"updated": "ARH*TACAN*071.19/12.53",
	},
	{
		"name": "BELLY",
		"latitude": "33-31-27.95 N",
		"longitude": "111-35-57.86 W",
		"state": "ARIZONA",
		"artcc": "ZAB",
		"type": "RNAV",
		"updated": "11/24/2010",
	},
	{
		"name": "BENTT",
		"latitude": "33-7-20.3 N",
		"longitude": "105-49-48.95 W",
		"state": "NEW MEXICO",
		"artcc": "ZAB",
		"type": "MR",
		"updated": "HMN*TACAN*032.00/21.00",
	},
	{
		"name": "BERSE",
		"latitude": "35-23-41.79 N",
		"longitude": "109-3-3.27 W",
		"state": "NEW MEXICO",
		"artcc": "ZAB",
		"type": "RP",
		"updated": "GUP*VORTAC*227.00/10.00",
	},
	{
		"name": "BEVSE",
		"latitude": "35-50-39.71 N",
		"longitude": "101-2-44.02 W",
		"state": "TEXAS",
		"artcc": "ZAB",
		"type": "RNAV",
		"updated": "07/08/2008",
	},
	{
		"name": "BEZIC",
		"latitude": "31-46-24.56 N",
		"longitude": "106-29-31.42 W",
		"state": "TEXAS",
		"artcc": "ZAB",
		"type": "RNAV",
		"updated": "04/02/2012",
	},
	{
		"name": "BGBND",
		"latitude": "32-8-46.64 N",
		"longitude": "105-32-13.14 W",
		"state": "NEW MEXICO",
		"artcc": "ZAB",
		"type": "RNAV",
		"updated": "12/13/2011",
	},
	{
		"name": "BGEYE",
		"latitude": "35-7-37.05 N",
		"longitude": "106-39-1.14 W",
		"state": "NEW MEXICO",
		"artcc": "ZAB",
		"type": "RNAV",
		"updated": "08/09/2012",
	},
	{
		"name": "BIBQU",
		"latitude": "34-52-37.59 N",
		"longitude": "106-48-19.02 W",
		"state": "NEW MEXICO",
		"artcc": "ZAB",
		"type": "RP",
		"updated": "ABQ*VORTAC*163.88",
	},
	{
		"name": "BICNA",
		"latitude": "32-31-22.93 N",
		"longitude": "104-22-27.85 W",
		"state": "NEW MEXICO",
		"artcc": "ZAB",
		"type": "RNAV",
		"updated": "05/28/2004",
	},
	{
		"name": "BIENN",
		"latitude": "34-59-11.18 N",
		"longitude": "106-46-6.14 W",
		"state": "NEW MEXICO",
		"artcc": "ZAB",
		"type": "RNAV",
		"updated": "03/13/2014",
	},
	{
		"name": "BIFFF",
		"latitude": "35-7-6.55 N",
		"longitude": "101-42-58.06 W",
		"state": "TEXAS",
		"artcc": "ZAB",
		"type": "RNAV",
		"updated": "09/01/2017",
	},
	{
		"name": "BIGGG",
		"latitude": "35-12-8.76 N",
		"longitude": "101-34-59.81 W",
		"state": "TEXAS",
		"artcc": "ZAB",
		"type": "RNAV",
		"updated": "09/01/2017",
	},
	{
		"name": "BILDE",
		"latitude": "34-57-24.49 N",
		"longitude": "106-41-48.52 W",
		"state": "NEW MEXICO",
		"artcc": "ZAB",
		"type": "RNAV",
		"updated": "08/09/2012",
	},
	{
		"name": "BITNE",
		"latitude": "35-14-42.75 N",
		"longitude": "101-34-4.77 W",
		"state": "TEXAS",
		"artcc": "ZAB",
		"type": "RNAV",
		"updated": "08/21/2017",
	},
	{
		"name": "BITVE",
		"latitude": "31-20-44 N",
		"longitude": "110-48-36 W",
		"state": "ARIZONA",
		"artcc": "ZAB",
		"type": "RP",
		"updated": "OLS*VOR/DME*142.31/4.61",
	},
	{
		"name": "BIVDE",
		"latitude": "31-48-16.07 N",
		"longitude": "106-14-57.88 W",
		"state": "TEXAS",
		"artcc": "ZAB",
		"type": "RNAV",
		"updated": "04/02/2014",
	},
	{
		"name": "BIVKE",
		"latitude": "31-45-25.45 N",
		"longitude": "106-29-49.58 W",
		"state": "TEXAS",
		"artcc": "ZAB",
		"type": "RNAV",
		"updated": "06/04/2012",
	},
	{
		"name": "BIVLE",
		"latitude": "31-28-28.05 N",
		"longitude": "105-49-29.18 W",
		"state": "TEXAS",
		"artcc": "ZAB",
		"type": "RNAV",
		"updated": "12/19/2011",
	},
	{
		"name": "BIWFO",
		"latitude": "33-40-18.38 N",
		"longitude": "111-53-45.69 W",
		"state": "ARIZONA",
		"artcc": "ZAB",
		"type": "RNAV",
		"updated": "05/12/2009",
	},
	{
		"name": "BIYEN",
		"latitude": "34-49-26.34 N",
		"longitude": "106-36-10.8 W",
		"state": "NEW MEXICO",
		"artcc": "ZAB",
		"type": "RNAV",
		"updated": "03/06/2014",
	},
	{
		"name": "BLINE",
		"latitude": "33-32-31 N",
		"longitude": "111-40-45 W",
		"state": "ARIZONA",
		"artcc": "ZAB",
		"type": "RNAV",
		"updated": "02/15/2002",
	},
	{
		"name": "BLINI",
		"latitude": "35-22-16.77 N",
		"longitude": "108-21-25.18 W",
		"state": "NEW MEXICO",
		"artcc": "ZAB",
		"type": "RP",
		"updated": "ZUN*VORTAC*044.00",
	},
	{
		"name": "BLRNG",
		"latitude": "32-24-50.38 N",
		"longitude": "105-25-16.96 W",
		"state": "NEW MEXICO",
		"artcc": "ZAB",
		"type": "RNAV",
		"updated": "01/03/2012",
	},
	{
		"name": "BLUUN",
		"latitude": "35-10-29.69 N",
		"longitude": "106-42-34.41 W",
		"state": "NEW MEXICO",
		"artcc": "ZAB",
		"type": "RNAV",
		"updated": "11/18/2012",
	},
	{
		"name": "BLYSS",
		"latitude": "31-58-35.35 N",
		"longitude": "105-42-15.4 W",
		"state": "TEXAS",
		"artcc": "ZAB",
		"type": "RNAV",
		"updated": "12/05/2011",
	},
	{
		"name": "BNNKR",
		"latitude": "32-28-8.68 N",
		"longitude": "110-42-35.12 W",
		"state": "ARIZONA",
		"artcc": "ZAB",
		"type": "RNAV",
		"updated": "08/08/2014",
	},
	{
		"name": "BNYRD",
		"latitude": "32-59-53.24 N",
		"longitude": "111-57-59.15 W",
		"state": "ARIZONA",
		"artcc": "ZAB",
		"type": "RNAV",
		"updated": "08/08/2014",
	},
	{
		"name": "BOATY",
		"latitude": "32-57-17.02 N",
		"longitude": "107-22-51 W",
		"state": "NEW MEXICO",
		"artcc": "ZAB",
		"type": "RNAV",
		"updated": "12/20/2011",
	},
	{
		"name": "BOBRE",
		"latitude": "33-10-0.57 N",
		"longitude": "111-29-25.04 W",
		"state": "ARIZONA",
		"artcc": "ZAB",
		"type": "RNAV",
		"updated": "04/23/2012",
	},
	{
		"name": "BOBYY",
		"latitude": "34-22-7.06 N",
		"longitude": "105-49-29.58 W",
		"state": "NEW MEXICO",
		"artcc": "ZAB",
		"type": "RNAV",
		"updated": "11/24/2012",
	},
	{
		"name": "BOHTX",
		"latitude": "33-47-43.59 N",
		"longitude": "111-33-59.3 W",
		"state": "ARIZONA",
		"artcc": "ZAB",
		"type": "RNAV",
		"updated": "08/08/2014",
	},
	{
		"name": "BOJAY",
		"latitude": "34-32-10.27 N",
		"longitude": "103-10-12.26 W",
		"state": "NEW MEXICO",
		"artcc": "ZAB",
		"type": "MR",
		"updated": "CVS*TACAN*032.00/12.00",
	},
	{
		"name": "BOLES",
		"latitude": "33-40-29.05 N",
		"longitude": "112-18-0.87 W",
		"state": "ARIZONA",
		"artcc": "ZAB",
		"type": "RNAV",
		"updated": "04/05/2005",
	},
	{
		"name": "BOLIC",
		"latitude": "34-0-40.41 N",
		"longitude": "110-21-6.12 W",
		"state": "ARIZONA",
		"artcc": "ZAB",
		"type": "RP",
		"updated": "PXR*VORTAC*054.40/88.09",
	},
	{
		"name": "BOLMY",
		"latitude": "30-23-26.26 N",
		"longitude": "103-40-45.85 W",
		"state": "TEXAS",
		"artcc": "ZAB",
		"type": "WP",
		"updated": "11/02/1998",
	},
	{
		"name": "BOLYN",
		"latitude": "34-31-23.55 N",
		"longitude": "110-2-26.47 W",
		"state": "ARIZONA",
		"artcc": "ZAB",
		"type": "RNAV",
		"updated": "02/09/2018",
	},
	{
		"name": "BOPLE",
		"latitude": "36-7-44.37 N",
		"longitude": "105-13-8.28 W",
		"state": "NEW MEXICO",
		"artcc": "ZAB",
		"type": "RNAV",
		"updated": "12/11/2001",
	},
	{
		"name": "BOSQE",
		"latitude": "34-51-21.34 N",
		"longitude": "106-47-52 W",
		"state": "NEW MEXICO",
		"artcc": "ZAB",
		"type": "RNAV",
		"updated": "11/18/2012",
	},
	{
		"name": "BOTAC",
		"latitude": "36-41-44.06 N",
		"longitude": "103-3-29.36 W",
		"state": "NEW MEXICO",
		"artcc": "ZAB",
		"type": "RNAV",
		"updated": "07/11/2013",
	},
	{
		"name": "BOTAW",
		"latitude": "33-51-42.1 N",
		"longitude": "106-54-39.83 W",
		"state": "NEW MEXICO",
		"artcc": "ZAB",
		"type": "CN",
		"updated": "12/04/2014",
	},
	{
		"name": "BOWSU",
		"latitude": "34-39-20.68 N",
		"longitude": "111-53-0.02 W",
		"state": "ARIZONA",
		"artcc": "ZAB",
		"type": "RNAV",
		"updated": "02/09/2018",
	},
	{
		"name": "BOXXR",
		"latitude": "32-26-15.64 N",
		"longitude": "109-45-17.78 W",
		"state": "ARIZONA",
		"artcc": "ZAB",
		"type": "RNAV",
		"updated": "04/29/2015",
	},
	{
		"name": "BOZDA",
		"latitude": "32-50-13.2 N",
		"longitude": "104-3-12.9 W",
		"state": "NEW MEXICO",
		"artcc": "ZAB",
		"type": "CN",
		"updated": "12/04/2014",
	},
	{
		"name": "BRDEY",
		"latitude": "32-54-40.33 N",
		"longitude": "111-29-18.6 W",
		"state": "ARIZONA",
		"artcc": "ZAB",
		"type": "RNAV",
		"updated": "08/08/2014",
	},
	{
		"name": "BREDD",
		"latitude": "33-22-42.26 N",
		"longitude": "105-12-58.3 W",
		"state": "NEW MEXICO",
		"artcc": "ZAB",
		"type": "RP",
		"updated": "CME*VORTAC*262.85/30.00",
	},
	{
		"name": "BRIEZ",
		"latitude": "33-39-18.52 N",
		"longitude": "111-57-43.99 W",
		"state": "ARIZONA",
		"artcc": "ZAB",
		"type": "RNAV",
		"updated": "08/08/2014",
	},
	{
		"name": "BRISC",
		"latitude": "35-35-16.87 N",
		"longitude": "100-31-28.81 W",
		"state": "TEXAS",
		"artcc": "ZAB",
		"type": "RP",
		"updated": "MMB*VORTAC*204.93/55.10",
	},
	{
		"name": "BRITN",
		"latitude": "35-24-28.58 N",
		"longitude": "111-57-43.56 W",
		"state": "ARIZONA",
		"artcc": "ZAB",
		"type": "RNAV",
		"updated": "05/24/2011",
	},
	{
		"name": "BRKBD",
		"latitude": "34-54-44.98 N",
		"longitude": "106-34-42.43 W",
		"state": "NEW MEXICO",
		"artcc": "ZAB",
		"type": "RNAV",
		"updated": "06/06/2017",
	},
	{
		"name": "BRMLY",
		"latitude": "36-2-24.45 N",
		"longitude": "107-54-43.62 W",
		"state": "NEW MEXICO",
		"artcc": "ZAB",
		"type": "RNAV",
		"updated": "03/21/2014",
	},
	{
		"name": "BRNDA",
		"latitude": "33-20-34.18 N",
		"longitude": "112-4-40.18 W",
		"state": "ARIZONA",
		"artcc": "ZAB",
		"type": "RNAV",
		"updated": "08/23/2007",
	},
	{
		"name": "BRNDO",
		"latitude": "34-57-15.45 N",
		"longitude": "106-38-57.26 W",
		"state": "NEW MEXICO",
		"artcc": "ZAB",
		"type": "RNAV",
		"updated": "11/20/2012",
	},
	{
		"name": "BROAK",
		"latitude": "33-31-49.83 N",
		"longitude": "111-13-12.53 W",
		"state": "ARIZONA",
		"artcc": "ZAB",
		"type": "RNAV",
		"updated": "08/08/2014",
	},
	{
		"name": "BROKE",
		"latitude": "35-41-52.57 N",
		"longitude": "100-57-4.53 W",
		"state": "TEXAS",
		"artcc": "ZAB",
		"type": "RP",
		"updated": "BGD*VORTAC*096.13/22.04",
	},
	{
		"name": "BRUSR",
		"latitude": "34-5-10.29 N",
		"longitude": "112-8-13.5 W",
		"state": "ARIZONA",
		"artcc": "ZAB",
		"type": "RP",
		"updated": "PXR*VORTAC*336.00/40.00",
	},
	{
		"name": "BUCZO",
		"latitude": "33-58-17.1 N",
		"longitude": "104-58-51.3 W",
		"state": "NEW MEXICO",
		"artcc": "ZAB",
		"type": "CN",
		"updated": "12/04/2014",
	},
	{
		"name": "BUDHE",
		"latitude": "35-44-32.24 N",
		"longitude": "111-38-35.84 W",
		"state": "ARIZONA",
		"artcc": "ZAB",
		"type": "RNAV",
		"updated": "05/25/2011",
	},
	{
		"name": "BUDME",
		"latitude": "33-25-41.71 N",
		"longitude": "111-40-10.45 W",
		"state": "ARIZONA",
		"artcc": "ZAB",
		"type": "RP",
		"updated": "RJG*LD*078.03/16.49",
	},
	{
		"name": "BUDPY",
		"latitude": "34-28-0.58 N",
		"longitude": "106-33-46.29 W",
		"state": "NEW MEXICO",
		"artcc": "ZAB",
		"type": "CN",
		"updated": "12/04/2014",
	},
	{
		"name": "BUGGS",
		"latitude": "32-37-52.92 N",
		"longitude": "112-18-14.81 W",
		"state": "ARIZONA",
		"artcc": "ZAB",
		"type": "MR",
		"updated": "BXK*VORTAC*138.00/55.79",
	},
	{
		"name": "BUKEE",
		"latitude": "35-29-13.82 N",
		"longitude": "108-21-32.39 W",
		"state": "NEW MEXICO",
		"artcc": "ZAB",
		"type": "RNAV",
		"updated": "03/21/2014",
	},
	{
		"name": "BUKKO",
		"latitude": "35-31-44.53 N",
		"longitude": "107-59-47.59 W",
		"state": "NEW MEXICO",
		"artcc": "ZAB",
		"type": "RP",
		"updated": "ZUN*VORTAC*045.00/66.16",
	},
	{
		"name": "BUNTR",
		"latitude": "33-50-4.94 N",
		"longitude": "111-27-45.88 W",
		"state": "ARIZONA",
		"artcc": "ZAB",
		"type": "RP",
		"updated": "PXR*VORTAC*034.44/35.00",
	},
	{
		"name": "BUPNY",
		"latitude": "34-55-22.79 N",
		"longitude": "106-45-46.57 W",
		"state": "NEW MEXICO",
		"artcc": "ZAB",
		"type": "RP",
		"updated": "ABQ*VORTAC*147.00/7.70",
	},
	{
		"name": "BUREW",
		"latitude": "34-31-49.49 N",
		"longitude": "107-31-37.4 W",
		"state": "NEW MEXICO",
		"artcc": "ZAB",
		"type": "CN",
		"updated": "12/04/2014",
	},
	{
		"name": "BURNR",
		"latitude": "34-34-9.91 N",
		"longitude": "103-7-25.7 W",
		"state": "NEW MEXICO",
		"artcc": "ZAB",
		"type": "MR",
		"updated": "CVS*TACAN*031.00/15.00",
	},
	{
		"name": "BURQI",
		"latitude": "35-11-22.27 N",
		"longitude": "106-39-16.92 W",
		"state": "NEW MEXICO",
		"artcc": "ZAB",
		"type": "RNAV",
		"updated": "03/06/2014",
	},
	{
		"name": "BURRO",
		"latitude": "32-2-34.37 N",
		"longitude": "110-51-12.75 W",
		"state": "ARIZONA",
		"artcc": "ZAB",
		"type": "RNAV",
		"updated": "07/09/2007",
	},
	{
		"name": "BUSCO",
		"latitude": "33-2-33.86 N",
		"longitude": "112-27-46.07 W",
		"state": "ARIZONA",
		"artcc": "ZAB",
		"type": "MR",
		"updated": "LUF*TACAN*175.00/29.90",
	},
	{
		"name": "BUSEY",
		"latitude": "31-47-23.87 N",
		"longitude": "106-8-54.52 W",
		"state": "TEXAS",
		"artcc": "ZAB",
		"type": "RNAV",
		"updated": "08/21/2015",
	},
	{
		"name": "BUSLE",
		"latitude": "35-20-32 N",
		"longitude": "108-22-18 W",
		"state": "NEW MEXICO",
		"artcc": "ZAB",
		"type": "RNAV",
		"updated": "11/18/2012",
	},
	{
		"name": "BUSTD",
		"latitude": "34-0-27.51 N",
		"longitude": "111-47-53.19 W",
		"state": "ARIZONA",
		"artcc": "ZAB",
		"type": "RP",
		"updated": "PXR*VORTAC*002.00/35.48",
	},
	{
		"name": "BUTTE",
		"latitude": "35-17-5.15 N",
		"longitude": "110-27-0.76 W",
		"state": "ARIZONA",
		"artcc": "ZAB",
		"type": "RP",
		"updated": "SJN*VORTAC*297.00",
	},
	{
		"name": "BUVLE",
		"latitude": "36-3-19.75 N",
		"longitude": "100-47-37.3 W",
		"state": "TEXAS",
		"artcc": "ZAB",
		"type": "RP",
		"updated": "MMB*VORTAC*239.00/47.61",
	},
	{
		"name": "BUYSA",
		"latitude": "35-29-55.21 N",
		"longitude": "108-9-31.79 W",
		"state": "NEW MEXICO",
		"artcc": "ZAB",
		"type": "RP",
		"updated": "GUP*VORTAC*073.57/35.00",
	},
