	{
		"name": "CABNO",
		"latitude": "34-30-11 N",
		"longitude": "108-30-38 W",
		"state": "NEW MEXICO",
		"artcc": "ZAB",
		"type": "RNAV",
		"updated": "03/21/2014",
	},
	{
		"name": "CABNU",
		"latitude": "31-52-1.51 N",
		"longitude": "106-12-13.34 W",
		"state": "TEXAS",
		"artcc": "ZAB",
		"type": "RNAV",
		"updated": "06/27/2011",
	},
	{
		"name": "CABOL",
		"latitude": "31-58-45.06 N",
		"longitude": "104-29-52.95 W",
		"state": "TEXAS",
		"artcc": "ZAB",
		"type": "RNAV",
		"updated": "12/20/2011",
	},
	{
		"name": "CABOS",
		"latitude": "33-5-1.5 N",
		"longitude": "111-33-54.84 W",
		"state": "ARIZONA",
		"artcc": "ZAB",
		"type": "RNAV",
		"updated": "11/30/2010",
	},
	{
		"name": "CABSI",
		"latitude": "31-43-55.04 N",
		"longitude": "106-12-19.57 W",
		"state": "TEXAS",
		"artcc": "ZAB",
		"type": "RNAV",
		"updated": "12/19/2011",
	},
	{
		"name": "CABUS",
		"latitude": "34-45-56.49 N",
		"longitude": "106-14-7.75 W",
		"state": "NEW MEXICO",
		"artcc": "ZAB",
		"type": "CN",
		"updated": "12/04/2014",
	},
	{
		"name": "CABZO",
		"latitude": "35-30-15.9 N",
		"longitude": "107-9-23.31 W",
		"state": "NEW MEXICO",
		"artcc": "ZAB",
		"type": "RP",
		"updated": "ABQ*VORTAC*315.90/32.26",
	},
	{
		"name": "CACAV",
		"latitude": "36-16-36.31 N",
		"longitude": "103-16-28.39 W",
		"state": "NEW MEXICO",
		"artcc": "ZAB",
		"type": "RNAV",
		"updated": "07/11/2013",
	},
	{
		"name": "CACTO",
		"latitude": "33-40-6.8 N",
		"longitude": "111-59-22 W",
		"state": "ARIZONA",
		"artcc": "ZAB",
		"type": "RNAV",
		"updated": "02/24/2012",
	},
	{
		"name": "CACTY",
		"latitude": "33-31-53.99 N",
		"longitude": "111-59-17.79 W",
		"state": "ARIZONA",
		"artcc": "ZAB",
		"type": "RNAV",
		"updated": "11/24/2010",
	},
	{
		"name": "CACYA",
		"latitude": "33-34-24.7 N",
		"longitude": "111-55-34.18 W",
		"state": "ARIZONA",
		"artcc": "ZAB",
		"type": "RP",
		"updated": "PXR*VORTAC*002.70/8.70",
	},
	{
		"name": "CADAT",
		"latitude": "35-13-20.76 N",
		"longitude": "106-35-56.92 W",
		"state": "NEW MEXICO",
		"artcc": "ZAB",
		"type": "RNAV",
		"updated": "11/24/2012",
	},
	{
		"name": "CADDU",
		"latitude": "34-58-42.7 N",
		"longitude": "112-58-31.24 W",
		"state": "ARIZONA",
		"artcc": "ZAB",
		"type": "RP",
		"updated": "FLG*VOR/DME*247.41",
	},
	{
		"name": "CADEK",
		"latitude": "31-47-3.5 N",
		"longitude": "105-42-0.08 W",
		"state": "TEXAS",
		"artcc": "ZAB",
		"type": "RNAV",
		"updated": "12/22/2011",
	},
	{
		"name": "CADVO",
		"latitude": "34-54-8.73 N",
		"longitude": "106-5-4.47 W",
		"state": "NEW MEXICO",
		"artcc": "ZAB",
		"type": "CN",
		"updated": "12/04/2014",
	},
	{
		"name": "CAGEV",
		"latitude": "32-34-27.17 N",
		"longitude": "106-57-19.6 W",
		"state": "NEW MEXICO",
		"artcc": "ZAB",
		"type": "RP",
		"updated": "TCS*VORTAC*145.75/45.48",
	},
	{
		"name": "CAGOR",
		"latitude": "33-25-43.48 N",
		"longitude": "112-16-58.09 W",
		"state": "ARIZONA",
		"artcc": "ZAB",
		"type": "RP",
		"updated": "AHA*LD*258.03/14.31",
	},
	{
		"name": "CAGVA",
		"latitude": "33-43-19.52 N",
		"longitude": "112-17-11.48 W",
		"state": "ARIZONA",
		"artcc": "ZAB",
		"type": "MR",
		"updated": "LUF*TACAN*010.00/12.00",
	},
	{
		"name": "CAHUA",
		"latitude": "31-53-21.14 N",
		"longitude": "109-8-3.2 W",
		"state": "ARIZONA",
		"artcc": "ZAB",
		"type": "MW",
		"updated": "07/24/2012",
	},
	{
		"name": "CALGU",
		"latitude": "35-16-38.7 N",
		"longitude": "111-17-59.77 W",
		"state": "ARIZONA",
		"artcc": "ZAB",
		"type": "RP",
		"updated": "FLG*VOR/DME*052.92",
	},
	{
		"name": "CALIE",
		"latitude": "33-16-20.17 N",
		"longitude": "113-8-45.36 W",
		"state": "ARIZONA",
		"artcc": "ZAB",
		"type": "RP",
		"updated": "IWA*VORTAC*256.00/75.19",
	},
	{
		"name": "CALLS",
		"latitude": "32-13-7.35 N",
		"longitude": "111-3-36.01 W",
		"state": "ARIZONA",
		"artcc": "ZAB",
		"type": "RP",
		"updated": "TUS*VORTAC*303.05/10.46",
	},
	{
		"name": "CAMBA",
		"latitude": "34-35-9.84 N",
		"longitude": "109-58-27.48 W",
		"state": "ARIZONA",
		"artcc": "ZAB",
		"type": "RNAV",
		"updated": "03/16/2011",
	},
	{
		"name": "CAMVI",
		"latitude": "34-5-12.45 N",
		"longitude": "110-8-2.35 W",
		"state": "ARIZONA",
		"artcc": "ZAB",
		"type": "RP",
		"updated": "SJN*VORTAC*235.98/53.24",
	},
	{
		"name": "CAPAR",
		"latitude": "33-2-31.5 N",
		"longitude": "106-9-9.68 W",
		"state": "NEW MEXICO",
		"artcc": "ZAB",
		"type": "MR",
		"updated": "HMN*TACAN*338.30/11.00",
	},
	{
		"name": "CAPEP",
		"latitude": "34-40-44.03 N",
		"longitude": "109-29-48.17 W",
		"state": "ARIZONA",
		"artcc": "ZAB",
		"type": "RNAV",
		"updated": "08/24/2007",
	},
	{
		"name": "CAPES",
		"latitude": "33-17-39.68 N",
		"longitude": "106-4-18.27 W",
		"state": "NEW MEXICO",
		"artcc": "ZAB",
		"type": "MR",
		"updated": "TCS*VORTAC*076.00/60.80",
	},
	{
		"name": "CAPRO",
		"latitude": "33-28-5 N",
		"longitude": "103-42-37.77 W",
		"state": "NEW MEXICO",
		"artcc": "ZAB",
		"type": "RP",
		"updated": "HOB*VORTAC*325.00/54.45",
	},
	{
		"name": "CAPVU",
		"latitude": "33-0-10.01 N",
		"longitude": "107-12-56.02 W",
		"state": "NEW MEXICO",
		"artcc": "ZAB",
		"type": "RNAV",
		"updated": "08/18/2015",
	},
	{
		"name": "CARLZ",
		"latitude": "32-16-0.32 N",
		"longitude": "104-20-18.61 W",
		"state": "NEW MEXICO",
		"artcc": "ZAB",
		"type": "RP",
		"updated": "CNM*VORTAC*264.09",
	},
	{
		"name": "CARTL",
		"latitude": "34-45-52.98 N",
		"longitude": "112-0-36.29 W",
		"state": "ARIZONA",
		"artcc": "ZAB",
		"type": "RNAV",
		"updated": "08/08/2014",
	},
	{
		"name": "CARTY",
		"latitude": "35-1-24.75 N",
		"longitude": "107-34-20.43 W",
		"state": "NEW MEXICO",
		"artcc": "ZAB",
		"type": "RP",
		"updated": "ONM*VORTAC*305.00",
	},
	{
		"name": "CARZO",
		"latitude": "34-43-16.9 N",
		"longitude": "109-27-53.74 W",
		"state": "ARIZONA",
		"artcc": "ZAB",
		"type": "RNAV",
		"updated": "04/02/2012",
	},
	{
		"name": "CASHE",
		"latitude": "33-21-56.85 N",
		"longitude": "112-19-57.26 W",
		"state": "ARIZONA",
		"artcc": "ZAB",
		"type": "MR",
		"updated": "LUF*TACAN*153.00/11.00",
	},
	{
		"name": "CASIB",
		"latitude": "33-45-50.87 N",
		"longitude": "112-32-58.97 W",
		"state": "ARIZONA",
		"artcc": "ZAB",
		"type": "MW",
		"updated": "LUF*TACAN*315.00/16.00",
	},
	{
		"name": "CASTI",
		"latitude": "35-25-57.64 N",
		"longitude": "110-13-11.05 W",
		"state": "ARIZONA",
		"artcc": "ZAB",
		"type": "RP",
		"updated": "SJN*VORTAC*307.00",
	},
	{
		"name": "CATEG",
		"latitude": "31-50-3.85 N",
		"longitude": "106-4-52.32 W",
		"state": "TEXAS",
		"artcc": "ZAB",
		"type": "RNAV",
		"updated": "12/19/2011",
	},
	{
		"name": "CAUDE",
		"latitude": "35-6-23.41 N",
		"longitude": "101-29-10 W",
		"state": "TEXAS",
		"artcc": "ZAB",
		"type": "RP",
		"updated": "BGD*VORTAC*175.95",
	},
	{
		"name": "CAVAN",
		"latitude": "33-31-10.25 N",
		"longitude": "112-23-51.99 W",
		"state": "ARIZONA",
		"artcc": "ZAB",
		"type": "MR",
		"updated": "LUF*TACAN*206.00/1.40",
	},
	{
		"name": "CAVRN",
		"latitude": "31-49-31.18 N",
		"longitude": "104-0-42.21 W",
		"state": "TEXAS",
		"artcc": "ZAB",
		"type": "RP",
		"updated": "INK*VORTAC*254.89/39.36",
	},
	{
		"name": "CAXAN",
		"latitude": "35-12-20.91 N",
		"longitude": "111-35-34.8 W",
		"state": "ARIZONA",
		"artcc": "ZAB",
		"type": "RNAV",
		"updated": "10/16/2017",
	},
	{
		"name": "CAYAL",
		"latitude": "35-20-32.15 N",
		"longitude": "106-0-36.67 W",
		"state": "NEW MEXICO",
		"artcc": "ZAB",
		"type": "RP",
		"updated": "FTI*VORTAC*233.46/46.82",
	},
	{
		"name": "CAYLA",
		"latitude": "31-40-36.44 N",
		"longitude": "110-1-38.82 W",
		"state": "ARIZONA",
		"artcc": "ZAB",
		"type": "RP",
		"updated": "DUG*VORTAC*286.38/25.00",
	},
	{
		"name": "CBANA",
		"latitude": "33-17-44.2 N",
		"longitude": "112-38-20.11 W",
		"state": "ARIZONA",
		"artcc": "ZAB",
		"type": "MR",
		"updated": "LUF*TACAN*209.00/19.50",
	},
	{
		"name": "CEBBA",
		"latitude": "36-36-54.59 N",
		"longitude": "103-1-49.67 W",
		"state": "NEW MEXICO",
		"artcc": "ZAB",
		"type": "RNAV",
		"updated": "07/11/2013",
	},
	{
		"name": "CEBEM",
		"latitude": "33-40-23.91 N",
		"longitude": "112-18-0.4 W",
		"state": "ARIZONA",
		"artcc": "ZAB",
		"type": "RNAV",
		"updated": "04/05/2005",
	},
	{
		"name": "CEBIL",
		"latitude": "32-0-31.99 N",
		"longitude": "111-13-45.7 W",
		"state": "ARIZONA",
		"artcc": "ZAB",
		"type": "RNAV",
		"updated": "11/16/2010",
	},
	{
		"name": "CEDAV",
		"latitude": "34-26-16.16 N",
		"longitude": "103-24-50.96 W",
		"state": "NEW MEXICO",
		"artcc": "ZAB",
		"type": "MR",
		"updated": "CVS*TACAN*300.00/5.70",
	},
	{
		"name": "CEGAP",
		"latitude": "33-40-54.77 N",
		"longitude": "112-10-50.46 W",
		"state": "ARIZONA",
		"artcc": "ZAB",
		"type": "RNAV",
		"updated": "03/05/2010",
	},
	{
		"name": "CEGUG",
		"latitude": "34-22-15.77 N",
		"longitude": "103-18-49.75 W",
		"state": "NEW MEXICO",
		"artcc": "ZAB",
		"type": "MR",
		"updated": "CVS*TACAN*136.20/0.71",
	},
	{
		"name": "CELAV",
		"latitude": "36-5-9.88 N",
		"longitude": "105-0-3.06 W",
		"state": "NEW MEXICO",
		"artcc": "ZAB",
		"type": "RP",
		"updated": "FTI*VORTAC*001.32/26.50",
	},
	{
		"name": "CELOS",
		"latitude": "34-21-52.44 N",
		"longitude": "105-50-20.52 W",
		"state": "NEW MEXICO",
		"artcc": "ZAB",
		"type": "MR",
		"updated": "CNX*VORTAC*256.00/8.00",
	},
	{
		"name": "CEMAC",
		"latitude": "34-53-31.1 N",
		"longitude": "106-42-49.61 W",
		"state": "NEW MEXICO",
		"artcc": "ZAB",
		"type": "RNAV",
		"updated": "08/09/2012",
	},
	{
		"name": "CEMOV",
		"latitude": "36-38-58.4 N",
		"longitude": "105-17-23.11 W",
		"state": "NEW MEXICO",
		"artcc": "ZAB",
		"type": "RNAV",
		"updated": "11/01/2001",
	},
	{
		"name": "CEMTU",
		"latitude": "35-19-45.66 N",
		"longitude": "101-48-30.72 W",
		"state": "TEXAS",
		"artcc": "ZAB",
		"type": "RNAV",
		"updated": "01/27/2003",
	},
	{
		"name": "CEPIB",
		"latitude": "33-22-41.16 N",
		"longitude": "111-44-36.69 W",
		"state": "ARIZONA",
		"artcc": "ZAB",
		"type": "RNAV",
		"updated": "10/26/2011",
	},
	{
		"name": "CERID",
		"latitude": "33-44-22.98 N",
		"longitude": "111-54-21.79 W",
		"state": "ARIZONA",
		"artcc": "ZAB",
		"type": "RNAV",
		"updated": "05/12/2009",
	},
	{
		"name": "CERIP",
		"latitude": "35-53-26.85 N",
		"longitude": "101-30-9.58 W",
		"state": "TEXAS",
		"artcc": "ZAB",
		"type": "RNAV",
		"updated": "04/01/2008",
	},
	{
		"name": "CERLA",
		"latitude": "33-25-51.83 N",
		"longitude": "112-2-6.24 W",
		"state": "ARIZONA",
		"artcc": "ZAB",
		"type": "RP",
		"updated": "PHX*LD*258.04/2.33",
	},
	{
		"name": "CERUN",
		"latitude": "33-26-22.98 N",
		"longitude": "111-35-37.69 W",
		"state": "ARIZONA",
		"artcc": "ZAB",
		"type": "RP",
		"updated": "CWJ*LD*E CRS/22.06",
	},
	{
		"name": "CESAT",
		"latitude": "33-18-19.39 N",
		"longitude": "112-38-16.42 W",
		"state": "ARIZONA",
		"artcc": "ZAB",
		"type": "MR",
		"updated": "LUF*TACAN*210.00/19.00",
	},
	{
		"name": "CESDA",
		"latitude": "34-47-35.16 N",
		"longitude": "106-39-15.12 W",
		"state": "NEW MEXICO",
		"artcc": "ZAB",
		"type": "RNAV",
		"updated": "07/21/2004",
	},
	{
		"name": "CESRU",
		"latitude": "35-19-48.22 N",
		"longitude": "103-25-16.85 W",
		"state": "NEW MEXICO",
		"artcc": "ZAB",
		"type": "RNAV",
		"updated": "07/21/2004",
	},
	{
		"name": "CETOX",
		"latitude": "32-52-59.47 N",
		"longitude": "107-9-0.04 W",
		"state": "NEW MEXICO",
		"artcc": "ZAB",
		"type": "RNAV",
		"updated": "08/18/2015",
	},
	{
		"name": "CEVBA",
		"latitude": "33-34-39.39 N",
		"longitude": "105-7-30.49 W",
		"state": "NEW MEXICO",
		"artcc": "ZAB",
		"type": "RP",
		"updated": "SRR*LD*NE CRS/22.48",
	},
	{
		"name": "CEVEX",
		"latitude": "35-3-57.53 N",
		"longitude": "101-30-51.54 W",
		"state": "TEXAS",
		"artcc": "ZAB",
		"type": "RNAV",
		"updated": "05/10/2015",
	},
	{
		"name": "CFBKM",
		"latitude": "32-7-25.8 N",
		"longitude": "106-43-26.77 W",
		"state": "NEW MEXICO",
		"artcc": "ZAB",
		"type": "CN",
		"updated": "07/06/2016",
	},
	{
		"name": "CFBPJ",
		"latitude": "31-53-26.77 N",
		"longitude": "106-20-56.51 W",
		"state": "TEXAS",
		"artcc": "ZAB",
		"type": "CN",
		"updated": "04/02/2014",
	},
	{
		"name": "CFBPL",
		"latitude": "31-49-43.52 N",
		"longitude": "106-17-17.57 W",
		"state": "TEXAS",
		"artcc": "ZAB",
		"type": "CN",
		"updated": "04/02/2014",
	},
	{
		"name": "CFBVP",
		"latitude": "31-53-26.68 N",
		"longitude": "106-20-56.76 W",
		"state": "TEXAS",
		"artcc": "ZAB",
		"type": "CN",
		"updated": "04/02/2014",
	},
	{
		"name": "CFBVQ",
		"latitude": "31-50-14.46 N",
		"longitude": "106-17-3.65 W",
		"state": "TEXAS",
		"artcc": "ZAB",
		"type": "CN",
		"updated": "04/02/2014",
	},
	{
		"name": "CFBVR",
		"latitude": "31-51-19.57 N",
		"longitude": "106-16-59.18 W",
		"state": "TEXAS",
		"artcc": "ZAB",
		"type": "CN",
		"updated": "04/02/2014",
	},
	{
		"name": "CFBVS",
		"latitude": "31-44-20.28 N",
		"longitude": "106-17-27.9 W",
		"state": "TEXAS",
		"artcc": "ZAB",
		"type": "CN",
		"updated": "04/02/2014",
	},
	{
		"name": "CFBWY",
		"latitude": "32-7-27.56 N",
		"longitude": "111-25-26.41 W",
		"state": "ARIZONA",
		"artcc": "ZAB",
		"type": "CN",
		"updated": "12/21/1999",
	},
	{
		"name": "CFBXP",
		"latitude": "31-49-43.39 N",
		"longitude": "106-17-17.57 W",
		"state": "TEXAS",
		"artcc": "ZAB",
		"type": "CN",
		"updated": "04/02/2014",
	},
	{
		"name": "CFCBR",
		"latitude": "31-42-33.79 N",
		"longitude": "106-22-21.28 W",
		"state": "TEXAS",
		"artcc": "ZAB",
		"type": "CN",
		"updated": "04/02/2012",
	},
	{
		"name": "CFCBS",
		"latitude": "31-45-41.68 N",
		"longitude": "106-24-44.64 W",
		"state": "TEXAS",
		"artcc": "ZAB",
		"type": "CN",
		"updated": "04/02/2012",
	},
	{
		"name": "CFCBT",
		"latitude": "31-45-44.79 N",
		"longitude": "106-24-26.01 W",
		"state": "TEXAS",
		"artcc": "ZAB",
		"type": "CN",
		"updated": "04/02/2012",
	},
	{
		"name": "CFCBV",
		"latitude": "31-49-0.58 N",
		"longitude": "106-28-0.24 W",
		"state": "TEXAS",
		"artcc": "ZAB",
		"type": "CN",
		"updated": "04/02/2012",
	},
	{
		"name": "CFCGG",
		"latitude": "35-22-45.54 N",
		"longitude": "106-17-33.82 W",
		"state": "NEW MEXICO",
		"artcc": "ZAB",
		"type": "CN",
		"updated": "10/25/2016",
	},
	{
		"name": "CFDQJ",
		"latitude": "33-35-52.69 N",
		"longitude": "111-59-20.85 W",
		"state": "ARIZONA",
		"artcc": "ZAB",
		"type": "CN",
		"updated": "05/12/2009",
	},
	{
		"name": "CFDWX",
		"latitude": "34-58-58.11 N",
		"longitude": "106-28-22.79 W",
		"state": "NEW MEXICO",
		"artcc": "ZAB",
		"type": "CN",
		"updated": "03/13/2014",
	},
	{
		"name": "CFDWZ",
		"latitude": "34-58-58.43 N",
		"longitude": "106-28-32.11 W",
		"state": "NEW MEXICO",
		"artcc": "ZAB",
		"type": "CN",
		"updated": "03/13/2014",
	},
	{
		"name": "CFDXB",
		"latitude": "35-2-10.24 N",
		"longitude": "106-33-23.6 W",
		"state": "NEW MEXICO",
		"artcc": "ZAB",
		"type": "CN",
		"updated": "08/09/2012",
	},
	{
		"name": "CFDXC",
		"latitude": "35-2-18.28 N",
		"longitude": "106-33-4.8 W",
		"state": "NEW MEXICO",
		"artcc": "ZAB",
		"type": "CN",
		"updated": "08/09/2012",
	},
	{
		"name": "CFDXD",
		"latitude": "35-2-38.46 N",
		"longitude": "106-33-0.88 W",
		"state": "NEW MEXICO",
		"artcc": "ZAB",
		"type": "CN",
		"updated": "08/09/2012",
	},
	{
		"name": "CFDXF",
		"latitude": "35-2-20 N",
		"longitude": "106-43-9.98 W",
		"state": "NEW MEXICO",
		"artcc": "ZAB",
		"type": "CN",
		"updated": "08/09/2012",
	},
	{
		"name": "CFDXG",
		"latitude": "35-5-18.57 N",
		"longitude": "106-36-16.87 W",
		"state": "NEW MEXICO",
		"artcc": "ZAB",
		"type": "CN",
		"updated": "08/10/2012",
	},
	{
		"name": "CFDXH",
		"latitude": "35-5-9.59 N",
		"longitude": "106-37-22.5 W",
		"state": "NEW MEXICO",
		"artcc": "ZAB",
		"type": "CN",
		"updated": "08/09/2012",
	},
	{
		"name": "CFDXJ",
		"latitude": "35-1-8.17 N",
		"longitude": "106-32-14.68 W",
		"state": "NEW MEXICO",
		"artcc": "ZAB",
		"type": "CN",
		"updated": "11/20/2012",
	},
	{
		"name": "CFDXM",
		"latitude": "35-0-52.92 N",
		"longitude": "106-35-19.9 W",
		"state": "NEW MEXICO",
		"artcc": "ZAB",
		"type": "CN",
		"updated": "11/20/2012",
	},
	{
		"name": "CFDZG",
		"latitude": "35-8-22.44 N",
		"longitude": "101-44-23.25 W",
		"state": "TEXAS",
		"artcc": "ZAB",
		"type": "CN",
		"updated": "09/01/2017",
	},
	{
		"name": "CFFDN",
		"latitude": "35-40-23.08 N",
		"longitude": "106-2-43.77 W",
		"state": "NEW MEXICO",
		"artcc": "ZAB",
		"type": "CN",
		"updated": "10/31/2016",
	},
	{
		"name": "CFFLQ",
		"latitude": "35-13-43.45 N",
		"longitude": "101-35-56.89 W",
		"state": "TEXAS",
		"artcc": "ZAB",
		"type": "CN",
		"updated": "09/01/2017",
	},
	{
		"name": "CFFPW",
		"latitude": "35-12-5.31 N",
		"longitude": "101-48-45.75 W",
		"state": "TEXAS",
		"artcc": "ZAB",
		"type": "CN",
		"updated": "09/01/2017",
	},
	{
		"name": "CFFRN",
		"latitude": "35-17-43.54 N",
		"longitude": "101-41-59.27 W",
		"state": "TEXAS",
		"artcc": "ZAB",
		"type": "CN",
		"updated": "09/05/2017",
	},
	{
		"name": "CFGKY",
		"latitude": "31-55-32.17 N",
		"longitude": "110-37-27.2 W",
		"state": "ARIZONA",
		"artcc": "ZAB",
		"type": "CN",
		"updated": "07/08/2016",
	},
	{
		"name": "CFHMN",
		"latitude": "33-5-54.22 N",
		"longitude": "106-8-54.94 W",
		"state": "NEW MEXICO",
		"artcc": "ZAB",
		"type": "CN",
		"updated": "07/13/2017",
	},
	{
		"name": "CFJWE",
		"latitude": "35-48-27.85 N",
		"longitude": "102-33-0.49 W",
		"state": "TEXAS",
		"artcc": "ZAB",
		"type": "CN",
		"updated": "12/04/2014",
	},
	{
		"name": "CFLRB",
		"latitude": "35-12-5.24 N",
		"longitude": "101-48-45.75 W",
		"state": "TEXAS",
		"artcc": "ZAB",
		"type": "CN",
		"updated": "09/05/2017",
	},
	{
		"name": "CFLTT",
		"latitude": "35-8-24.43 N",
		"longitude": "101-44-20.74 W",
		"state": "TEXAS",
		"artcc": "ZAB",
		"type": "CN",
		"updated": "09/05/2017",
	},
	{
		"name": "CFPGN",
		"latitude": "35-17-43.07 N",
		"longitude": "101-41-56.31 W",
		"state": "TEXAS",
		"artcc": "ZAB",
		"type": "CN",
		"updated": "09/05/2017",
	},
	{
		"name": "CFPJH",
		"latitude": "35-8-53.06 N",
		"longitude": "101-40-37.32 W",
		"state": "TEXAS",
		"artcc": "ZAB",
		"type": "CN",
		"updated": "09/05/2017",
	},
	{
		"name": "CFPQK",
		"latitude": "34-57-48.24 N",
		"longitude": "106-28-56.8 W",
		"state": "NEW MEXICO",
		"artcc": "ZAB",
		"type": "CN",
		"updated": "11/20/2012",
	},
	{
		"name": "CFPQL",
		"latitude": "35-4-6.67 N",
		"longitude": "106-32-15.08 W",
		"state": "NEW MEXICO",
		"artcc": "ZAB",
		"type": "CN",
		"updated": "10/30/2012",
	},
	{
		"name": "CFPQM",
		"latitude": "35-4-8 N",
		"longitude": "106-32-33.29 W",
		"state": "NEW MEXICO",
		"artcc": "ZAB",
		"type": "CN",
		"updated": "10/30/2012",
	},
	{
		"name": "CFPQN",
		"latitude": "35-3-52.62 N",
		"longitude": "106-33-9.69 W",
		"state": "NEW MEXICO",
		"artcc": "ZAB",
		"type": "CN",
		"updated": "10/30/2012",
	},
	{
		"name": "CFPQV",
		"latitude": "34-57-48.28 N",
		"longitude": "106-28-45.12 W",
		"state": "NEW MEXICO",
		"artcc": "ZAB",
		"type": "CN",
		"updated": "11/20/2012",
	},
	{
		"name": "CFPSL",
		"latitude": "35-14-3.04 N",
		"longitude": "101-37-11.91 W",
		"state": "TEXAS",
		"artcc": "ZAB",
		"type": "CN",
		"updated": "09/05/2017",
	},
	{
		"name": "CFPTJ",
		"latitude": "34-56-48.72 N",
		"longitude": "106-38-27.32 W",
		"state": "NEW MEXICO",
		"artcc": "ZAB",
		"type": "CN",
		"updated": "08/09/2012",
	},
	{
		"name": "CFPTK",
		"latitude": "35-0-46.12 N",
		"longitude": "106-43-18.18 W",
		"state": "NEW MEXICO",
		"artcc": "ZAB",
		"type": "CN",
		"updated": "03/13/2014",
	},
	{
		"name": "CFPTL",
		"latitude": "34-59-48.37 N",
		"longitude": "106-40-40.86 W",
		"state": "NEW MEXICO",
		"artcc": "ZAB",
		"type": "CN",
		"updated": "03/13/2014",
	},
	{
		"name": "CFPTM",
		"latitude": "35-7-27.19 N",
		"longitude": "106-40-37 W",
		"state": "NEW MEXICO",
		"artcc": "ZAB",
		"type": "CN",
		"updated": "03/13/2014",
	},
	{
		"name": "CFRFS",
		"latitude": "33-16-18.5 N",
		"longitude": "111-31-58.94 W",
		"state": "ARIZONA",
		"artcc": "ZAB",
		"type": "CN",
		"updated": "08/09/2017",
	},
	{
		"name": "CFRGB",
		"latitude": "35-12-21.28 N",
		"longitude": "101-35-57.43 W",
		"state": "TEXAS",
		"artcc": "ZAB",
		"type": "CN",
		"updated": "09/05/2017",
	},
	{
		"name": "CFRJS",
		"latitude": "35-7-21.7 N",
		"longitude": "101-43-58.77 W",
		"state": "TEXAS",
		"artcc": "ZAB",
		"type": "CN",
		"updated": "09/05/2017",
	},
	{
		"name": "CFRKC",
		"latitude": "35-17-47.35 N",
		"longitude": "101-41-35.89 W",
		"state": "TEXAS",
		"artcc": "ZAB",
		"type": "CN",
		"updated": "09/05/2017",
	},
	{
		"name": "CFRQX",
		"latitude": "35-12-8.19 N",
		"longitude": "101-48-42.03 W",
		"state": "TEXAS",
		"artcc": "ZAB",
		"type": "CN",
		"updated": "09/05/2017",
	},
	{
		"name": "CFSHJ",
		"latitude": "35-12-24.46 N",
		"longitude": "101-36-1.08 W",
		"state": "TEXAS",
		"artcc": "ZAB",
		"type": "CN",
		"updated": "09/05/2017",
	},
	{
		"name": "CFTXN",
		"latitude": "35-17-45.45 N",
		"longitude": "101-41-38.28 W",
		"state": "TEXAS",
		"artcc": "ZAB",
		"type": "CN",
		"updated": "09/05/2017",
	},
	{
		"name": "CFVCX",
		"latitude": "35-14-13.21 N",
		"longitude": "101-46-34.93 W",
		"state": "TEXAS",
		"artcc": "ZAB",
		"type": "CN",
		"updated": "09/05/2017",
	},
	{
		"name": "CFVDF",
		"latitude": "35-17-37.45 N",
		"longitude": "101-41-52.59 W",
		"state": "TEXAS",
		"artcc": "ZAB",
		"type": "CN",
		"updated": "09/05/2017",
	},
	{
		"name": "CFVHT",
		"latitude": "35-14-2.03 N",
		"longitude": "101-37-13.19 W",
		"state": "TEXAS",
		"artcc": "ZAB",
		"type": "CN",
		"updated": "09/05/2017",
	},
	{
		"name": "CFVJT",
		"latitude": "35-8-45.46 N",
		"longitude": "111-39-49.88 W",
		"state": "ARIZONA",
		"artcc": "ZAB",
		"type": "CN",
		"updated": "10/30/2017",
	},
	{
		"name": "CFVLF",
		"latitude": "35-15-55.88 N",
		"longitude": "106-38-52.72 W",
		"state": "NEW MEXICO",
		"artcc": "ZAB",
		"type": "CN",
		"updated": "08/10/2016",
	},
	{
		"name": "CFVQG",
		"latitude": "35-14-13.21 N",
		"longitude": "101-46-34.93 W",
		"state": "TEXAS",
		"artcc": "ZAB",
		"type": "CN",
		"updated": "09/05/2017",
	},
	{
		"name": "CFVRP",
		"latitude": "35-8-51.74 N",
		"longitude": "101-40-35.88 W",
		"state": "TEXAS",
		"artcc": "ZAB",
		"type": "CN",
		"updated": "09/05/2017",
	},
	{
		"name": "CFVST",
		"latitude": "35-14-10.65 N",
		"longitude": "101-46-31.96 W",
		"state": "TEXAS",
		"artcc": "ZAB",
		"type": "CN",
		"updated": "09/05/2017",
	},
	{
		"name": "CFXGH",
		"latitude": "31-56-23.3 N",
		"longitude": "110-35-4.91 W",
		"state": "ARIZONA",
		"artcc": "ZAB",
		"type": "CN",
		"updated": "07/08/2016",
	},
	{
		"name": "CHAPN",
		"latitude": "34-10-27.1 N",
		"longitude": "109-16-30.04 W",
		"state": "ARIZONA",
		"artcc": "ZAB",
		"type": "RNAV",
		"updated": "06/17/2011",
	},
	{
		"name": "CHAVO",
		"latitude": "33-20-51.4 N",
		"longitude": "112-5-34.46 W",
		"state": "ARIZONA",
		"artcc": "ZAB",
		"type": "RNAV",
		"updated": "08/08/2014",
	},
	{
		"name": "CHEAR",
		"latitude": "34-22-11.51 N",
		"longitude": "110-28-16.41 W",
		"state": "ARIZONA",
		"artcc": "ZAB",
		"type": "RP",
		"updated": "ZUN*VORTAC*227.66/74.30",
	},
	{
		"name": "CHEKR",
		"latitude": "33-50-24 N",
		"longitude": "110-50-22.45 W",
		"state": "ARIZONA",
		"artcc": "ZAB",
		"type": "RP",
		"updated": "PXR*VORTAC*054.40/61.66",
	},
	{
		"name": "CHEZZ",
		"latitude": "33-26-0 N",
		"longitude": "111-53-18 W",
		"state": "ARIZONA",
		"artcc": "ZAB",
		"type": "RNAV",
		"updated": "02/15/2002",
	},
	{
		"name": "CHILY",
		"latitude": "34-42-48.61 N",
		"longitude": "112-45-42.27 W",
		"state": "ARIZONA",
		"artcc": "ZAB",
		"type": "RP",
		"updated": "PXR*VORTAC*321.00/86.24",
	},
	{
		"name": "CHISO",
		"latitude": "33-1-31.58 N",
		"longitude": "106-4-4.47 W",
		"state": "NEW MEXICO",
		"artcc": "ZAB",
		"type": "MR",
		"updated": "HMN*TACAN*002.00/10.00",
	},
	{
		"name": "CHIST",
		"latitude": "34-15-59.68 N",
		"longitude": "103-28-10.04 W",
		"state": "NEW MEXICO",
		"artcc": "ZAB",
		"type": "MR",
		"updated": "CVS*TACAN*215.00/10.00",
	},
	{
		"name": "CHNGA",
		"latitude": "35-0-22.89 N",
		"longitude": "106-30-40.78 W",
		"state": "NEW MEXICO",
		"artcc": "ZAB",
		"type": "RNAV",
		"updated": "06/06/2017",
	},
	{
		"name": "CHOPR",
		"latitude": "33-31-24.46 N",
		"longitude": "111-10-49.85 W",
		"state": "ARIZONA",
		"artcc": "ZAB",
		"type": "RP",
		"updated": "PXR*VORTAC*070.00/40.00",
	},
	{
		"name": "CHYTA",
		"latitude": "31-35-15.85 N",
		"longitude": "110-13-38.4 W",
		"state": "ARIZONA",
		"artcc": "ZAB",
		"type": "RP",
		"updated": "FHU*VOR/DME*/6.54",
	},
	{
		"name": "CIANE",
		"latitude": "34-53-22.71 N",
		"longitude": "106-30-58.5 W",
		"state": "NEW MEXICO",
		"artcc": "ZAB",
		"type": "RNAV",
		"updated": "11/18/2012",
	},
	{
		"name": "CIBBI",
		"latitude": "33-1-6.11 N",
		"longitude": "110-4-16.49 W",
		"state": "ARIZONA",
		"artcc": "ZAB",
		"type": "RNAV",
		"updated": "05/05/2010",
	},
	{
		"name": "CIBDI",
		"latitude": "35-29-34.65 N",
		"longitude": "108-51-56.93 W",
		"state": "NEW MEXICO",
		"artcc": "ZAB",
		"type": "RNAV",
		"updated": "05/05/2010",
	},
	{
		"name": "CIBVU",
		"latitude": "35-29-22.86 N",
		"longitude": "106-11-53.19 W",
		"state": "NEW MEXICO",
		"artcc": "ZAB",
		"type": "RP",
		"updated": "SAF*VORTAC*232.00/7.20",
	},
	{
		"name": "CIDMA",
		"latitude": "33-3-13.97 N",
		"longitude": "105-51-39.03 W",
		"state": "NEW MEXICO",
		"artcc": "ZAB",
		"type": "MR",
		"updated": "HMN*TACAN*037.44/17.00",
	},
	{
		"name": "CIGID",
		"latitude": "32-59-52.64 N",
		"longitude": "105-56-3.99 W",
		"state": "NEW MEXICO",
		"artcc": "ZAB",
		"type": "MR",
		"updated": "HMN*TACAN*/12.00",
	},
	{
		"name": "CIGSA",
		"latitude": "35-11-20.67 N",
		"longitude": "103-33-31.46 W",
		"state": "NEW MEXICO",
		"artcc": "ZAB",
		"type": "RP",
		"updated": "TCC*VORTAC*066.00/2.00",
	},
	{
		"name": "CIMVU",
		"latitude": "32-55-14.28 N",
		"longitude": "106-2-9.45 W",
		"state": "NEW MEXICO",
		"artcc": "ZAB",
		"type": "RNAV",
		"updated": "12/22/2017",
	},
	{
		"name": "CINAG",
		"latitude": "31-48-20.83 N",
		"longitude": "106-20-0.04 W",
		"state": "TEXAS",
		"artcc": "ZAB",
		"type": "RP",
		"updated": "EWM*VORTAC*187.63",
	},
	{
		"name": "CINAN",
		"latitude": "35-1-0.77 N",
		"longitude": "107-46-10.22 W",
		"state": "NEW MEXICO",
		"artcc": "ZAB",
		"type": "RNAV",
		"updated": "01/13/2004",
	},
	{
		"name": "CIPAT",
		"latitude": "34-23-13.35 N",
		"longitude": "103-7-38.55 W",
		"state": "NEW MEXICO",
		"artcc": "ZAB",
		"type": "RNAV",
		"updated": "08/21/2015",
	},
	{
		"name": "CIPED",
		"latitude": "35-10-41.72 N",
		"longitude": "101-46-4.3 W",
		"state": "TEXAS",
		"artcc": "ZAB",
		"type": "MR",
		"updated": "PNH*VORTAC*216.86/4.80",
	},
	{
		"name": "CIPLI",
		"latitude": "35-14-11.81 N",
		"longitude": "101-41-34.71 W",
		"state": "TEXAS",
		"artcc": "ZAB",
		"type": "RNAV",
		"updated": "11/29/2010",
	},
	{
		"name": "CIPLU",
		"latitude": "33-42-21.8 N",
		"longitude": "111-45-32.08 W",
		"state": "ARIZONA",
		"artcc": "ZAB",
		"type": "RNAV",
		"updated": "04/05/2005",
	},
	{
		"name": "CIPVU",
		"latitude": "34-49-44.71 N",
		"longitude": "102-20-48.83 W",
		"state": "TEXAS",
		"artcc": "ZAB",
		"type": "RNAV",
		"updated": "12/29/2009",
	},
	{
		"name": "CIRKA",
		"latitude": "32-32-6.4 N",
		"longitude": "107-25-16.17 W",
		"state": "NEW MEXICO",
		"artcc": "ZAB",
		"type": "RNAV",
		"updated": "02/14/2014",
	},
	{
		"name": "CIRVI",
		"latitude": "31-35-50.68 N",
		"longitude": "110-13-21.8 W",
		"state": "ARIZONA",
		"artcc": "ZAB",
		"type": "MR",
		"updated": "ARH*TACAN*071.19/6.00",
	},
	{
		"name": "CIRVO",
		"latitude": "33-25-34 N",
		"longitude": "112-21-10.83 W",
		"state": "ARIZONA",
		"artcc": "ZAB",
		"type": "RNAV",
		"updated": "01/15/2008",
	},
	{
		"name": "CITAL",
		"latitude": "33-6-40.02 N",
		"longitude": "107-19-29.49 W",
		"state": "NEW MEXICO",
		"artcc": "ZAB",
		"type": "RNAV",
		"updated": "02/03/2004",
	},
	{
		"name": "CITOS",
		"latitude": "31-34-55.11 N",
		"longitude": "110-6-22.06 W",
		"state": "ARIZONA",
		"artcc": "ZAB",
		"type": "RP",
		"updated": "FHU*VOR/DME*079.00/12.76",
	},
	{
		"name": "CITUR",
		"latitude": "32-29-15.63 N",
		"longitude": "108-7-42.11 W",
		"state": "NEW MEXICO",
		"artcc": "ZAB",
		"type": "RNAV",
		"updated": "05/31/2006",
	},
	{
		"name": "CITUT",
		"latitude": "32-38-25.16 N",
		"longitude": "111-15-42.55 W",
		"state": "ARIZONA",
		"artcc": "ZAB",
		"type": "RNAV",
		"updated": "07/14/2011",
	},
	{
		"name": "CIXAV",
		"latitude": "35-55-38.6 N",
		"longitude": "100-21-55.7 W",
		"state": "TEXAS",
		"artcc": "ZAB",
		"type": "RNAV",
		"updated": "10/07/2014",
	},
	{
		"name": "CIXFE",
		"latitude": "35-16-56.09 N",
		"longitude": "101-38-37.75 W",
		"state": "TEXAS",
		"artcc": "ZAB",
		"type": "RP",
		"updated": "RIQ*DD*NE CRS/5.00",
	},
	{
		"name": "CIXOR",
		"latitude": "31-35-19.9 N",
		"longitude": "110-19-42.5 W",
		"state": "ARIZONA",
		"artcc": "ZAB",
		"type": "RP",
		"updated": "FHU*VOR/DME*079.00/1.36",
	},
	{
		"name": "CLAAS",
		"latitude": "33-40-12.91 N",
		"longitude": "112-4-54.59 W",
		"state": "ARIZONA",
		"artcc": "ZAB",
		"type": "RNAV",
		"updated": "05/12/2009",
	},
	{
		"name": "CLAUS",
		"latitude": "33-14-45.82 N",
		"longitude": "111-53-50.76 W",
		"state": "ARIZONA",
		"artcc": "ZAB",
		"type": "RP",
		"updated": "PXR*VORTAC*149.89/11.77",
	},
	{
		"name": "CLINK",
		"latitude": "34-11-32.26 N",
		"longitude": "103-24-17.59 W",
		"state": "NEW MEXICO",
		"artcc": "ZAB",
		"type": "MR",
		"updated": "CVS*TACAN*193.00/12.00",
	},
	{
		"name": "CLIPS",
		"latitude": "35-8-44.53 N",
		"longitude": "106-34-38.42 W",
		"state": "NEW MEXICO",
		"artcc": "ZAB",
		"type": "RNAV",
		"updated": "08/09/2012",
	},
	{
		"name": "CLOSE",
		"latitude": "33-22-34 N",
		"longitude": "111-41-59 W",
		"state": "ARIZONA",
		"artcc": "ZAB",
		"type": "RNAV",
		"updated": "09/04/2001",
	},
	{
		"name": "CLOUD",
		"latitude": "32-52-11.84 N",
		"longitude": "105-49-56.11 W",
		"state": "NEW MEXICO",
		"artcc": "ZAB",
		"type": "MR",
		"updated": "HMN*TACAN*078.00/14.00",
	},
	{
		"name": "CLUMP",
		"latitude": "35-5-41.27 N",
		"longitude": "105-51-50.46 W",
		"state": "NEW MEXICO",
		"artcc": "ZAB",
		"type": "RP",
		"updated": "ABQ*VORTAC*073.00/47.00",
	},
	{
		"name": "CMBAT",
		"latitude": "34-39-48.35 N",
		"longitude": "102-58-46.32 W",
		"state": "NEW MEXICO",
		"artcc": "ZAB",
		"type": "MR",
		"updated": "CVS*TACAN*035.00/24.00",
	},
	{
		"name": "CMSTR",
		"latitude": "35-6-14.97 N",
		"longitude": "106-53-13.01 W",
		"state": "NEW MEXICO",
		"artcc": "ZAB",
		"type": "RNAV",
		"updated": "11/24/2012",
	},
	{
		"name": "CNYON",
		"latitude": "33-32-31.68 N",
		"longitude": "111-18-30.49 W",
		"state": "ARIZONA",
		"artcc": "ZAB",
		"type": "RNAV",
		"updated": "04/02/2012",
	},
	{
		"name": "COBKA",
		"latitude": "35-2-42.81 N",
		"longitude": "106-47-9.27 W",
		"state": "NEW MEXICO",
		"artcc": "ZAB",
		"type": "RNAV",
		"updated": "09/20/2004",
	},
	{
		"name": "COBOB",
		"latitude": "31-51-16.6 N",
		"longitude": "111-2-34.98 W",
		"state": "ARIZONA",
		"artcc": "ZAB",
		"type": "RNAV",
		"updated": "11/16/2010",
	},
	{
		"name": "COBOY",
		"latitude": "33-20-28.9 N",
		"longitude": "105-33-22.74 W",
		"state": "NEW MEXICO",
		"artcc": "ZAB",
		"type": "MR",
		"updated": "HMN*TACAN*034.00/40.00",
	},
	{
		"name": "COCJE",
		"latitude": "32-18-47.32 N",
		"longitude": "109-48-51.35 W",
		"state": "ARIZONA",
		"artcc": "ZAB",
		"type": "RNAV",
		"updated": "06/19/2012",
	},
	{
		"name": "CODOM",
		"latitude": "34-32-28.81 N",
		"longitude": "103-33-15.33 W",
		"state": "NEW MEXICO",
		"artcc": "ZAB",
		"type": "MR",
		"updated": "CVS*TACAN*300.00/15.00",
	},
	{
		"name": "CODUM",
		"latitude": "34-56-29.86 N",
		"longitude": "107-5-38.82 W",
		"state": "NEW MEXICO",
		"artcc": "ZAB",
		"type": "MR",
		"updated": "ABQ*VORTAC*233.00/15.00",
	},
	{
		"name": "COKAR",
		"latitude": "34-59-51.16 N",
		"longitude": "106-44-10.45 W",
		"state": "NEW MEXICO",
		"artcc": "ZAB",
		"type": "RNAV",
		"updated": "08/09/2012",
	},
	{
		"name": "COKEY",
		"latitude": "36-40-23.94 N",
		"longitude": "104-36-7.36 W",
		"state": "NEW MEXICO",
		"artcc": "ZAB",
		"type": "RP",
		"updated": "CIM*VORTAC*037.04/17.00",
	},
	{
		"name": "COLAN",
		"latitude": "32-26-0 N",
		"longitude": "110-20-30 W",
		"state": "ARIZONA",
		"artcc": "ZAB",
		"type": "RNAV",
		"updated": "10/17/2005",
	},
	{
		"name": "COLTR",
		"latitude": "34-57-22.41 N",
		"longitude": "106-0-43 W",
		"state": "NEW MEXICO",
		"artcc": "ZAB",
		"type": "RNAV",
		"updated": "11/24/2012",
	},
	{
		"name": "COMEL",
		"latitude": "32-27-25.12 N",
		"longitude": "111-59-19.78 W",
		"state": "ARIZONA",
		"artcc": "ZAB",
		"type": "MR",
		"updated": "TFD*VORTAC*177.00/26.00",
	},
	{
		"name": "COMGU",
		"latitude": "33-3-6.78 N",
		"longitude": "111-34-16.26 W",
		"state": "ARIZONA",
		"artcc": "ZAB",
		"type": "RNAV",
		"updated": "04/23/2012",
	},
	{
		"name": "COMRO",
		"latitude": "34-45-35.52 N",
		"longitude": "106-44-44.58 W",
		"state": "NEW MEXICO",
		"artcc": "ZAB",
		"type": "RNAV",
		"updated": "11/04/2015",
	},
	{
		"name": "CONNE",
		"latitude": "31-56-3.16 N",
		"longitude": "105-19-46.16 W",
		"state": "TEXAS",
		"artcc": "ZAB",
		"type": "RP",
		"updated": "SFL*VORTAC*300.00/16.67",
	},
	{
		"name": "CONPO",
		"latitude": "35-34-30.15 N",
		"longitude": "109-7-51.91 W",
		"state": "ARIZONA",
		"artcc": "ZAB",
		"type": "RNAV",
		"updated": "07/14/2011",
	},
	{
		"name": "COOLY",
		"latitude": "32-49-3.96 N",
		"longitude": "112-47-5.51 W",
		"state": "ARIZONA",
		"artcc": "ZAB",
		"type": "MR",
		"updated": "GBN*VORTAC*200.00/10.00",
	},
	{
		"name": "COONS",
		"latitude": "32-31-37.51 N",
		"longitude": "112-6-57.59 W",
		"state": "ARIZONA",
		"artcc": "ZAB",
		"type": "MR",
		"updated": "BXK*VORTAC*133.00/66.00",
	},
	{
		"name": "COOPS",
		"latitude": "33-17-2.3 N",
		"longitude": "105-17-22.3 W",
		"state": "NEW MEXICO",
		"artcc": "ZAB",
		"type": "RNAV",
		"updated": "02/23/2011",
	},
	{
		"name": "COORE",
		"latitude": "35-9-36.05 N",
		"longitude": "106-48-5.2 W",
		"state": "NEW MEXICO",
		"artcc": "ZAB",
		"type": "MR",
		"updated": "ABQ*VORTAC*353.00/7.00",
	},
	{
		"name": "COPEY",
		"latitude": "32-2-9.92 N",
		"longitude": "110-50-44.09 W",
		"state": "ARIZONA",
		"artcc": "ZAB",
		"type": "RP",
		"updated": "TUS*VORTAC*123.04/5.00",
	},
	{
		"name": "COPOR",
		"latitude": "33-4-34.4 N",
		"longitude": "105-49-52.9 W",
		"state": "NEW MEXICO",
		"artcc": "ZAB",
		"type": "MW",
		"updated": "08/04/2016",
	},
	{
		"name": "COPPA",
		"latitude": "33-10-21.06 N",
		"longitude": "112-39-6.39 W",
		"state": "ARIZONA",
		"artcc": "ZAB",
		"type": "MR",
		"updated": "LUF*TACAN*199.00/25.78",
	},
	{
		"name": "COQHU",
		"latitude": "30-47-25.8 N",
		"longitude": "102-43-27.12 W",
		"state": "TEXAS",
		"artcc": "ZAB",
		"type": "RNAV",
		"updated": "07/14/2009",
	},
	{
		"name": "CORAS",
		"latitude": "33-40-20.46 N",
		"longitude": "105-58-39.39 W",
		"state": "NEW MEXICO",
		"artcc": "ZAB",
		"type": "RP",
		"updated": "TCS*VORTAC*056.99/69.43",
	},
	{
		"name": "CORUD",
		"latitude": "32-10-23.97 N",
		"longitude": "105-38-37.03 W",
		"state": "NEW MEXICO",
		"artcc": "ZAB",
		"type": "RP",
		"updated": "SFL*VORTAC*300.00",
	},
	{
		"name": "COSES",
		"latitude": "32-4-42.17 N",
		"longitude": "106-47-9.06 W",
		"state": "NEW MEXICO",
		"artcc": "ZAB",
		"type": "RP",
		"updated": "DMN*VORTAC*093.57/43.38",
	},
	{
		"name": "COSGR",
		"latitude": "33-31-27.21 N",
		"longitude": "111-49-49.22 W",
		"state": "ARIZONA",
		"artcc": "ZAB",
		"type": "RP",
		"updated": "PXR*VORTAC*040.07",
	},
	{
		"name": "COSIM",
		"latitude": "30-57-31.44 N",
		"longitude": "104-54-0.64 W",
		"state": "TEXAS",
		"artcc": "ZAB",
		"type": "RNAV",
		"updated": "08/05/2003",
	},
	{
		"name": "COSKI",
		"latitude": "35-4-30.61 N",
		"longitude": "106-32-39.07 W",
		"state": "NEW MEXICO",
		"artcc": "ZAB",
		"type": "RNAV",
		"updated": "08/09/2012",
	},
	{
		"name": "COTAC",
		"latitude": "35-35-13.73 N",
		"longitude": "106-0-57.48 W",
		"state": "NEW MEXICO",
		"artcc": "ZAB",
		"type": "RNAV",
		"updated": "10/25/2016",
	},
	{
		"name": "COTBO",
		"latitude": "32-52-20.77 N",
		"longitude": "106-5-56.73 W",
		"state": "NEW MEXICO",
		"artcc": "ZAB",
		"type": "MR",
		"updated": "HMN*TACAN*/0.80",
	},
	{
		"name": "COTSA",
		"latitude": "34-31-1.2 N",
		"longitude": "111-53-28.42 W",
		"state": "ARIZONA",
		"artcc": "ZAB",
		"type": "RNAV",
		"updated": "03/21/2016",
	},
	{
		"name": "COTVA",
		"latitude": "32-37-57.24 N",
		"longitude": "108-12-49.02 W",
		"state": "NEW MEXICO",
		"artcc": "ZAB",
		"type": "RNAV",
		"updated": "05/31/2006",
	},
	{
		"name": "COVRA",
		"latitude": "35-27-57.63 N",
		"longitude": "108-58-45.46 W",
		"state": "NEW MEXICO",
		"artcc": "ZAB",
		"type": "RNAV",
		"updated": "02/13/2006",
	},
	{
		"name": "COWAT",
		"latitude": "34-25-10.22 N",
		"longitude": "103-17-3.8 W",
		"state": "NEW MEXICO",
		"artcc": "ZAB",
		"type": "MR",
		"updated": "CVS*TACAN*032.00/3.00",
	},
	{
		"name": "COXOT",
		"latitude": "32-16-7.13 N",
		"longitude": "111-23-2.51 W",
		"state": "ARIZONA",
		"artcc": "ZAB",
		"type": "RNAV",
		"updated": "12/29/2005",
	},
	{
		"name": "COYAG",
		"latitude": "36-21-1.28 N",
		"longitude": "102-46-30.85 W",
		"state": "TEXAS",
		"artcc": "ZAB",
		"type": "RP",
		"updated": "DHT*VORTAC*312.25/19.13",
	},
	{
		"name": "COYOT",
		"latitude": "34-10-4.15 N",
		"longitude": "112-9-29.24 W",
		"state": "ARIZONA",
		"artcc": "ZAB",
		"type": "RP",
		"updated": "PXR*VORTAC*336.00/45.00",
	},
	{
		"name": "COZEY",
		"latitude": "32-37-55.41 N",
		"longitude": "108-3-48 W",
		"state": "NEW MEXICO",
		"artcc": "ZAB",
		"type": "RP",
		"updated": "SVC*LE*E CRS/5.23",
	},
	{
		"name": "CRADI",
		"latitude": "34-51-0.55 N",
		"longitude": "112-12-38.94 W",
		"state": "ARIZONA",
		"artcc": "ZAB",
		"type": "RP",
		"updated": "PRC*LD*028.29/16.42",
	},
	{
		"name": "CRATT",
		"latitude": "32-8-20.84 N",
		"longitude": "107-2-7.56 W",
		"state": "NEW MEXICO",
		"artcc": "ZAB",
		"type": "RP",
		"updated": "DMN*VORTAC*093.57/30.15",
	},
	{
		"name": "CRNUL",
		"latitude": "35-3-58.79 N",
		"longitude": "106-30-27.33 W",
		"state": "NEW MEXICO",
		"artcc": "ZAB",
		"type": "RNAV",
		"updated": "10/30/2012",
	},
	{
		"name": "CROIN",
		"latitude": "35-29-5.25 N",
		"longitude": "107-39-7.24 W",
		"state": "NEW MEXICO",
		"artcc": "ZAB",
		"type": "RP",
		"updated": "ABQ*VORTAC*290.00/48.82",
	},
	{
		"name": "CROME",
		"latitude": "32-43-25.28 N",
		"longitude": "111-11-8.05 W",
		"state": "ARIZONA",
		"artcc": "ZAB",
		"type": "RP",
		"updated": "TUS*VORTAC*328.00",
	},
	{
		"name": "CRSTN",
		"latitude": "35-9-2.9 N",
		"longitude": "106-49-31.21 W",
		"state": "NEW MEXICO",
		"artcc": "ZAB",
		"type": "RNAV",
		"updated": "11/18/2012",
	},
	{
		"name": "CRTTR",
		"latitude": "34-42-0 N",
		"longitude": "104-30-0 W",
		"state": "NEW MEXICO",
		"artcc": "ZAB",
		"type": "RNAV",
		"updated": "08/05/2005",
	},
	{
		"name": "CUBBA",
		"latitude": "35-13-34.64 N",
		"longitude": "107-9-34.84 W",
		"state": "NEW MEXICO",
		"artcc": "ZAB",
		"type": "RP",
		"updated": "ABQ*VORTAC*290.00/20.13",
	},
	{
		"name": "CUBIB",
		"latitude": "35-10-13.97 N",
		"longitude": "101-46-34.54 W",
		"state": "TEXAS",
		"artcc": "ZAB",
		"type": "RNAV",
		"updated": "09/05/2017",
	},
	{
		"name": "CUBOL",
		"latitude": "34-17-26.65 N",
		"longitude": "109-53-18.52 W",
		"state": "ARIZONA",
		"artcc": "ZAB",
		"type": "RNAV",
		"updated": "07/14/2011",
	},
	{
		"name": "CUDOR",
		"latitude": "32-56-25.91 N",
		"longitude": "112-47-29.88 W",
		"state": "ARIZONA",
		"artcc": "ZAB",
		"type": "MR",
		"updated": "GBN*VORTAC*247.00/6.00",
	},
	{
		"name": "CUDUV",
		"latitude": "32-3-14.13 N",
		"longitude": "110-7-15.03 W",
		"state": "ARIZONA",
		"artcc": "ZAB",
		"type": "RNAV",
		"updated": "06/19/2012",
	},
	{
		"name": "CUGUN",
		"latitude": "34-7-40.24 N",
		"longitude": "103-41-48.8 W",
		"state": "NEW MEXICO",
		"artcc": "ZAB",
		"type": "MR",
		"updated": "CVS*TACAN*221.00/24.00",
	},
	{
		"name": "CUKAS",
		"latitude": "35-30-22.83 N",
		"longitude": "101-23-11.93 W",
		"state": "TEXAS",
		"artcc": "ZAB",
		"type": "RNAV",
		"updated": "04/01/2008",
	},
	{
		"name": "CULAC",
		"latitude": "31-55-21.44 N",
		"longitude": "106-17-51.32 W",
		"state": "TEXAS",
		"artcc": "ZAB",
		"type": "RNAV",
		"updated": "12/01/2005",
	},
	{
		"name": "CULON",
		"latitude": "31-30-41.55 N",
		"longitude": "104-26-26.54 W",
		"state": "TEXAS",
		"artcc": "ZAB",
		"type": "RP",
		"updated": "SFL*VORTAC*101.00/36.00",
	},
	{
		"name": "CULTS",
		"latitude": "33-35-3.16 N",
		"longitude": "113-30-40.17 W",
		"state": "ARIZONA",
		"artcc": "ZAB",
		"type": "RP",
		"updated": "BXK*VORTAC*269.00/35.32",
	},
	{
		"name": "CUMAG",
		"latitude": "32-57-31.06 N",
		"longitude": "109-19-11.98 W",
		"state": "ARIZONA",
		"artcc": "ZAB",
		"type": "RNAV",
		"updated": "01/05/2011",
	},
	{
		"name": "CUPAK",
		"latitude": "31-31-2.18 N",
		"longitude": "109-36-16.79 W",
		"state": "ARIZONA",
		"artcc": "ZAB",
		"type": "RNAV",
		"updated": "06/01/2012",
	},
	{
		"name": "CURAM",
		"latitude": "34-14-6.97 N",
		"longitude": "103-30-7.28 W",
		"state": "NEW MEXICO",
		"artcc": "ZAB",
		"type": "RNAV",
		"updated": "11/21/2016",
	},
	{
		"name": "CURGA",
		"latitude": "32-2-54.76 N",
		"longitude": "110-51-36.66 W",
		"state": "ARIZONA",
		"artcc": "ZAB",
		"type": "RNAV",
		"updated": "06/02/2006",
	},
	{
		"name": "CURIB",
		"latitude": "33-37-52.27 N",
		"longitude": "103-55-39.44 W",
		"state": "NEW MEXICO",
		"artcc": "ZAB",
		"type": "RP",
		"updated": "CME*VORTAC*051.00/39.00",
	},
	{
		"name": "CURIS",
		"latitude": "31-45-25.3 N",
		"longitude": "106-26-22.71 W",
		"state": "TEXAS",
		"artcc": "ZAB",
		"type": "RNAV",
		"updated": "04/02/2012",
	},
	{
		"name": "CURLY",
		"latitude": "35-25-4.75 N",
		"longitude": "107-5-32.33 W",
		"state": "NEW MEXICO",
		"artcc": "ZAB",
		"type": "RP",
		"updated": "ABQ*VORTAC*315.90/26.20",
	},
	{
		"name": "CURRY",
		"latitude": "34-30-30.76 N",
		"longitude": "103-11-34.21 W",
		"state": "NEW MEXICO",
		"artcc": "ZAB",
		"type": "MR",
		"updated": "CVS*TACAN*028.00/10.00",
	},
	{
		"name": "CUSIL",
		"latitude": "33-13-42.04 N",
		"longitude": "104-36-21.17 W",
		"state": "NEW MEXICO",
		"artcc": "ZAB",
		"type": "RNAV",
		"updated": "07/31/2006",
	},
	{
		"name": "CUTIX",
		"latitude": "35-13-9.69 N",
		"longitude": "106-42-24.38 W",
		"state": "NEW MEXICO",
		"artcc": "ZAB",
		"type": "RNAV",
		"updated": "08/10/2016",
	},
	{
		"name": "CUTNU",
		"latitude": "32-52-16 N",
		"longitude": "106-5-55.72 W",
		"state": "NEW MEXICO",
		"artcc": "ZAB",
		"type": "MR",
		"updated": "HMN*TACAN*034.01/0.75",
	},
	{
		"name": "CUVGO",
		"latitude": "34-18-55.17 N",
		"longitude": "103-24-21.08 W",
		"state": "NEW MEXICO",
		"artcc": "ZAB",
		"type": "RP",
		"updated": "CVS*TACAN*219.70/5.70",
	},
	{
		"name": "CUVMA",
		"latitude": "32-55-19.73 N",
		"longitude": "106-2-25.26 W",
		"state": "NEW MEXICO",
		"artcc": "ZAB",
		"type": "MR",
		"updated": "HMN*TACAN*034.00/5.00",
	},
	{
		"name": "CUVOV",
		"latitude": "34-25-54.01 N",
		"longitude": "109-18-44.7 W",
		"state": "ARIZONA",
		"artcc": "ZAB",
		"type": "RNAV",
		"updated": "01/24/2007",
	},
	{
		"name": "CUXEX",
		"latitude": "31-37-17.32 N",
		"longitude": "109-41-26.47 W",
		"state": "ARIZONA",
		"artcc": "ZAB",
		"type": "RP",
		"updated": "DUG*VORTAC*320.00/10.00",
	},
	{
		"name": "CUZIN",
		"latitude": "32-0-7.76 N",
		"longitude": "106-41-57.88 W",
		"state": "NEW MEXICO",
		"artcc": "ZAB",
		"type": "RP",
		"updated": "EWM*VORTAC*266.00/22.00",
	},
	{
		"name": "CYOTE",
		"latitude": "34-57-35.69 N",
		"longitude": "106-22-44.8 W",
		"state": "NEW MEXICO",
		"artcc": "ZAB",
		"type": "RP",
		"updated": "ABQ*VORTAC*090.00",
	},
