	{
		"name": "DADDY",
		"latitude": "34-40-56.4 N",
		"longitude": "106-11-21.62 W",
		"state": "NEW MEXICO",
		"artcc": "ZAB",
		"type": "RNAV",
		"updated": "11/18/2012",
	},
	{
		"name": "DALKY",
		"latitude": "32-49-41.42 N",
		"longitude": "111-5-48.12 W",
		"state": "ARIZONA",
		"artcc": "ZAB",
		"type": "RP",
		"updated": "IWA*VORTAC*122.33",
	},
	{
		"name": "DANEY",
		"latitude": "33-52-26.43 N",
		"longitude": "103-40-21.76 W",
		"state": "NEW MEXICO",
		"artcc": "ZAB",
		"type": "MR",
		"updated": "CVS*TACAN*200.00/35.00",
	},
	{
		"name": "DANLE",
		"latitude": "32-57-35.33 N",
		"longitude": "105-59-4.4 W",
		"state": "NEW MEXICO",
		"artcc": "ZAB",
		"type": "MW",
		"updated": "08/10/2016",
	},
	{
		"name": "DANNK",
		"latitude": "32-45-8.58 N",
		"longitude": "106-4-42.64 W",
		"state": "NEW MEXICO",
		"artcc": "ZAB",
		"type": "MW",
		"updated": "08/04/2016",
	},
	{
		"name": "DAPEY",
		"latitude": "32-8-53.64 N",
		"longitude": "104-9-34.08 W",
		"state": "NEW MEXICO",
		"artcc": "ZAB",
		"type": "RNAV",
		"updated": "05/28/2004",
	},
	{
		"name": "DARCE",
		"latitude": "31-53-12.21 N",
		"longitude": "108-13-21.46 W",
		"state": "NEW MEXICO",
		"artcc": "ZAB",
		"type": "RP",
		"updated": "CUS*VOR/DME*265.14/33.37",
	},
	{
		"name": "DATME",
		"latitude": "36-39-51.15 N",
		"longitude": "106-6-56.76 W",
		"state": "NEW MEXICO",
		"artcc": "ZAB",
		"type": "RNAV",
		"updated": "11/24/2012",
	},
	{
		"name": "DATSE",
		"latitude": "35-22-51.78 N",
		"longitude": "101-32-12.2 W",
		"state": "TEXAS",
		"artcc": "ZAB",
		"type": "RNAV",
		"updated": "05/10/2015",
	},
	{
		"name": "DAUBS",
		"latitude": "34-50-7.67 N",
		"longitude": "102-10-48.62 W",
		"state": "TEXAS",
		"artcc": "ZAB",
		"type": "MR",
		"updated": "PNH*VORTAC*216.86/33.69",
	},
	{
		"name": "DAVEZ",
		"latitude": "32-0-1.31 N",
		"longitude": "111-23-32.26 W",
		"state": "ARIZONA",
		"artcc": "ZAB",
		"type": "MR",
		"updated": "TUS*VORTAC*245.00/25.00",
	},
	{
		"name": "DAVNE",
		"latitude": "31-47-14.68 N",
		"longitude": "106-15-9.65 W",
		"state": "TEXAS",
		"artcc": "ZAB",
		"type": "RNAV",
		"updated": "12/19/2011",
	},
	{
		"name": "DBACK",
		"latitude": "33-55-34.45 N",
		"longitude": "111-20-45.98 W",
		"state": "ARIZONA",
		"artcc": "ZAB",
		"type": "RP",
		"updated": "PXR*VORTAC*034.44/43.00",
	},
	{
		"name": "DDUKE",
		"latitude": "33-9-18.96 N",
		"longitude": "111-51-15.19 W",
		"state": "ARIZONA",
		"artcc": "ZAB",
		"type": "RNAV",
		"updated": "08/08/2014",
	},
	{
		"name": "DEBRA",
		"latitude": "33-49-21.98 N",
		"longitude": "103-28-3.23 W",
		"state": "NEW MEXICO",
		"artcc": "ZAB",
		"type": "RP",
		"updated": "CME*VORTAC*051.00/64.72",
	},
	{
		"name": "DECAN",
		"latitude": "31-56-28.49 N",
		"longitude": "105-39-55.09 W",
		"state": "TEXAS",
		"artcc": "ZAB",
		"type": "RP",
		"updated": "EWM*VORTAC*079.00/31.00",
	},
	{
		"name": "DECEL",
		"latitude": "36-38-48.59 N",
		"longitude": "102-52-48.48 W",
		"state": "OKLAHOMA",
		"artcc": "ZAB",
		"type": "RNAV",
		"updated": "07/11/2013",
	},
	{
		"name": "DECTU",
		"latitude": "33-9-21.03 N",
		"longitude": "111-58-16.25 W",
		"state": "ARIZONA",
		"artcc": "ZAB",
		"type": "WP",
		"updated": "03/15/2001",
	},
	{
		"name": "DEERS",
		"latitude": "34-34-51.48 N",
		"longitude": "111-53-50.83 W",
		"state": "ARIZONA",
		"artcc": "ZAB",
		"type": "RP",
		"updated": "PXR*VORTAC*351.00/68.85",
	},
	{
		"name": "DEGCA",
		"latitude": "35-18-51.88 N",
		"longitude": "108-0-23.77 W",
		"state": "NEW MEXICO",
		"artcc": "ZAB",
		"type": "RNAV",
		"updated": "09/04/2003",
	},
	{
		"name": "DEHOG",
		"latitude": "34-23-24.94 N",
		"longitude": "110-0-45.14 W",
		"state": "ARIZONA",
		"artcc": "ZAB",
		"type": "RP",
		"updated": "SJN*VORTAC*255.56/43.19",
	},
	{
		"name": "DELEO",
		"latitude": "36-48-25.02 N",
		"longitude": "104-7-32.46 W",
		"state": "NEW MEXICO",
		"artcc": "ZAB",
		"type": "RNAV",
		"updated": "02/23/2011",
	},
	{
		"name": "DELLA",
		"latitude": "33-4-7.49 N",
		"longitude": "111-22-17.53 W",
		"state": "ARIZONA",
		"artcc": "ZAB",
		"type": "RP",
		"updated": "IWA*VORTAC*121.81/19.89",
	},
	{
		"name": "DELLY",
		"latitude": "32-22-2.03 N",
		"longitude": "112-3-39.79 W",
		"state": "ARIZONA",
		"artcc": "ZAB",
		"type": "MR",
		"updated": "TFD*VORTAC*182.00/32.00",
	},
	{
		"name": "DELSE",
		"latitude": "33-26-26.8 N",
		"longitude": "111-57-28.37 W",
		"state": "ARIZONA",
		"artcc": "ZAB",
		"type": "RP",
		"updated": "CWJ*LD*E CRS/3.78",
	},
	{
		"name": "DEPHE",
		"latitude": "32-33-52.92 N",
		"longitude": "110-29-49.06 W",
		"state": "ARIZONA",
		"artcc": "ZAB",
		"type": "RP",
		"updated": "TFD*VORTAC*092.68/74.00",
	},
	{
		"name": "DERTY",
		"latitude": "35-48-44.48 N",
		"longitude": "108-40-14.9 W",
		"state": "NEW MEXICO",
		"artcc": "ZAB",
		"type": "RP",
		"updated": "GUP*VORTAC*012.03/22.44",
	},
	{
		"name": "DERVL",
		"latitude": "33-28-4.92 N",
		"longitude": "111-45-19.77 W",
		"state": "ARIZONA",
		"artcc": "ZAB",
		"type": "RNAV",
		"updated": "11/30/2010",
	},
	{
		"name": "DETEC",
		"latitude": "35-54-29.87 N",
		"longitude": "106-26-53.68 W",
		"state": "NEW MEXICO",
		"artcc": "ZAB",
		"type": "RNAV",
		"updated": "11/28/2012",
	},
	{
		"name": "DEVEC",
		"latitude": "36-4-6.26 N",
		"longitude": "105-13-31.79 W",
		"state": "NEW MEXICO",
		"artcc": "ZAB",
		"type": "RNAV",
		"updated": "01/24/2003",
	},
	{
		"name": "DEWEB",
		"latitude": "35-8-11.13 N",
		"longitude": "106-36-33.27 W",
		"state": "NEW MEXICO",
		"artcc": "ZAB",
		"type": "RNAV",
		"updated": "03/07/2014",
	},
	{
		"name": "DEXBE",
		"latitude": "35-16-22.55 N",
		"longitude": "101-36-30.02 W",
		"state": "TEXAS",
		"artcc": "ZAB",
		"type": "RP",
		"updated": "PNH*VORTAC*055.00/5.00",
	},
	{
		"name": "DEXTR",
		"latitude": "35-40-44.94 N",
		"longitude": "109-49-56.4 W",
		"state": "ARIZONA",
		"artcc": "ZAB",
		"type": "RP",
		"updated": "INW*VORTAC*037.66/60.00",
	},
	{
		"name": "DEYAC",
		"latitude": "33-52-58 N",
		"longitude": "103-41-25.09 W",
		"state": "NEW MEXICO",
		"artcc": "ZAB",
		"type": "RNAV",
		"updated": "09/13/2004",
	},
	{
		"name": "DEYEB",
		"latitude": "35-31-41.32 N",
		"longitude": "108-43-0.77 W",
		"state": "NEW MEXICO",
		"artcc": "ZAB",
		"type": "RNAV",
		"updated": "09/27/2004",
	},
	{
		"name": "DEYNE",
		"latitude": "31-34-19.75 N",
		"longitude": "109-48-31.59 W",
		"state": "ARIZONA",
		"artcc": "ZAB",
		"type": "RP",
		"updated": "DUG*VORTAC*286.38/12.16",
	},
	{
		"name": "DICED",
		"latitude": "33-26-44.71 N",
		"longitude": "106-4-21.49 W",
		"state": "NEW MEXICO",
		"artcc": "ZAB",
		"type": "RP",
		"updated": "HMN*TACAN*353.00/35.00",
	},
	{
		"name": "DICIR",
		"latitude": "33-25-42.55 N",
		"longitude": "111-46-52.64 W",
		"state": "ARIZONA",
		"artcc": "ZAB",
		"type": "RP",
		"updated": "TFD*VORTAC*359.14",
	},
	{
		"name": "DIGAY",
		"latitude": "34-35-39.28 N",
		"longitude": "109-26-0.49 W",
		"state": "ARIZONA",
		"artcc": "ZAB",
		"type": "RNAV",
		"updated": "07/14/2011",
	},
	{
		"name": "DILCO",
		"latitude": "35-31-52.43 N",
		"longitude": "110-3-55.33 W",
		"state": "ARIZONA",
		"artcc": "ZAB",
		"type": "RP",
		"updated": "INW*VORTAC*038.00/46.00",
	},
	{
		"name": "DILLI",
		"latitude": "31-46-38.03 N",
		"longitude": "104-41-45.9 W",
		"state": "TEXAS",
		"artcc": "ZAB",
		"type": "RP",
		"updated": "SFL*VORTAC*073.00/20.00",
	},
	{
		"name": "DILLY",
		"latitude": "34-49-42.56 N",
		"longitude": "112-36-47.33 W",
		"state": "ARIZONA",
		"artcc": "ZAB",
		"type": "RP",
		"updated": "DRK*VORTAC*305.01/10.00",
	},
	{
		"name": "DINGO",
		"latitude": "32-29-44.34 N",
		"longitude": "111-32-39.72 W",
		"state": "ARIZONA",
		"artcc": "ZAB",
		"type": "RP",
		"updated": "AVQ*NDB*274.82",
	},
	{
		"name": "DIXAN",
		"latitude": "36-16-51.42 N",
		"longitude": "105-57-19.67 W",
		"state": "NEW MEXICO",
		"artcc": "ZAB",
		"type": "RP",
		"updated": "TAS*VORTAC*173.92/19.79",
	},
	{
		"name": "DLINE",
		"latitude": "31-34-25.4 N",
		"longitude": "105-38-37.87 W",
		"state": "TEXAS",
		"artcc": "ZAB",
		"type": "RNAV",
		"updated": "11/22/2011",
	},
	{
		"name": "DLSOL",
		"latitude": "34-59-9.86 N",
		"longitude": "106-30-37.08 W",
		"state": "NEW MEXICO",
		"artcc": "ZAB",
		"type": "RNAV",
		"updated": "11/18/2012",
	},
	{
		"name": "DMAWP",
		"latitude": "32-23-19.08 N",
		"longitude": "111-3-45.84 W",
		"state": "ARIZONA",
		"artcc": "ZAB",
		"type": "CN",
		"updated": "06/02/2006",
	},
	{
		"name": "DMJCH",
		"latitude": "35-7-26.35 N",
		"longitude": "110-59-0.31 W",
		"state": "ARIZONA",
		"artcc": "ZAB",
		"type": "CN",
		"updated": "12/22/1999",
	},
	{
		"name": "DMYWN",
		"latitude": "32-22-9.76 N",
		"longitude": "111-14-16.92 W",
		"state": "ARIZONA",
		"artcc": "ZAB",
		"type": "CN",
		"updated": "12/21/1999",
	},
	{
		"name": "DNAHO",
		"latitude": "33-39-7.57 N",
		"longitude": "111-52-36.48 W",
		"state": "ARIZONA",
		"artcc": "ZAB",
		"type": "RNAV",
		"updated": "05/12/2009",
	},
	{
		"name": "DNBFB",
		"latitude": "35-7-21.59 N",
		"longitude": "101-43-58.96 W",
		"state": "TEXAS",
		"artcc": "ZAB",
		"type": "CN",
		"updated": "12/02/2010",
	},
	{
		"name": "DNIDE",
		"latitude": "35-21-20.63 N",
		"longitude": "106-29-1.89 W",
		"state": "NEW MEXICO",
		"artcc": "ZAB",
		"type": "RNAV",
		"updated": "11/18/2012",
	},
	{
		"name": "DODAH",
		"latitude": "35-26-20.71 N",
		"longitude": "109-3-2.07 W",
		"state": "ARIZONA",
		"artcc": "ZAB",
		"type": "RP",
		"updated": "ZUN*VORTAC*356.19",
	},
	{
		"name": "DOGIN",
		"latitude": "34-56-51.9 N",
		"longitude": "101-13-29.95 W",
		"state": "TEXAS",
		"artcc": "ZAB",
		"type": "RP",
		"updated": "PVW*VOR/DME*017.34",
	},
	{
		"name": "DOGSS",
		"latitude": "34-7-20.79 N",
		"longitude": "103-41-29.45 W",
		"state": "NEW MEXICO",
		"artcc": "ZAB",
		"type": "MR",
		"updated": "CVS*TACAN*220.00/24.00",
	},
	{
		"name": "DOHHN",
		"latitude": "31-50-38.56 N",
		"longitude": "107-42-30 W",
		"state": "NEW MEXICO",
		"artcc": "ZAB",
		"type": "RNAV",
		"updated": "02/14/2014",
	},
	{
		"name": "DOJOE",
		"latitude": "34-47-22.57 N",
		"longitude": "109-38-9.16 W",
		"state": "ARIZONA",
		"artcc": "ZAB",
		"type": "RP",
		"updated": "ZUN*VORTAC*232.19/26.00",
	},
	{
		"name": "DONII",
		"latitude": "33-11-48.12 N",
		"longitude": "105-39-58.61 W",
		"state": "NEW MEXICO",
		"artcc": "ZAB",
		"type": "MR",
		"updated": "HMN*TACAN*038.00/30.00",
	},
	{
		"name": "DONKK",
		"latitude": "34-14-48.43 N",
		"longitude": "103-29-17.89 W",
		"state": "NEW MEXICO",
		"artcc": "ZAB",
		"type": "MW",
		"updated": "02/14/2010",
	},
	{
		"name": "DONLY",
		"latitude": "33-10-48.32 N",
		"longitude": "104-39-48.65 W",
		"state": "NEW MEXICO",
		"artcc": "ZAB",
		"type": "RP",
		"updated": "CME*VORTAC*180.73",
	},
	{
		"name": "DONSS",
		"latitude": "35-14-2.65 N",
		"longitude": "101-50-56.68 W",
		"state": "TEXAS",
		"artcc": "ZAB",
		"type": "RNAV",
		"updated": "09/05/2017",
	},
	{
		"name": "DOODL",
		"latitude": "33-44-58.72 N",
		"longitude": "112-44-47.03 W",
		"state": "ARIZONA",
		"artcc": "ZAB",
		"type": "MR",
		"updated": "LUF*TACAN*291.79/22.31",
	},
	{
		"name": "DOOKK",
		"latitude": "34-48-39.84 N",
		"longitude": "106-31-20.5 W",
		"state": "NEW MEXICO",
		"artcc": "ZAB",
		"type": "RNAV",
		"updated": "11/18/2012",
	},
	{
		"name": "DOONS",
		"latitude": "34-12-51.13 N",
		"longitude": "103-9-16.07 W",
		"state": "NEW MEXICO",
		"artcc": "ZAB",
		"type": "MR",
		"updated": "CVS*TACAN*130.00/13.00",
	},
	{
		"name": "DOTGE",
		"latitude": "31-56-20.01 N",
		"longitude": "106-9-1.5 W",
		"state": "TEXAS",
		"artcc": "ZAB",
		"type": "RNAV",
		"updated": "12/19/2011",
	},
	{
		"name": "DOUMA",
		"latitude": "35-32-42.66 N",
		"longitude": "106-9-1.88 W",
		"state": "NEW MEXICO",
		"artcc": "ZAB",
		"type": "RP",
		"updated": "SAF*VORTAC*260.82/4.20",
	},
	{
		"name": "DOWES",
		"latitude": "31-3-14.33 N",
		"longitude": "103-27-16.23 W",
		"state": "TEXAS",
		"artcc": "ZAB",
		"type": "RP",
		"updated": "PEQ*VOR/DME*155.00",
	},
	{
		"name": "DOYAC",
		"latitude": "35-15-32.54 N",
		"longitude": "103-30-30.06 W",
		"state": "NEW MEXICO",
		"artcc": "ZAB",
		"type": "RNAV",
		"updated": "07/21/2004",
	},
	{
		"name": "DOYDE",
		"latitude": "36-25-34.9 N",
		"longitude": "105-43-51.61 W",
		"state": "NEW MEXICO",
		"artcc": "ZAB",
		"type": "RNAV",
		"updated": "04/25/2005",
	},
	{
		"name": "DOYEC",
		"latitude": "35-24-49.99 N",
		"longitude": "105-5-58.27 W",
		"state": "NEW MEXICO",
		"artcc": "ZAB",
		"type": "RNAV",
		"updated": "02/25/2005",
	},
	{
		"name": "DPAUL",
		"latitude": "34-31-51.94 N",
		"longitude": "109-53-54.14 W",
		"state": "ARIZONA",
		"artcc": "ZAB",
		"type": "RNAV",
		"updated": "02/09/2018",
	},
	{
		"name": "DRIBB",
		"latitude": "32-4-55.9 N",
		"longitude": "111-22-7.71 W",
		"state": "ARIZONA",
		"artcc": "ZAB",
		"type": "RP",
		"updated": "RBJ*NDB*305.00",
	},
	{
		"name": "DRRVR",
		"latitude": "32-10-30.89 N",
		"longitude": "109-17-25.83 W",
		"state": "ARIZONA",
		"artcc": "ZAB",
		"type": "RNAV",
		"updated": "08/08/2014",
	},
	{
		"name": "DRUGG",
		"latitude": "35-56-28.55 N",
		"longitude": "102-32-52.66 W",
		"state": "TEXAS",
		"artcc": "ZAB",
		"type": "RP",
		"updated": "DHT*VORTAC*169.03/9.00",
	},
	{
		"name": "DRYHT",
		"latitude": "34-25-3.23 N",
		"longitude": "108-8-10.44 W",
		"state": "NEW MEXICO",
		"artcc": "ZAB",
		"type": "RP",
		"updated": "SJN*VORTAC*078.16/50.00",
	},
	{
		"name": "DSERT",
		"latitude": "34-26-36.23 N",
		"longitude": "111-39-57.72 W",
		"state": "ARIZONA",
		"artcc": "ZAB",
		"type": "RP",
		"updated": "PXR*VORTAC*002.00",
	},
	{
		"name": "DTCHS",
		"latitude": "33-21-0 N",
		"longitude": "113-34-0 W",
		"state": "ARIZONA",
		"artcc": "ZAB",
		"type": "RNAV",
		"updated": "01/17/2007",
	},
	{
		"name": "DUBAY",
		"latitude": "32-21-0 N",
		"longitude": "105-26-0 W",
		"state": "NEW MEXICO",
		"artcc": "ZAB",
		"type": "RNAV",
		"updated": "08/05/2005",
	},
	{
		"name": "DUBEC",
		"latitude": "36-10-36 N",
		"longitude": "103-14-37.58 W",
		"state": "NEW MEXICO",
		"artcc": "ZAB",
		"type": "RNAV",
		"updated": "07/11/2013",
	},
	{
		"name": "DUCAS",
		"latitude": "32-53-35.84 N",
		"longitude": "107-6-4.3 W",
		"state": "NEW MEXICO",
		"artcc": "ZAB",
		"type": "RP",
		"updated": "TCS*VORTAC*145.75/25.00",
	},
	{
		"name": "DUCCK",
		"latitude": "32-11-23.56 N",
		"longitude": "108-0-28.11 W",
		"state": "NEW MEXICO",
		"artcc": "ZAB",
		"type": "RNAV",
		"updated": "08/19/2010",
	},
	{
		"name": "DUDLE",
		"latitude": "35-12-57.27 N",
		"longitude": "106-42-40.17 W",
		"state": "NEW MEXICO",
		"artcc": "ZAB",
		"type": "RP",
		"updated": "08/10/2016",
	},
	{
		"name": "DULKE",
		"latitude": "35-14-36.39 N",
		"longitude": "106-16-45.83 W",
		"state": "NEW MEXICO",
		"artcc": "ZAB",
		"type": "RP",
		"updated": "ABQ*VORTAC*052.49/29.00",
	},
	{
		"name": "DUMMM",
		"latitude": "34-28-59.54 N",
		"longitude": "106-46-7.23 W",
		"state": "NEW MEXICO",
		"artcc": "ZAB",
		"type": "RNAV",
		"updated": "03/06/2014",
	},
	{
		"name": "DUPAL",
		"latitude": "33-36-35.26 N",
		"longitude": "104-46-23 W",
		"state": "NEW MEXICO",
		"artcc": "ZAB",
		"type": "RP",
		"updated": "CME*VORTAC*323.00/18.00",
	},
	{
		"name": "DUQGU",
		"latitude": "33-29-34.56 N",
		"longitude": "111-56-0.99 W",
		"state": "ARIZONA",
		"artcc": "ZAB",
		"type": "CN",
		"updated": "05/12/2009",
	},
	{
		"name": "DUSTE",
		"latitude": "32-32-7.23 N",
		"longitude": "106-11-27.86 W",
		"state": "NEW MEXICO",
		"artcc": "ZAB",
		"type": "MR",
		"updated": "HMN*TACAN*182.00/20.00",
	},
	{
		"name": "DUTEY",
		"latitude": "34-51-53.48 N",
		"longitude": "112-19-19.44 W",
		"state": "ARIZONA",
		"artcc": "ZAB",
		"type": "RNAV",
		"updated": "07/09/2007",
	},
	{
		"name": "DUYAC",
		"latitude": "33-42-4.9 N",
		"longitude": "111-50-34.18 W",
		"state": "ARIZONA",
		"artcc": "ZAB",
		"type": "RNAV",
		"updated": "04/05/2005",
	},
	{
		"name": "DUYED",
		"latitude": "32-27-10.74 N",
		"longitude": "111-10-53.98 W",
		"state": "ARIZONA",
		"artcc": "ZAB",
		"type": "RNAV",
		"updated": "07/14/2011",
	},
	{
		"name": "DUYGE",
		"latitude": "33-46-10.51 N",
		"longitude": "111-54-8.96 W",
		"state": "ARIZONA",
		"artcc": "ZAB",
		"type": "RNAV",
		"updated": "05/12/2009",
	},
	{
		"name": "DWLNG",
		"latitude": "31-46-13.26 N",
		"longitude": "106-27-2.75 W",
		"state": "TEXAS",
		"artcc": "ZAB",
		"type": "RNAV",
		"updated": "04/02/2012",
	},
	{
		"name": "DWNLD",
		"latitude": "35-10-26.96 N",
		"longitude": "106-58-13.21 W",
		"state": "NEW MEXICO",
		"artcc": "ZAB",
		"type": "RNAV",
		"updated": "11/24/2012",
	},
