	{
		"name": "EAGUL",
		"latitude": "34-7-54.25 N",
		"longitude": "111-4-57.74 W",
		"state": "ARIZONA",
		"artcc": "ZAB",
		"type": "RP",
		"updated": "PXR*VORTAC*034.44/61.00",
	},
	{
		"name": "EBIDE",
		"latitude": "36-21-20.25 N",
		"longitude": "106-15-11.63 W",
		"state": "NEW MEXICO",
		"artcc": "ZAB",
		"type": "RNAV",
		"updated": "11/24/2012",
	},
	{
		"name": "EBVOY",
		"latitude": "32-45-7.66 N",
		"longitude": "109-31-3.92 W",
		"state": "ARIZONA",
		"artcc": "ZAB",
		"type": "RNAV",
		"updated": "05/05/2010",
	},
	{
		"name": "ECDOL",
		"latitude": "37-1-37.4 N",
		"longitude": "103-59-20.79 W",
		"state": "COLORADO",
		"artcc": "ZAB",
		"type": "RP",
		"updated": "TBE*VOR/DME*221.48/23.26",
	},
	{
		"name": "ECERI",
		"latitude": "33-57-12.51 N",
		"longitude": "103-30-31.92 W",
		"state": "NEW MEXICO",
		"artcc": "ZAB",
		"type": "RNAV",
		"updated": "09/13/2004",
	},
	{
		"name": "ECIFY",
		"latitude": "33-3-21.51 N",
		"longitude": "111-38-19.67 W",
		"state": "ARIZONA",
		"artcc": "ZAB",
		"type": "RNAV",
		"updated": "02/09/2018",
	},
	{
		"name": "ECIRE",
		"latitude": "32-14-58.49 N",
		"longitude": "104-13-2.63 W",
		"state": "NEW MEXICO",
		"artcc": "ZAB",
		"type": "RNAV",
		"updated": "10/14/2011",
	},
	{
		"name": "ECISA",
		"latitude": "35-27-0.66 N",
		"longitude": "105-50-46.85 W",
		"state": "NEW MEXICO",
		"artcc": "ZAB",
		"type": "RP",
		"updated": "SAF*VORTAC*103.75/12.00",
	},
	{
		"name": "ECIVO",
		"latitude": "32-38-45.89 N",
		"longitude": "108-23-21.53 W",
		"state": "NEW MEXICO",
		"artcc": "ZAB",
		"type": "RNAV",
		"updated": "05/31/2006",
	},
	{
		"name": "ECLPS",
		"latitude": "33-4-12.55 N",
		"longitude": "111-26-59.41 W",
		"state": "ARIZONA",
		"artcc": "ZAB",
		"type": "RNAV",
		"updated": "08/11/2014",
	},
	{
		"name": "EDDNA",
		"latitude": "33-35-6.34 N",
		"longitude": "112-1-24.01 W",
		"state": "ARIZONA",
		"artcc": "ZAB",
		"type": "RNAV",
		"updated": "11/30/2010",
	},
	{
		"name": "EEDGR",
		"latitude": "33-41-34.08 N",
		"longitude": "111-52-54.83 W",
		"state": "ARIZONA",
		"artcc": "ZAB",
		"type": "RNAV",
		"updated": "05/12/2009",
	},
	{
		"name": "EFDOP",
		"latitude": "33-26-27.14 N",
		"longitude": "112-13-33.71 W",
		"state": "ARIZONA",
		"artcc": "ZAB",
		"type": "WP",
		"updated": "11/02/1998",
	},
	{
		"name": "EFFEB",
		"latitude": "33-39-48.46 N",
		"longitude": "111-58-36.8 W",
		"state": "ARIZONA",
		"artcc": "ZAB",
		"type": "CN",
		"updated": "05/12/2009",
	},
	{
		"name": "EGEDE",
		"latitude": "33-46-32.44 N",
		"longitude": "112-3-33.6 W",
		"state": "ARIZONA",
		"artcc": "ZAB",
		"type": "RNAV",
		"updated": "05/12/2009",
	},
	{
		"name": "EHISO",
		"latitude": "33-26-5.83 N",
		"longitude": "111-45-54.42 W",
		"state": "ARIZONA",
		"artcc": "ZAB",
		"type": "RNAV",
		"updated": "05/24/2010",
	},
	{
		"name": "EITEE",
		"latitude": "31-31-31.1 N",
		"longitude": "66-9-45.3 W",
		"state": "OFFSHORE ATLANTIC",
		"artcc": "ZAB",
		"type": "RNAV",
		"updated": "01/10/2017",
	},
	{
		"name": "EKIDE",
		"latitude": "31-47-55.54 N",
		"longitude": "106-10-32.53 W",
		"state": "TEXAS",
		"artcc": "ZAB",
		"type": "RNAV",
		"updated": "06/27/2011",
	},
	{
		"name": "EKIYO",
		"latitude": "35-39-14.51 N",
		"longitude": "108-33-1.59 W",
		"state": "NEW MEXICO",
		"artcc": "ZAB",
		"type": "RNAV",
		"updated": "09/27/2004",
	},
	{
		"name": "EKOGE",
		"latitude": "31-42-54.55 N",
		"longitude": "106-31-12.63 W",
		"state": "",
		"artcc": "ZAB",
		"type": "RP",
		"updated": "ETF*LE*221.99/7.81",
	},
	{
		"name": "EKWIY",
		"latitude": "36-0-59.37 N",
		"longitude": "100-54-54.22 W",
		"state": "TEXAS",
		"artcc": "ZAB",
		"type": "CN",
		"updated": "12/04/2014",
	},
	{
		"name": "ELAXE",
		"latitude": "32-11-26.79 N",
		"longitude": "111-1-49.27 W",
		"state": "ARIZONA",
		"artcc": "ZAB",
		"type": "RNAV",
		"updated": "04/06/2001",
	},
	{
		"name": "ELDAJ",
		"latitude": "34-20-48.48 N",
		"longitude": "103-10-36.72 W",
		"state": "NEW MEXICO",
		"artcc": "ZAB",
		"type": "RNAV",
		"updated": "08/21/2015",
	},
	{
		"name": "ELFIX",
		"latitude": "32-6-50.18 N",
		"longitude": "110-49-9.35 W",
		"state": "ARIZONA",
		"artcc": "ZAB",
		"type": "MR",
		"updated": "TUS*VORTAC*065.00/5.00",
	},
	{
		"name": "EL PASO",
		"latitude": "31-48-57.29 N",
		"longitude": "106-16-54.83 W",
		"state": "TEXAS",
		"artcc": "ZAB",
		"type": "WP",
		"updated": "ELP*VORTAC*/0.00",
	},
	{
		"name": "ELRRA",
		"latitude": "34-50-45.74 N",
		"longitude": "107-17-10.21 W",
		"state": "NEW MEXICO",
		"artcc": "ZAB",
		"type": "RNAV",
		"updated": "03/21/2014",
	},
	{
		"name": "ELTIC",
		"latitude": "35-16-37.43 N",
		"longitude": "101-36-14.26 W",
		"state": "TEXAS",
		"artcc": "ZAB",
		"type": "RNAV",
		"updated": "11/30/2010",
	},
	{
		"name": "EMBAR",
		"latitude": "32-38-39.68 N",
		"longitude": "112-48-56.67 W",
		"state": "ARIZONA",
		"artcc": "ZAB",
		"type": "MR",
		"updated": "GBN*VORTAC*187.00/20.00",
	},
	{
		"name": "EMOLE",
		"latitude": "31-51-35.01 N",
		"longitude": "106-19-7.02 W",
		"state": "TEXAS",
		"artcc": "ZAB",
		"type": "RNAV",
		"updated": "04/02/2014",
	},
	{
		"name": "EMUXE",
		"latitude": "35-18-35.65 N",
		"longitude": "108-3-35.94 W",
		"state": "NEW MEXICO",
		"artcc": "ZAB",
		"type": "RP",
		"updated": "GUP*VORTAC*089.78/41.09",
	},
	{
		"name": "ENCIA",
		"latitude": "34-45-1.02 N",
		"longitude": "106-41-12.85 W",
		"state": "NEW MEXICO",
		"artcc": "ZAB",
		"type": "RP",
		"updated": "ONM*VORTAC*002.00/25.52",
	},
	{
		"name": "ENEMY",
		"latitude": "34-33-26.91 N",
		"longitude": "103-6-30.22 W",
		"state": "NEW MEXICO",
		"artcc": "ZAB",
		"type": "MR",
		"updated": "CVS*TACAN*035.00/15.00",
	},
	{
		"name": "ENSEA",
		"latitude": "33-45-2.07 N",
		"longitude": "112-11-25.71 W",
		"state": "ARIZONA",
		"artcc": "ZAB",
		"type": "RNAV",
		"updated": "08/08/2014",
	},
	{
		"name": "EPACU",
		"latitude": "35-15-56.38 N",
		"longitude": "107-58-39.24 W",
		"state": "NEW MEXICO",
		"artcc": "ZAB",
		"type": "RNAV",
		"updated": "09/04/2003",
	},
	{
		"name": "EPAYI",
		"latitude": "36-25-51.82 N",
		"longitude": "102-50-51.05 W",
		"state": "TEXAS",
		"artcc": "ZAB",
		"type": "RP",
		"updated": "DHT*VORTAC*312.25/25.10",
	},
	{
		"name": "EPECE",
		"latitude": "31-39-37.92 N",
		"longitude": "109-37-38.24 W",
		"state": "ARIZONA",
		"artcc": "ZAB",
		"type": "RNAV",
		"updated": "06/01/2012",
	},
	{
		"name": "EPEYU",
		"latitude": "32-37-57.91 N",
		"longitude": "108-17-30.81 W",
		"state": "NEW MEXICO",
		"artcc": "ZAB",
		"type": "RNAV",
		"updated": "05/31/2006",
	},
	{
		"name": "EPIHU",
		"latitude": "30-58-17.28 N",
		"longitude": "103-0-26.36 W",
		"state": "TEXAS",
		"artcc": "ZAB",
		"type": "RNAV",
		"updated": "07/14/2009",
	},
	{
		"name": "EPOCE",
		"latitude": "35-2-40.57 N",
		"longitude": "106-39-53.76 W",
		"state": "NEW MEXICO",
		"artcc": "ZAB",
		"type": "RNAV",
		"updated": "09/20/2004",
	},
	{
		"name": "EPUPE",
		"latitude": "31-47-57.54 N",
		"longitude": "106-12-55.75 W",
		"state": "TEXAS",
		"artcc": "ZAB",
		"type": "RNAV",
		"updated": "07/16/2015",
	},
	{
		"name": "EQYUY",
		"latitude": "33-40-14.38 N",
		"longitude": "111-53-59.22 W",
		"state": "ARIZONA",
		"artcc": "ZAB",
		"type": "CN",
		"updated": "05/13/2009",
	},
	{
		"name": "ERICA",
		"latitude": "35-27-6.17 N",
		"longitude": "101-22-6.07 W",
		"state": "TEXAS",
		"artcc": "ZAB",
		"type": "RP",
		"updated": "BGD*VORTAC*167.18/21.30",
	},
	{
		"name": "ESABE",
		"latitude": "32-8-28.31 N",
		"longitude": "110-58-19.49 W",
		"state": "ARIZONA",
		"artcc": "ZAB",
		"type": "RNAV",
		"updated": "04/06/2001",
	},
	{
		"name": "ESALE",
		"latitude": "32-11-19.92 N",
		"longitude": "110-54-27.03 W",
		"state": "ARIZONA",
		"artcc": "ZAB",
		"type": "MR",
		"updated": "DMA*TACAN*310.00",
	},
	{
		"name": "ESDEE",
		"latitude": "33-38-38.66 N",
		"longitude": "111-36-27.09 W",
		"state": "ARIZONA",
		"artcc": "ZAB",
		"type": "RNAV",
		"updated": "11/30/2010",
	},
	{
		"name": "ESPAN",
		"latitude": "36-7-11.35 N",
		"longitude": "106-21-25.34 W",
		"state": "NEW MEXICO",
		"artcc": "ZAB",
		"type": "RP",
		"updated": "FTI*VORTAC*282.30",
	},
	{
		"name": "ETVIW",
		"latitude": "33-26-27.05 N",
		"longitude": "112-15-33.68 W",
		"state": "ARIZONA",
		"artcc": "ZAB",
		"type": "RNAV",
		"updated": "01/14/2009",
	},
	{
		"name": "EVACA",
		"latitude": "32-32-39.97 N",
		"longitude": "107-47-19.91 W",
		"state": "NEW MEXICO",
		"artcc": "ZAB",
		"type": "RNAV",
		"updated": "05/31/2006",
	},
	{
		"name": "EVERE",
		"latitude": "31-55-59.21 N",
		"longitude": "110-58-27.13 W",
		"state": "ARIZONA",
		"artcc": "ZAB",
		"type": "RNAV",
		"updated": "04/06/2001",
	},
	{
		"name": "EVODE",
		"latitude": "34-15-16.21 N",
		"longitude": "111-20-22 W",
		"state": "ARIZONA",
		"artcc": "ZAB",
		"type": "RNAV",
		"updated": "02/09/2018",
	},
	{
		"name": "EVOQU",
		"latitude": "31-21-8.29 N",
		"longitude": "103-29-11.22 W",
		"state": "TEXAS",
		"artcc": "ZAB",
		"type": "RNAV",
		"updated": "07/16/2012",
	},
	{
		"name": "EXELL",
		"latitude": "35-38-19.4 N",
		"longitude": "102-5-40.76 W",
		"state": "TEXAS",
		"artcc": "ZAB",
		"type": "RP",
		"updated": "BGD*VORTAC*243.05",
	},
	{
		"name": "EXUTY",
		"latitude": "34-42-55.71 N",
		"longitude": "111-57-14.14 W",
		"state": "ARIZONA",
		"artcc": "ZAB",
		"type": "RNAV",
		"updated": "02/09/2018",
	},
	{
		"name": "EYASA",
		"latitude": "35-38-30.7 N",
		"longitude": "100-59-37.74 W",
		"state": "TEXAS",
		"artcc": "ZAB",
		"type": "RNAV",
		"updated": "11/29/2012",
	},
	{
		"name": "EYECE",
		"latitude": "35-2-39.02 N",
		"longitude": "106-41-35.9 W",
		"state": "NEW MEXICO",
		"artcc": "ZAB",
		"type": "RP",
		"updated": "ABQ*VORTAC*076.75/6.06",
	},
	{
		"name": "EYECO",
		"latitude": "35-2-39.62 N",
		"longitude": "106-38-1.06 W",
		"state": "NEW MEXICO",
		"artcc": "ZAB",
		"type": "MR",
		"updated": "ABQ*VORTAC*076.74/9.00",
	},
	{
		"name": "EYEDI",
		"latitude": "35-3-26.93 N",
		"longitude": "107-48-18.56 W",
		"state": "NEW MEXICO",
		"artcc": "ZAB",
		"type": "RNAV",
		"updated": "01/13/2004",
	},
	{
		"name": "EYIPE",
		"latitude": "35-18-13.23 N",
		"longitude": "106-38-34.98 W",
		"state": "NEW MEXICO",
		"artcc": "ZAB",
		"type": "RNAV",
		"updated": "08/10/2016",
	},
	{
		"name": "EZRUN",
		"latitude": "33-26-29.56 N",
		"longitude": "112-29-27.23 W",
		"state": "ARIZONA",
		"artcc": "ZAB",
		"type": "MR",
		"updated": "LUF*TACAN*211.00/8.00",
	},
	{
		"name": "EZWIJ",
		"latitude": "33-44-52.92 N",
		"longitude": "111-49-30.42 W",
		"state": "ARIZONA",
		"artcc": "ZAB",
		"type": "CN",
		"updated": "05/13/2009",
	},
