[
	{
		"name": "FAAST",
		"latitude": "32-16-33.16 N",
		"longitude": "108-10-25.26 W",
		"state": "NEW MEXICO",
		"artcc": "ZAB",
		"type": "RP",
		"updated": "DMN*VORTAC*258.19/28.90"
	},
	{
		"name": "FABAN",
		"latitude": "31-42-52.11 N",
		"longitude": "105-56-19.8 W",
		"state": "TEXAS",
		"artcc": "ZAB",
		"type": "RP",
		"updated": "PIO*VOR/DME*201.67"
	},
	{
		"name": "FABEX",
		"latitude": "34-59-5.13 N",
		"longitude": "106-31-36.16 W",
		"state": "NEW MEXICO",
		"artcc": "ZAB",
		"type": "RNAV",
		"updated": "03/07/2014"
	},
	{
		"name": "FABOR",
		"latitude": "31-51-33.28 N",
		"longitude": "106-15-25.69 W",
		"state": "TEXAS",
		"artcc": "ZAB",
		"type": "RNAV",
		"updated": "04/02/2014"
	},
	{
		"name": "FACTA",
		"latitude": "33-13-6.53 N",
		"longitude": "112-0-55.4 W",
		"state": "ARIZONA",
		"artcc": "ZAB",
		"type": "RP",
		"updated": "PXR*VORTAC*178.04"
	},
	{
		"name": "FAGUS",
		"latitude": "33-2-31.88 N",
		"longitude": "106-9-9.77 W",
		"state": "NEW MEXICO",
		"artcc": "ZAB",
		"type": "MW",
		"updated": "08/04/2016"
	},
	{
		"name": "FAKEE",
		"latitude": "34-34-0 N",
		"longitude": "105-17-0 W",
		"state": "NEW MEXICO",
		"artcc": "ZAB",
		"type": "RNAV",
		"updated": "08/05/2005"
	},
	{
		"name": "FAKER",
		"latitude": "35-25-6.65 N",
		"longitude": "106-15-33.08 W",
		"state": "NEW MEXICO",
		"artcc": "ZAB",
		"type": "RP",
		"updated": "SAF*VORTAC*219.53/12.00"
	},
	{
		"name": "FALGO",
		"latitude": "33-25-43.03 N",
		"longitude": "112-21-15.46 W",
		"state": "ARIZONA",
		"artcc": "ZAB",
		"type": "RP",
		"updated": "AHA*LD*258.03/17.90"
	},
	{
		"name": "FAMAG",
		"latitude": "32-52-31.6 N",
		"longitude": "106-6-35.85 W",
		"state": "NEW MEXICO",
		"artcc": "ZAB",
		"type": "MR",
		"updated": "HMN*TACAN*/0.80"
	},
	{
		"name": "FAMLO",
		"latitude": "32-59-38.93 N",
		"longitude": "105-57-27.73 W",
		"state": "NEW MEXICO",
		"artcc": "ZAB",
		"type": "MR",
		"updated": "HMN*TACAN*034.00/11.00"
	},
	{
		"name": "FANAK",
		"latitude": "32-46-30 N",
		"longitude": "110-53-0 W",
		"state": "ARIZONA",
		"artcc": "ZAB",
		"type": "RNAV",
		"updated": "10/18/2005"
	},
	{
		"name": "FANNY",
		"latitude": "31-30-48.63 N",
		"longitude": "105-48-53.18 W",
		"state": "TEXAS",
		"artcc": "ZAB",
		"type": "MR",
		"updated": "ELP*VORTAC*115.00/30.00"
	},
	{
		"name": "FANON",
		"latitude": "33-37-32.5 N",
		"longitude": "112-12-16.04 W",
		"state": "ARIZONA",
		"artcc": "ZAB",
		"type": "RNAV",
		"updated": "03/29/2018"
	},
	{
		"name": "FAPIR",
		"latitude": "35-33-48.59 N",
		"longitude": "101-22-21.65 W",
		"state": "TEXAS",
		"artcc": "ZAB",
		"type": "RP",
		"updated": "BGD*VORTAC*167.18/14.60"
	},
	{
		"name": "FAPNI",
		"latitude": "33-3-57.94 N",
		"longitude": "105-52-29.71 W",
		"state": "NEW MEXICO",
		"artcc": "ZAB",
		"type": "MR",
		"updated": "HMN*TACAN*034.00/17.00"
	},
	{
		"name": "FARCY",
		"latitude": "31-42-33.63 N",
		"longitude": "106-22-4.54 W",
		"state": "TEXAS",
		"artcc": "ZAB",
		"type": "RP",
		"updated": "ELP*VORTAC*202.62/7.75"
	},
	{
		"name": "FARET",
		"latitude": "33-41-43.76 N",
		"longitude": "112-13-57.48 W",
		"state": "ARIZONA",
		"artcc": "ZAB",
		"type": "MR",
		"updated": "LUF*TACAN*025.00/12.00"
	},
	{
		"name": "FASEB",
		"latitude": "31-38-22.6 N",
		"longitude": "109-36-31.98 W",
		"state": "ARIZONA",
		"artcc": "ZAB",
		"type": "RP",
		"updated": "DUG*VORTAC*345.00/10.00"
	},
	{
		"name": "FASED",
		"latitude": "34-59-54.09 N",
		"longitude": "101-36-14.92 W",
		"state": "TEXAS",
		"artcc": "ZAB",
		"type": "RNAV",
		"updated": "01/27/2003"
	},
	{
		"name": "FATAP",
		"latitude": "32-47-42.53 N",
		"longitude": "104-25-18.1 W",
		"state": "NEW MEXICO",
		"artcc": "ZAB",
		"type": "RP",
		"updated": "CME*VORTAC*150.73/34.00"
	},
	{
		"name": "FATTT",
		"latitude": "34-45-25.58 N",
		"longitude": "106-7-5.31 W",
		"state": "NEW MEXICO",
		"artcc": "ZAB",
		"type": "RNAV",
		"updated": "11/18/2012"
	},
	{
		"name": "FAVAD",
		"latitude": "29-38-22.73 N",
		"longitude": "104-14-48.19 W",
		"state": "TEXAS",
		"artcc": "ZAB",
		"type": "RNAV",
		"updated": "02/26/2014"
	},
	{
		"name": "FAVAT",
		"latitude": "33-8-37.91 N",
		"longitude": "106-4-4.79 W",
		"state": "NEW MEXICO",
		"artcc": "ZAB",
		"type": "MR",
		"updated": "HMN*TACAN*357.00/17.00"
	},
	{
		"name": "FBALL",
		"latitude": "33-40-54.17 N",
		"longitude": "112-12-18 W",
		"state": "ARIZONA",
		"artcc": "ZAB",
		"type": "RNAV",
		"updated": "12/14/2010"
	},
	{
		"name": "FEGEV",
		"latitude": "33-41-57.66 N",
		"longitude": "111-52-42.62 W",
		"state": "ARIZONA",
		"artcc": "ZAB",
		"type": "RNAV",
		"updated": "04/15/2005"
	},
	{
		"name": "FELIB",
		"latitude": "34-2-49.89 N",
		"longitude": "103-27-41.39 W",
		"state": "NEW MEXICO",
		"artcc": "ZAB",
		"type": "RNAV",
		"updated": "09/13/2004"
	},
	{
		"name": "FEMOL",
		"latitude": "31-48-23.96 N",
		"longitude": "106-6-22.32 W",
		"state": "TEXAS",
		"artcc": "ZAB",
		"type": "RP",
		"updated": "EWM*VORTAC*123.61"
	},
	{
		"name": "FENON",
		"latitude": "36-42-50.96 N",
		"longitude": "104-49-6.52 W",
		"state": "NEW MEXICO",
		"artcc": "ZAB",
		"type": "RP",
		"updated": "CIM*VORTAC*357.95/13.60"
	},
	{
		"name": "FEPOR",
		"latitude": "31-44-30.82 N",
		"longitude": "106-22-15.62 W",
		"state": "TEXAS",
		"artcc": "ZAB",
		"type": "RNAV",
		"updated": "04/02/2012"
	},
	{
		"name": "FEPOX",
		"latitude": "32-7-38.14 N",
		"longitude": "106-43-41.99 W",
		"state": "NEW MEXICO",
		"artcc": "ZAB",
		"type": "RNAV",
		"updated": "02/14/2014"
	},
	{
		"name": "FEPUN",
		"latitude": "32-54-39.46 N",
		"longitude": "105-46-39.63 W",
		"state": "NEW MEXICO",
		"artcc": "ZAB",
		"type": "MR",
		"updated": "HMN*TACAN*070.00/17.00"
	},
	{
		"name": "FERAK",
		"latitude": "34-15-53.17 N",
		"longitude": "103-31-10.07 W",
		"state": "NEW MEXICO",
		"artcc": "ZAB",
		"type": "MR",
		"updated": "CVS*TACAN*227.74/12.00"
	},
	{
		"name": "FERER",
		"latitude": "34-11-52.43 N",
		"longitude": "111-47-38.1 W",
		"state": "ARIZONA",
		"artcc": "ZAB",
		"type": "RP",
		"updated": "PXR*VORTAC*358.84/46.65"
	},
	{
		"name": "FESIX",
		"latitude": "35-32-43.97 N",
		"longitude": "108-38-34.42 W",
		"state": "NEW MEXICO",
		"artcc": "ZAB",
		"type": "RNAV",
		"updated": "09/27/2004"
	},
	{
		"name": "FESOG",
		"latitude": "34-19-22.86 N",
		"longitude": "103-25-13.81 W",
		"state": "NEW MEXICO",
		"artcc": "ZAB",
		"type": "MR",
		"updated": "CVS*TACAN*227.74/5.97"
	},
	{
		"name": "FETEP",
		"latitude": "34-26-32.34 N",
		"longitude": "103-15-9.55 W",
		"state": "NEW MEXICO",
		"artcc": "ZAB",
		"type": "MR",
		"updated": "CVS*TACAN*/5.07"
	},
	{
		"name": "FETER",
		"latitude": "32-57-20.47 N",
		"longitude": "106-7-49.85 W",
		"state": "NEW MEXICO",
		"artcc": "ZAB",
		"type": "MR",
		"updated": "HMN*TACAN*/5.71"
	},
	{
		"name": "FETIN",
		"latitude": "34-48-31.48 N",
		"longitude": "111-50-17.19 W",
		"state": "ARIZONA",
		"artcc": "ZAB",
		"type": "RNAV",
		"updated": "02/12/2008"
	},
	{
		"name": "FETUR",
		"latitude": "35-12-36.49 N",
		"longitude": "103-34-34.91 W",
		"state": "NEW MEXICO",
		"artcc": "ZAB",
		"type": "RP",
		"updated": "TCC*VORTAC*021.00/2.00"
	},
	{
		"name": "FEVTI",
		"latitude": "33-26-14.45 N",
		"longitude": "111-45-54.74 W",
		"state": "ARIZONA",
		"artcc": "ZAB",
		"type": "RNAV",
		"updated": "05/24/2010"
	},
	{
		"name": "FFIXA",
		"latitude": "33-25-39.87 N",
		"longitude": "112-35-59.44 W",
		"state": "ARIZONA",
		"artcc": "ZAB",
		"type": "CN",
		"updated": "01/03/2012"
	},
	{
		"name": "FIBOD",
		"latitude": "32-47-52.12 N",
		"longitude": "105-46-53.78 W",
		"state": "NEW MEXICO",
		"artcc": "ZAB",
		"type": "MR",
		"updated": "HMN*TACAN*093.00/17.00"
	},
	{
		"name": "FIBOX",
		"latitude": "33-31-51.61 N",
		"longitude": "105-17-31.93 W",
		"state": "NEW MEXICO",
		"artcc": "ZAB",
		"type": "RP",
		"updated": "SRR*LD*NE CRS/13.65"
	},
	{
		"name": "FIDLI",
		"latitude": "35-39-15.63 N",
		"longitude": "101-23-30.46 W",
		"state": "TEXAS",
		"artcc": "ZAB",
		"type": "RNAV",
		"updated": "04/01/2008"
	},
	{
		"name": "FIGMO",
		"latitude": "31-35-26.77 N",
		"longitude": "105-22-54.74 W",
		"state": "TEXAS",
		"artcc": "ZAB",
		"type": "RP",
		"updated": "ELP*VORTAC*094.07/48.00"
	},
	{
		"name": "FIMAL",
		"latitude": "35-15-51.33 N",
		"longitude": "111-31-25.14 W",
		"state": "ARIZONA",
		"artcc": "ZAB",
		"type": "RP",
		"updated": "FLG*VOR/DME*/10.20"
	},
	{
		"name": "FIMNU",
		"latitude": "32-41-54.81 N",
		"longitude": "109-27-19.46 W",
		"state": "ARIZONA",
		"artcc": "ZAB",
		"type": "RNAV",
		"updated": "05/05/2010"
	},
	{
		"name": "FIMTU",
		"latitude": "32-30-15.2 N",
		"longitude": "111-8-45.15 W",
		"state": "ARIZONA",
		"artcc": "ZAB",
		"type": "RNAV",
		"updated": "07/14/2011"
	},
	{
		"name": "FIMVI",
		"latitude": "35-3-53.89 N",
		"longitude": "101-43-3.24 W",
		"state": "TEXAS",
		"artcc": "ZAB",
		"type": "RNAV",
		"updated": "09/05/2017"
	},
	{
		"name": "FINAB",
		"latitude": "31-49-56.36 N",
		"longitude": "106-11-29.54 W",
		"state": "TEXAS",
		"artcc": "ZAB",
		"type": "RNAV",
		"updated": "04/02/2012"
	},
	{
		"name": "FINAG",
		"latitude": "31-48-44.99 N",
		"longitude": "106-53-10.51 W",
		"state": "NEW MEXICO",
		"artcc": "ZAB",
		"type": "RNAV",
		"updated": "02/14/2014"
	},
	{
		"name": "FINAK",
		"latitude": "35-45-31.82 N",
		"longitude": "106-7-49.95 W",
		"state": "NEW MEXICO",
		"artcc": "ZAB",
		"type": "RNAV",
		"updated": "10/31/2016"
	},
	{
		"name": "FINAP",
		"latitude": "33-24-11.78 N",
		"longitude": "111-44-46.69 W",
		"state": "ARIZONA",
		"artcc": "ZAB",
		"type": "RNAV",
		"updated": "11/30/2010"
	},
	{
		"name": "FINDI",
		"latitude": "34-18-7.13 N",
		"longitude": "103-25-19.1 W",
		"state": "NEW MEXICO",
		"artcc": "ZAB",
		"type": "RNAV",
		"updated": "10/31/2017"
	},
	{
		"name": "FINUX",
		"latitude": "33-36-9.93 N",
		"longitude": "112-18-23.49 W",
		"state": "ARIZONA",
		"artcc": "ZAB",
		"type": "MR",
		"updated": "LUF*TACAN*030.00/5.40"
	},
	{
		"name": "FIPLI",
		"latitude": "36-32-4.19 N",
		"longitude": "103-5-19.93 W",
		"state": "NEW MEXICO",
		"artcc": "ZAB",
		"type": "RNAV",
		"updated": "07/11/2013"
	},
	{
		"name": "FIREY",
		"latitude": "35-25-31.09 N",
		"longitude": "106-51-40.32 W",
		"state": "NEW MEXICO",
		"artcc": "ZAB",
		"type": "RNAV",
		"updated": "11/18/2012"
	},
	{
		"name": "FIRIK",
		"latitude": "33-4-45.78 N",
		"longitude": "105-53-32.55 W",
		"state": "NEW MEXICO",
		"artcc": "ZAB",
		"type": "MR",
		"updated": "HMN*TACAN*030.00/17.00"
	},
	{
		"name": "FITEE",
		"latitude": "35-44-1.81 N",
		"longitude": "106-11-11.88 W",
		"state": "NEW MEXICO",
		"artcc": "ZAB",
		"type": "RNAV",
		"updated": "03/21/2014"
	},
	{
		"name": "FITPO",
		"latitude": "34-25-8.21 N",
		"longitude": "103-21-40.59 W",
		"state": "NEW MEXICO",
		"artcc": "ZAB",
		"type": "MR",
		"updated": "CVS*TACAN*313.00/3.00"
	},
	{
		"name": "FITZZ",
		"latitude": "32-47-10.96 N",
		"longitude": "105-43-25.89 W",
		"state": "NEW MEXICO",
		"artcc": "ZAB",
		"type": "MR",
		"updated": "HMN*TACAN*093.00/20.00"
	},
	{
		"name": "FIVIB",
		"latitude": "32-26-21.98 N",
		"longitude": "110-53-23.22 W",
		"state": "ARIZONA",
		"artcc": "ZAB",
		"type": "RNAV",
		"updated": "06/02/2006"
	},
	{
		"name": "FIVIL",
		"latitude": "32-20-5.46 N",
		"longitude": "111-2-31.13 W",
		"state": "ARIZONA",
		"artcc": "ZAB",
		"type": "MR",
		"updated": "DMA*TACAN*310.00/13.30"
	},
	{
		"name": "FIVUB",
		"latitude": "32-8-19.79 N",
		"longitude": "110-1-14.57 W",
		"state": "ARIZONA",
		"artcc": "ZAB",
		"type": "RNAV",
		"updated": "06/19/2012"
	},
	{
		"name": "FIVWI",
		"latitude": "35-42-4.57 N",
		"longitude": "100-21-18.35 W",
		"state": "TEXAS",
		"artcc": "ZAB",
		"type": "RNAV",
		"updated": "08/26/2011"
	},
	{
		"name": "FIXAR",
		"latitude": "33-25-40.64 N",
		"longitude": "111-35-55.95 W",
		"state": "ARIZONA",
		"artcc": "ZAB",
		"type": "RP",
		"updated": "RJG*LD*078.03/20.04"
	},
	{
		"name": "FIXAV",
		"latitude": "32-58-6.61 N",
		"longitude": "104-12-28.51 W",
		"state": "NEW MEXICO",
		"artcc": "ZAB",
		"type": "RNAV",
		"updated": "02/06/2014"
	},
	{
		"name": "FIXES",
		"latitude": "35-39-46.45 N",
		"longitude": "101-0-5.57 W",
		"state": "TEXAS",
		"artcc": "ZAB",
		"type": "RNAV",
		"updated": "07/08/2008"
	},
	{
		"name": "FLIER",
		"latitude": "32-43-7.28 N",
		"longitude": "112-10-49.4 W",
		"state": "ARIZONA",
		"artcc": "ZAB",
		"type": "RP",
		"updated": "GBN*VORTAC*106.00/28.74"
	},
	{
		"name": "FLITE",
		"latitude": "35-7-34.34 N",
		"longitude": "101-43-38.64 W",
		"state": "TEXAS",
		"artcc": "ZAB",
		"type": "RNAV",
		"updated": "08/21/2017"
	},
	{
		"name": "FLOGS",
		"latitude": "32-15-15.33 N",
		"longitude": "109-9-59.07 W",
		"state": "ARIZONA",
		"artcc": "ZAB",
		"type": "RNAV",
		"updated": "02/13/2014"
	},
	{
		"name": "FLUTY",
		"latitude": "34-43-7.94 N",
		"longitude": "103-37-5.15 W",
		"state": "NEW MEXICO",
		"artcc": "ZAB",
		"type": "RP",
		"updated": "TCC*VORTAC*170.00"
	},
	{
		"name": "FLYBY",
		"latitude": "35-36-4.87 N",
		"longitude": "106-34-47.87 W",
		"state": "NEW MEXICO",
		"artcc": "ZAB",
		"type": "RP",
		"updated": "FTI*VORTAC*254.69/70.73"
	},
	{
		"name": "FNLAY",
		"latitude": "31-10-24 N",
		"longitude": "105-20-29 W",
		"state": "TEXAS",
		"artcc": "ZAB",
		"type": "RNAV",
		"updated": "08/23/2015"
	},
	{
		"name": "FOBET",
		"latitude": "31-40-33.86 N",
		"longitude": "106-12-30.45 W",
		"state": "TEXAS",
		"artcc": "ZAB",
		"type": "RNAV",
		"updated": "01/03/2012"
	},
	{
		"name": "FOBUR",
		"latitude": "34-14-12.3 N",
		"longitude": "103-9-15.69 W",
		"state": "NEW MEXICO",
		"artcc": "ZAB",
		"type": "RP",
		"updated": "CVS*TACAN*/12.00"
	},
	{
		"name": "FODER",
		"latitude": "30-38-0 N",
		"longitude": "102-20-0 W",
		"state": "TEXAS",
		"artcc": "ZAB",
		"type": "RNAV",
		"updated": "01/17/2007"
	},
	{
		"name": "FODSU",
		"latitude": "33-8-35.57 N",
		"longitude": "106-9-21.91 W",
		"state": "NEW MEXICO",
		"artcc": "ZAB",
		"type": "MR",
		"updated": "HMN*TACAN*342.00/17.00"
	},
	{
		"name": "FOGLE",
		"latitude": "36-50-17.86 N",
		"longitude": "104-18-10.37 W",
		"state": "NEW MEXICO",
		"artcc": "ZAB",
		"type": "RP",
		"updated": "PUB*VORTAC*168.00/87.46"
	},
	{
		"name": "FOGPU",
		"latitude": "31-35-8.89 N",
		"longitude": "110-13-41.48 W",
		"state": "ARIZONA",
		"artcc": "ZAB",
		"type": "RP",
		"updated": "FHU*VOR/DME*079.00/6.50"
	},
	{
		"name": "FOLAN",
		"latitude": "31-5-39.68 N",
		"longitude": "104-30-19.29 W",
		"state": "TEXAS",
		"artcc": "ZAB",
		"type": "RNAV",
		"updated": "08/05/2003"
	},
	{
		"name": "FOLOM",
		"latitude": "33-25-35.44 N",
		"longitude": "111-46-39.42 W",
		"state": "ARIZONA",
		"artcc": "ZAB",
		"type": "RNAV",
		"updated": "10/17/2011"
	},
	{
		"name": "FORAN",
		"latitude": "35-22-22.19 N",
		"longitude": "109-21-59.82 W",
		"state": "ARIZONA",
		"artcc": "ZAB",
		"type": "RP",
		"updated": "ZUN*VORTAC*322.90"
	},
	{
		"name": "FORPE",
		"latitude": "33-41-14.24 N",
		"longitude": "111-16-6.35 W",
		"state": "ARIZONA",
		"artcc": "ZAB",
		"type": "RP",
		"updated": "PXR*VORTAC*054.40/38.34"
	},
	{
		"name": "FORTH",
		"latitude": "35-39-37.95 N",
		"longitude": "101-5-2.75 W",
		"state": "TEXAS",
		"artcc": "ZAB",
		"type": "RP",
		"updated": "BGD*VORTAC*110.00/17.00"
	},
	{
		"name": "FORUN",
		"latitude": "35-46-44.02 N",
		"longitude": "107-28-26.73 W",
		"state": "NEW MEXICO",
		"artcc": "ZAB",
		"type": "RNAV",
		"updated": "03/21/2014"
	},
	{
		"name": "FORUR",
		"latitude": "33-2-38.41 N",
		"longitude": "106-8-22.11 W",
		"state": "NEW MEXICO",
		"artcc": "ZAB",
		"type": "MR",
		"updated": "HMN*TACAN*342.00/11.00"
	},
	{
		"name": "FOSED",
		"latitude": "34-38-8.87 N",
		"longitude": "106-38-12.1 W",
		"state": "NEW MEXICO",
		"artcc": "ZAB",
		"type": "RP",
		"updated": "ABQ*VORTAC*147.00/26.00"
	},
	{
		"name": "FOUTZ",
		"latitude": "32-28-56.92 N",
		"longitude": "111-41-45.43 W",
		"state": "ARIZONA",
		"artcc": "ZAB",
		"type": "RP",
		"updated": "TUS*VORTAC*288.48/46.00"
	},
	{
		"name": "FOVUB",
		"latitude": "33-29-54.95 N",
		"longitude": "104-26-20.74 W",
		"state": "NEW MEXICO",
		"artcc": "ZAB",
		"type": "RNAV",
		"updated": "07/31/2006"
	},
	{
		"name": "FOWLE",
		"latitude": "33-25-51.72 N",
		"longitude": "112-12-24.96 W",
		"state": "ARIZONA",
		"artcc": "ZAB",
		"type": "RP",
		"updated": "PHX*LD*258.04/10.96"
	},
	{
		"name": "FOXOK",
		"latitude": "30-17-39.48 N",
		"longitude": "103-55-48.16 W",
		"state": "TEXAS",
		"artcc": "ZAB",
		"type": "RNAV",
		"updated": "12/03/2010"
	},
	{
		"name": "FOXRR",
		"latitude": "35-4-0.4 N",
		"longitude": "106-46-59.76 W",
		"state": "NEW MEXICO",
		"artcc": "ZAB",
		"type": "RNAV",
		"updated": "11/18/2012"
	},
	{
		"name": "FRAIZ",
		"latitude": "33-27-52.94 N",
		"longitude": "104-19-21.08 W",
		"state": "NEW MEXICO",
		"artcc": "ZAB",
		"type": "RP",
		"updated": "CME*VORTAC*051.00/16.83"
	},
	{
		"name": "FRANI",
		"latitude": "34-56-0.18 N",
		"longitude": "106-44-14.9 W",
		"state": "NEW MEXICO",
		"artcc": "ZAB",
		"type": "RNAV",
		"updated": "08/09/2012"
	},
	{
		"name": "FRDMN",
		"latitude": "34-43-20.22 N",
		"longitude": "112-30-28.13 W",
		"state": "ARIZONA",
		"artcc": "ZAB",
		"type": "RNAV",
		"updated": "02/07/2014"
	},
	{
		"name": "FRHLS",
		"latitude": "35-2-32.99 N",
		"longitude": "106-31-26 W",
		"state": "NEW MEXICO",
		"artcc": "ZAB",
		"type": "RNAV",
		"updated": "11/09/2010"
	},
	{
		"name": "FRIAN",
		"latitude": "32-17-46.23 N",
		"longitude": "106-49-45.44 W",
		"state": "NEW MEXICO",
		"artcc": "ZAB",
		"type": "RP",
		"updated": "TCS*VORTAC*145.75/63.32"
	},
	{
		"name": "FRIHO",
		"latitude": "35-26-17 N",
		"longitude": "106-38-58.33 W",
		"state": "NEW MEXICO",
		"artcc": "ZAB",
		"type": "RP",
		"updated": "ABQ*VORTAC*006.09/25.00"
	},
	{
		"name": "FRISY",
		"latitude": "35-15-39.49 N",
		"longitude": "111-24-4.38 W",
		"state": "ARIZONA",
		"artcc": "ZAB",
		"type": "RP",
		"updated": "FLG*VOR/DME*049.00/15.05"
	},
	{
		"name": "FRMAN",
		"latitude": "33-15-20.69 N",
		"longitude": "111-59-14.37 W",
		"state": "ARIZONA",
		"artcc": "ZAB",
		"type": "RNAV",
		"updated": "05/13/2009"
	},
	{
		"name": "FRNNK",
		"latitude": "33-39-50.71 N",
		"longitude": "112-5-9.62 W",
		"state": "ARIZONA",
		"artcc": "ZAB",
		"type": "RNAV",
		"updated": "05/13/2009"
	},
	{
		"name": "FTHLS",
		"latitude": "33-46-5.05 N",
		"longitude": "110-21-48.84 W",
		"state": "ARIZONA",
		"artcc": "ZAB",
		"type": "RNAV",
		"updated": "08/11/2014"
	},
	{
		"name": "FURST",
		"latitude": "33-28-57.64 N",
		"longitude": "112-1-25.86 W",
		"state": "ARIZONA",
		"artcc": "ZAB",
		"type": "RNAV",
		"updated": "05/13/2009"
	},
	{
		"name": "FUTEP",
		"latitude": "33-26-5.74 N",
		"longitude": "111-52-22.24 W",
		"state": "ARIZONA",
		"artcc": "ZAB",
		"type": "RNAV",
		"updated": "08/11/2014"
	},
	{
		"name": "FYRBD",
		"latitude": "32-57-23.32 N",
		"longitude": "112-40-26.12 W",
		"state": "ARIZONA",
		"artcc": "ZAB",
		"type": "RNAV",
		"updated": "03/29/2018"
	},
	{
		"name": "FYSTA",
		"latitude": "35-13-1.63 N",
		"longitude": "106-33-2.91 W",
		"state": "NEW MEXICO",
		"artcc": "ZAB",
		"type": "RNAV",
		"updated": "11/18/2012"
	}
]
