	{
		"name": "GALDE",
		"latitude": "33-10-38.03 N",
		"longitude": "107-17-45.15 W",
		"state": "NEW MEXICO",
		"artcc": "ZAB",
		"type": "RNAV",
		"updated": "02/03/2004",
	},
	{
		"name": "GALKE",
		"latitude": "32-16-54.46 N",
		"longitude": "110-50-43.97 W",
		"state": "ARIZONA",
		"artcc": "ZAB",
		"type": "RNAV",
		"updated": "04/06/2001",
	},
	{
		"name": "GATEZ",
		"latitude": "32-15-47.27 N",
		"longitude": "111-4-59.14 W",
		"state": "ARIZONA",
		"artcc": "ZAB",
		"type": "MR",
		"updated": "DMA*TACAN*288.00/12.00",
	},
	{
		"name": "GATWA",
		"latitude": "33-20-28.56 N",
		"longitude": "111-36-57.81 W",
		"state": "ARIZONA",
		"artcc": "ZAB",
		"type": "RP",
		"updated": "PXR*VORTAC*095.07/18.62",
	},
	{
		"name": "GAVET",
		"latitude": "32-4-17.62 N",
		"longitude": "110-53-13.68 W",
		"state": "ARIZONA",
		"artcc": "ZAB",
		"type": "RP",
		"updated": "TUS*VORTAC*123.04/2.00",
	},
	{
		"name": "GAVLY",
		"latitude": "35-28-12.71 N",
		"longitude": "105-17-57.09 W",
		"state": "NEW MEXICO",
		"artcc": "ZAB",
		"type": "RNAV",
		"updated": "02/25/2005",
	},
	{
		"name": "GDALE",
		"latitude": "33-32-30 N",
		"longitude": "112-14-23 W",
		"state": "ARIZONA",
		"artcc": "ZAB",
		"type": "RNAV",
		"updated": "02/15/2002",
	},
	{
		"name": "GEBEC",
		"latitude": "32-3-24.18 N",
		"longitude": "104-7-35.18 W",
		"state": "NEW MEXICO",
		"artcc": "ZAB",
		"type": "RP",
		"updated": "CNM*VORTAC*145.00/13.00",
	},
	{
		"name": "GEDEY",
		"latitude": "31-44-16.08 N",
		"longitude": "106-23-28.05 W",
		"state": "TEXAS",
		"artcc": "ZAB",
		"type": "RNAV",
		"updated": "04/02/2012",
	},
	{
		"name": "GEDZU",
		"latitude": "32-38-42.69 N",
		"longitude": "109-23-36.25 W",
		"state": "ARIZONA",
		"artcc": "ZAB",
		"type": "RNAV",
		"updated": "05/05/2010",
	},
	{
		"name": "GEELA",
		"latitude": "33-16-49.79 N",
		"longitude": "112-49-17.75 W",
		"state": "ARIZONA",
		"artcc": "ZAB",
		"type": "RNAV",
		"updated": "10/28/2011",
	},
	{
		"name": "GEENO",
		"latitude": "33-42-19.26 N",
		"longitude": "111-44-7.71 W",
		"state": "ARIZONA",
		"artcc": "ZAB",
		"type": "RNAV",
		"updated": "08/08/2014",
	},
	{
		"name": "GEGTE",
		"latitude": "34-46-48.68 N",
		"longitude": "102-22-46.36 W",
		"state": "TEXAS",
		"artcc": "ZAB",
		"type": "RNAV",
		"updated": "12/29/2009",
	},
	{
		"name": "GEJRI",
		"latitude": "33-27-2.67 N",
		"longitude": "111-49-43.15 W",
		"state": "ARIZONA",
		"artcc": "ZAB",
		"type": "RNAV",
		"updated": "10/28/2011",
	},
	{
		"name": "GELTS",
		"latitude": "33-31-47.72 N",
		"longitude": "111-56-23.44 W",
		"state": "ARIZONA",
		"artcc": "ZAB",
		"type": "RP",
		"updated": "PXR*VORTAC*002.70/6.00",
	},
	{
		"name": "GEPCE",
		"latitude": "31-35-36.95 N",
		"longitude": "110-29-41.3 W",
		"state": "ARIZONA",
		"artcc": "ZAB",
		"type": "MR",
		"updated": "ARH*TACAN*261.48/8.00",
	},
	{
		"name": "GERNL",
		"latitude": "34-58-48.08 N",
		"longitude": "106-40-53.47 W",
		"state": "NEW MEXICO",
		"artcc": "ZAB",
		"type": "RNAV",
		"updated": "08/09/2012",
	},
	{
		"name": "GETXU",
		"latitude": "35-39-12.97 N",
		"longitude": "102-0-31.05 W",
		"state": "TEXAS",
		"artcc": "ZAB",
		"type": "RNAV",
		"updated": "12/31/2009",
	},
	{
		"name": "GIBSO",
		"latitude": "36-45-53.68 N",
		"longitude": "104-21-59.45 W",
		"state": "NEW MEXICO",
		"artcc": "ZAB",
		"type": "RNAV",
		"updated": "02/23/2011",
	},
	{
		"name": "GICEC",
		"latitude": "33-9-16.62 N",
		"longitude": "104-41-37.5 W",
		"state": "NEW MEXICO",
		"artcc": "ZAB",
		"type": "RP",
		"updated": "07/31/2006",
	},
	{
		"name": "GICGE",
		"latitude": "32-57-41.37 N",
		"longitude": "111-42-53.02 W",
		"state": "ARIZONA",
		"artcc": "ZAB",
		"type": "RP",
		"updated": "PXR*VORTAC*143.44/31.03",
	},
	{
		"name": "GIFEN",
		"latitude": "31-48-31.48 N",
		"longitude": "106-8-42.92 W",
		"state": "TEXAS",
		"artcc": "ZAB",
		"type": "RP",
		"updated": "EWM*VORTAC*130.78/10.75",
	},
	{
		"name": "GIGEC",
		"latitude": "33-41-35.92 N",
		"longitude": "111-59-3.85 W",
		"state": "ARIZONA",
		"artcc": "ZAB",
		"type": "RNAV",
		"updated": "04/05/2005",
	},
	{
		"name": "GIKDY",
		"latitude": "36-42-49.54 N",
		"longitude": "102-35-54.16 W",
		"state": "OKLAHOMA",
		"artcc": "ZAB",
		"type": "WP",
		"updated": "08/27/2001",
	},
	{
		"name": "GILAA",
		"latitude": "33-33-19.29 N",
		"longitude": "110-53-26.26 W",
		"state": "ARIZONA",
		"artcc": "ZAB",
		"type": "RP",
		"updated": "PXR*VORTAC*070.00/54.66",
	},
	{
		"name": "GINEC",
		"latitude": "32-12-1.89 N",
		"longitude": "107-48-51.43 W",
		"state": "NEW MEXICO",
		"artcc": "ZAB",
		"type": "RNAV",
		"updated": "08/16/2010",
	},
	{
		"name": "GINGR",
		"latitude": "32-51-41.28 N",
		"longitude": "105-35-17.5 W",
		"state": "NEW MEXICO",
		"artcc": "ZAB",
		"type": "RP",
		"updated": "INK*VORTAC*286.00/132.96",
	},
	{
		"name": "GINKE",
		"latitude": "33-52-44.55 N",
		"longitude": "112-14-34.23 W",
		"state": "ARIZONA",
		"artcc": "ZAB",
		"type": "RP",
		"updated": "PXR*VORTAC*321.00/30.00",
	},
	{
		"name": "GIPSE",
		"latitude": "33-25-42.93 N",
		"longitude": "111-48-46.62 W",
		"state": "ARIZONA",
		"artcc": "ZAB",
		"type": "RP",
		"updated": "RJG*LD*078.03/9.29",
	},
	{
		"name": "GIREY",
		"latitude": "34-10-0 N",
		"longitude": "112-28-0 W",
		"state": "ARIZONA",
		"artcc": "ZAB",
		"type": "RNAV",
		"updated": "01/18/2007",
	},
	{
		"name": "GIZZA",
		"latitude": "32-50-45.55 N",
		"longitude": "111-6-27.47 W",
		"state": "ARIZONA",
		"artcc": "ZAB",
		"type": "RP",
		"updated": "IWA*VORTAC*121.81/38.75",
	},
	{
		"name": "GLINA",
		"latitude": "34-3-50.67 N",
		"longitude": "105-57-43.43 W",
		"state": "NEW MEXICO",
		"artcc": "ZAB",
		"type": "RP",
		"updated": "OTO*VOR*168.23",
	},
	{
		"name": "GLOWW",
		"latitude": "35-14-11.94 N",
		"longitude": "101-33-38.19 W",
		"state": "TEXAS",
		"artcc": "ZAB",
		"type": "RNAV",
		"updated": "09/05/2017",
	},
	{
		"name": "GNITE",
		"latitude": "35-6-57.05 N",
		"longitude": "101-38-28.2 W",
		"state": "TEXAS",
		"artcc": "ZAB",
		"type": "RNAV",
		"updated": "09/05/2017",
	},
	{
		"name": "GOALY",
		"latitude": "33-39-5.62 N",
		"longitude": "111-50-11.78 W",
		"state": "ARIZONA",
		"artcc": "ZAB",
		"type": "RNAV",
		"updated": "08/11/2014",
	},
	{
		"name": "GOBFO",
		"latitude": "33-20-58.38 N",
		"longitude": "110-38-43.23 W",
		"state": "ARIZONA",
		"artcc": "ZAB",
		"type": "WP",
		"updated": "11/02/1998",
	},
	{
		"name": "GODLE",
		"latitude": "31-52-8.92 N",
		"longitude": "106-17-12.69 W",
		"state": "TEXAS",
		"artcc": "ZAB",
		"type": "RNAV",
		"updated": "04/02/2014",
	},
	{
		"name": "GOFBI",
		"latitude": "33-26-25.53 N",
		"longitude": "111-47-29.87 W",
		"state": "ARIZONA",
		"artcc": "ZAB",
		"type": "WP",
		"updated": "11/02/1998",
	},
	{
		"name": "GOLDR",
		"latitude": "33-44-0.21 N",
		"longitude": "111-51-4.59 W",
		"state": "ARIZONA",
		"artcc": "ZAB",
		"type": "RNAV",
		"updated": "08/11/2014",
	},
	{
		"name": "GOONI",
		"latitude": "35-14-24.65 N",
		"longitude": "101-6-11.23 W",
		"state": "TEXAS",
		"artcc": "ZAB",
		"type": "RP",
		"updated": "BGD*VORTAC*147.00",
	},
	{
		"name": "GOPSE",
		"latitude": "36-56-0.92 N",
		"longitude": "102-7-37.34 W",
		"state": "OKLAHOMA",
		"artcc": "ZAB",
		"type": "RNAV",
		"updated": "03/28/2010",
	},
	{
		"name": "GOSPO",
		"latitude": "32-37-51.42 N",
		"longitude": "107-50-20.76 W",
		"state": "NEW MEXICO",
		"artcc": "ZAB",
		"type": "RP",
		"updated": "SVC*VOR/DME*078.33/16.32",
	},
	{
		"name": "GOVTE",
		"latitude": "34-31-59.75 N",
		"longitude": "112-32-52.89 W",
		"state": "ARIZONA",
		"artcc": "ZAB",
		"type": "RNAV",
		"updated": "04/18/2014",
	},
	{
		"name": "GOYEB",
		"latitude": "33-26-51.07 N",
		"longitude": "111-44-47.41 W",
		"state": "ARIZONA",
		"artcc": "ZAB",
		"type": "RNAV",
		"updated": "10/17/2011",
	},
	{
		"name": "GRDNR",
		"latitude": "33-33-0 N",
		"longitude": "113-7-0 W",
		"state": "ARIZONA",
		"artcc": "ZAB",
		"type": "RNAV",
		"updated": "01/17/2007",
	},
	{
		"name": "GREBE",
		"latitude": "33-13-8.76 N",
		"longitude": "108-9-49.02 W",
		"state": "NEW MEXICO",
		"artcc": "ZAB",
		"type": "RP",
		"updated": "SSO*VORTAC*031.07/79.57",
	},
	{
		"name": "GRINE",
		"latitude": "33-36-28.33 N",
		"longitude": "111-29-21.32 W",
		"state": "ARIZONA",
		"artcc": "ZAB",
		"type": "RP",
		"updated": "PXR*VORTAC*054.40/26.30",
	},
	{
		"name": "GRINT",
		"latitude": "35-25-21.35 N",
		"longitude": "109-7-46.76 W",
		"state": "ARIZONA",
		"artcc": "ZAB",
		"type": "RP",
		"updated": "ZUN*VORTAC*348.55",
	},
	{
		"name": "GRNNT",
		"latitude": "31-53-0 N",
		"longitude": "108-7-0 W",
		"state": "NEW MEXICO",
		"artcc": "ZAB",
		"type": "RNAV",
		"updated": "08/05/2005",
	},
	{
		"name": "GRREN",
		"latitude": "35-14-15.38 N",
		"longitude": "106-43-4.02 W",
		"state": "NEW MEXICO",
		"artcc": "ZAB",
		"type": "RNAV",
		"updated": "11/19/2012",
	},
	{
		"name": "GRYHM",
		"latitude": "33-34-37.61 N",
		"longitude": "111-57-47.76 W",
		"state": "ARIZONA",
		"artcc": "ZAB",
		"type": "RNAV",
		"updated": "05/13/2009",
	},
	{
		"name": "GRZZZ",
		"latitude": "35-17-0.37 N",
		"longitude": "106-35-10.39 W",
		"state": "NEW MEXICO",
		"artcc": "ZAB",
		"type": "RNAV",
		"updated": "11/19/2012",
	},
	{
		"name": "GUADO",
		"latitude": "32-13-6.47 N",
		"longitude": "104-23-35.09 W",
		"state": "NEW MEXICO",
		"artcc": "ZAB",
		"type": "RP",
		"updated": "CNM*VORTAC*243.00",
	},
	{
		"name": "GUCCY",
		"latitude": "32-55-8.52 N",
		"longitude": "104-23-18.29 W",
		"state": "NEW MEXICO",
		"artcc": "ZAB",
		"type": "RNAV",
		"updated": "02/06/2014",
	},
	{
		"name": "GUMMO",
		"latitude": "34-19-3.59 N",
		"longitude": "111-1-32.43 W",
		"state": "ARIZONA",
		"artcc": "ZAB",
		"type": "RP",
		"updated": "INW*VORTAC*180.43/46.00",
	},
	{
		"name": "GUVCE",
		"latitude": "34-20-46.25 N",
		"longitude": "109-14-56.33 W",
		"state": "ARIZONA",
		"artcc": "ZAB",
		"type": "RNAV",
		"updated": "01/24/2007",
	},
	{
		"name": "GUVNE",
		"latitude": "31-47-56.25 N",
		"longitude": "106-19-35.26 W",
		"state": "TEXAS",
		"artcc": "ZAB",
		"type": "RNAV",
		"updated": "12/22/2011",
	},
	{
		"name": "GYANT",
		"latitude": "33-16-19.41 N",
		"longitude": "111-28-34.58 W",
		"state": "ARIZONA",
		"artcc": "ZAB",
		"type": "RNAV",
		"updated": "04/23/2012",
	},
	{
		"name": "GZELL",
		"latitude": "35-2-40.86 N",
		"longitude": "106-40-39.41 W",
		"state": "NEW MEXICO",
		"artcc": "ZAB",
		"type": "RP",
		"updated": "SPT*LD*259.43/5.27",
	},
