[
	{
		"name": "HAACK",
		"latitude": "33-16-25.41 N",
		"longitude": "110-45-26.68 W",
		"state": "ARIZONA",
		"artcc": "ZAB",
		"type": "MR",
		"updated": "IWA*VORTAC*079.00/45.00"
	},
	{
		"name": "HABON",
		"latitude": "35-29-30.86 N",
		"longitude": "109-11-58.84 W",
		"state": "ARIZONA",
		"artcc": "ZAB",
		"type": "RNAV",
		"updated": "05/15/2003"
	},
	{
		"name": "HADEN",
		"latitude": "33-25-51.62 N",
		"longitude": "111-56-50.38 W",
		"state": "ARIZONA",
		"artcc": "ZAB",
		"type": "RP",
		"updated": "PHX*LD*E CRS/2.09"
	},
	{
		"name": "HAGER",
		"latitude": "33-10-29.47 N",
		"longitude": "104-18-8.41 W",
		"state": "NEW MEXICO",
		"artcc": "ZAB",
		"type": "RP",
		"updated": "CME*VORTAC*109.17/18.77"
	},
	{
		"name": "HAKOR",
		"latitude": "34-24-27.57 N",
		"longitude": "106-9-7.44 W",
		"state": "NEW MEXICO",
		"artcc": "ZAB",
		"type": "RNAV",
		"updated": "03/21/2014"
	},
	{
		"name": "HAKPO",
		"latitude": "34-20-51.79 N",
		"longitude": "103-22-4.8 W",
		"state": "NEW MEXICO",
		"artcc": "ZAB",
		"type": "MR",
		"updated": "CVS*TACAN*222.00/3.00"
	},
	{
		"name": "HALLB",
		"latitude": "33-11-11.72 N",
		"longitude": "111-30-43.05 W",
		"state": "ARIZONA",
		"artcc": "ZAB",
		"type": "RP",
		"updated": "IWA*VORTAC*121.81/9.90"
	},
	{
		"name": "HAMEK",
		"latitude": "33-25-42.31 N",
		"longitude": "111-44-28.54 W",
		"state": "ARIZONA",
		"artcc": "ZAB",
		"type": "RP",
		"updated": "RJG*LD*078.03/12.89"
	},
	{
		"name": "HAMGI",
		"latitude": "31-45-43.91 N",
		"longitude": "106-20-23.78 W",
		"state": "TEXAS",
		"artcc": "ZAB",
		"type": "RNAV",
		"updated": "04/02/2012"
	},
	{
		"name": "HANCH",
		"latitude": "31-49-6.36 N",
		"longitude": "106-42-44 W",
		"state": "NEW MEXICO",
		"artcc": "ZAB",
		"type": "RP",
		"updated": "ELP*VORTAC*258.51/22.00"
	},
	{
		"name": "HANOS",
		"latitude": "36-1-16.33 N",
		"longitude": "106-57-50.51 W",
		"state": "NEW MEXICO",
		"artcc": "ZAB",
		"type": "RP",
		"updated": "ABQ*VORTAC*340.00/59.00"
	},
	{
		"name": "HANTE",
		"latitude": "33-30-11.11 N",
		"longitude": "105-23-30.5 W",
		"state": "NEW MEXICO",
		"artcc": "ZAB",
		"type": "RNAV",
		"updated": "02/23/2011"
	},
	{
		"name": "HANUL",
		"latitude": "32-56-41.23 N",
		"longitude": "106-7-22.45 W",
		"state": "NEW MEXICO",
		"artcc": "ZAB",
		"type": "MR",
		"updated": "HMN*TACAN*342.00/5.00"
	},
	{
		"name": "HAPEE",
		"latitude": "34-34-40.69 N",
		"longitude": "106-39-35.09 W",
		"state": "NEW MEXICO",
		"artcc": "ZAB",
		"type": "RNAV",
		"updated": "11/25/2012"
	},
	{
		"name": "HAPPN",
		"latitude": "34-22-35.98 N",
		"longitude": "111-36-0.85 W",
		"state": "ARIZONA",
		"artcc": "ZAB",
		"type": "RP",
		"updated": "PXR*VORTAC*006.00/59.46"
	},
	{
		"name": "HAQJU",
		"latitude": "33-26-24.4 N",
		"longitude": "111-41-31.37 W",
		"state": "ARIZONA",
		"artcc": "ZAB",
		"type": "WP",
		"updated": "11/02/1998"
	},
	{
		"name": "HASMO",
		"latitude": "35-10-36.78 N",
		"longitude": "101-38-16.38 W",
		"state": "TEXAS",
		"artcc": "ZAB",
		"type": "RNAV",
		"updated": "09/05/2017"
	},
	{
		"name": "HASRU",
		"latitude": "34-23-15.43 N",
		"longitude": "103-20-1.26 W",
		"state": "NEW MEXICO",
		"artcc": "ZAB",
		"type": "MR",
		"updated": "CVS*TACAN*300.00/0.70"
	},
	{
		"name": "HATRK",
		"latitude": "34-31-14.83 N",
		"longitude": "112-18-9.5 W",
		"state": "ARIZONA",
		"artcc": "ZAB",
		"type": "RP",
		"updated": "DRK*VORTAC*127.00/14.00"
	},
	{
		"name": "HATTS",
		"latitude": "29-22-41 N",
		"longitude": "103-23-56 W",
		"state": "TEXAS",
		"artcc": "ZAB",
		"type": "RNAV",
		"updated": "08/23/2015"
	},
	{
		"name": "HAVID",
		"latitude": "31-49-59.44 N",
		"longitude": "106-48-59.05 W",
		"state": "NEW MEXICO",
		"artcc": "ZAB",
		"type": "RNAV",
		"updated": "02/14/2014"
	},
	{
		"name": "HAWAI",
		"latitude": "33-58-17.36 N",
		"longitude": "111-59-31.52 W",
		"state": "ARIZONA",
		"artcc": "ZAB",
		"type": "RNAV",
		"updated": "05/13/2009"
	},
	{
		"name": "HAWRA",
		"latitude": "33-26-2.45 N",
		"longitude": "110-50-26.39 W",
		"state": "ARIZONA",
		"artcc": "ZAB",
		"type": "RNAV",
		"updated": "02/20/2008"
	},
	{
		"name": "HBACK",
		"latitude": "32-12-35.7 N",
		"longitude": "108-43-47.85 W",
		"state": "NEW MEXICO",
		"artcc": "ZAB",
		"type": "RNAV",
		"updated": "02/14/2014"
	},
	{
		"name": "HEADR",
		"latitude": "32-59-0 N",
		"longitude": "113-36-0 W",
		"state": "ARIZONA",
		"artcc": "ZAB",
		"type": "RNAV",
		"updated": "01/17/2007"
	},
	{
		"name": "HEATO",
		"latitude": "33-1-7.77 N",
		"longitude": "112-11-21.62 W",
		"state": "ARIZONA",
		"artcc": "ZAB",
		"type": "MR",
		"updated": "IWA*VORTAC*225.00/32.00"
	},
	{
		"name": "HEBRI",
		"latitude": "32-5-11.35 N",
		"longitude": "110-47-49.19 W",
		"state": "ARIZONA",
		"artcc": "ZAB",
		"type": "MR",
		"updated": "DMA*TACAN*/6.13"
	},
	{
		"name": "HEBUL",
		"latitude": "32-49-0.52 N",
		"longitude": "105-52-40.39 W",
		"state": "NEW MEXICO",
		"artcc": "ZAB",
		"type": "MR",
		"updated": "HMN*TACAN*093.00/12.00"
	},
	{
		"name": "HEDLU",
		"latitude": "32-39-53.08 N",
		"longitude": "106-9-0.94 W",
		"state": "NEW MEXICO",
		"artcc": "ZAB",
		"type": "MR",
		"updated": "HMN*TACAN*180.00/12.00"
	},
	{
		"name": "HEDOB",
		"latitude": "34-34-40.35 N",
		"longitude": "103-16-49.32 W",
		"state": "NEW MEXICO",
		"artcc": "ZAB",
		"type": "MR",
		"updated": "CVS*TACAN*003.00/12.00"
	},
	{
		"name": "HEDRU",
		"latitude": "35-12-16.75 N",
		"longitude": "111-13-43.45 W",
		"state": "ARIZONA",
		"artcc": "ZAB",
		"type": "RNAV",
		"updated": "10/30/2017"
	},
	{
		"name": "HEGDI",
		"latitude": "32-37-54.66 N",
		"longitude": "106-9-25.57 W",
		"state": "NEW MEXICO",
		"artcc": "ZAB",
		"type": "MR",
		"updated": "HMN*TACAN*180.00/14.00"
	},
	{
		"name": "HEGEK",
		"latitude": "34-39-2.78 N",
		"longitude": "102-21-1.6 W",
		"state": "TEXAS",
		"artcc": "ZAB",
		"type": "RNAV",
		"updated": "12/29/2009"
	},
	{
		"name": "HEGMA",
		"latitude": "35-2-19.76 N",
		"longitude": "107-1-9.12 W",
		"state": "NEW MEXICO",
		"artcc": "ZAB",
		"type": "RP",
		"updated": "ABQ*VORTAC*255.35/10.00"
	},
	{
		"name": "HEGMI",
		"latitude": "35-31-59.88 N",
		"longitude": "106-18-35.45 W",
		"state": "NEW MEXICO",
		"artcc": "ZAB",
		"type": "RP",
		"updated": "SAF*VORTAC*255.00/12.00"
	},
	{
		"name": "HEKAD",
		"latitude": "33-37-48.59 N",
		"longitude": "111-54-49.11 W",
		"state": "ARIZONA",
		"artcc": "ZAB",
		"type": "RNAV",
		"updated": "01/14/2005"
	},
	{
		"name": "HEKDI",
		"latitude": "34-31-26.59 N",
		"longitude": "103-9-13.02 W",
		"state": "NEW MEXICO",
		"artcc": "ZAB",
		"type": "MR",
		"updated": "CVS*TACAN*/12.00"
	},
	{
		"name": "HEKES",
		"latitude": "32-22-54.94 N",
		"longitude": "104-17-35.77 W",
		"state": "NEW MEXICO",
		"artcc": "ZAB",
		"type": "RNAV",
		"updated": "06/27/2013"
	},
	{
		"name": "HEKUV",
		"latitude": "35-49-17.87 N",
		"longitude": "100-59-37.46 W",
		"state": "TEXAS",
		"artcc": "ZAB",
		"type": "RNAV",
		"updated": "11/29/2012"
	},
	{
		"name": "HEMAT",
		"latitude": "32-57-47.73 N",
		"longitude": "107-15-49.35 W",
		"state": "NEW MEXICO",
		"artcc": "ZAB",
		"type": "RNAV",
		"updated": "02/03/2004"
	},
	{
		"name": "HEMUT",
		"latitude": "34-42-51.49 N",
		"longitude": "111-57-19.37 W",
		"state": "ARIZONA",
		"artcc": "ZAB",
		"type": "RNAV",
		"updated": "02/12/2008"
	},
	{
		"name": "HENSN",
		"latitude": "33-17-30 N",
		"longitude": "112-21-25.54 W",
		"state": "ARIZONA",
		"artcc": "ZAB",
		"type": "RNAV",
		"updated": "07/09/2007"
	},
	{
		"name": "HENUV",
		"latitude": "35-24-22.05 N",
		"longitude": "101-21-54.49 W",
		"state": "TEXAS",
		"artcc": "ZAB",
		"type": "RNAV",
		"updated": "04/14/2011"
	},
	{
		"name": "HERET",
		"latitude": "35-28-52.85 N",
		"longitude": "108-20-31.45 W",
		"state": "NEW MEXICO",
		"artcc": "ZAB",
		"type": "RP",
		"updated": "GUP*VORTAC*075.14/26.00"
	},
	{
		"name": "HESEN",
		"latitude": "33-20-23 N",
		"longitude": "112-35-39.15 W",
		"state": "ARIZONA",
		"artcc": "ZAB",
		"type": "MR",
		"updated": "LUF*TACAN*209.00/16.00"
	},
	{
		"name": "HESTU",
		"latitude": "31-35-13.88 N",
		"longitude": "110-31-23.34 W",
		"state": "ARIZONA",
		"artcc": "ZAB",
		"type": "RNAV",
		"updated": "07/01/2005"
	},
	{
		"name": "HETUD",
		"latitude": "33-48-35.05 N",
		"longitude": "106-54-27.6 W",
		"state": "NEW MEXICO",
		"artcc": "ZAB",
		"type": "RNAV",
		"updated": "04/01/2012"
	},
	{
		"name": "HEVAM",
		"latitude": "34-16-50.44 N",
		"longitude": "109-56-13.95 W",
		"state": "ARIZONA",
		"artcc": "ZAB",
		"type": "RNAV",
		"updated": "07/14/2011"
	},
	{
		"name": "HEVIN",
		"latitude": "32-11-18.02 N",
		"longitude": "110-52-30.6 W",
		"state": "ARIZONA",
		"artcc": "ZAB",
		"type": "RNAV",
		"updated": "04/06/2001"
	},
	{
		"name": "HEVMU",
		"latitude": "35-12-2.03 N",
		"longitude": "111-35-57.17 W",
		"state": "ARIZONA",
		"artcc": "ZAB",
		"type": "RP",
		"updated": "FLG*VOR/DME*/4.88"
	},
	{
		"name": "HEVRO",
		"latitude": "33-48-46.55 N",
		"longitude": "112-24-44.69 W",
		"state": "ARIZONA",
		"artcc": "ZAB",
		"type": "RNAV",
		"updated": "04/05/2005"
	},
	{
		"name": "HEVTU",
		"latitude": "32-38-14.42 N",
		"longitude": "106-1-58.65 W",
		"state": "NEW MEXICO",
		"artcc": "ZAB",
		"type": "MR",
		"updated": "HMN*TACAN*154.00/14.00"
	},
	{
		"name": "HEXEM",
		"latitude": "35-3-47.6 N",
		"longitude": "106-54-17.41 W",
		"state": "NEW MEXICO",
		"artcc": "ZAB",
		"type": "RP",
		"updated": "ABQ*VORTAC*271.97/4.51"
	},
	{
		"name": "HEXMU",
		"latitude": "36-39-48.9 N",
		"longitude": "104-34-14.68 W",
		"state": "NEW MEXICO",
		"artcc": "ZAB",
		"type": "RNAV",
		"updated": "02/23/2011"
	},
	{
		"name": "HIBSI",
		"latitude": "32-44-59.02 N",
		"longitude": "106-4-15.57 W",
		"state": "NEW MEXICO",
		"artcc": "ZAB",
		"type": "MR",
		"updated": "HMN*TACAN*154.00/7.00"
	},
	{
		"name": "HICHI",
		"latitude": "33-23-15.4 N",
		"longitude": "111-44-51.91 W",
		"state": "ARIZONA",
		"artcc": "ZAB",
		"type": "RNAV",
		"updated": "02/09/2018"
	},
	{
		"name": "HIDAT",
		"latitude": "34-34-0 N",
		"longitude": "112-58-45 W",
		"state": "ARIZONA",
		"artcc": "ZAB",
		"type": "RNAV",
		"updated": "10/18/2005"
	},
	{
		"name": "HIELO",
		"latitude": "35-12-35.46 N",
		"longitude": "107-15-16.61 W",
		"state": "NEW MEXICO",
		"artcc": "ZAB",
		"type": "RNAV",
		"updated": "11/19/2012"
	},
	{
		"name": "HIGGY",
		"latitude": "33-13-36.23 N",
		"longitude": "106-3-21.07 W",
		"state": "NEW MEXICO",
		"artcc": "ZAB",
		"type": "MR",
		"updated": "HMN*TACAN*357.00/22.00"
	},
	{
		"name": "HIGNI",
		"latitude": "33-7-37.79 N",
		"longitude": "112-26-25.76 W",
		"state": "ARIZONA",
		"artcc": "ZAB",
		"type": "RNAV",
		"updated": "04/28/2016"
	},
	{
		"name": "HIKEM",
		"latitude": "31-43-27.9 N",
		"longitude": "106-14-5.17 W",
		"state": "TEXAS",
		"artcc": "ZAB",
		"type": "RNAV",
		"updated": "12/19/2011"
	},
	{
		"name": "HIKER",
		"latitude": "32-31-47.27 N",
		"longitude": "107-28-32.32 W",
		"state": "NEW MEXICO",
		"artcc": "ZAB",
		"type": "RNAV",
		"updated": "12/19/2011"
	},
	{
		"name": "HIKID",
		"latitude": "33-26-26.58 N",
		"longitude": "112-21-26.08 W",
		"state": "ARIZONA",
		"artcc": "ZAB",
		"type": "RP",
		"updated": "SYQ*LD*258.06/18.35"
	},
	{
		"name": "HIKKR",
		"latitude": "35-43-17.72 N",
		"longitude": "107-37-16.49 W",
		"state": "NEW MEXICO",
		"artcc": "ZAB",
		"type": "RNAV",
		"updated": "03/21/2014"
	},
	{
		"name": "HIMAK",
		"latitude": "31-35-54.46 N",
		"longitude": "110-35-28.44 W",
		"state": "ARIZONA",
		"artcc": "ZAB",
		"type": "MR",
		"updated": "ARH*TACAN*261.48/12.95"
	},
	{
		"name": "HIMRO",
		"latitude": "34-3-11.31 N",
		"longitude": "103-15-13.99 W",
		"state": "NEW MEXICO",
		"artcc": "ZAB",
		"type": "RP",
		"updated": "TXO*VORTAC*207.00/33.54"
	},
	{
		"name": "HIMUP",
		"latitude": "31-59-41.18 N",
		"longitude": "106-12-57.65 W",
		"state": "TEXAS",
		"artcc": "ZAB",
		"type": "RNAV",
		"updated": "12/01/2005"
	},
	{
		"name": "HINEY",
		"latitude": "33-31-30.4 N",
		"longitude": "112-4-27.13 W",
		"state": "ARIZONA",
		"artcc": "ZAB",
		"type": "RNAV",
		"updated": "08/07/2006"
	},
	{
		"name": "HINOD",
		"latitude": "35-56-48.98 N",
		"longitude": "100-32-31.55 W",
		"state": "TEXAS",
		"artcc": "ZAB",
		"type": "RP",
		"updated": "MMB*VORTAC*223.73/40.00"
	},
	{
		"name": "HIPEM",
		"latitude": "32-20-41.02 N",
		"longitude": "111-17-35.38 W",
		"state": "ARIZONA",
		"artcc": "ZAB",
		"type": "RNAV",
		"updated": "12/30/2005"
	},
	{
		"name": "HIPPI",
		"latitude": "34-33-44.24 N",
		"longitude": "113-38-21.73 W",
		"state": "ARIZONA",
		"artcc": "ZAB",
		"type": "RP",
		"updated": "FLG*VOR/DME*236.71/103.17"
	},
	{
		"name": "HIRUT",
		"latitude": "32-8-15.32 N",
		"longitude": "107-54-26.32 W",
		"state": "NEW MEXICO",
		"artcc": "ZAB",
		"type": "RNAV",
		"updated": "08/16/2010"
	},
	{
		"name": "HIRVU",
		"latitude": "33-26-42.33 N",
		"longitude": "112-11-48.84 W",
		"state": "ARIZONA",
		"artcc": "ZAB",
		"type": "RNAV",
		"updated": "02/22/2018"
	},
	{
		"name": "HISAN",
		"latitude": "34-20-59.02 N",
		"longitude": "103-10-23.68 W",
		"state": "NEW MEXICO",
		"artcc": "ZAB",
		"type": "RNAV",
		"updated": "08/21/2015"
	},
	{
		"name": "HISTK",
		"latitude": "34-2-44.49 N",
		"longitude": "112-30-27.97 W",
		"state": "ARIZONA",
		"artcc": "ZAB",
		"type": "RP",
		"updated": "BXK*VORTAC*009.99/38.85"
	},
	{
		"name": "HIXUG",
		"latitude": "32-28-18.85 N",
		"longitude": "107-54-20.42 W",
		"state": "NEW MEXICO",
		"artcc": "ZAB",
		"type": "RP",
		"updated": "DMN*VORTAC*295.71/19.26"
	},
	{
		"name": "HMFRY",
		"latitude": "35-34-55.33 N",
		"longitude": "111-30-4.47 W",
		"state": "ARIZONA",
		"artcc": "ZAB",
		"type": "RP",
		"updated": "PGS*VOR/DME*075.87/100.00"
	},
	{
		"name": "HOBAN",
		"latitude": "31-8-49.81 N",
		"longitude": "103-28-53.02 W",
		"state": "TEXAS",
		"artcc": "ZAB",
		"type": "RP",
		"updated": "PEQ*VOR/DME*155.00"
	},
	{
		"name": "HOBES",
		"latitude": "34-56-20.18 N",
		"longitude": "112-54-14.28 W",
		"state": "ARIZONA",
		"artcc": "ZAB",
		"type": "RP",
		"updated": "PXR*VORTAC*321.00/101.47"
	},
	{
		"name": "HOBOL",
		"latitude": "33-11-30 N",
		"longitude": "112-20-0 W",
		"state": "ARIZONA",
		"artcc": "ZAB",
		"type": "RNAV",
		"updated": "09/30/2005"
	},
	{
		"name": "HOCKS",
		"latitude": "35-7-15.49 N",
		"longitude": "101-37-30.44 W",
		"state": "TEXAS",
		"artcc": "ZAB",
		"type": "MR",
		"updated": "PNH*VORTAC*143.98/7.74"
	},
	{
		"name": "HODAK",
		"latitude": "31-48-6.71 N",
		"longitude": "106-15-57.5 W",
		"state": "TEXAS",
		"artcc": "ZAB",
		"type": "RNAV",
		"updated": "07/16/2015"
	},
	{
		"name": "HODAP",
		"latitude": "35-2-36.33 N",
		"longitude": "106-57-30.23 W",
		"state": "NEW MEXICO",
		"artcc": "ZAB",
		"type": "MR",
		"updated": "ABQ*VORTAC*256.86/7.00"
	},
	{
		"name": "HODMI",
		"latitude": "32-49-30.65 N",
		"longitude": "106-5-47.7 W",
		"state": "NEW MEXICO",
		"artcc": "ZAB",
		"type": "MR",
		"updated": "HMN*TACAN*154.00/2.30"
	},
	{
		"name": "HODPU",
		"latitude": "32-29-26.24 N",
		"longitude": "110-59-29.03 W",
		"state": "ARIZONA",
		"artcc": "ZAB",
		"type": "RNAV",
		"updated": "06/02/2006"
	},
	{
		"name": "HOGET",
		"latitude": "35-12-6.91 N",
		"longitude": "101-48-35.44 W",
		"state": "TEXAS",
		"artcc": "ZAB",
		"type": "RNAV",
		"updated": "05/10/2015"
	},
	{
		"name": "HOGIG",
		"latitude": "33-29-55.72 N",
		"longitude": "104-32-19.48 W",
		"state": "NEW MEXICO",
		"artcc": "ZAB",
		"type": "RNAV",
		"updated": "09/28/2006"
	},
	{
		"name": "HOKEY",
		"latitude": "33-45-36.6 N",
		"longitude": "112-3-16.59 W",
		"state": "ARIZONA",
		"artcc": "ZAB",
		"type": "RNAV",
		"updated": "08/04/2006"
	},
	{
		"name": "HOLAG",
		"latitude": "31-46-59.83 N",
		"longitude": "106-25-31.12 W",
		"state": "TEXAS",
		"artcc": "ZAB",
		"type": "RNAV",
		"updated": "02/22/2010"
	},
	{
		"name": "HOLAS",
		"latitude": "32-42-55 N",
		"longitude": "104-18-17.67 W",
		"state": "NEW MEXICO",
		"artcc": "ZAB",
		"type": "RNAV",
		"updated": "08/22/2017"
	},
	{
		"name": "HOLEB",
		"latitude": "34-26-46.76 N",
		"longitude": "112-38-23.64 W",
		"state": "ARIZONA",
		"artcc": "ZAB",
		"type": "RNAV",
		"updated": "04/18/2014"
	},
	{
		"name": "HOLIX",
		"latitude": "32-55-17.05 N",
		"longitude": "106-2-5.81 W",
		"state": "NEW MEXICO",
		"artcc": "ZAB",
		"type": "RP",
		"updated": "HMN*TACAN*/5.16"
	},
	{
		"name": "HOLLA",
		"latitude": "33-4-27.89 N",
		"longitude": "106-9-45.78 W",
		"state": "NEW MEXICO",
		"artcc": "ZAB",
		"type": "MR",
		"updated": "HMN*TACAN*338.00/13.00"
	},
	{
		"name": "HOLOM",
		"latitude": "33-35-36.4 N",
		"longitude": "111-51-29.9 W",
		"state": "ARIZONA",
		"artcc": "ZAB",
		"type": "RNAV",
		"updated": "04/05/2005"
	},
	{
		"name": "HOLSU",
		"latitude": "35-43-42.53 N",
		"longitude": "104-44-8.51 W",
		"state": "NEW MEXICO",
		"artcc": "ZAB",
		"type": "RP",
		"updated": "FTI*VORTAC*064.62/20.00"
	},
	{
		"name": "HOMDU",
		"latitude": "36-22-42.33 N",
		"longitude": "105-17-38.31 W",
		"state": "NEW MEXICO",
		"artcc": "ZAB",
		"type": "RNAV",
		"updated": "11/01/2001"
	},
	{
		"name": "HOMEP",
		"latitude": "34-18-44.83 N",
		"longitude": "103-14-42.97 W",
		"state": "NEW MEXICO",
		"artcc": "ZAB",
		"type": "RP",
		"updated": "CVS*TACAN*129.77/5.60"
	},
	{
		"name": "HOMRR",
		"latitude": "33-52-49.72 N",
		"longitude": "111-24-16.01 W",
		"state": "ARIZONA",
		"artcc": "ZAB",
		"type": "RP",
		"updated": "PXR*VORTAC*034.44/39.00"
	},
	{
		"name": "HONAS",
		"latitude": "35-27-12.51 N",
		"longitude": "105-0-35.08 W",
		"state": "NEW MEXICO",
		"artcc": "ZAB",
		"type": "RNAV",
		"updated": "02/25/2005"
	},
	{
		"name": "HONDS",
		"latitude": "33-33-59.6 N",
		"longitude": "104-51-12.19 W",
		"state": "NEW MEXICO",
		"artcc": "ZAB",
		"type": "RP",
		"updated": "CME*VORTAC*307.72/18.00"
	},
	{
		"name": "HONER",
		"latitude": "32-41-57.5 N",
		"longitude": "106-9-36.33 W",
		"state": "NEW MEXICO",
		"artcc": "ZAB",
		"type": "RP",
		"updated": "BWS*VOR/DME*217.55/10.42"
	},
	{
		"name": "HOOVE",
		"latitude": "31-58-25.24 N",
		"longitude": "110-4-21.52 W",
		"state": "ARIZONA",
		"artcc": "ZAB",
		"type": "RP",
		"updated": "ARH*TACAN*018.31/26.93"
	},
	{
		"name": "HOPET",
		"latitude": "33-5-47.97 N",
		"longitude": "104-49-36.11 W",
		"state": "NEW MEXICO",
		"artcc": "ZAB",
		"type": "RP",
		"updated": "CME*VORTAC*203.70/17.75"
	},
	{
		"name": "HORBU",
		"latitude": "32-58-0.98 N",
		"longitude": "109-22-24.14 W",
		"state": "ARIZONA",
		"artcc": "ZAB",
		"type": "RNAV",
		"updated": "06/07/2010"
	},
	{
		"name": "HORNA",
		"latitude": "31-11-51.59 N",
		"longitude": "104-37-36.99 W",
		"state": "TEXAS",
		"artcc": "ZAB",
		"type": "RNAV",
		"updated": "08/05/2003"
	},
	{
		"name": "HORSY",
		"latitude": "35-19-10.85 N",
		"longitude": "101-39-12.64 W",
		"state": "TEXAS",
		"artcc": "ZAB",
		"type": "RNAV",
		"updated": "05/10/2015"
	},
	{
		"name": "HOSAR",
		"latitude": "31-7-34.43 N",
		"longitude": "104-42-31.83 W",
		"state": "TEXAS",
		"artcc": "ZAB",
		"type": "RNAV",
		"updated": "08/05/2003"
	},
	{
		"name": "HOSVO",
		"latitude": "32-5-30.28 N",
		"longitude": "110-54-38.86 W",
		"state": "ARIZONA",
		"artcc": "ZAB",
		"type": "RP",
		"updated": "TUS*VORTAC*123.04/0.30"
	},
	{
		"name": "HOTTT",
		"latitude": "32-31-37 N",
		"longitude": "111-1-55.07 W",
		"state": "ARIZONA",
		"artcc": "ZAB",
		"type": "RP",
		"updated": "TUS*VORTAC*335.06/26.53"
	},
	{
		"name": "HOTUP",
		"latitude": "31-53-12.62 N",
		"longitude": "110-49-6.91 W",
		"state": "ARIZONA",
		"artcc": "ZAB",
		"type": "RNAV",
		"updated": "11/16/2010"
	},
	{
		"name": "HOVBO",
		"latitude": "32-56-19.61 N",
		"longitude": "109-30-33.7 W",
		"state": "ARIZONA",
		"artcc": "ZAB",
		"type": "RNAV",
		"updated": "01/05/2011"
	},
	{
		"name": "HOWRD",
		"latitude": "31-47-49.22 N",
		"longitude": "106-17-13.6 W",
		"state": "TEXAS",
		"artcc": "ZAB",
		"type": "RNAV",
		"updated": "04/02/2014"
	},
	{
		"name": "HOXOK",
		"latitude": "34-23-30.08 N",
		"longitude": "109-16-57.83 W",
		"state": "ARIZONA",
		"artcc": "ZAB",
		"type": "RNAV",
		"updated": "01/24/2007"
	},
	{
		"name": "HOXOL",
		"latitude": "34-57-9.48 N",
		"longitude": "111-19-11.45 W",
		"state": "ARIZONA",
		"artcc": "ZAB",
		"type": "RP",
		"updated": "FLG*VOR/DME*109.63"
	},
	{
		"name": "HOZER",
		"latitude": "34-9-2.5 N",
		"longitude": "109-56-55.36 W",
		"state": "ARIZONA",
		"artcc": "ZAB",
		"type": "RP",
		"updated": "SJN*VORTAC*235.98/43.25"
	},
	{
		"name": "HRDRK",
		"latitude": "34-38-26.87 N",
		"longitude": "106-38-46.82 W",
		"state": "NEW MEXICO",
		"artcc": "ZAB",
		"type": "RNAV",
		"updated": "03/06/2014"
	},
	{
		"name": "HRNET",
		"latitude": "35-15-18.74 N",
		"longitude": "101-27-20.92 W",
		"state": "TEXAS",
		"artcc": "ZAB",
		"type": "RNAV",
		"updated": "05/10/2015"
	},
	{
		"name": "HRRBR",
		"latitude": "33-38-59.76 N",
		"longitude": "113-51-54.73 W",
		"state": "ARIZONA",
		"artcc": "ZAB",
		"type": "RNAV",
		"updated": "01/05/2017"
	},
	{
		"name": "HSKNS",
		"latitude": "31-50-1.95 N",
		"longitude": "107-2-25.4 W",
		"state": "NEW MEXICO",
		"artcc": "ZAB",
		"type": "RNAV",
		"updated": "02/14/2014"
	},
	{
		"name": "HUBOV",
		"latitude": "33-30-2.82 N",
		"longitude": "105-24-0.03 W",
		"state": "NEW MEXICO",
		"artcc": "ZAB",
		"type": "RP",
		"updated": "SRR*LD*NE CRS/7.95"
	},
	{
		"name": "HUBUB",
		"latitude": "33-52-25.65 N",
		"longitude": "112-4-59.86 W",
		"state": "ARIZONA",
		"artcc": "ZAB",
		"type": "RNAV",
		"updated": "11/30/2010"
	},
	{
		"name": "HUBUG",
		"latitude": "35-10-17.48 N",
		"longitude": "101-51-1.2 W",
		"state": "TEXAS",
		"artcc": "ZAB",
		"type": "RNAV",
		"updated": "09/05/2017"
	},
	{
		"name": "HUBUT",
		"latitude": "35-30-14.13 N",
		"longitude": "101-29-19.22 W",
		"state": "TEXAS",
		"artcc": "ZAB",
		"type": "RNAV",
		"updated": "03/31/2008"
	},
	{
		"name": "HUGBO",
		"latitude": "30-51-4.59 N",
		"longitude": "102-49-8.59 W",
		"state": "TEXAS",
		"artcc": "ZAB",
		"type": "RNAV",
		"updated": "07/14/2009"
	},
	{
		"name": "HUGEX",
		"latitude": "33-5-43.82 N",
		"longitude": "104-37-25.21 W",
		"state": "NEW MEXICO",
		"artcc": "ZAB",
		"type": "RNAV",
		"updated": "08/10/2006"
	},
	{
		"name": "HUGIK",
		"latitude": "32-7-41.14 N",
		"longitude": "110-57-12.45 W",
		"state": "ARIZONA",
		"artcc": "ZAB",
		"type": "RP",
		"updated": "TUS*LD*NW CRS/2.54"
	},
	{
		"name": "HUGOV",
		"latitude": "34-29-18.11 N",
		"longitude": "109-21-16.45 W",
		"state": "ARIZONA",
		"artcc": "ZAB",
		"type": "RNAV",
		"updated": "01/24/2007"
	},
	{
		"name": "HUGPA",
		"latitude": "31-12-15.3 N",
		"longitude": "103-22-16.56 W",
		"state": "TEXAS",
		"artcc": "ZAB",
		"type": "RNAV",
		"updated": "07/16/2012"
	},
	{
		"name": "HULOG",
		"latitude": "35-31-28.03 N",
		"longitude": "100-37-48.64 W",
		"state": "TEXAS",
		"artcc": "ZAB",
		"type": "RNAV",
		"updated": "10/07/2014"
	},
	{
		"name": "HUMGI",
		"latitude": "35-28-47.06 N",
		"longitude": "108-55-17.53 W",
		"state": "NEW MEXICO",
		"artcc": "ZAB",
		"type": "RNAV",
		"updated": "03/29/2010"
	},
	{
		"name": "HUMIM",
		"latitude": "36-8-38.81 N",
		"longitude": "101-14-52.57 W",
		"state": "TEXAS",
		"artcc": "ZAB",
		"type": "RNAV",
		"updated": "10/22/2008"
	},
	{
		"name": "HUMKU",
		"latitude": "34-59-38.79 N",
		"longitude": "106-39-52.33 W",
		"state": "NEW MEXICO",
		"artcc": "ZAB",
		"type": "RNAV",
		"updated": "08/09/2012"
	},
	{
		"name": "HUMMR",
		"latitude": "32-28-31.56 N",
		"longitude": "111-10-19.26 W",
		"state": "ARIZONA",
		"artcc": "ZAB",
		"type": "MR",
		"updated": "DMA*TACAN*310.00/24.00"
	},
	{
		"name": "HUMTY",
		"latitude": "34-46-32.94 N",
		"longitude": "112-17-25.06 W",
		"state": "ARIZONA",
		"artcc": "ZAB",
		"type": "RP",
		"updated": "PRC*LD*028.29/10.48"
	},
	{
		"name": "HUNBA",
		"latitude": "34-9-21.53 N",
		"longitude": "103-35-32.09 W",
		"state": "NEW MEXICO",
		"artcc": "ZAB",
		"type": "MR",
		"updated": "CVS*TACAN*215.00/19.00"
	},
	{
		"name": "HUNIN",
		"latitude": "32-5-38.92 N",
		"longitude": "110-47-31.44 W",
		"state": "ARIZONA",
		"artcc": "ZAB",
		"type": "MR",
		"updated": "DMA*TACAN*119.00/6.00"
	},
	{
		"name": "HURFY",
		"latitude": "33-20-48.43 N",
		"longitude": "110-32-45.3 W",
		"state": "ARIZONA",
		"artcc": "ZAB",
		"type": "WP",
		"updated": "11/02/1998"
	},
	{
		"name": "HURUL",
		"latitude": "35-30-27.1 N",
		"longitude": "101-24-39.13 W",
		"state": "TEXAS",
		"artcc": "ZAB",
		"type": "RP",
		"updated": "BGD*VORTAC*173.48/18.00"
	},
	{
		"name": "HUSGU",
		"latitude": "33-20-54.83 N",
		"longitude": "112-36-19.11 W",
		"state": "ARIZONA",
		"artcc": "ZAB",
		"type": "MR",
		"updated": "LUF*TACAN*212.00/16.00"
	},
	{
		"name": "HUSIT",
		"latitude": "31-55-51.93 N",
		"longitude": "107-59-6.67 W",
		"state": "NEW MEXICO",
		"artcc": "ZAB",
		"type": "RP",
		"updated": "CUS*VOR/DME*275.83/22.03"
	},
	{
		"name": "HUTKA",
		"latitude": "33-35-55.63 N",
		"longitude": "104-33-17.53 W",
		"state": "NEW MEXICO",
		"artcc": "ZAB",
		"type": "MR",
		"updated": "CME*VORTAC*360.00/16.00"
	},
	{
		"name": "HUUTY",
		"latitude": "34-9-38.5 N",
		"longitude": "110-37-30.49 W",
		"state": "ARIZONA",
		"artcc": "ZAB",
		"type": "RNAV",
		"updated": "04/03/2012"
	},
	{
		"name": "HUXEM",
		"latitude": "32-22-35.66 N",
		"longitude": "107-1-16.2 W",
		"state": "NEW MEXICO",
		"artcc": "ZAB",
		"type": "RNAV",
		"updated": "07/06/2016"
	},
	{
		"name": "HUXIP",
		"latitude": "35-19-19.33 N",
		"longitude": "101-29-25.21 W",
		"state": "TEXAS",
		"artcc": "ZAB",
		"type": "RP",
		"updated": "PNH*VORTAC*055.00/11.50"
	},
	{
		"name": "HUXOG",
		"latitude": "32-58-32.06 N",
		"longitude": "105-57-49.89 W",
		"state": "NEW MEXICO",
		"artcc": "ZAB",
		"type": "MR",
		"updated": "HMN*TACAN*/10.00"
	},
	{
		"name": "HUXZI",
		"latitude": "36-10-3.74 N",
		"longitude": "107-11-16.21 W",
		"state": "NEW MEXICO",
		"artcc": "ZAB",
		"type": "CN",
		"updated": "12/04/2014"
	},
	{
		"name": "HYBRD",
		"latitude": "32-33-59.96 N",
		"longitude": "110-52-50.21 W",
		"state": "ARIZONA",
		"artcc": "ZAB",
		"type": "RNAV",
		"updated": "08/08/2014"
	},
	{
		"name": "HYDRR",
		"latitude": "33-16-27.5 N",
		"longitude": "113-4-10.82 W",
		"state": "ARIZONA",
		"artcc": "ZAB",
		"type": "RP",
		"updated": "BXK*VORTAC*215.01/16.33"
	}
]
