	{
		"name": "IBIGE",
		"latitude": "35-47-23.37 N",
		"longitude": "101-23-47.49 W",
		"state": "TEXAS",
		"artcc": "ZAB",
		"type": "RNAV",
		"updated": "03/31/2008",
	},
	{
		"name": "IBOBE",
		"latitude": "34-3-45.22 N",
		"longitude": "111-57-50.86 W",
		"state": "ARIZONA",
		"artcc": "ZAB",
		"type": "RNAV",
		"updated": "05/13/2009",
	},
	{
		"name": "ICBAH",
		"latitude": "33-47-28.1 N",
		"longitude": "111-58-47.56 W",
		"state": "ARIZONA",
		"artcc": "ZAB",
		"type": "CN",
		"updated": "05/14/2009",
	},
	{
		"name": "ICOGU",
		"latitude": "33-33-2 N",
		"longitude": "113-40-20 W",
		"state": "ARIZONA",
		"artcc": "ZAB",
		"type": "RNAV",
		"updated": "01/17/2007",
	},
	{
		"name": "IFADE",
		"latitude": "34-16-53.8 N",
		"longitude": "109-12-12.89 W",
		"state": "ARIZONA",
		"artcc": "ZAB",
		"type": "RNAV",
		"updated": "06/17/2011",
	},
	{
		"name": "IFEPU",
		"latitude": "30-52-17.84 N",
		"longitude": "102-51-7.14 W",
		"state": "TEXAS",
		"artcc": "ZAB",
		"type": "RP",
		"updated": "FST*VORTAC*116.00/8.00",
	},
	{
		"name": "IFNUR",
		"latitude": "33-9-33.85 N",
		"longitude": "111-49-17.7 W",
		"state": "ARIZONA",
		"artcc": "ZAB",
		"type": "RP",
		"updated": "PXR*VORTAC*143.44/18.01",
	},
	{
		"name": "IFURI",
		"latitude": "33-20-38.19 N",
		"longitude": "110-26-47.39 W",
		"state": "ARIZONA",
		"artcc": "ZAB",
		"type": "WP",
		"updated": "11/02/1998",
	},
	{
		"name": "IGAXE",
		"latitude": "32-46-0.43 N",
		"longitude": "112-23-52.01 W",
		"state": "ARIZONA",
		"artcc": "ZAB",
		"type": "MR",
		"updated": "GBN*VORTAC*115.00/18.00",
	},
	{
		"name": "IHIKY",
		"latitude": "33-36-57.9 N",
		"longitude": "112-14-37.72 W",
		"state": "ARIZONA",
		"artcc": "ZAB",
		"type": "RNAV",
		"updated": "06/28/2007",
	},
	{
		"name": "IKOZE",
		"latitude": "33-26-26.39 N",
		"longitude": "111-53-28.37 W",
		"state": "ARIZONA",
		"artcc": "ZAB",
		"type": "WP",
		"updated": "11/02/1998",
	},
	{
		"name": "ILEEN",
		"latitude": "31-51-30.7 N",
		"longitude": "110-38-17.89 W",
		"state": "ARIZONA",
		"artcc": "ZAB",
		"type": "RP",
		"updated": "TUS*VORTAC*123.04/20.00",
	},
	{
		"name": "ILELE",
		"latitude": "33-34-51.69 N",
		"longitude": "111-55-25.44 W",
		"state": "ARIZONA",
		"artcc": "ZAB",
		"type": "RNAV",
		"updated": "10/19/2009",
	},
	{
		"name": "ILIKE",
		"latitude": "33-26-26.96 N",
		"longitude": "112-17-8.67 W",
		"state": "ARIZONA",
		"artcc": "ZAB",
		"type": "RP",
		"updated": "SYQ*LD*258.06/14.76",
	},
	{
		"name": "ILOVE",
		"latitude": "36-6-57.43 N",
		"longitude": "101-3-31.43 W",
		"state": "TEXAS",
		"artcc": "ZAB",
		"type": "RNAV",
		"updated": "07/08/2008",
	},
	{
		"name": "ILOZA",
		"latitude": "35-15-37.76 N",
		"longitude": "101-25-48.12 W",
		"state": "TEXAS",
		"artcc": "ZAB",
		"type": "RNAV",
		"updated": "11/30/2010",
	},
	{
		"name": "IMEGY",
		"latitude": "29-39-49.22 N",
		"longitude": "104-7-46.32 W",
		"state": "TEXAS",
		"artcc": "ZAB",
		"type": "RNAV",
		"updated": "02/26/2014",
	},
	{
		"name": "IMIRE",
		"latitude": "32-3-51.38 N",
		"longitude": "104-16-53.68 W",
		"state": "NEW MEXICO",
		"artcc": "ZAB",
		"type": "RNAV",
		"updated": "05/28/2004",
	},
	{
		"name": "IMMAS",
		"latitude": "34-54-17.52 N",
		"longitude": "104-18-53.22 W",
		"state": "NEW MEXICO",
		"artcc": "ZAB",
		"type": "RNAV",
		"updated": "08/11/2011",
	},
	{
		"name": "IMOBE",
		"latitude": "35-11-34.04 N",
		"longitude": "101-39-20.3 W",
		"state": "TEXAS",
		"artcc": "ZAB",
		"type": "RNAV",
		"updated": "11/30/2010",
	},
	{
		"name": "INEGE",
		"latitude": "35-36-26.56 N",
		"longitude": "101-24-4.73 W",
		"state": "TEXAS",
		"artcc": "ZAB",
		"type": "RP",
		"updated": "BGD*VORTAC*173.48/12.00",
	},
	{
		"name": "INFER",
		"latitude": "32-45-1.31 N",
		"longitude": "106-13-40.98 W",
		"state": "NEW MEXICO",
		"artcc": "ZAB",
		"type": "MR",
		"updated": "HMN*TACAN*212.00/9.00",
	},
	{
		"name": "INKLE",
		"latitude": "31-36-48.8 N",
		"longitude": "110-59-38.26 W",
		"state": "ARIZONA",
		"artcc": "ZAB",
		"type": "RP",
		"updated": "OLS*VOR/DME*316.00/14.03",
	},
	{
		"name": "INNKA",
		"latitude": "35-58-53.33 N",
		"longitude": "102-17-26.95 W",
		"state": "TEXAS",
		"artcc": "ZAB",
		"type": "RP",
		"updated": "DHT*VORTAC*106.00/14.00",
	},
	{
		"name": "IPATE",
		"latitude": "32-26-50.6 N",
		"longitude": "107-6-17.5 W",
		"state": "NEW MEXICO",
		"artcc": "ZAB",
		"type": "RNAV",
		"updated": "08/27/2014",
	},
	{
		"name": "IPHIB",
		"latitude": "33-0-7.64 N",
		"longitude": "109-48-36.75 W",
		"state": "ARIZONA",
		"artcc": "ZAB",
		"type": "RNAV",
		"updated": "05/05/2010",
	},
	{
		"name": "IPIME",
		"latitude": "35-53-16.29 N",
		"longitude": "101-12-9.92 W",
		"state": "TEXAS",
		"artcc": "ZAB",
		"type": "RP",
		"updated": "BGD*VORTAC*050.00/10.00",
	},
	{
		"name": "IPNUC",
		"latitude": "33-3-58.89 N",
		"longitude": "104-31-16.19 W",
		"state": "NEW MEXICO",
		"artcc": "ZAB",
		"type": "RP",
		"updated": "CME*VORTAC*150.73/17.00",
	},
	{
		"name": "IPXUJ",
		"latitude": "33-41-10.76 N",
		"longitude": "112-0-27.31 W",
		"state": "ARIZONA",
		"artcc": "ZAB",
		"type": "CN",
		"updated": "05/14/2009",
	},
	{
		"name": "IRECU",
		"latitude": "34-38-44.84 N",
		"longitude": "109-42-31 W",
		"state": "ARIZONA",
		"artcc": "ZAB",
		"type": "RP",
		"updated": "SJN*VORTAC*283.53/31.00",
	},
	{
		"name": "IREVE",
		"latitude": "35-16-57.86 N",
		"longitude": "103-15-12.39 W",
		"state": "NEW MEXICO",
		"artcc": "ZAB",
		"type": "RP",
		"updated": "TCC*VORTAC*058.34/18.00",
	},
	{
		"name": "IRODY",
		"latitude": "34-54-39.4 N",
		"longitude": "112-28-1.51 W",
		"state": "ARIZONA",
		"artcc": "ZAB",
		"type": "RP",
		"updated": "DRK*VORTAC*349.00/12.50",
	},
	{
		"name": "IRULY",
		"latitude": "34-39-40.2 N",
		"longitude": "107-43-2.4 W",
		"state": "NEW MEXICO",
		"artcc": "ZAB",
		"type": "CN",
		"updated": "12/24/2002",
	},
	{
		"name": "ISOCO",
		"latitude": "33-26-27.26 N",
		"longitude": "112-7-35.21 W",
		"state": "ARIZONA",
		"artcc": "ZAB",
		"type": "WP",
		"updated": "11/02/1998",
	},
	{
		"name": "ISSEP",
		"latitude": "36-34-50.55 N",
		"longitude": "104-38-25.5 W",
		"state": "NEW MEXICO",
		"artcc": "ZAB",
		"type": "RNAV",
		"updated": "02/23/2011",
	},
	{
		"name": "ISTOW",
		"latitude": "33-21-41.35 N",
		"longitude": "111-52-25.53 W",
		"state": "ARIZONA",
		"artcc": "ZAB",
		"type": "RNAV",
		"updated": "10/17/2011",
	},
	{
		"name": "ITBOW",
		"latitude": "35-50-14.57 N",
		"longitude": "104-59-7.03 W",
		"state": "NEW MEXICO",
		"artcc": "ZAB",
		"type": "RNAV",
		"updated": "02/25/2005",
	},
	{
		"name": "ITEMM",
		"latitude": "32-35-11.33 N",
		"longitude": "110-35-23.17 W",
		"state": "ARIZONA",
		"artcc": "ZAB",
		"type": "RP",
		"updated": "SSO*VORTAC*273.10/70.00",
	},
	{
		"name": "ITUCO",
		"latitude": "32-26-30 N",
		"longitude": "109-46-26 W",
		"state": "ARIZONA",
		"artcc": "ZAB",
		"type": "RNAV",
		"updated": "09/30/2005",
	},
	{
		"name": "ITUNE",
		"latitude": "35-17-18.2 N",
		"longitude": "107-6-1.53 W",
		"state": "NEW MEXICO",
		"artcc": "ZAB",
		"type": "RNAV",
		"updated": "11/29/2012",
	},
	{
		"name": "IVVRY",
		"latitude": "33-7-34.76 N",
		"longitude": "111-26-35.63 W",
		"state": "ARIZONA",
		"artcc": "ZAB",
		"type": "RP",
		"updated": "IWA*VORTAC*122.24/14.90",
	},
	{
		"name": "IWEDU",
		"latitude": "34-12-30.77 N",
		"longitude": "109-15-7.89 W",
		"state": "ARIZONA",
		"artcc": "ZAB",
		"type": "RNAV",
		"updated": "06/17/2011",
	},
	{
		"name": "IXAKE",
		"latitude": "32-12-49 N",
		"longitude": "109-55-56.26 W",
		"state": "ARIZONA",
		"artcc": "ZAB",
		"type": "RNAV",
		"updated": "06/19/2012",
	},
	{
		"name": "IXUHU",
		"latitude": "32-39-48.87 N",
		"longitude": "109-23-43.75 W",
		"state": "ARIZONA",
		"artcc": "ZAB",
		"type": "RNAV",
		"updated": "01/05/2011",
	},
	{
		"name": "IYTEY",
		"latitude": "35-22-5.59 N",
		"longitude": "100-11-57.69 W",
		"state": "TEXAS",
		"artcc": "ZAB",
		"type": "RNAV",
		"updated": "08/26/2011",
	},
	{
		"name": "IZMIR",
		"latitude": "31-32-42.63 N",
		"longitude": "109-25-35.1 W",
		"state": "ARIZONA",
		"artcc": "ZAB",
		"type": "RP",
		"updated": "DUG*VORTAC*051.23/10.00",
	},
	{
		"name": "IZOSI",
		"latitude": "31-33-16.24 N",
		"longitude": "109-46-19.27 W",
		"state": "ARIZONA",
		"artcc": "ZAB",
		"type": "RP",
		"updated": "DUG*VORTAC*286.38/10.00",
	},
	{
		"name": "IZSAH",
		"latitude": "34-54-55.97 N",
		"longitude": "110-53-35.79 W",
		"state": "ARIZONA",
		"artcc": "ZAB",
		"type": "CN",
		"updated": "12/21/1999",
	},
	{
		"name": "IZTIR",
		"latitude": "33-44-15.16 N",
		"longitude": "111-7-40.62 W",
		"state": "ARIZONA",
		"artcc": "ZAB",
		"type": "RP",
		"updated": "PXR*VORTAC*054.40/45.99",
	},
	{
		"name": "IZUTU",
		"latitude": "32-18-41.52 N",
		"longitude": "111-21-27.67 W",
		"state": "ARIZONA",
		"artcc": "ZAB",
		"type": "CN",
		"updated": "12/21/1999",
	},
	{
		"name": "IZZOM",
		"latitude": "34-27-1.97 N",
		"longitude": "109-2-52.77 W",
		"state": "ARIZONA",
		"artcc": "ZAB",
		"type": "RP",
		"updated": "SJN*VORTAC*059.46/5.00",
	},
	{
		"name": "IZZYY",
		"latitude": "33-5-44.5 N",
		"longitude": "106-15-46.84 W",
		"state": "NEW MEXICO",
		"artcc": "ZAB",
		"type": "MW",
		"updated": "10/26/2016",
	},
	{
		"name": "IZZZO",
		"latitude": "33-27-9.93 N",
		"longitude": "112-48-0.15 W",
		"state": "ARIZONA",
		"artcc": "ZAB",
		"type": "RNAV",
		"updated": "08/11/2014",
	},
