[
	{
		"name": "JAAKS",
		"latitude": "33-15-28.93 N",
		"longitude": "105-42-47.04 W",
		"state": "NEW MEXICO",
		"artcc": "ZAB",
		"type": "MR",
		"updated": "HMN*TACAN*030.00/31.00"
	},
	{
		"name": "JADAP",
		"latitude": "35-16-36.67 N",
		"longitude": "101-21-53.89 W",
		"state": "TEXAS",
		"artcc": "ZAB",
		"type": "RNAV",
		"updated": "04/14/2011"
	},
	{
		"name": "JADIL",
		"latitude": "35-11-40.71 N",
		"longitude": "103-13-58.16 W",
		"state": "NEW MEXICO",
		"artcc": "ZAB",
		"type": "RP",
		"updated": "TCC*VORTAC*075.51/18.00"
	},
	{
		"name": "JADKI",
		"latitude": "35-18-33.46 N",
		"longitude": "101-57-7.67 W",
		"state": "TEXAS",
		"artcc": "ZAB",
		"type": "RNAV",
		"updated": "11/30/2010"
	},
	{
		"name": "JAFBY",
		"latitude": "33-47-49.36 N",
		"longitude": "111-53-12.15 W",
		"state": "ARIZONA",
		"artcc": "ZAB",
		"type": "RNAV",
		"updated": "04/05/2005"
	},
	{
		"name": "JAGAL",
		"latitude": "33-26-25.74 N",
		"longitude": "111-48-46.39 W",
		"state": "ARIZONA",
		"artcc": "ZAB",
		"type": "RP",
		"updated": "CWJ*LD*078.08/11.06"
	},
	{
		"name": "JAGSA",
		"latitude": "32-2-19.09 N",
		"longitude": "108-6-13.19 W",
		"state": "NEW MEXICO",
		"artcc": "ZAB",
		"type": "RNAV",
		"updated": "09/08/2004"
	},
	{
		"name": "JAKAR",
		"latitude": "34-36-14.54 N",
		"longitude": "111-49-32.93 W",
		"state": "ARIZONA",
		"artcc": "ZAB",
		"type": "RP",
		"updated": "FLG*VOR/DME*179.00/33.39"
	},
	{
		"name": "JAKKO",
		"latitude": "35-19-39.34 N",
		"longitude": "101-43-52.65 W",
		"state": "TEXAS",
		"artcc": "ZAB",
		"type": "RNAV",
		"updated": "09/05/2017"
	},
	{
		"name": "JAKKY",
		"latitude": "32-53-16.26 N",
		"longitude": "105-0-13.22 W",
		"state": "NEW MEXICO",
		"artcc": "ZAB",
		"type": "RP",
		"updated": "PIO*VOR/DME*023.33/26.35"
	},
	{
		"name": "JALEB",
		"latitude": "32-8-0.42 N",
		"longitude": "104-26-10.8 W",
		"state": "NEW MEXICO",
		"artcc": "ZAB",
		"type": "RP",
		"updated": "CNM*VORTAC*223.50/13.00"
	},
	{
		"name": "JAMBI",
		"latitude": "34-20-42.58 N",
		"longitude": "103-21-54.45 W",
		"state": "NEW MEXICO",
		"artcc": "ZAB",
		"type": "MR",
		"updated": "CVS*TACAN*218.00/3.00"
	},
	{
		"name": "JAMEE",
		"latitude": "33-18-34.54 N",
		"longitude": "106-2-37.22 W",
		"state": "NEW MEXICO",
		"artcc": "ZAB",
		"type": "MR",
		"updated": "HMN*TACAN*357.00/27.00"
	},
	{
		"name": "JAMIL",
		"latitude": "33-26-27.19 N",
		"longitude": "112-12-51.26 W",
		"state": "ARIZONA",
		"artcc": "ZAB",
		"type": "RP",
		"updated": "SYQ*LD*258.08/11.32"
	},
	{
		"name": "JANUK",
		"latitude": "36-42-42.42 N",
		"longitude": "105-25-19.9 W",
		"state": "NEW MEXICO",
		"artcc": "ZAB",
		"type": "RNAV",
		"updated": "11/01/2001"
	},
	{
		"name": "JAPOD",
		"latitude": "31-45-10.28 N",
		"longitude": "106-24-17.87 W",
		"state": "TEXAS",
		"artcc": "ZAB",
		"type": "RNAV",
		"updated": "02/14/2014"
	},
	{
		"name": "JAROD",
		"latitude": "33-9-53.1 N",
		"longitude": "111-51-57.21 W",
		"state": "ARIZONA",
		"artcc": "ZAB",
		"type": "RP",
		"updated": "PXR*VORTAC*149.89/16.90"
	},
	{
		"name": "JARPA",
		"latitude": "35-42-22.46 N",
		"longitude": "109-47-19.99 W",
		"state": "ARIZONA",
		"artcc": "ZAB",
		"type": "RNAV",
		"updated": "08/11/2014"
	},
	{
		"name": "JARPI",
		"latitude": "34-27-30.28 N",
		"longitude": "103-14-46.75 W",
		"state": "NEW MEXICO",
		"artcc": "ZAB",
		"type": "MR",
		"updated": "CVS*TACAN*032.00/6.00"
	},
	{
		"name": "JASMI",
		"latitude": "35-34-48.21 N",
		"longitude": "101-21-55.29 W",
		"state": "TEXAS",
		"artcc": "ZAB",
		"type": "RNAV",
		"updated": "04/14/2011"
	},
	{
		"name": "JASUR",
		"latitude": "34-18-53.43 N",
		"longitude": "109-46-16.47 W",
		"state": "ARIZONA",
		"artcc": "ZAB",
		"type": "RNAV",
		"updated": "01/26/2011"
	},
	{
		"name": "JATLA",
		"latitude": "34-18-41.84 N",
		"longitude": "103-14-39.38 W",
		"state": "NEW MEXICO",
		"artcc": "ZAB",
		"type": "RP",
		"updated": "CVS*TACAN*/5.67"
	},
	{
		"name": "JAWXY",
		"latitude": "34-47-43.36 N",
		"longitude": "112-17-34.67 W",
		"state": "ARIZONA",
		"artcc": "ZAB",
		"type": "WP",
		"updated": "11/02/1998"
	},
	{
		"name": "JAXAR",
		"latitude": "36-23-52.21 N",
		"longitude": "105-47-0.29 W",
		"state": "NEW MEXICO",
		"artcc": "ZAB",
		"type": "RNAV",
		"updated": "04/25/2005"
	},
	{
		"name": "JAXIG",
		"latitude": "31-33-13.26 N",
		"longitude": "109-36-17.32 W",
		"state": "ARIZONA",
		"artcc": "ZAB",
		"type": "RNAV",
		"updated": "06/01/2012"
	},
	{
		"name": "JAXIV",
		"latitude": "35-8-21.87 N",
		"longitude": "101-57-41.14 W",
		"state": "TEXAS",
		"artcc": "ZAB",
		"type": "RNAV",
		"updated": "11/30/2010"
	},
	{
		"name": "JBEAZ",
		"latitude": "35-18-12.52 N",
		"longitude": "101-45-2.11 W",
		"state": "TEXAS",
		"artcc": "ZAB",
		"type": "RNAV",
		"updated": "09/05/2017"
	},
	{
		"name": "JBIRD",
		"latitude": "33-7-37.83 N",
		"longitude": "111-26-21.87 W",
		"state": "ARIZONA",
		"artcc": "ZAB",
		"type": "MR",
		"updated": "IWA*VORTAC*121.58/15.00"
	},
	{
		"name": "JCOBS",
		"latitude": "34-18-0.17 N",
		"longitude": "111-54-55.63 W",
		"state": "ARIZONA",
		"artcc": "ZAB",
		"type": "RP",
		"updated": "PXR*VORTAC*351.00/52.00"
	},
	{
		"name": "JCOXX",
		"latitude": "31-56-55.52 N",
		"longitude": "106-27-7.02 W",
		"state": "TEXAS",
		"artcc": "ZAB",
		"type": "RNAV",
		"updated": "02/14/2014"
	},
	{
		"name": "JEBES",
		"latitude": "34-18-43.61 N",
		"longitude": "103-24-34.99 W",
		"state": "NEW MEXICO",
		"artcc": "ZAB",
		"type": "MR",
		"updated": "CVS*TACAN*/5.97"
	},
	{
		"name": "JEBSU",
		"latitude": "32-2-21.49 N",
		"longitude": "106-37-33.18 W",
		"state": "NEW MEXICO",
		"artcc": "ZAB",
		"type": "RNAV",
		"updated": "02/19/2014"
	},
	{
		"name": "JEGEK",
		"latitude": "32-11-18.48 N",
		"longitude": "110-51-28.25 W",
		"state": "ARIZONA",
		"artcc": "ZAB",
		"type": "RNAV",
		"updated": "07/12/2007"
	},
	{
		"name": "JEKIM",
		"latitude": "35-29-34.79 N",
		"longitude": "104-55-11.57 W",
		"state": "NEW MEXICO",
		"artcc": "ZAB",
		"type": "RNAV",
		"updated": "02/25/2005"
	},
	{
		"name": "JEKIX",
		"latitude": "33-41-3.15 N",
		"longitude": "112-13-0.74 W",
		"state": "ARIZONA",
		"artcc": "ZAB",
		"type": "MR",
		"updated": "LUF*TACAN*/12.00"
	},
	{
		"name": "JEKRA",
		"latitude": "32-52-28.81 N",
		"longitude": "106-6-40.38 W",
		"state": "NEW MEXICO",
		"artcc": "ZAB",
		"type": "MR",
		"updated": "HMN*TACAN*341.99/0.76"
	},
	{
		"name": "JEKTO",
		"latitude": "33-22-26.89 N",
		"longitude": "104-25-53.26 W",
		"state": "NEW MEXICO",
		"artcc": "ZAB",
		"type": "RNAV",
		"updated": "08/01/2006"
	},
	{
		"name": "JEKUD",
		"latitude": "32-28-10.63 N",
		"longitude": "111-12-38.35 W",
		"state": "ARIZONA",
		"artcc": "ZAB",
		"type": "MR",
		"updated": "DMA*TACAN*305.97/25.00"
	},
	{
		"name": "JELAT",
		"latitude": "33-55-15.83 N",
		"longitude": "103-24-59.63 W",
		"state": "NEW MEXICO",
		"artcc": "ZAB",
		"type": "RNAV",
		"updated": "09/13/2004"
	},
	{
		"name": "JELIG",
		"latitude": "32-20-43.03 N",
		"longitude": "107-58-15.2 W",
		"state": "NEW MEXICO",
		"artcc": "ZAB",
		"type": "RNAV",
		"updated": "08/16/2010"
	},
	{
		"name": "JELIL",
		"latitude": "34-33-47.45 N",
		"longitude": "103-32-53.36 W",
		"state": "NEW MEXICO",
		"artcc": "ZAB",
		"type": "MW",
		"updated": "02/14/2010"
	},
	{
		"name": "JEMAK",
		"latitude": "35-55-14.54 N",
		"longitude": "104-59-25.71 W",
		"state": "NEW MEXICO",
		"artcc": "ZAB",
		"type": "RNAV",
		"updated": "02/25/2005"
	},
	{
		"name": "JEMEZ",
		"latitude": "35-56-20.54 N",
		"longitude": "106-56-25.86 W",
		"state": "NEW MEXICO",
		"artcc": "ZAB",
		"type": "RNAV",
		"updated": "11/19/2012"
	},
	{
		"name": "JEMTO",
		"latitude": "33-6-26.53 N",
		"longitude": "106-10-10.11 W",
		"state": "NEW MEXICO",
		"artcc": "ZAB",
		"type": "MR",
		"updated": "HMN*TACAN*338.30/15.00"
	},
	{
		"name": "JENOM",
		"latitude": "33-19-53.37 N",
		"longitude": "104-25-20.8 W",
		"state": "NEW MEXICO",
		"artcc": "ZAB",
		"type": "MR",
		"updated": "INK*VORTAC*314.91/105.72"
	},
	{
		"name": "JEPES",
		"latitude": "33-25-43.47 N",
		"longitude": "112-15-34.21 W",
		"state": "ARIZONA",
		"artcc": "ZAB",
		"type": "RNAV",
		"updated": "02/04/2009"
	},
	{
		"name": "JEPET",
		"latitude": "35-10-41.82 N",
		"longitude": "111-37-32.18 W",
		"state": "ARIZONA",
		"artcc": "ZAB",
		"type": "RNAV",
		"updated": "10/16/2017"
	},
	{
		"name": "JEREV",
		"latitude": "32-57-29.35 N",
		"longitude": "105-59-56.56 W",
		"state": "NEW MEXICO",
		"artcc": "ZAB",
		"type": "MR",
		"updated": "HMN*TACAN*034.00/8.00"
	},
	{
		"name": "JERGI",
		"latitude": "33-41-27.67 N",
		"longitude": "112-1-43.83 W",
		"state": "ARIZONA",
		"artcc": "ZAB",
		"type": "RNAV",
		"updated": "04/05/2005"
	},
	{
		"name": "JESSE",
		"latitude": "34-35-0.72 N",
		"longitude": "110-56-37.55 W",
		"state": "ARIZONA",
		"artcc": "ZAB",
		"type": "RP",
		"updated": "ZUN*VORTAC*242.00/91.35"
	},
	{
		"name": "JETEK",
		"latitude": "35-43-46.64 N",
		"longitude": "106-1-52.16 W",
		"state": "NEW MEXICO",
		"artcc": "ZAB",
		"type": "RNAV",
		"updated": "10/31/2016"
	},
	{
		"name": "JETIM",
		"latitude": "35-11-25.67 N",
		"longitude": "101-54-42.77 W",
		"state": "TEXAS",
		"artcc": "ZAB",
		"type": "RNAV",
		"updated": "08/21/2017"
	},
	{
		"name": "JETOG",
		"latitude": "31-52-14.07 N",
		"longitude": "106-15-26.6 W",
		"state": "TEXAS",
		"artcc": "ZAB",
		"type": "RNAV",
		"updated": "04/02/2014"
	},
	{
		"name": "JETOK",
		"latitude": "34-55-44.71 N",
		"longitude": "106-44-13.56 W",
		"state": "NEW MEXICO",
		"artcc": "ZAB",
		"type": "RNAV",
		"updated": "11/19/2012"
	},
	{
		"name": "JETOS",
		"latitude": "34-10-5.21 N",
		"longitude": "105-35-38.1 W",
		"state": "NEW MEXICO",
		"artcc": "ZAB",
		"type": "RNAV",
		"updated": "03/21/2014"
	},
	{
		"name": "JEVKU",
		"latitude": "33-33-14.17 N",
		"longitude": "112-21-36.53 W",
		"state": "ARIZONA",
		"artcc": "ZAB",
		"type": "MR",
		"updated": "LUF*TACAN*030.00/1.40"
	},
	{
		"name": "JEVOS",
		"latitude": "32-55-18.04 N",
		"longitude": "107-50-17.65 W",
		"state": "NEW MEXICO",
		"artcc": "ZAB",
		"type": "RNAV",
		"updated": "02/14/2014"
	},
	{
		"name": "JIDEN",
		"latitude": "31-48-5.96 N",
		"longitude": "106-21-15.51 W",
		"state": "TEXAS",
		"artcc": "ZAB",
		"type": "RP",
		"updated": "ELP*VORTAC*245.04/3.80"
	},
	{
		"name": "JIDRA",
		"latitude": "34-19-3.67 N",
		"longitude": "103-24-10.98 W",
		"state": "NEW MEXICO",
		"artcc": "ZAB",
		"type": "MW",
		"updated": "02/26/2010"
	},
	{
		"name": "JILAB",
		"latitude": "35-2-39.52 N",
		"longitude": "106-44-18.4 W",
		"state": "NEW MEXICO",
		"artcc": "ZAB",
		"type": "RP",
		"updated": "SPT*LD*259.43/8.27"
	},
	{
		"name": "JILKI",
		"latitude": "32-53-24.58 N",
		"longitude": "109-26-58.95 W",
		"state": "ARIZONA",
		"artcc": "ZAB",
		"type": "RNAV",
		"updated": "06/07/2010"
	},
	{
		"name": "JILPY",
		"latitude": "35-3-6.81 N",
		"longitude": "101-42-52.56 W",
		"state": "TEXAS",
		"artcc": "ZAB",
		"type": "RP",
		"updated": "PNH*VORTAC*176.00/11.00"
	},
	{
		"name": "JILUG",
		"latitude": "35-2-44.71 N",
		"longitude": "106-54-49.64 W",
		"state": "NEW MEXICO",
		"artcc": "ZAB",
		"type": "RNAV",
		"updated": "09/20/2004"
	},
	{
		"name": "JIMBA",
		"latitude": "31-51-26.13 N",
		"longitude": "106-16-8.04 W",
		"state": "TEXAS",
		"artcc": "ZAB",
		"type": "RNAV",
		"updated": "12/19/2011"
	},
	{
		"name": "JIMUN",
		"latitude": "33-32-45.21 N",
		"longitude": "111-59-57.11 W",
		"state": "ARIZONA",
		"artcc": "ZAB",
		"type": "RNAV",
		"updated": "05/14/2009"
	},
	{
		"name": "JINEV",
		"latitude": "33-28-14.22 N",
		"longitude": "112-27-4.99 W",
		"state": "ARIZONA",
		"artcc": "ZAB",
		"type": "MR",
		"updated": "LUF*TACAN*209.00/5.40"
	},
	{
		"name": "JINOL",
		"latitude": "33-25-53.93 N",
		"longitude": "112-4-4.47 W",
		"state": "ARIZONA",
		"artcc": "ZAB",
		"type": "RNAV",
		"updated": "02/22/2018"
	},
	{
		"name": "JIPON",
		"latitude": "33-6-20.1 N",
		"longitude": "111-47-32.89 W",
		"state": "ARIZONA",
		"artcc": "ZAB",
		"type": "RP",
		"updated": "PXR*VORTAC*143.44/21.55"
	},
	{
		"name": "JIPSY",
		"latitude": "32-11-59.99 N",
		"longitude": "111-29-53.14 W",
		"state": "ARIZONA",
		"artcc": "ZAB",
		"type": "RP",
		"updated": "TUS*VORTAC*270.00"
	},
	{
		"name": "JIPVI",
		"latitude": "32-57-11.46 N",
		"longitude": "105-59-35.74 W",
		"state": "NEW MEXICO",
		"artcc": "ZAB",
		"type": "MR",
		"updated": "HMN*TACAN*/8.00"
	},
	{
		"name": "JIROK",
		"latitude": "32-51-26.96 N",
		"longitude": "113-23-50.3 W",
		"state": "ARIZONA",
		"artcc": "ZAB",
		"type": "MR",
		"updated": "BXK*VORTAC*205.11/45.89"
	},
	{
		"name": "JIRTU",
		"latitude": "35-8-50.87 N",
		"longitude": "101-48-18.39 W",
		"state": "TEXAS",
		"artcc": "ZAB",
		"type": "MR",
		"updated": "PNH*VORTAC*216.86/7.40"
	},
	{
		"name": "JISAM",
		"latitude": "35-53-35.55 N",
		"longitude": "101-24-0.51 W",
		"state": "TEXAS",
		"artcc": "ZAB",
		"type": "RNAV",
		"updated": "03/31/2008"
	},
	{
		"name": "JIXEB",
		"latitude": "32-57-19.6 N",
		"longitude": "109-13-44.24 W",
		"state": "ARIZONA",
		"artcc": "ZAB",
		"type": "RNAV",
		"updated": "01/05/2011"
	},
	{
		"name": "JKPOT",
		"latitude": "34-41-39.14 N",
		"longitude": "113-0-36.87 W",
		"state": "ARIZONA",
		"artcc": "ZAB",
		"type": "RNAV",
		"updated": "08/11/2014"
	},
	{
		"name": "JLPNO",
		"latitude": "35-24-54.54 N",
		"longitude": "105-21-37.8 W",
		"state": "NEW MEXICO",
		"artcc": "ZAB",
		"type": "RNAV",
		"updated": "11/19/2012"
	},
	{
		"name": "JMUZE",
		"latitude": "35-47-30.59 N",
		"longitude": "107-40-58.94 W",
		"state": "NEW MEXICO",
		"artcc": "ZAB",
		"type": "RNAV",
		"updated": "03/21/2014"
	},
	{
		"name": "JNIPR",
		"latitude": "34-2-50.46 N",
		"longitude": "109-19-22.25 W",
		"state": "ARIZONA",
		"artcc": "ZAB",
		"type": "RNAV",
		"updated": "08/11/2014"
	},
	{
		"name": "JOBAM",
		"latitude": "33-2-8.12 N",
		"longitude": "106-13-41.07 W",
		"state": "NEW MEXICO",
		"artcc": "ZAB",
		"type": "MR",
		"updated": "HMN*TACAN*320.00/12.00"
	},
	{
		"name": "JODEY",
		"latitude": "33-34-54.68 N",
		"longitude": "110-49-8.69 W",
		"state": "ARIZONA",
		"artcc": "ZAB",
		"type": "MR",
		"updated": "IWA*VORTAC*055.00/45.00"
	},
	{
		"name": "JODPI",
		"latitude": "35-27-21.11 N",
		"longitude": "101-9-59.8 W",
		"state": "TEXAS",
		"artcc": "ZAB",
		"type": "RP",
		"updated": "PNH*VORTAC*055.00/29.29"
	},
	{
		"name": "JOFRE",
		"latitude": "34-25-53.06 N",
		"longitude": "104-54-6.96 W",
		"state": "NEW MEXICO",
		"artcc": "ZAB",
		"type": "RP",
		"updated": "CME*VORTAC*336.00/67.00"
	},
	{
		"name": "JOGHY",
		"latitude": "32-22-46.08 N",
		"longitude": "109-44-7.43 W",
		"state": "ARIZONA",
		"artcc": "ZAB",
		"type": "RNAV",
		"updated": "04/28/2010"
	},
	{
		"name": "JOGPO",
		"latitude": "33-33-13.79 N",
		"longitude": "104-50-25.62 W",
		"state": "NEW MEXICO",
		"artcc": "ZAB",
		"type": "RP",
		"updated": "CME*VORTAC*307.72/17.00"
	},
	{
		"name": "JOKDI",
		"latitude": "35-24-15.99 N",
		"longitude": "100-11-58.55 W",
		"state": "TEXAS",
		"artcc": "ZAB",
		"type": "RNAV",
		"updated": "08/26/2011"
	},
	{
		"name": "JOKIM",
		"latitude": "32-3-56.36 N",
		"longitude": "110-20-12.22 W",
		"state": "ARIZONA",
		"artcc": "ZAB",
		"type": "RP",
		"updated": "TUS*VORTAC*081.28/29.52"
	},
	{
		"name": "JOKLO",
		"latitude": "35-21-41.93 N",
		"longitude": "107-14-37.24 W",
		"state": "NEW MEXICO",
		"artcc": "ZAB",
		"type": "RNAV",
		"updated": "03/21/2014"
	},
	{
		"name": "JOKTO",
		"latitude": "35-55-34.02 N",
		"longitude": "102-32-45.9 W",
		"state": "TEXAS",
		"artcc": "ZAB",
		"type": "RNAV",
		"updated": "10/28/2013"
	},
	{
		"name": "JOKVI",
		"latitude": "33-41-2.82 N",
		"longitude": "112-13-0.31 W",
		"state": "ARIZONA",
		"artcc": "ZAB",
		"type": "MR",
		"updated": "LUF*TACAN*030.00/12.00"
	},
	{
		"name": "JOLAV",
		"latitude": "33-5-3.44 N",
		"longitude": "111-56-30.7 W",
		"state": "ARIZONA",
		"artcc": "ZAB",
		"type": "RP",
		"updated": "TFD*VORTAC*340.00/12.00"
	},
	{
		"name": "JOLKU",
		"latitude": "30-26-19.98 N",
		"longitude": "103-34-11.87 W",
		"state": "TEXAS",
		"artcc": "ZAB",
		"type": "RNAV",
		"updated": "12/22/2017"
	},
	{
		"name": "JOMMY",
		"latitude": "31-31-55.92 N",
		"longitude": "109-38-14.88 W",
		"state": "ARIZONA",
		"artcc": "ZAB",
		"type": "RP",
		"updated": "DUG*VORTAC*320.00/4.00"
	},
	{
		"name": "JOMUB",
		"latitude": "32-13-4.16 N",
		"longitude": "107-47-55.22 W",
		"state": "NEW MEXICO",
		"artcc": "ZAB",
		"type": "RNAV",
		"updated": "02/14/2014"
	},
	{
		"name": "JONHH",
		"latitude": "33-48-17.1 N",
		"longitude": "112-11-49.94 W",
		"state": "ARIZONA",
		"artcc": "ZAB",
		"type": "RP",
		"updated": "PXR*VORTAC*321.00/25.00"
	},
	{
		"name": "JONIN",
		"latitude": "35-49-10.65 N",
		"longitude": "102-1-58.53 W",
		"state": "TEXAS",
		"artcc": "ZAB",
		"type": "RNAV",
		"updated": "12/31/2009"
	},
	{
		"name": "JOPNI",
		"latitude": "35-8-57.9 N",
		"longitude": "101-48-10.28 W",
		"state": "TEXAS",
		"artcc": "ZAB",
		"type": "RNAV",
		"updated": "11/30/2010"
	},
	{
		"name": "JOPNU",
		"latitude": "34-26-38.84 N",
		"longitude": "103-24-14.5 W",
		"state": "NEW MEXICO",
		"artcc": "ZAB",
		"type": "RP",
		"updated": "CVS*TACAN*/5.56"
	},
	{
		"name": "JORTO",
		"latitude": "31-43-39.55 N",
		"longitude": "110-8-3.13 W",
		"state": "ARIZONA",
		"artcc": "ZAB",
		"type": "RP",
		"updated": "DUG*VORTAC*286.38/31.25"
	},
	{
		"name": "JOSPO",
		"latitude": "32-12-48.47 N",
		"longitude": "106-49-44.97 W",
		"state": "NEW MEXICO",
		"artcc": "ZAB",
		"type": "RP",
		"updated": "LRU*LD*127.01/7.42"
	},
	{
		"name": "JOSUE",
		"latitude": "31-54-25 N",
		"longitude": "106-18-20.2 W",
		"state": "TEXAS",
		"artcc": "ZAB",
		"type": "RNAV",
		"updated": "04/02/2014"
	},
	{
		"name": "JOSUR",
		"latitude": "32-1-35.61 N",
		"longitude": "110-43-56.91 W",
		"state": "ARIZONA",
		"artcc": "ZAB",
		"type": "MR",
		"updated": "DMA*TACAN*/11.00"
	},
	{
		"name": "JOXEP",
		"latitude": "35-39-18.39 N",
		"longitude": "101-28-0.61 W",
		"state": "TEXAS",
		"artcc": "ZAB",
		"type": "RP",
		"updated": "BGD*VORTAC*193.46/10.00"
	},
	{
		"name": "JRRRY",
		"latitude": "33-39-58.27 N",
		"longitude": "112-5-2.11 W",
		"state": "ARIZONA",
		"artcc": "ZAB",
		"type": "RNAV",
		"updated": "05/14/2009"
	},
	{
		"name": "JSSUA",
		"latitude": "34-23-3.42 N",
		"longitude": "108-0-43.42 W",
		"state": "NEW MEXICO",
		"artcc": "ZAB",
		"type": "RNAV",
		"updated": "08/12/2014"
	},
	{
		"name": "JUDAR",
		"latitude": "34-27-18.48 N",
		"longitude": "103-14-13.83 W",
		"state": "NEW MEXICO",
		"artcc": "ZAB",
		"type": "MW",
		"updated": "02/14/2010"
	},
	{
		"name": "JUDEN",
		"latitude": "32-15-40.14 N",
		"longitude": "108-4-6.45 W",
		"state": "NEW MEXICO",
		"artcc": "ZAB",
		"type": "RNAV",
		"updated": "08/16/2010"
	},
	{
		"name": "JUDTH",
		"latitude": "32-48-59.41 N",
		"longitude": "113-41-18.22 W",
		"state": "ARIZONA",
		"artcc": "ZAB",
		"type": "RP",
		"updated": "BXK*VORTAC*215.00/57.87"
	},
	{
		"name": "JULBO",
		"latitude": "33-8-23.15 N",
		"longitude": "106-2-20.28 W",
		"state": "NEW MEXICO",
		"artcc": "ZAB",
		"type": "MR",
		"updated": "HMN*TACAN*002.00/17.00"
	},
	{
		"name": "JULOL",
		"latitude": "36-29-49.63 N",
		"longitude": "103-6-57.16 W",
		"state": "NEW MEXICO",
		"artcc": "ZAB",
		"type": "RNAV",
		"updated": "07/11/2013"
	},
	{
		"name": "JULUR",
		"latitude": "34-18-40.56 N",
		"longitude": "103-14-37.81 W",
		"state": "NEW MEXICO",
		"artcc": "ZAB",
		"type": "RNAV",
		"updated": "02/14/2010"
	},
	{
		"name": "JUMPY",
		"latitude": "34-36-29.02 N",
		"longitude": "112-10-50.91 W",
		"state": "ARIZONA",
		"artcc": "ZAB",
		"type": "RP",
		"updated": "DRK*VORTAC*096.81/15.87"
	},
	{
		"name": "JUNVE",
		"latitude": "35-27-47.76 N",
		"longitude": "101-34-23.61 W",
		"state": "TEXAS",
		"artcc": "ZAB",
		"type": "RP",
		"updated": "BGD*VORTAC*193.46/22.62"
	},
	{
		"name": "JUPIN",
		"latitude": "32-7-33.89 N",
		"longitude": "111-13-31.81 W",
		"state": "ARIZONA",
		"artcc": "ZAB",
		"type": "RNAV",
		"updated": "05/04/2010"
	},
	{
		"name": "JUPTR",
		"latitude": "34-21-12.52 N",
		"longitude": "105-53-18.06 W",
		"state": "NEW MEXICO",
		"artcc": "ZAB",
		"type": "RNAV",
		"updated": "07/04/2011"
	},
	{
		"name": "JUPVA",
		"latitude": "33-27-35.28 N",
		"longitude": "112-27-19.56 W",
		"state": "ARIZONA",
		"artcc": "ZAB",
		"type": "MR",
		"updated": "LUF*TACAN*206.00/6.00"
	},
	{
		"name": "JURAZ",
		"latitude": "33-31-38.37 N",
		"longitude": "111-51-3.75 W",
		"state": "ARIZONA",
		"artcc": "ZAB",
		"type": "RNAV",
		"updated": "08/08/2014"
	},
	{
		"name": "JURBI",
		"latitude": "33-31-1.68 N",
		"longitude": "104-34-32.35 W",
		"state": "NEW MEXICO",
		"artcc": "ZAB",
		"type": "MR",
		"updated": "CME*VORTAC*360.00/11.00"
	},
	{
		"name": "JURED",
		"latitude": "33-24-49.43 N",
		"longitude": "111-44-26.86 W",
		"state": "ARIZONA",
		"artcc": "ZAB",
		"type": "RP",
		"updated": "PXR*VORTAC*083.66"
	},
	{
		"name": "JURUX",
		"latitude": "33-41-0.62 N",
		"longitude": "112-9-11.15 W",
		"state": "ARIZONA",
		"artcc": "ZAB",
		"type": "RNAV",
		"updated": "03/05/2010"
	},
	{
		"name": "JUSIB",
		"latitude": "35-6-14.64 N",
		"longitude": "106-51-11.34 W",
		"state": "NEW MEXICO",
		"artcc": "ZAB",
		"type": "RNAV",
		"updated": "08/10/2016"
	},
	{
		"name": "JUSKU",
		"latitude": "33-38-19.91 N",
		"longitude": "111-57-54.13 W",
		"state": "ARIZONA",
		"artcc": "ZAB",
		"type": "RNAV",
		"updated": "04/06/2005"
	},
	{
		"name": "JUSTN",
		"latitude": "34-56-48.52 N",
		"longitude": "112-54-55.99 W",
		"state": "ARIZONA",
		"artcc": "ZAB",
		"type": "RNAV",
		"updated": "DRK*VORTAC*290.36/26.00"
	},
	{
		"name": "JUTAK",
		"latitude": "33-23-32.28 N",
		"longitude": "112-11-27.51 W",
		"state": "ARIZONA",
		"artcc": "ZAB",
		"type": "RNAV",
		"updated": "02/22/2018"
	},
	{
		"name": "JUTEP",
		"latitude": "32-23-5.9 N",
		"longitude": "107-32-25.11 W",
		"state": "NEW MEXICO",
		"artcc": "ZAB",
		"type": "RNAV",
		"updated": "08/16/2010"
	},
	{
		"name": "JUWSO",
		"latitude": "34-47-48.35 N",
		"longitude": "112-3-0.84 W",
		"state": "ARIZONA",
		"artcc": "ZAB",
		"type": "RP",
		"updated": "DRK*VORTAC*061.02/22.00"
	},
	{
		"name": "JUXUK",
		"latitude": "33-30-59.14 N",
		"longitude": "112-24-20.1 W",
		"state": "ARIZONA",
		"artcc": "ZAB",
		"type": "MR",
		"updated": "LUF*TACAN*212.00/1.80"
	}
]
