[
	{
		"name": "KA03W",
		"latitude": "30-30-0 N",
		"longitude": "104-0-0 W",
		"state": "TEXAS",
		"artcc": "ZAB",
		"type": "NRS",
		"updated": "03/05/2005"
	},
	{
		"name": "KA06W",
		"latitude": "31-0-0 N",
		"longitude": "104-0-0 W",
		"state": "TEXAS",
		"artcc": "ZAB",
		"type": "NRS",
		"updated": "03/05/2005"
	},
	{
		"name": "KA09Q",
		"latitude": "31-30-0 N",
		"longitude": "110-0-0 W",
		"state": "ARIZONA",
		"artcc": "ZAB",
		"type": "NRS",
		"updated": "03/05/2005"
	},
	{
		"name": "KA09U",
		"latitude": "31-30-0 N",
		"longitude": "106-0-0 W",
		"state": "TEXAS",
		"artcc": "ZAB",
		"type": "NRS",
		"updated": "03/05/2005"
	},
	{
		"name": "KA09W",
		"latitude": "31-30-0 N",
		"longitude": "104-0-0 W",
		"state": "TEXAS",
		"artcc": "ZAB",
		"type": "NRS",
		"updated": "03/05/2005"
	},
	{
		"name": "KA12O",
		"latitude": "32-0-0 N",
		"longitude": "112-0-0 W",
		"state": "ARIZONA",
		"artcc": "ZAB",
		"type": "NRS",
		"updated": "03/05/2005"
	},
	{
		"name": "KA12Q",
		"latitude": "32-0-0 N",
		"longitude": "110-0-0 W",
		"state": "ARIZONA",
		"artcc": "ZAB",
		"type": "NRS",
		"updated": "03/05/2005"
	},
	{
		"name": "KA12S",
		"latitude": "32-0-0 N",
		"longitude": "108-0-0 W",
		"state": "NEW MEXICO",
		"artcc": "ZAB",
		"type": "NRS",
		"updated": "03/05/2005"
	},
	{
		"name": "KA12U",
		"latitude": "32-0-0 N",
		"longitude": "106-0-0 W",
		"state": "TEXAS",
		"artcc": "ZAB",
		"type": "NRS",
		"updated": "03/05/2005"
	},
	{
		"name": "KA12W",
		"latitude": "32-0-0 N",
		"longitude": "104-0-0 W",
		"state": "TEXAS",
		"artcc": "ZAB",
		"type": "NRS",
		"updated": "03/05/2005"
	},
	{
		"name": "KA15O",
		"latitude": "32-30-0 N",
		"longitude": "112-0-0 W",
		"state": "ARIZONA",
		"artcc": "ZAB",
		"type": "NRS",
		"updated": "03/05/2005"
	},
	{
		"name": "KA15Q",
		"latitude": "32-30-0 N",
		"longitude": "110-0-0 W",
		"state": "ARIZONA",
		"artcc": "ZAB",
		"type": "NRS",
		"updated": "03/05/2005"
	},
	{
		"name": "KA15S",
		"latitude": "32-30-0 N",
		"longitude": "108-0-0 W",
		"state": "NEW MEXICO",
		"artcc": "ZAB",
		"type": "NRS",
		"updated": "03/05/2005"
	},
	{
		"name": "KA15U",
		"latitude": "32-30-0 N",
		"longitude": "106-0-0 W",
		"state": "NEW MEXICO",
		"artcc": "ZAB",
		"type": "NRS",
		"updated": "03/05/2005"
	},
	{
		"name": "KA15W",
		"latitude": "32-30-0 N",
		"longitude": "104-0-0 W",
		"state": "NEW MEXICO",
		"artcc": "ZAB",
		"type": "NRS",
		"updated": "03/05/2005"
	},
	{
		"name": "KA18O",
		"latitude": "33-0-0 N",
		"longitude": "112-0-0 W",
		"state": "ARIZONA",
		"artcc": "ZAB",
		"type": "NRS",
		"updated": "03/05/2005"
	},
	{
		"name": "KA18Q",
		"latitude": "33-0-0 N",
		"longitude": "110-0-0 W",
		"state": "ARIZONA",
		"artcc": "ZAB",
		"type": "NRS",
		"updated": "03/05/2005"
	},
	{
		"name": "KA18S",
		"latitude": "33-0-0 N",
		"longitude": "108-0-0 W",
		"state": "NEW MEXICO",
		"artcc": "ZAB",
		"type": "NRS",
		"updated": "03/05/2005"
	},
	{
		"name": "KA18U",
		"latitude": "33-0-0 N",
		"longitude": "106-0-0 W",
		"state": "NEW MEXICO",
		"artcc": "ZAB",
		"type": "NRS",
		"updated": "03/05/2005"
	},
	{
		"name": "KA18W",
		"latitude": "33-0-0 N",
		"longitude": "104-0-0 W",
		"state": "NEW MEXICO",
		"artcc": "ZAB",
		"type": "NRS",
		"updated": "03/05/2005"
	},
	{
		"name": "KA21O",
		"latitude": "33-30-0 N",
		"longitude": "112-0-0 W",
		"state": "ARIZONA",
		"artcc": "ZAB",
		"type": "NRS",
		"updated": "03/05/2005"
	},
	{
		"name": "KA21Q",
		"latitude": "33-30-0 N",
		"longitude": "110-0-0 W",
		"state": "ARIZONA",
		"artcc": "ZAB",
		"type": "NRS",
		"updated": "03/05/2005"
	},
	{
		"name": "KA21S",
		"latitude": "33-30-0 N",
		"longitude": "108-0-0 W",
		"state": "NEW MEXICO",
		"artcc": "ZAB",
		"type": "NRS",
		"updated": "03/05/2005"
	},
	{
		"name": "KA21U",
		"latitude": "33-30-0 N",
		"longitude": "106-0-0 W",
		"state": "NEW MEXICO",
		"artcc": "ZAB",
		"type": "NRS",
		"updated": "03/05/2005"
	},
	{
		"name": "KA21W",
		"latitude": "33-30-0 N",
		"longitude": "104-0-0 W",
		"state": "NEW MEXICO",
		"artcc": "ZAB",
		"type": "NRS",
		"updated": "03/05/2005"
	},
	{
		"name": "KA24O",
		"latitude": "34-0-0 N",
		"longitude": "112-0-0 W",
		"state": "ARIZONA",
		"artcc": "ZAB",
		"type": "NRS",
		"updated": "03/05/2005"
	},
	{
		"name": "KA24Q",
		"latitude": "34-0-0 N",
		"longitude": "110-0-0 W",
		"state": "ARIZONA",
		"artcc": "ZAB",
		"type": "NRS",
		"updated": "03/05/2005"
	},
	{
		"name": "KA24S",
		"latitude": "34-0-0 N",
		"longitude": "108-0-0 W",
		"state": "NEW MEXICO",
		"artcc": "ZAB",
		"type": "NRS",
		"updated": "03/05/2005"
	},
	{
		"name": "KA24U",
		"latitude": "34-0-0 N",
		"longitude": "106-0-0 W",
		"state": "NEW MEXICO",
		"artcc": "ZAB",
		"type": "NRS",
		"updated": "03/05/2005"
	},
	{
		"name": "KA24W",
		"latitude": "34-0-0 N",
		"longitude": "104-0-0 W",
		"state": "NEW MEXICO",
		"artcc": "ZAB",
		"type": "NRS",
		"updated": "03/05/2005"
	},
	{
		"name": "KA27M",
		"latitude": "34-30-0 N",
		"longitude": "114-0-0 W",
		"state": "ARIZONA",
		"artcc": "ZAB",
		"type": "NRS",
		"updated": "03/05/2005"
	},
	{
		"name": "KA27O",
		"latitude": "34-30-0 N",
		"longitude": "112-0-0 W",
		"state": "ARIZONA",
		"artcc": "ZAB",
		"type": "NRS",
		"updated": "03/05/2005"
	},
	{
		"name": "KA27Q",
		"latitude": "34-30-0 N",
		"longitude": "110-0-0 W",
		"state": "ARIZONA",
		"artcc": "ZAB",
		"type": "NRS",
		"updated": "03/05/2005"
	},
	{
		"name": "KA27S",
		"latitude": "34-30-0 N",
		"longitude": "108-0-0 W",
		"state": "NEW MEXICO",
		"artcc": "ZAB",
		"type": "NRS",
		"updated": "03/05/2005"
	},
	{
		"name": "KA27U",
		"latitude": "34-30-0 N",
		"longitude": "106-0-0 W",
		"state": "NEW MEXICO",
		"artcc": "ZAB",
		"type": "NRS",
		"updated": "03/05/2005"
	},
	{
		"name": "KA27W",
		"latitude": "34-30-0 N",
		"longitude": "104-0-0 W",
		"state": "NEW MEXICO",
		"artcc": "ZAB",
		"type": "NRS",
		"updated": "03/05/2005"
	},
	{
		"name": "KA30O",
		"latitude": "35-0-0 N",
		"longitude": "112-0-0 W",
		"state": "ARIZONA",
		"artcc": "ZAB",
		"type": "NRS",
		"updated": "03/05/2005"
	},
	{
		"name": "KA30Q",
		"latitude": "35-0-0 N",
		"longitude": "110-0-0 W",
		"state": "ARIZONA",
		"artcc": "ZAB",
		"type": "NRS",
		"updated": "03/05/2005"
	},
	{
		"name": "KA30S",
		"latitude": "35-0-0 N",
		"longitude": "108-0-0 W",
		"state": "NEW MEXICO",
		"artcc": "ZAB",
		"type": "NRS",
		"updated": "03/05/2005"
	},
	{
		"name": "KA30U",
		"latitude": "35-0-0 N",
		"longitude": "106-0-0 W",
		"state": "NEW MEXICO",
		"artcc": "ZAB",
		"type": "NRS",
		"updated": "03/05/2005"
	},
	{
		"name": "KA30W",
		"latitude": "35-0-0 N",
		"longitude": "104-0-0 W",
		"state": "NEW MEXICO",
		"artcc": "ZAB",
		"type": "NRS",
		"updated": "03/05/2005"
	},
	{
		"name": "KA30Y",
		"latitude": "35-0-0 N",
		"longitude": "102-0-0 W",
		"state": "TEXAS",
		"artcc": "ZAB",
		"type": "NRS",
		"updated": "03/05/2005"
	},
	{
		"name": "KA33Q",
		"latitude": "35-30-0 N",
		"longitude": "110-0-0 W",
		"state": "ARIZONA",
		"artcc": "ZAB",
		"type": "NRS",
		"updated": "03/05/2005"
	},
	{
		"name": "KA33S",
		"latitude": "35-30-0 N",
		"longitude": "108-0-0 W",
		"state": "NEW MEXICO",
		"artcc": "ZAB",
		"type": "NRS",
		"updated": "03/05/2005"
	},
	{
		"name": "KA33U",
		"latitude": "35-30-0 N",
		"longitude": "106-0-0 W",
		"state": "NEW MEXICO",
		"artcc": "ZAB",
		"type": "NRS",
		"updated": "03/05/2005"
	},
	{
		"name": "KA33W",
		"latitude": "35-30-0 N",
		"longitude": "104-0-0 W",
		"state": "NEW MEXICO",
		"artcc": "ZAB",
		"type": "NRS",
		"updated": "03/05/2005"
	},
	{
		"name": "KA33Y",
		"latitude": "35-30-0 N",
		"longitude": "102-0-0 W",
		"state": "TEXAS",
		"artcc": "ZAB",
		"type": "NRS",
		"updated": "03/05/2005"
	},
	{
		"name": "KA36S",
		"latitude": "36-0-0 N",
		"longitude": "108-0-0 W",
		"state": "NEW MEXICO",
		"artcc": "ZAB",
		"type": "NRS",
		"updated": "03/05/2005"
	},
	{
		"name": "KA36U",
		"latitude": "36-0-0 N",
		"longitude": "106-0-0 W",
		"state": "NEW MEXICO",
		"artcc": "ZAB",
		"type": "NRS",
		"updated": "03/05/2005"
	},
	{
		"name": "KA36W",
		"latitude": "36-0-0 N",
		"longitude": "104-0-0 W",
		"state": "NEW MEXICO",
		"artcc": "ZAB",
		"type": "NRS",
		"updated": "03/05/2005"
	},
	{
		"name": "KA36Y",
		"latitude": "36-0-0 N",
		"longitude": "102-0-0 W",
		"state": "TEXAS",
		"artcc": "ZAB",
		"type": "NRS",
		"updated": "03/05/2005"
	},
	{
		"name": "KA39U",
		"latitude": "36-30-0 N",
		"longitude": "106-0-0 W",
		"state": "NEW MEXICO",
		"artcc": "ZAB",
		"type": "NRS",
		"updated": "03/05/2005"
	},
	{
		"name": "KA39W",
		"latitude": "36-30-0 N",
		"longitude": "104-0-0 W",
		"state": "NEW MEXICO",
		"artcc": "ZAB",
		"type": "NRS",
		"updated": "03/05/2005"
	},
	{
		"name": "KA39Y",
		"latitude": "36-30-0 N",
		"longitude": "102-0-0 W",
		"state": "OKLAHOMA",
		"artcc": "ZAB",
		"type": "NRS",
		"updated": "03/05/2005"
	},
	{
		"name": "KA42W",
		"latitude": "37-0-0 N",
		"longitude": "104-0-0 W",
		"state": "COLORADO",
		"artcc": "ZAB",
		"type": "NRS",
		"updated": "03/05/2005"
	},
	{
		"name": "KA87W",
		"latitude": "29-30-0 N",
		"longitude": "104-0-0 W",
		"state": "TEXAS",
		"artcc": "ZAB",
		"type": "NRS",
		"updated": "03/05/2005"
	},
	{
		"name": "KA90W",
		"latitude": "30-0-0 N",
		"longitude": "104-0-0 W",
		"state": "TEXAS",
		"artcc": "ZAB",
		"type": "NRS",
		"updated": "03/05/2005"
	},
	{
		"name": "KABHE",
		"latitude": "34-43-52.31 N",
		"longitude": "102-31-39.22 W",
		"state": "TEXAS",
		"artcc": "ZAB",
		"type": "RNAV",
		"updated": "12/29/2009"
	},
	{
		"name": "KACEE",
		"latitude": "35-20-48.06 N",
		"longitude": "112-26-20.64 W",
		"state": "ARIZONA",
		"artcc": "ZAB",
		"type": "RP",
		"updated": "FLG*VOR/DME*273.86/39.44"
	},
	{
		"name": "KAFMA",
		"latitude": "34-51-36.25 N",
		"longitude": "107-4-20.45 W",
		"state": "NEW MEXICO",
		"artcc": "ZAB",
		"type": "RNAV",
		"updated": "10/18/2001"
	},
	{
		"name": "KAGEY",
		"latitude": "31-35-15.92 N",
		"longitude": "110-6-21.78 W",
		"state": "ARIZONA",
		"artcc": "ZAB",
		"type": "RP",
		"updated": "FHU*VOR/DME*/12.76"
	},
	{
		"name": "KAGNE",
		"latitude": "35-5-37.2 N",
		"longitude": "106-34-0.55 W",
		"state": "NEW MEXICO",
		"artcc": "ZAB",
		"type": "RNAV",
		"updated": "08/09/2012"
	},
	{
		"name": "KALRY",
		"latitude": "33-28-34.85 N",
		"longitude": "107-1-44.24 W",
		"state": "NEW MEXICO",
		"artcc": "ZAB",
		"type": "RNAV",
		"updated": "08/23/2015"
	},
	{
		"name": "KALSE",
		"latitude": "33-55-15.95 N",
		"longitude": "108-24-44.17 W",
		"state": "NEW MEXICO",
		"artcc": "ZAB",
		"type": "RNAV",
		"updated": "11/25/2012"
	},
	{
		"name": "KANDR",
		"latitude": "32-24-5.84 N",
		"longitude": "111-53-55.47 W",
		"state": "ARIZONA",
		"artcc": "ZAB",
		"type": "MR",
		"updated": "TFD*VORTAC*167.00/29.00"
	},
	{
		"name": "KANTR",
		"latitude": "31-40-58.46 N",
		"longitude": "106-33-53.97 W",
		"state": "",
		"artcc": "ZAB",
		"type": "RP",
		"updated": "ETF*LE*221.99/10.81"
	},
	{
		"name": "KANYN",
		"latitude": "33-21-25.08 N",
		"longitude": "111-7-5.5 W",
		"state": "ARIZONA",
		"artcc": "ZAB",
		"type": "MR",
		"updated": "IWA*VORTAC*070.00/27.00"
	},
	{
		"name": "KAPEY",
		"latitude": "33-1-13.54 N",
		"longitude": "107-38-27.56 W",
		"state": "NEW MEXICO",
		"artcc": "ZAB",
		"type": "RP",
		"updated": "TCS*VORTAC*216.26/24.00"
	},
	{
		"name": "KARDS",
		"latitude": "33-46-1.25 N",
		"longitude": "112-11-13.1 W",
		"state": "ARIZONA",
		"artcc": "ZAB",
		"type": "RNAV",
		"updated": "11/30/2010"
	},
	{
		"name": "KARLO",
		"latitude": "34-17-28.24 N",
		"longitude": "112-29-51.56 W",
		"state": "ARIZONA",
		"artcc": "ZAB",
		"type": "RP",
		"updated": "PXR*VORTAC*321.00/57.76"
	},
	{
		"name": "KARRI",
		"latitude": "35-0-35.67 N",
		"longitude": "106-30-59.81 W",
		"state": "NEW MEXICO",
		"artcc": "ZAB",
		"type": "RNAV",
		"updated": "08/09/2012"
	},
	{
		"name": "KARSE",
		"latitude": "35-53-15.82 N",
		"longitude": "106-7-53.86 W",
		"state": "NEW MEXICO",
		"artcc": "ZAB",
		"type": "RNAV",
		"updated": "10/31/2016"
	},
	{
		"name": "KASPN",
		"latitude": "31-55-57.46 N",
		"longitude": "106-21-45.02 W",
		"state": "TEXAS",
		"artcc": "ZAB",
		"type": "RNAV",
		"updated": "04/02/2012"
	},
	{
		"name": "KASTL",
		"latitude": "33-7-15.21 N",
		"longitude": "105-46-20.49 W",
		"state": "NEW MEXICO",
		"artcc": "ZAB",
		"type": "MW",
		"updated": "08/04/2016"
	},
	{
		"name": "KATMN",
		"latitude": "32-38-40.28 N",
		"longitude": "110-40-44.96 W",
		"state": "ARIZONA",
		"artcc": "ZAB",
		"type": "RNAV",
		"updated": "08/11/2014"
	},
	{
		"name": "KAYEP",
		"latitude": "32-3-40.03 N",
		"longitude": "110-1-31.38 W",
		"state": "ARIZONA",
		"artcc": "ZAB",
		"type": "RNAV",
		"updated": "06/19/2012"
	},
	{
		"name": "KEAPS",
		"latitude": "32-49-1.3 N",
		"longitude": "107-55-5.96 W",
		"state": "NEW MEXICO",
		"artcc": "ZAB",
		"type": "RP",
		"updated": "DMN*VORTAC*322.01"
	},
	{
		"name": "KEBYO",
		"latitude": "34-9-56.99 N",
		"longitude": "103-8-55.73 W",
		"state": "NEW MEXICO",
		"artcc": "ZAB",
		"type": "RP",
		"updated": "TXO*VORTAC*207.00/25.00"
	},
	{
		"name": "KECED",
		"latitude": "31-55-16.3 N",
		"longitude": "110-49-18.77 W",
		"state": "ARIZONA",
		"artcc": "ZAB",
		"type": "RNAV",
		"updated": "06/02/2006"
	},
	{
		"name": "KEDDU",
		"latitude": "33-12-36 N",
		"longitude": "111-53-44.21 W",
		"state": "ARIZONA",
		"artcc": "ZAB",
		"type": "WP",
		"updated": "11/02/1998"
	},
	{
		"name": "KEENS",
		"latitude": "33-27-0.5 N",
		"longitude": "112-36-3.13 W",
		"state": "ARIZONA",
		"artcc": "ZAB",
		"type": "RNAV",
		"updated": "08/11/2014"
	},
	{
		"name": "KEFPO",
		"latitude": "36-46-41.62 N",
		"longitude": "104-17-26.01 W",
		"state": "NEW MEXICO",
		"artcc": "ZAB",
		"type": "RNAV",
		"updated": "02/23/2011"
	},
	{
		"name": "KEHFY",
		"latitude": "32-20-58.9 N",
		"longitude": "103-59-42.39 W",
		"state": "NEW MEXICO",
		"artcc": "ZAB",
		"type": "RP",
		"updated": "CNM*VORTAC*052.55/13.00"
	},
	{
		"name": "KEIFR",
		"latitude": "35-7-32.43 N",
		"longitude": "106-35-34.28 W",
		"state": "NEW MEXICO",
		"artcc": "ZAB",
		"type": "RNAV",
		"updated": "08/09/2012"
	},
	{
		"name": "KELGE",
		"latitude": "35-26-47.63 N",
		"longitude": "101-21-54.67 W",
		"state": "TEXAS",
		"artcc": "ZAB",
		"type": "RNAV",
		"updated": "04/14/2011"
	},
	{
		"name": "KENRY",
		"latitude": "34-40-25.08 N",
		"longitude": "110-43-16.61 W",
		"state": "ARIZONA",
		"artcc": "ZAB",
		"type": "RNAV",
		"updated": "04/03/2012"
	},
	{
		"name": "KENTO",
		"latitude": "36-44-19.1 N",
		"longitude": "103-5-57.13 W",
		"state": "NEW MEXICO",
		"artcc": "ZAB",
		"type": "RP",
		"updated": "FTI*VORTAC*043.18/119.32"
	},
	{
		"name": "KEREY",
		"latitude": "32-28-54.57 N",
		"longitude": "104-5-30.73 W",
		"state": "NEW MEXICO",
		"artcc": "ZAB",
		"type": "RNAV",
		"updated": "06/27/2013"
	},
	{
		"name": "KERGE",
		"latitude": "31-53-26.05 N",
		"longitude": "106-14-54.22 W",
		"state": "TEXAS",
		"artcc": "ZAB",
		"type": "RNAV",
		"updated": "12/19/2011"
	},
	{
		"name": "KESPE",
		"latitude": "35-6-14.67 N",
		"longitude": "103-41-50.62 W",
		"state": "NEW MEXICO",
		"artcc": "ZAB",
		"type": "RNAV",
		"updated": "07/21/2004"
	},
	{
		"name": "KEVEN",
		"latitude": "33-31-13.48 N",
		"longitude": "111-0-16.21 W",
		"state": "ARIZONA",
		"artcc": "ZAB",
		"type": "MR",
		"updated": "IWA*VORTAC*055.00/35.00"
	},
	{
		"name": "KEYKE",
		"latitude": "34-56-59.59 N",
		"longitude": "111-23-12.93 W",
		"state": "ARIZONA",
		"artcc": "ZAB",
		"type": "RP",
		"updated": "DRK*VORTAC*060.35/56.00"
	},
	{
		"name": "KEYLO",
		"latitude": "30-59-13.38 N",
		"longitude": "105-23-17.13 W",
		"state": "TEXAS",
		"artcc": "ZAB",
		"type": "RP",
		"updated": "ELP*VORTAC*125.00/68.00"
	},
	{
		"name": "KIDDR",
		"latitude": "34-56-39.7 N",
		"longitude": "112-27-59.6 W",
		"state": "ARIZONA",
		"artcc": "ZAB",
		"type": "RP",
		"updated": "DRK*VORTAC*348.69/14.50"
	},
	{
		"name": "KIGDE",
		"latitude": "33-6-2.3 N",
		"longitude": "104-32-23.06 W",
		"state": "NEW MEXICO",
		"artcc": "ZAB",
		"type": "RNAV",
		"updated": "07/31/2006"
	},
	{
		"name": "KIGPE",
		"latitude": "33-32-58.29 N",
		"longitude": "112-22-8.98 W",
		"state": "ARIZONA",
		"artcc": "ZAB",
		"type": "MR",
		"updated": "LUF*TACAN*025.00/0.90"
	},
	{
		"name": "KILTE",
		"latitude": "35-16-16.67 N",
		"longitude": "101-38-57.01 W",
		"state": "TEXAS",
		"artcc": "ZAB",
		"type": "RNAV",
		"updated": "11/30/2010"
	},
	{
		"name": "KINLY",
		"latitude": "35-29-6.3 N",
		"longitude": "108-54-3.8 W",
		"state": "NEW MEXICO",
		"artcc": "ZAB",
		"type": "RP",
		"updated": "GUP*VORTAC*276.50"
	},
	{
		"name": "KINNE",
		"latitude": "35-42-11.48 N",
		"longitude": "100-59-37.64 W",
		"state": "TEXAS",
		"artcc": "ZAB",
		"type": "RNAV",
		"updated": "11/29/2012"
	},
	{
		"name": "KIRKM",
		"latitude": "34-50-9.78 N",
		"longitude": "109-41-38.08 W",
		"state": "ARIZONA",
		"artcc": "ZAB",
		"type": "RNAV",
		"updated": "11/30/2010"
	},
	{
		"name": "KIXSO",
		"latitude": "35-41-10.93 N",
		"longitude": "102-6-9.68 W",
		"state": "TEXAS",
		"artcc": "ZAB",
		"type": "RNAV",
		"updated": "12/30/2009"
	},
	{
		"name": "KNOBB",
		"latitude": "33-41-55.18 N",
		"longitude": "111-54-33.61 W",
		"state": "ARIZONA",
		"artcc": "ZAB",
		"type": "RP",
		"updated": "PXR*VORTAC*358.84/16.20"
	},
	{
		"name": "KOACH",
		"latitude": "31-49-58.21 N",
		"longitude": "106-37-53.8 W",
		"state": "NEW MEXICO",
		"artcc": "ZAB",
		"type": "RNAV",
		"updated": "04/02/2012"
	},
	{
		"name": "KOFFA",
		"latitude": "33-27-48.93 N",
		"longitude": "113-20-56.1 W",
		"state": "ARIZONA",
		"artcc": "ZAB",
		"type": "RP",
		"updated": "BLH*VORTAC*082.00/71.28"
	},
	{
		"name": "KONTE",
		"latitude": "33-25-43.7 N",
		"longitude": "111-56-53.41 W",
		"state": "ARIZONA",
		"artcc": "ZAB",
		"type": "RP",
		"updated": "RJG*LD*078.03/2.50"
	},
	{
		"name": "KOOLY",
		"latitude": "32-52-25.78 N",
		"longitude": "111-7-44.17 W",
		"state": "ARIZONA",
		"artcc": "ZAB",
		"type": "RNAV",
		"updated": "08/23/2007"
	},
	{
		"name": "KORII",
		"latitude": "35-4-53.82 N",
		"longitude": "111-18-12.19 W",
		"state": "ARIZONA",
		"artcc": "ZAB",
		"type": "RNAV",
		"updated": "08/08/2014"
	},
	{
		"name": "KOVTE",
		"latitude": "34-11-18.91 N",
		"longitude": "103-7-43.37 W",
		"state": "NEW MEXICO",
		"artcc": "ZAB",
		"type": "MR",
		"updated": "CVS*TACAN*130.00/15.00"
	},
	{
		"name": "KRKEE",
		"latitude": "34-37-21.01 N",
		"longitude": "107-48-24.64 W",
		"state": "NEW MEXICO",
		"artcc": "ZAB",
		"type": "RNAV",
		"updated": "03/21/2014"
	},
	{
		"name": "KRRBY",
		"latitude": "34-4-0 N",
		"longitude": "109-21-0 W",
		"state": "ARIZONA",
		"artcc": "ZAB",
		"type": "RNAV",
		"updated": "01/25/2007"
	},
	{
		"name": "KUCOO",
		"latitude": "33-31-40.57 N",
		"longitude": "111-54-39.05 W",
		"state": "ARIZONA",
		"artcc": "ZAB",
		"type": "RNAV",
		"updated": "10/28/2011"
	},
	{
		"name": "KULRE",
		"latitude": "32-26-53.57 N",
		"longitude": "111-19-38.78 W",
		"state": "ARIZONA",
		"artcc": "ZAB",
		"type": "RNAV",
		"updated": "12/30/2005"
	},
	{
		"name": "KUNRE",
		"latitude": "32-16-31.48 N",
		"longitude": "108-21-55.48 W",
		"state": "NEW MEXICO",
		"artcc": "ZAB",
		"type": "RP",
		"updated": "DMN*VORTAC*258.19/38.66"
	},
	{
		"name": "KUWSO",
		"latitude": "33-33-3.01 N",
		"longitude": "112-16-52.92 W",
		"state": "ARIZONA",
		"artcc": "ZAB",
		"type": "RNAV",
		"updated": "08/25/2005"
	},
	{
		"name": "KUYEG",
		"latitude": "35-3-26.61 N",
		"longitude": "101-54-49.77 W",
		"state": "TEXAS",
		"artcc": "ZAB",
		"type": "MR",
		"updated": "PNH*VORTAC*216.86/15.00"
	},
	{
		"name": "KUZIJ",
		"latitude": "33-32-29.22 N",
		"longitude": "104-23-8.77 W",
		"state": "NEW MEXICO",
		"artcc": "ZAB",
		"type": "RP",
		"updated": "CME*VORTAC*032.00/17.00"
	}
]
