	{
		"name": "MABAW",
		"latitude": "33-36-47.93 N",
		"longitude": "111-54-48.77 W",
		"state": "ARIZONA",
		"artcc": "ZAB",
		"type": "RNAV",
		"updated": "10/19/2009",
	},
	{
		"name": "MABIC",
		"latitude": "36-12-48.3 N",
		"longitude": "101-12-2.07 W",
		"state": "TEXAS",
		"artcc": "ZAB",
		"type": "RP",
		"updated": "BGD*VORTAC*008.90/25.90",
	},
	{
		"name": "MACHO",
		"latitude": "35-15-23.92 N",
		"longitude": "106-25-5.75 W",
		"state": "NEW MEXICO",
		"artcc": "ZAB",
		"type": "RNAV",
		"updated": "11/19/2012",
	},
	{
		"name": "MACJE",
		"latitude": "32-8-13.69 N",
		"longitude": "111-11-6.79 W",
		"state": "ARIZONA",
		"artcc": "ZAB",
		"type": "CN",
		"updated": "12/21/1999",
	},
	{
		"name": "MACOL",
		"latitude": "35-2-39.64 N",
		"longitude": "106-37-5.69 W",
		"state": "NEW MEXICO",
		"artcc": "ZAB",
		"type": "RP",
		"updated": "ABQ*VORTAC*076.75/9.76",
	},
	{
		"name": "MAFBI",
		"latitude": "31-25-44.84 N",
		"longitude": "110-51-33.17 W",
		"state": "ARIZONA",
		"artcc": "ZAB",
		"type": "CN",
		"updated": "12/21/1999",
	},
	{
		"name": "MAFON",
		"latitude": "31-28-36.34 N",
		"longitude": "109-36-16.14 W",
		"state": "ARIZONA",
		"artcc": "ZAB",
		"type": "RP",
		"updated": "DUG*VORTAC*320.00/0.27",
	},
	{
		"name": "MAHEM",
		"latitude": "34-0-16.43 N",
		"longitude": "112-6-57.9 W",
		"state": "ARIZONA",
		"artcc": "ZAB",
		"type": "RP",
		"updated": "PXR*VORTAC*336.00/35.00",
	},
	{
		"name": "MAIER",
		"latitude": "34-26-47.19 N",
		"longitude": "112-13-48.9 W",
		"state": "ARIZONA",
		"artcc": "ZAB",
		"type": "RP",
		"updated": "PXR*VORTAC*336.00/62.07",
	},
	{
		"name": "MANZY",
		"latitude": "34-59-4.97 N",
		"longitude": "106-31-41.07 W",
		"state": "NEW MEXICO",
		"artcc": "ZAB",
		"type": "RNAV",
		"updated": "03/13/2014",
	},
	{
		"name": "MARGB",
		"latitude": "33-17-37.75 N",
		"longitude": "111-54-57.58 W",
		"state": "ARIZONA",
		"artcc": "ZAB",
		"type": "CN",
		"updated": "03/06/2003",
	},
	{
		"name": "MARKZ",
		"latitude": "32-22-24.87 N",
		"longitude": "111-6-29.04 W",
		"state": "ARIZONA",
		"artcc": "ZAB",
		"type": "MR",
		"updated": "DMA*TACAN*305.97/17.24",
	},
	{
		"name": "MARPE",
		"latitude": "34-26-0 N",
		"longitude": "103-34-0 W",
		"state": "NEW MEXICO",
		"artcc": "ZAB",
		"type": "RNAV",
		"updated": "08/05/2005",
	},
	{
		"name": "MASVE",
		"latitude": "33-21-18.74 N",
		"longitude": "111-55-11.32 W",
		"state": "ARIZONA",
		"artcc": "ZAB",
		"type": "RNAV",
		"updated": "08/11/2014",
	},
	{
		"name": "MATLE",
		"latitude": "31-48-18.5 N",
		"longitude": "106-9-7.92 W",
		"state": "TEXAS",
		"artcc": "ZAB",
		"type": "RNAV",
		"updated": "12/19/2011",
	},
	{
		"name": "MATRE",
		"latitude": "33-11-37.68 N",
		"longitude": "111-46-56.21 W",
		"state": "ARIZONA",
		"artcc": "ZAB",
		"type": "RNAV",
		"updated": "12/01/2010",
	},
	{
		"name": "MATTS",
		"latitude": "36-7-15.12 N",
		"longitude": "101-14-31.57 W",
		"state": "TEXAS",
		"artcc": "ZAB",
		"type": "RP",
		"updated": "BGD*VORTAC*008.90/20.00",
	},
	{
		"name": "MAVVA",
		"latitude": "32-21-57.14 N",
		"longitude": "111-20-21.02 W",
		"state": "ARIZONA",
		"artcc": "ZAB",
		"type": "RP",
		"updated": "GBN*VORTAC*103.24/76.31",
	},
	{
		"name": "MAWGO",
		"latitude": "35-14-36.97 N",
		"longitude": "101-31-45.78 W",
		"state": "TEXAS",
		"artcc": "ZAB",
		"type": "RNAV",
		"updated": "08/28/2017",
	},
	{
		"name": "MAXXO",
		"latitude": "34-23-38.32 N",
		"longitude": "106-41-47.78 W",
		"state": "NEW MEXICO",
		"artcc": "ZAB",
		"type": "RP",
		"updated": "ONM*VORTAC*048.76/6.98",
	},
	{
		"name": "MAYAS",
		"latitude": "34-27-20.82 N",
		"longitude": "103-2-33.62 W",
		"state": "TEXAS",
		"artcc": "ZAB",
		"type": "RNAV",
		"updated": "08/21/2015",
	},
	{
		"name": "MAYFY",
		"latitude": "31-56-17.69 N",
		"longitude": "105-31-1.78 W",
		"state": "TEXAS",
		"artcc": "ZAB",
		"type": "RP",
		"updated": "EWM*VORTAC*079.00",
	},
	{
		"name": "MAYSA",
		"latitude": "34-34-1.77 N",
		"longitude": "112-52-48.46 W",
		"state": "ARIZONA",
		"artcc": "ZAB",
		"type": "RNAV",
		"updated": "08/11/2014",
	},
	{
		"name": "MAZDA",
		"latitude": "35-14-38.07 N",
		"longitude": "111-20-55.88 W",
		"state": "ARIZONA",
		"artcc": "ZAB",
		"type": "RP",
		"updated": "FLG*VOR/DME*056.00/17.01",
	},
	{
		"name": "MEGBE",
		"latitude": "30-17-32 N",
		"longitude": "104-45-21 W",
		"state": "TEXAS",
		"artcc": "ZAB",
		"type": "RNAV",
		"updated": "01/17/2007",
	},
	{
		"name": "MEKUE",
		"latitude": "34-55-29.39 N",
		"longitude": "105-37-35.52 W",
		"state": "NEW MEXICO",
		"artcc": "ZAB",
		"type": "RNAV",
		"updated": "04/19/2016",
	},
	{
		"name": "MENDZ",
		"latitude": "32-9-19.82 N",
		"longitude": "106-45-40.43 W",
		"state": "NEW MEXICO",
		"artcc": "ZAB",
		"type": "RP",
		"updated": "LRU*LD*127.01/12.32",
	},
	{
		"name": "MESBE",
		"latitude": "34-30-3.61 N",
		"longitude": "103-30-56.47 W",
		"state": "NEW MEXICO",
		"artcc": "ZAB",
		"type": "MR",
		"updated": "CVS*TACAN*300.00/12.00",
	},
	{
		"name": "MESCA",
		"latitude": "31-53-38.46 N",
		"longitude": "110-29-7.9 W",
		"state": "ARIZONA",
		"artcc": "ZAB",
		"type": "RP",
		"updated": "OLS*VOR/DME*020.88",
	},
	{
		"name": "MESSA",
		"latitude": "34-50-44.51 N",
		"longitude": "107-21-9.99 W",
		"state": "NEW MEXICO",
		"artcc": "ZAB",
		"type": "MR",
		"updated": "ABQ*VORTAC*233.00/29.00",
	},
	{
		"name": "MESSI",
		"latitude": "33-47-59.38 N",
		"longitude": "113-48-11.37 W",
		"state": "ARIZONA",
		"artcc": "ZAB",
		"type": "RP",
		"updated": "BXK*VORTAC*279.20/53.23",
	},
	{
		"name": "METKE",
		"latitude": "33-31-14.84 N",
		"longitude": "112-23-47.34 W",
		"state": "ARIZONA",
		"artcc": "ZAB",
		"type": "MR",
		"updated": "LUF*TACAN*206.59/1.30",
	},
	{
		"name": "MGGIE",
		"latitude": "32-14-27.43 N",
		"longitude": "106-40-43.83 W",
		"state": "NEW MEXICO",
		"artcc": "ZAB",
		"type": "RNAV",
		"updated": "07/04/2011",
	},
	{
		"name": "MHAVI",
		"latitude": "33-22-21.96 N",
		"longitude": "113-27-0.96 W",
		"state": "ARIZONA",
		"artcc": "ZAB",
		"type": "RNAV",
		"updated": "12/01/2010",
	},
	{
		"name": "MICCO",
		"latitude": "31-35-15.93 N",
		"longitude": "110-5-39.73 W",
		"state": "ARIZONA",
		"artcc": "ZAB",
		"type": "RNAV",
		"updated": "07/25/2012",
	},
	{
		"name": "MICHY",
		"latitude": "34-37-24.65 N",
		"longitude": "109-39-37.05 W",
		"state": "ARIZONA",
		"artcc": "ZAB",
		"type": "RNAV",
		"updated": "04/03/2012",
	},
	{
		"name": "MICKL",
		"latitude": "33-11-48.51 N",
		"longitude": "111-51-12.82 W",
		"state": "ARIZONA",
		"artcc": "ZAB",
		"type": "MR",
		"updated": "IWA*VORTAC*225.00/12.00",
	},
	{
		"name": "MIDAE",
		"latitude": "36-21-17.79 N",
		"longitude": "105-17-52.45 W",
		"state": "NEW MEXICO",
		"artcc": "ZAB",
		"type": "RNAV",
		"updated": "05/30/2008",
	},
	{
		"name": "MIERA",
		"latitude": "34-57-24.74 N",
		"longitude": "106-6-50.96 W",
		"state": "NEW MEXICO",
		"artcc": "ZAB",
		"type": "RP",
		"updated": "ACH*VORTAC*248.37",
	},
	{
		"name": "MIKSY",
		"latitude": "33-41-18.25 N",
		"longitude": "112-4-9.67 W",
		"state": "ARIZONA",
		"artcc": "ZAB",
		"type": "RNAV",
		"updated": "04/06/2005",
	},
	{
		"name": "MIKVE",
		"latitude": "34-8-40.64 N",
		"longitude": "109-17-40.7 W",
		"state": "ARIZONA",
		"artcc": "ZAB",
		"type": "RNAV",
		"updated": "06/17/2011",
	},
	{
		"name": "MILLR",
		"latitude": "34-4-6.71 N",
		"longitude": "112-30-24.72 W",
		"state": "ARIZONA",
		"artcc": "ZAB",
		"type": "RP",
		"updated": "LUF*TACAN*336.00/32.00",
	},
	{
		"name": "MINAM",
		"latitude": "34-10-24.82 N",
		"longitude": "111-20-46.54 W",
		"state": "ARIZONA",
		"artcc": "ZAB",
		"type": "RNAV",
		"updated": "02/09/2018",
	},
	{
		"name": "MINGY",
		"latitude": "34-32-58.05 N",
		"longitude": "111-44-59.42 W",
		"state": "ARIZONA",
		"artcc": "ZAB",
		"type": "RP",
		"updated": "FLG*VOR/DME*171.98/36.00",
	},
	{
		"name": "MINRE",
		"latitude": "34-22-32.16 N",
		"longitude": "103-19-51.34 W",
		"state": "NEW MEXICO",
		"artcc": "ZAB",
		"type": "MR",
		"updated": "CVS*TACAN*227.73/0.52",
	},
	{
		"name": "MIRBE",
		"latitude": "35-2-6.05 N",
		"longitude": "101-44-55 W",
		"state": "TEXAS",
		"artcc": "ZAB",
		"type": "RNAV",
		"updated": "08/21/2017",
	},
	{
		"name": "MIRLY",
		"latitude": "31-56-6.44 N",
		"longitude": "106-17-5.89 W",
		"state": "TEXAS",
		"artcc": "ZAB",
		"type": "RNAV",
		"updated": "06/27/2012",
	},
	{
		"name": "MIRME",
		"latitude": "35-47-0.72 N",
		"longitude": "103-50-31.88 W",
		"state": "NEW MEXICO",
		"artcc": "ZAB",
		"type": "RNAV",
		"updated": "03/16/2011",
	},
	{
		"name": "MIRSE",
		"latitude": "32-13-58.48 N",
		"longitude": "105-59-40.33 W",
		"state": "NEW MEXICO",
		"artcc": "ZAB",
		"type": "RNAV",
		"updated": "07/04/2011",
	},
	{
		"name": "MIRVE",
		"latitude": "35-10-40.68 N",
		"longitude": "101-28-50.91 W",
		"state": "TEXAS",
		"artcc": "ZAB",
		"type": "RNAV",
		"updated": "05/10/2015",
	},
	{
		"name": "MITUM",
		"latitude": "35-42-19.52 N",
		"longitude": "106-5-49.03 W",
		"state": "NEW MEXICO",
		"artcc": "ZAB",
		"type": "RP",
		"updated": "SAF*VORTAC*338.00/10.00",
	},
	{
		"name": "MIVRE",
		"latitude": "36-1-35.8 N",
		"longitude": "101-55-26.66 W",
		"state": "TEXAS",
		"artcc": "ZAB",
		"type": "RNAV",
		"updated": "12/30/2009",
	},
	{
		"name": "MKYON",
		"latitude": "34-31-12.61 N",
		"longitude": "106-37-7.68 W",
		"state": "NEW MEXICO",
		"artcc": "ZAB",
		"type": "RNAV",
		"updated": "03/21/2014",
	},
	{
		"name": "MMEAT",
		"latitude": "32-17-43.48 N",
		"longitude": "111-0-20.14 W",
		"state": "ARIZONA",
		"artcc": "ZAB",
		"type": "RP",
		"updated": "DMA*TACAN*310.00/10.30",
	},
	{
		"name": "MNSTR",
		"latitude": "33-16-58.11 N",
		"longitude": "112-42-8.18 W",
		"state": "ARIZONA",
		"artcc": "ZAB",
		"type": "RNAV",
		"updated": "12/01/2010",
	},
	{
		"name": "MNZNO",
		"latitude": "34-48-17.01 N",
		"longitude": "106-31-6.74 W",
		"state": "NEW MEXICO",
		"artcc": "ZAB",
		"type": "RNAV",
		"updated": "11/19/2012",
	},
	{
		"name": "MOBIE",
		"latitude": "33-4-31.48 N",
		"longitude": "112-18-14.15 W",
		"state": "ARIZONA",
		"artcc": "ZAB",
		"type": "RP",
		"updated": "PXR*VORTAC*206.19/27.21",
	},
	{
		"name": "MOHAK",
		"latitude": "32-46-33.04 N",
		"longitude": "113-58-19.55 W",
		"state": "ARIZONA",
		"artcc": "ZAB",
		"type": "RP",
		"updated": "GBN*VORTAC*247.00/66.47",
	},
	{
		"name": "MOLLY",
		"latitude": "32-3-47.91 N",
		"longitude": "106-43-27.24 W",
		"state": "NEW MEXICO",
		"artcc": "ZAB",
		"type": "RP",
		"updated": "TCS*VORTAC*145.75/78.25",
	},
	{
		"name": "MOLVE",
		"latitude": "34-42-9.66 N",
		"longitude": "104-37-36.74 W",
		"state": "NEW MEXICO",
		"artcc": "ZAB",
		"type": "RNAV",
		"updated": "11/19/2012",
	},
	{
		"name": "MONGO",
		"latitude": "33-6-7.37 N",
		"longitude": "105-50-0.52 W",
		"state": "NEW MEXICO",
		"artcc": "ZAB",
		"type": "MR",
		"updated": "HMN*TACAN*034.00/20.00",
	},
	{
		"name": "MONKI",
		"latitude": "33-13-38.09 N",
		"longitude": "104-36-26.08 W",
		"state": "NEW MEXICO",
		"artcc": "ZAB",
		"type": "RP",
		"updated": "CME*VORTAC*161.91",
	},
	{
		"name": "MONTI",
		"latitude": "33-57-43.45 N",
		"longitude": "112-41-55.53 W",
		"state": "ARIZONA",
		"artcc": "ZAB",
		"type": "MR",
		"updated": "LUF*TACAN*315.00/30.00",
	},
	{
		"name": "MONZO",
		"latitude": "34-58-14.77 N",
		"longitude": "106-31-26.94 W",
		"state": "NEW MEXICO",
		"artcc": "ZAB",
		"type": "RNAV",
		"updated": "11/09/2010",
	},
	{
		"name": "MOPSE",
		"latitude": "34-48-30.41 N",
		"longitude": "106-42-44.91 W",
		"state": "NEW MEXICO",
		"artcc": "ZAB",
		"type": "RP",
		"updated": "ABQ*VORTAC*147.00/15.00",
	},
	{
		"name": "MOSBI",
		"latitude": "35-35-34.6 N",
		"longitude": "111-53-42.7 W",
		"state": "ARIZONA",
		"artcc": "ZAB",
		"type": "RNAV",
		"updated": "06/24/2016",
	},
	{
		"name": "MOSER",
		"latitude": "35-1-17.81 N",
		"longitude": "102-37-9.67 W",
		"state": "TEXAS",
		"artcc": "ZAB",
		"type": "RP",
		"updated": "TCC*VORTAC*089.00/49.15",
	},
	{
		"name": "MOVOE",
		"latitude": "35-17-45.76 N",
		"longitude": "101-46-16.24 W",
		"state": "TEXAS",
		"artcc": "ZAB",
		"type": "RNAV",
		"updated": "12/01/2010",
	},
	{
		"name": "MOZFO",
		"latitude": "35-4-46.2 N",
		"longitude": "101-53-26.53 W",
		"state": "TEXAS",
		"artcc": "ZAB",
		"type": "RNAV",
		"updated": "05/10/2015",
	},
	{
		"name": "MRBIL",
		"latitude": "34-0-7.89 N",
		"longitude": "111-36-1.24 W",
		"state": "ARIZONA",
		"artcc": "ZAB",
		"type": "RNAV",
		"updated": "08/11/2014",
	},
	{
		"name": "MREDD",
		"latitude": "31-41-21.19 N",
		"longitude": "106-9-30.46 W",
		"state": "TEXAS",
		"artcc": "ZAB",
		"type": "RNAV",
		"updated": "12/19/2011",
	},
	{
		"name": "MREEN",
		"latitude": "33-55-22.65 N",
		"longitude": "112-0-25.06 W",
		"state": "ARIZONA",
		"artcc": "ZAB",
		"type": "RNAV",
		"updated": "05/14/2009",
	},
	{
		"name": "MRMIK",
		"latitude": "34-56-40.07 N",
		"longitude": "106-43-27.59 W",
		"state": "NEW MEXICO",
		"artcc": "ZAB",
		"type": "RNAV",
		"updated": "08/09/2012",
	},
	{
		"name": "MRNCI",
		"latitude": "32-29-48.16 N",
		"longitude": "109-33-4.81 W",
		"state": "ARIZONA",
		"artcc": "ZAB",
		"type": "MW",
		"updated": "SSO*VORTAC*300.00/20.00",
	},
	{
		"name": "MRQEZ",
		"latitude": "31-57-6.38 N",
		"longitude": "106-36-59.26 W",
		"state": "NEW MEXICO",
		"artcc": "ZAB",
		"type": "RNAV",
		"updated": "02/14/2014",
	},
	{
		"name": "MRTHN",
		"latitude": "30-4-59 N",
		"longitude": "102-38-47 W",
		"state": "TEXAS",
		"artcc": "ZAB",
		"type": "RNAV",
		"updated": "08/23/2015",
	},
	{
		"name": "MUCHO",
		"latitude": "34-21-50.41 N",
		"longitude": "102-50-6.52 W",
		"state": "TEXAS",
		"artcc": "ZAB",
		"type": "RNAV",
		"updated": "07/20/2004",
	},
	{
		"name": "MUDOE",
		"latitude": "29-38-3.19 N",
		"longitude": "104-21-40.95 W",
		"state": "TEXAS",
		"artcc": "ZAB",
		"type": "RNAV",
		"updated": "02/26/2014",
	},
	{
		"name": "MULEY",
		"latitude": "33-27-31.18 N",
		"longitude": "111-11-22.44 W",
		"state": "ARIZONA",
		"artcc": "ZAB",
		"type": "MR",
		"updated": "IWA*VORTAC*055.00/25.00",
	},
	{
		"name": "MUMTE",
		"latitude": "34-43-28.49 N",
		"longitude": "113-3-52.65 W",
		"state": "ARIZONA",
		"artcc": "ZAB",
		"type": "RP",
		"updated": "DRK*VORTAC*258.78/28.93",
	},
	{
		"name": "MUSCC",
		"latitude": "35-13-57.61 N",
		"longitude": "107-2-8.56 W",
		"state": "NEW MEXICO",
		"artcc": "ZAB",
		"type": "RNAV",
		"updated": "11/25/2012",
	},
	{
		"name": "MYNRS",
		"latitude": "31-42-2.28 N",
		"longitude": "106-1-23.56 W",
		"state": "TEXAS",
		"artcc": "ZAB",
		"type": "RNAV",
		"updated": "12/06/2011",
	},
