	{
		"name": "PAAAR",
		"latitude": "33-4-14.36 N",
		"longitude": "111-33-58.3 W",
		"state": "ARIZONA",
		"artcc": "ZAB",
		"type": "RNAV",
		"updated": "08/08/2014",
	},
	{
		"name": "PADPE",
		"latitude": "33-12-36.69 N",
		"longitude": "111-32-26.93 W",
		"state": "ARIZONA",
		"artcc": "ZAB",
		"type": "RNAV",
		"updated": "09/27/2006",
	},
	{
		"name": "PAFEL",
		"latitude": "34-28-24.14 N",
		"longitude": "109-16-17.14 W",
		"state": "ARIZONA",
		"artcc": "ZAB",
		"type": "RP",
		"updated": "SJN*VORTAC*283.00/7.00",
	},
	{
		"name": "PAHNN",
		"latitude": "35-16-5.5 N",
		"longitude": "101-48-45.39 W",
		"state": "TEXAS",
		"artcc": "ZAB",
		"type": "RNAV",
		"updated": "08/24/2017",
	},
	{
		"name": "PAMPE",
		"latitude": "35-8-49.07 N",
		"longitude": "101-36-16.2 W",
		"state": "TEXAS",
		"artcc": "ZAB",
		"type": "RNAV",
		"updated": "12/01/2010",
	},
	{
		"name": "PANDE",
		"latitude": "35-8-47.1 N",
		"longitude": "101-48-20.2 W",
		"state": "TEXAS",
		"artcc": "ZAB",
		"type": "RP",
		"updated": "PNH*VORTAC*216.91/7.44",
	},
	{
		"name": "PANTD",
		"latitude": "35-11-36.02 N",
		"longitude": "112-23-35.65 W",
		"state": "ARIZONA",
		"artcc": "ZAB",
		"type": "RNAV",
		"updated": "03/16/2009",
	},
	{
		"name": "PAPBI",
		"latitude": "32-28-7.92 N",
		"longitude": "111-15-48.02 W",
		"state": "ARIZONA",
		"artcc": "ZAB",
		"type": "RNAV",
		"updated": "07/18/2011",
	},
	{
		"name": "PARCS",
		"latitude": "32-9-18.11 N",
		"longitude": "110-59-6.35 W",
		"state": "ARIZONA",
		"artcc": "ZAB",
		"type": "RP",
		"updated": "TUS*VORTAC*303.04/5.06",
	},
	{
		"name": "PARIE",
		"latitude": "35-41-7.34 N",
		"longitude": "101-6-0.19 W",
		"state": "TEXAS",
		"artcc": "ZAB",
		"type": "RNAV",
		"updated": "07/08/2008",
	},
	{
		"name": "PARKZ",
		"latitude": "34-39-21.87 N",
		"longitude": "112-25-54.45 W",
		"state": "ARIZONA",
		"artcc": "ZAB",
		"type": "RNAV",
		"updated": "02/13/2014",
	},
	{
		"name": "PASEO",
		"latitude": "35-12-19.12 N",
		"longitude": "106-47-37.27 W",
		"state": "NEW MEXICO",
		"artcc": "ZAB",
		"type": "RNAV",
		"updated": "11/25/2012",
	},
	{
		"name": "PASNY",
		"latitude": "33-26-27.09 N",
		"longitude": "112-1-36.7 W",
		"state": "ARIZONA",
		"artcc": "ZAB",
		"type": "WP",
		"updated": "11/02/1998",
	},
	{
		"name": "PAYNE",
		"latitude": "32-46-10.33 N",
		"longitude": "106-4-31.95 W",
		"state": "NEW MEXICO",
		"artcc": "ZAB",
		"type": "RP",
		"updated": "BWS*VOR/DME*217.55/4.42",
	},
	{
		"name": "PAYNT",
		"latitude": "33-16-47.85 N",
		"longitude": "112-50-38.81 W",
		"state": "ARIZONA",
		"artcc": "ZAB",
		"type": "RP",
		"updated": "BXK*VORTAC*171.40",
	},
	{
		"name": "PAYSO",
		"latitude": "34-21-16.04 N",
		"longitude": "110-47-42.05 W",
		"state": "ARIZONA",
		"artcc": "ZAB",
		"type": "RP",
		"updated": "PXR*VORTAC*034.44/80.56",
	},
	{
		"name": "PEAKS",
		"latitude": "33-38-7.86 N",
		"longitude": "111-24-45.16 W",
		"state": "ARIZONA",
		"artcc": "ZAB",
		"type": "RP",
		"updated": "PXR*VORTAC*054.40/30.48",
	},
	{
		"name": "PEATE",
		"latitude": "32-58-34.15 N",
		"longitude": "105-58-42.16 W",
		"state": "NEW MEXICO",
		"artcc": "ZAB",
		"type": "MR",
		"updated": "HMN*TACAN*034.00/9.50",
	},
	{
		"name": "PEBCY",
		"latitude": "31-44-23.33 N",
		"longitude": "106-18-44.59 W",
		"state": "TEXAS",
		"artcc": "ZAB",
		"type": "RNAV",
		"updated": "04/02/2012",
	},
	{
		"name": "PECOS",
		"latitude": "34-6-56.77 N",
		"longitude": "104-29-8.97 W",
		"state": "NEW MEXICO",
		"artcc": "ZAB",
		"type": "MR",
		"updated": "CVS*TACAN*245.00/60.00",
	},
	{
		"name": "PEDRA",
		"latitude": "35-30-40.73 N",
		"longitude": "106-58-10.37 W",
		"state": "NEW MEXICO",
		"artcc": "ZAB",
		"type": "RP",
		"updated": "ABQ*VORTAC*332.00/29.00",
	},
	{
		"name": "PEDVE",
		"latitude": "33-22-40.88 N",
		"longitude": "112-25-10.06 W",
		"state": "ARIZONA",
		"artcc": "ZAB",
		"type": "RNAV",
		"updated": "04/28/2016",
	},
	{
		"name": "PELCI",
		"latitude": "35-3-20.16 N",
		"longitude": "103-55-48.77 W",
		"state": "NEW MEXICO",
		"artcc": "ZAB",
		"type": "RP",
		"updated": "TCC*VORTAC*233.19/18.00",
	},
	{
		"name": "PELVE",
		"latitude": "33-13-55.42 N",
		"longitude": "107-16-18.49 W",
		"state": "NEW MEXICO",
		"artcc": "ZAB",
		"type": "RNAV",
		"updated": "02/03/2004",
	},
	{
		"name": "PENSL",
		"latitude": "32-8-9.4 N",
		"longitude": "109-15-44.03 W",
		"state": "ARIZONA",
		"artcc": "ZAB",
		"type": "RNAV",
		"updated": "07/12/2007",
	},
	{
		"name": "PEPTE",
		"latitude": "34-44-38.26 N",
		"longitude": "106-41-21.7 W",
		"state": "NEW MEXICO",
		"artcc": "ZAB",
		"type": "RNAV",
		"updated": "11/19/2012",
	},
	{
		"name": "PERKY",
		"latitude": "33-26-44.74 N",
		"longitude": "112-28-23.37 W",
		"state": "ARIZONA",
		"artcc": "ZAB",
		"type": "RP",
		"updated": "BXK*VORTAC*077.40/17.65",
	},
	{
		"name": "PERRO",
		"latitude": "31-27-50.91 N",
		"longitude": "110-8-31.05 W",
		"state": "ARIZONA",
		"artcc": "ZAB",
		"type": "RP",
		"updated": "DUG*VORTAC*256.08/27.71",
	},
	{
		"name": "PETRS",
		"latitude": "33-25-51.87 N",
		"longitude": "112-4-8.12 W",
		"state": "ARIZONA",
		"artcc": "ZAB",
		"type": "RNAV",
		"updated": "01/13/2009",
	},
	{
		"name": "PEVDE",
		"latitude": "33-25-43.85 N",
		"longitude": "111-46-40.02 W",
		"state": "ARIZONA",
		"artcc": "ZAB",
		"type": "RNAV",
		"updated": "10/19/2011",
	},
	{
		"name": "PEVYU",
		"latitude": "34-52-48.37 N",
		"longitude": "112-10-43.8 W",
		"state": "ARIZONA",
		"artcc": "ZAB",
		"type": "RNAV",
		"updated": "02/13/2014",
	},
	{
		"name": "PEZIB",
		"latitude": "35-45-43.84 N",
		"longitude": "102-40-10.94 W",
		"state": "TEXAS",
		"artcc": "ZAB",
		"type": "RNAV",
		"updated": "10/28/2013",
	},
	{
		"name": "PGSKN",
		"latitude": "33-35-16.64 N",
		"longitude": "112-13-29.19 W",
		"state": "ARIZONA",
		"artcc": "ZAB",
		"type": "RNAV",
		"updated": "12/01/2010",
	},
	{
		"name": "PHASE",
		"latitude": "32-21-40.72 N",
		"longitude": "109-9-28.4 W",
		"state": "ARIZONA",
		"artcc": "ZAB",
		"type": "RNAV",
		"updated": "08/11/2014",
	},
	{
		"name": "PIBIE",
		"latitude": "34-39-27.84 N",
		"longitude": "103-11-55.05 W",
		"state": "NEW MEXICO",
		"artcc": "ZAB",
		"type": "MW",
		"updated": "07/26/2011",
	},
	{
		"name": "PICAH",
		"latitude": "32-39-57.04 N",
		"longitude": "111-43-36.09 W",
		"state": "ARIZONA",
		"artcc": "ZAB",
		"type": "RP",
		"updated": "GBN*VORTAC*095.69/50.97",
	},
	{
		"name": "PICHR",
		"latitude": "34-3-47.83 N",
		"longitude": "111-10-14.3 W",
		"state": "ARIZONA",
		"artcc": "ZAB",
		"type": "RP",
		"updated": "PXR*VORTAC*034.44/55.00",
	},
	{
		"name": "PICLI",
		"latitude": "32-39-47.62 N",
		"longitude": "111-28-41.95 W",
		"state": "ARIZONA",
		"artcc": "ZAB",
		"type": "RP",
		"updated": "TUS*VORTAC*308.06/44.46",
	},
	{
		"name": "PICNN",
		"latitude": "35-59-26.71 N",
		"longitude": "100-59-42.62 W",
		"state": "TEXAS",
		"artcc": "ZAB",
		"type": "RNAV",
		"updated": "07/08/2008",
	},
	{
		"name": "PIERS",
		"latitude": "31-56-55.48 N",
		"longitude": "106-4-49.62 W",
		"state": "TEXAS",
		"artcc": "ZAB",
		"type": "RP",
		"updated": "EWM*VORTAC*079.00/9.80",
	},
	{
		"name": "PIETA",
		"latitude": "34-58-54.11 N",
		"longitude": "105-46-40.14 W",
		"state": "NEW MEXICO",
		"artcc": "ZAB",
		"type": "RNAV",
		"updated": "04/19/2016",
	},
	{
		"name": "PILLA",
		"latitude": "34-48-53.57 N",
		"longitude": "106-31-58.59 W",
		"state": "NEW MEXICO",
		"artcc": "ZAB",
		"type": "RNAV",
		"updated": "11/25/2012",
	},
	{
		"name": "PIMMA",
		"latitude": "32-21-3.8 N",
		"longitude": "111-10-2.9 W",
		"state": "ARIZONA",
		"artcc": "ZAB",
		"type": "RP",
		"updated": "TUS*VORTAC*308.06/20.00",
	},
	{
		"name": "PINDA",
		"latitude": "34-48-48.22 N",
		"longitude": "104-57-7.48 W",
		"state": "NEW MEXICO",
		"artcc": "ZAB",
		"type": "RP",
		"updated": "ABQ*VORTAC*085.00/93.00",
	},
	{
		"name": "PINNG",
		"latitude": "32-44-48.18 N",
		"longitude": "111-11-49 W",
		"state": "ARIZONA",
		"artcc": "ZAB",
		"type": "RNAV",
		"updated": "08/08/2014",
	},
	{
		"name": "PIVOC",
		"latitude": "35-30-31.22 N",
		"longitude": "101-17-4.62 W",
		"state": "TEXAS",
		"artcc": "ZAB",
		"type": "RNAV",
		"updated": "03/31/2008",
	},
	{
		"name": "PLATS",
		"latitude": "33-31-59.61 N",
		"longitude": "105-17-3.34 W",
		"state": "NEW MEXICO",
		"artcc": "ZAB",
		"type": "RNAV",
		"updated": "02/23/2011",
	},
	{
		"name": "PLNET",
		"latitude": "34-54-50.34 N",
		"longitude": "106-36-0.06 W",
		"state": "NEW MEXICO",
		"artcc": "ZAB",
		"type": "RNAV",
		"updated": "11/25/2012",
	},
	{
		"name": "PLNZE",
		"latitude": "35-6-30.72 N",
		"longitude": "101-42-7.23 W",
		"state": "TEXAS",
		"artcc": "ZAB",
		"type": "RNAV",
		"updated": "08/18/2017",
	},
	{
		"name": "PLODD",
		"latitude": "34-14-13.86 N",
		"longitude": "102-57-57.55 W",
		"state": "TEXAS",
		"artcc": "ZAB",
		"type": "RNAV",
		"updated": "07/20/2004",
	},
	{
		"name": "PNYON",
		"latitude": "35-2-15.01 N",
		"longitude": "107-16-2.96 W",
		"state": "NEW MEXICO",
		"artcc": "ZAB",
		"type": "RNAV",
		"updated": "03/06/2014",
	},
	{
		"name": "POAKE",
		"latitude": "35-54-18.46 N",
		"longitude": "106-0-40.65 W",
		"state": "NEW MEXICO",
		"artcc": "ZAB",
		"type": "RP",
		"updated": "SAF*VORTAC*353.83/22.00",
	},
	{
		"name": "POBUE",
		"latitude": "34-17-57.39 N",
		"longitude": "109-50-49.26 W",
		"state": "ARIZONA",
		"artcc": "ZAB",
		"type": "RNAV",
		"updated": "01/26/2011",
	},
	{
		"name": "POCCK",
		"latitude": "33-47-47.26 N",
		"longitude": "111-47-22.62 W",
		"state": "ARIZONA",
		"artcc": "ZAB",
		"type": "RNAV",
		"updated": "08/12/2014",
	},
	{
		"name": "POCIB",
		"latitude": "32-11-42.36 N",
		"longitude": "111-1-55.96 W",
		"state": "ARIZONA",
		"artcc": "ZAB",
		"type": "RP",
		"updated": "TUS*VORTAC*303.05/8.46",
	},
	{
		"name": "PODRY",
		"latitude": "33-39-30.91 N",
		"longitude": "112-9-49.88 W",
		"state": "ARIZONA",
		"artcc": "ZAB",
		"type": "RNAV",
		"updated": "09/19/2014",
	},
	{
		"name": "POMBE",
		"latitude": "35-36-31.8 N",
		"longitude": "109-6-11.36 W",
		"state": "ARIZONA",
		"artcc": "ZAB",
		"type": "RNAV",
		"updated": "07/18/2011",
	},
	{
		"name": "PONUE",
		"latitude": "31-18-3.07 N",
		"longitude": "104-44-55.64 W",
		"state": "TEXAS",
		"artcc": "ZAB",
		"type": "RNAV",
		"updated": "08/05/2003",
	},
	{
		"name": "POPKE",
		"latitude": "33-11-1.19 N",
		"longitude": "111-56-31.43 W",
		"state": "ARIZONA",
		"artcc": "ZAB",
		"type": "RP",
		"updated": "PXR*VORTAC*162.58/15.00",
	},
	{
		"name": "PORCU",
		"latitude": "35-5-59.31 N",
		"longitude": "102-17-10.45 W",
		"state": "TEXAS",
		"artcc": "ZAB",
		"type": "RP",
		"updated": "PNH*VORTAC*246.50/30.00",
	},
	{
		"name": "POSLE",
		"latitude": "32-15-2.97 N",
		"longitude": "110-58-28.8 W",
		"state": "ARIZONA",
		"artcc": "ZAB",
		"type": "MR",
		"updated": "DMA*TACAN*/7.24",
	},
	{
		"name": "POTER",
		"latitude": "32-54-35.48 N",
		"longitude": "112-9-49.91 W",
		"state": "ARIZONA",
		"artcc": "ZAB",
		"type": "RP",
		"updated": "PXR*VORTAC*185.35/32.81",
	},
	{
		"name": "POURS",
		"latitude": "34-3-59.85 N",
		"longitude": "111-55-48.63 W",
		"state": "ARIZONA",
		"artcc": "ZAB",
		"type": "RP",
		"updated": "PXR*VORTAC*351.01/38.00",
	},
	{
		"name": "POYOH",
		"latitude": "35-14-26.22 N",
		"longitude": "106-23-51.88 W",
		"state": "NEW MEXICO",
		"artcc": "ZAB",
		"type": "RNAV",
		"updated": "11/19/2012",
	},
	{
		"name": "PREVE",
		"latitude": "35-15-51.28 N",
		"longitude": "101-34-54.88 W",
		"state": "TEXAS",
		"artcc": "ZAB",
		"type": "RNAV",
		"updated": "08/18/2017",
	},
	{
		"name": "PRIMY",
		"latitude": "33-26-26.75 N",
		"longitude": "111-56-49.12 W",
		"state": "ARIZONA",
		"artcc": "ZAB",
		"type": "RNAV",
		"updated": "09/04/2001",
	},
	{
		"name": "PRISO",
		"latitude": "31-57-1.62 N",
		"longitude": "106-11-29.48 W",
		"state": "TEXAS",
		"artcc": "ZAB",
		"type": "RP",
		"updated": "EWM*VORTAC*079.05",
	},
	{
		"name": "PRRES",
		"latitude": "34-22-56.12 N",
		"longitude": "110-8-19.66 W",
		"state": "ARIZONA",
		"artcc": "ZAB",
		"type": "RNAV",
		"updated": "04/03/2012",
	},
	{
		"name": "PRUNN",
		"latitude": "33-26-26.31 N",
		"longitude": "111-52-50.23 W",
		"state": "ARIZONA",
		"artcc": "ZAB",
		"type": "RP",
		"updated": "CWJ*LD*078.08/7.66",
	},
	{
		"name": "PUDRE",
		"latitude": "31-48-4.71 N",
		"longitude": "106-24-0.66 W",
		"state": "TEXAS",
		"artcc": "ZAB",
		"type": "RNAV",
		"updated": "11/01/2001",
	},
	{
		"name": "PUGDE",
		"latitude": "31-51-15.75 N",
		"longitude": "110-30-10.74 W",
		"state": "ARIZONA",
		"artcc": "ZAB",
		"type": "RNAV",
		"updated": "07/18/2011",
	},
	{
		"name": "PUKRE",
		"latitude": "33-13-41.06 N",
		"longitude": "111-38-38.37 W",
		"state": "ARIZONA",
		"artcc": "ZAB",
		"type": "RNAV",
		"updated": "12/01/2010",
	},
	{
		"name": "PUKTE",
		"latitude": "35-9-30.53 N",
		"longitude": "101-48-37.75 W",
		"state": "TEXAS",
		"artcc": "ZAB",
		"type": "RNAV",
		"updated": "08/18/2017",
	},
	{
		"name": "PULBE",
		"latitude": "35-7-24.66 N",
		"longitude": "101-40-57.6 W",
		"state": "TEXAS",
		"artcc": "ZAB",
		"type": "RNAV",
		"updated": "05/13/2015",
	},
	{
		"name": "PUNNT",
		"latitude": "33-19-46.88 N",
		"longitude": "112-41-24.96 W",
		"state": "ARIZONA",
		"artcc": "ZAB",
		"type": "RNAV",
		"updated": "10/28/2011",
	},
	{
		"name": "PURCH",
		"latitude": "33-25-51.82 N",
		"longitude": "112-3-25.1 W",
		"state": "ARIZONA",
		"artcc": "ZAB",
		"type": "RP",
		"updated": "PHX*LD*W CRS/3.43",
	},
	{
		"name": "PUROO",
		"latitude": "34-50-34.67 N",
		"longitude": "112-26-51.81 W",
		"state": "ARIZONA",
		"artcc": "ZAB",
		"type": "WP",
		"updated": "DRK*VORTAC*356.81/8.56",
	},
	{
		"name": "PUSCH",
		"latitude": "32-24-1.68 N",
		"longitude": "110-53-7.48 W",
		"state": "ARIZONA",
		"artcc": "ZAB",
		"type": "RP",
		"updated": "TUS*VORTAC*352.68",
	},
	{
		"name": "PYPPE",
		"latitude": "33-15-35.06 N",
		"longitude": "111-55-55.66 W",
		"state": "ARIZONA",
		"artcc": "ZAB",
		"type": "RNAV",
		"updated": "03/30/2018",
	},
	{
		"name": "PYRIT",
		"latitude": "34-52-10.39 N",
		"longitude": "110-30-41.16 W",
		"state": "ARIZONA",
		"artcc": "ZAB",
		"type": "RP",
		"updated": "ZUN*VORTAC*251.47/67.20",
	},
