[
	{
		"name": "QALIB",
		"latitude": "33-26-26.95 N",
		"longitude": "111-59-26.88 W",
		"state": "ARIZONA",
		"artcc": "ZAB",
		"type": "WP",
		"updated": "11/02/1998"
	},
	{
		"name": "QAQCE",
		"latitude": "33-25-51.24 N",
		"longitude": "112-18-43.74 W",
		"state": "ARIZONA",
		"artcc": "ZAB",
		"type": "CN",
		"updated": "04/28/2011"
	},
	{
		"name": "QUAKY",
		"latitude": "34-5-27.51 N",
		"longitude": "111-56-8.08 W",
		"state": "ARIZONA",
		"artcc": "ZAB",
		"type": "RNAV",
		"updated": "08/12/2014"
	},
	{
		"name": "QUANA",
		"latitude": "35-10-27.09 N",
		"longitude": "101-33-50.33 W",
		"state": "TEXAS",
		"artcc": "ZAB",
		"type": "RNAV",
		"updated": "08/18/2017"
	},
	{
		"name": "QUENY",
		"latitude": "33-37-29.28 N",
		"longitude": "111-53-13.87 W",
		"state": "ARIZONA",
		"artcc": "ZAB",
		"type": "RNAV",
		"updated": "08/08/2014"
	},
	{
		"name": "QUIKK",
		"latitude": "32-18-57.03 N",
		"longitude": "111-15-37.42 W",
		"state": "ARIZONA",
		"artcc": "ZAB",
		"type": "MR",
		"updated": "TUS*VORTAC*295.00/22.00"
	},
	{
		"name": "QURTR",
		"latitude": "35-18-44.33 N",
		"longitude": "101-45-0.67 W",
		"state": "TEXAS",
		"artcc": "ZAB",
		"type": "RNAV",
		"updated": "05/13/2015"
	},
	{
		"name": "QURTZ",
		"latitude": "33-34-0.45 N",
		"longitude": "110-47-6.24 W",
		"state": "ARIZONA",
		"artcc": "ZAB",
		"type": "RP",
		"updated": "PXR*VORTAC*070.00/60.00"
	},
	{
		"name": "QWERK",
		"latitude": "33-17-55.51 N",
		"longitude": "111-33-7.74 W",
		"state": "ARIZONA",
		"artcc": "ZAB",
		"type": "MR",
		"updated": "IWA*VORTAC*080.00/5.00"
	}
]
