[
	{
		"name": "SABLE",
		"latitude": "33-36-33.31 N",
		"longitude": "113-15-55.66 W",
		"state": "ARIZONA",
		"artcc": "ZAB",
		"type": "MR",
		"updated": "BXK*VORTAC*279.00/24.00"
	},
	{
		"name": "SACAT",
		"latitude": "33-15-22.75 N",
		"longitude": "111-52-26.75 W",
		"state": "ARIZONA",
		"artcc": "ZAB",
		"type": "RP",
		"updated": "PXR*VORTAC*143.44/11.63"
	},
	{
		"name": "SACBO",
		"latitude": "35-40-11.74 N",
		"longitude": "106-3-28.78 W",
		"state": "NEW MEXICO",
		"artcc": "ZAB",
		"type": "RNAV",
		"updated": "10/31/2016"
	},
	{
		"name": "SADLL",
		"latitude": "33-16-0.53 N",
		"longitude": "113-20-42.4 W",
		"state": "ARIZONA",
		"artcc": "ZAB",
		"type": "RP",
		"updated": "IWA*VORTAC*256.00/85.21"
	},
	{
		"name": "SAENT",
		"latitude": "33-36-0.58 N",
		"longitude": "111-53-31.4 W",
		"state": "ARIZONA",
		"artcc": "ZAB",
		"type": "RP",
		"updated": "IWA*VORTAC*312.88/21.50"
	},
	{
		"name": "SAKOY",
		"latitude": "34-30-45.81 N",
		"longitude": "109-22-25.84 W",
		"state": "ARIZONA",
		"artcc": "ZAB",
		"type": "RP",
		"updated": "SJN*VORTAC*283.00/12.60"
	},
	{
		"name": "SALGE",
		"latitude": "35-4-58.77 N",
		"longitude": "105-40-7.02 W",
		"state": "NEW MEXICO",
		"artcc": "ZAB",
		"type": "RNAV",
		"updated": "04/19/2016"
	},
	{
		"name": "SALOM",
		"latitude": "33-30-58.25 N",
		"longitude": "113-53-19.93 W",
		"state": "ARIZONA",
		"artcc": "ZAB",
		"type": "RP",
		"updated": "GBN*VORTAC*285.08"
	},
	{
		"name": "SALTS",
		"latitude": "33-56-21.38 N",
		"longitude": "110-33-27.4 W",
		"state": "ARIZONA",
		"artcc": "ZAB",
		"type": "RP",
		"updated": "SJN*VORTAC*235.98/76.14"
	},
	{
		"name": "SAMMR",
		"latitude": "31-52-22.38 N",
		"longitude": "105-54-19.52 W",
		"state": "TEXAS",
		"artcc": "ZAB",
		"type": "RNAV",
		"updated": "11/22/2011"
	},
	{
		"name": "SAPPS",
		"latitude": "32-47-9.87 N",
		"longitude": "112-37-25.66 W",
		"state": "ARIZONA",
		"artcc": "ZAB",
		"type": "MR",
		"updated": "IWA*VORTAC*225.00/58.00"
	},
	{
		"name": "SARRT",
		"latitude": "31-51-54.19 N",
		"longitude": "106-7-24.09 W",
		"state": "TEXAS",
		"artcc": "ZAB",
		"type": "RNAV",
		"updated": "12/06/2011"
	},
	{
		"name": "SARTE",
		"latitude": "33-26-26.06 N",
		"longitude": "112-25-41.34 W",
		"state": "ARIZONA",
		"artcc": "ZAB",
		"type": "RP",
		"updated": "SYQ*LD*258.06/21.91"
	},
	{
		"name": "SASME",
		"latitude": "32-24-4.37 N",
		"longitude": "110-59-9.13 W",
		"state": "ARIZONA",
		"artcc": "ZAB",
		"type": "RNAV",
		"updated": "04/06/2001"
	},
	{
		"name": "SATRN",
		"latitude": "33-7-57.66 N",
		"longitude": "111-17-18.31 W",
		"state": "ARIZONA",
		"artcc": "ZAB",
		"type": "RP",
		"updated": "BXK*VORTAC*089.54/79.61"
	},
	{
		"name": "SAXIE",
		"latitude": "32-2-22.72 N",
		"longitude": "110-50-59.11 W",
		"state": "ARIZONA",
		"artcc": "ZAB",
		"type": "RNAV",
		"updated": "06/02/2006"
	},
	{
		"name": "SAYKA",
		"latitude": "36-35-57.71 N",
		"longitude": "104-41-45.24 W",
		"state": "NEW MEXICO",
		"artcc": "ZAB",
		"type": "RP",
		"updated": "CIM*VORTAC*039.72/10.69"
	},
	{
		"name": "SAZAR",
		"latitude": "31-54-6.19 N",
		"longitude": "106-45-56.39 W",
		"state": "NEW MEXICO",
		"artcc": "ZAB",
		"type": "RNAV",
		"updated": "09/19/2005"
	},
	{
		"name": "SCADE",
		"latitude": "33-25-43.47 N",
		"longitude": "111-53-21.2 W",
		"state": "ARIZONA",
		"artcc": "ZAB",
		"type": "RP",
		"updated": "RJG*LD*078.03/5.46"
	},
	{
		"name": "SDUNX",
		"latitude": "35-13-38.5 N",
		"longitude": "106-52-28.22 W",
		"state": "NEW MEXICO",
		"artcc": "ZAB",
		"type": "RNAV",
		"updated": "03/21/2014"
	},
	{
		"name": "SEASU",
		"latitude": "33-39-26.14 N",
		"longitude": "111-46-39.33 W",
		"state": "ARIZONA",
		"artcc": "ZAB",
		"type": "RNAV",
		"updated": "12/28/2001"
	},
	{
		"name": "SEBOC",
		"latitude": "32-45-11.41 N",
		"longitude": "109-35-0.96 W",
		"state": "ARIZONA",
		"artcc": "ZAB",
		"type": "RNAV",
		"updated": "05/05/2010"
	},
	{
		"name": "SEBPO",
		"latitude": "33-5-6.89 N",
		"longitude": "104-37-18.53 W",
		"state": "NEW MEXICO",
		"artcc": "ZAB",
		"type": "RNAV",
		"updated": "02/06/2014"
	},
	{
		"name": "SEBTE",
		"latitude": "29-38-11.69 N",
		"longitude": "104-18-42.28 W",
		"state": "TEXAS",
		"artcc": "ZAB",
		"type": "RNAV",
		"updated": "02/26/2014"
	},
	{
		"name": "SECBO",
		"latitude": "32-30-12.18 N",
		"longitude": "111-15-46.92 W",
		"state": "ARIZONA",
		"artcc": "ZAB",
		"type": "RNAV",
		"updated": "07/19/2011"
	},
	{
		"name": "SECKA",
		"latitude": "33-11-45.66 N",
		"longitude": "112-6-39.77 W",
		"state": "ARIZONA",
		"artcc": "ZAB",
		"type": "RP",
		"updated": "PXR*VORTAC*194.56"
	},
	{
		"name": "SECRO",
		"latitude": "35-40-46.78 N",
		"longitude": "106-6-27.22 W",
		"state": "NEW MEXICO",
		"artcc": "ZAB",
		"type": "RNAV",
		"updated": "10/31/2016"
	},
	{
		"name": "SEELI",
		"latitude": "33-25-50.44 N",
		"longitude": "111-46-8.2 W",
		"state": "ARIZONA",
		"artcc": "ZAB",
		"type": "RP",
		"updated": "PXR*VORTAC*078.74"
	},
	{
		"name": "SEENO",
		"latitude": "31-54-52.71 N",
		"longitude": "111-45-3.12 W",
		"state": "ARIZONA",
		"artcc": "ZAB",
		"type": "WP",
		"updated": "TUS*VORTAC*244.00/44.00"
	},
	{
		"name": "SEKBE",
		"latitude": "32-32-58.79 N",
		"longitude": "107-1-13.96 W",
		"state": "NEW MEXICO",
		"artcc": "ZAB",
		"type": "RNAV",
		"updated": "02/14/2014"
	},
	{
		"name": "SEKEE",
		"latitude": "32-2-5.38 N",
		"longitude": "106-54-48.63 W",
		"state": "NEW MEXICO",
		"artcc": "ZAB",
		"type": "RNAV",
		"updated": "12/19/2011"
	},
	{
		"name": "SELPE",
		"latitude": "34-34-40.56 N",
		"longitude": "103-7-30.92 W",
		"state": "NEW MEXICO",
		"artcc": "ZAB",
		"type": "RP",
		"updated": "TXO*VORTAC*278.39/15.00"
	},
	{
		"name": "SEMRE",
		"latitude": "32-11-13.81 N",
		"longitude": "107-14-5.69 W",
		"state": "NEW MEXICO",
		"artcc": "ZAB",
		"type": "RP",
		"updated": "DMN*VORTAC*093.57/19.59"
	},
	{
		"name": "SERRA",
		"latitude": "31-35-15.84 N",
		"longitude": "110-13-43.62 W",
		"state": "ARIZONA",
		"artcc": "ZAB",
		"type": "RP",
		"updated": "ARH*TACAN*/5.65"
	},
	{
		"name": "SEZCY",
		"latitude": "34-59-29.92 N",
		"longitude": "111-49-37.75 W",
		"state": "ARIZONA",
		"artcc": "ZAB",
		"type": "RNAV",
		"updated": "06/09/2010"
	},
	{
		"name": "SEZUW",
		"latitude": "33-9-56.3 N",
		"longitude": "111-29-44.64 W",
		"state": "ARIZONA",
		"artcc": "ZAB",
		"type": "WP",
		"updated": "10/28/2011"
	},
	{
		"name": "SHEFF",
		"latitude": "35-12-55.77 N",
		"longitude": "111-26-41.26 W",
		"state": "ARIZONA",
		"artcc": "ZAB",
		"type": "RP",
		"updated": "FLG*VOR/DME*056.00/12.00"
	},
	{
		"name": "SHOCK",
		"latitude": "34-5-54.81 N",
		"longitude": "111-46-14.52 W",
		"state": "ARIZONA",
		"artcc": "ZAB",
		"type": "RP",
		"updated": "PXR*VORTAC*002.00/41.09"
	},
	{
		"name": "SHORR",
		"latitude": "32-25-22.42 N",
		"longitude": "111-7-24.09 W",
		"state": "ARIZONA",
		"artcc": "ZAB",
		"type": "MR",
		"updated": "DMA*TACAN*310.00/20.00"
	},
	{
		"name": "SHWNA",
		"latitude": "34-53-14.06 N",
		"longitude": "106-57-21.57 W",
		"state": "NEW MEXICO",
		"artcc": "ZAB",
		"type": "RNAV",
		"updated": "11/25/2012"
	},
	{
		"name": "SHYLY",
		"latitude": "33-17-10.96 N",
		"longitude": "106-59-18.38 W",
		"state": "NEW MEXICO",
		"artcc": "ZAB",
		"type": "MR",
		"updated": "TCS*VORTAC*076.00/14.70"
	},
	{
		"name": "SIBPO",
		"latitude": "33-12-3.42 N",
		"longitude": "104-32-22.16 W",
		"state": "NEW MEXICO",
		"artcc": "ZAB",
		"type": "RNAV",
		"updated": "07/31/2006"
	},
	{
		"name": "SIDER",
		"latitude": "35-8-42.78 N",
		"longitude": "102-5-26.55 W",
		"state": "TEXAS",
		"artcc": "ZAB",
		"type": "RP",
		"updated": "DHT*VORTAC*146.48"
	},
	{
		"name": "SIIXX",
		"latitude": "35-15-58.16 N",
		"longitude": "101-44-15.68 W",
		"state": "TEXAS",
		"artcc": "ZAB",
		"type": "RNAV",
		"updated": "08/18/2017"
	},
	{
		"name": "SILOW",
		"latitude": "34-32-37.68 N",
		"longitude": "111-32-1.66 W",
		"state": "ARIZONA",
		"artcc": "ZAB",
		"type": "RP",
		"updated": "PXR*VORTAC*006.00/70.00"
	},
	{
		"name": "SIMSS",
		"latitude": "34-57-47.62 N",
		"longitude": "106-32-1.49 W",
		"state": "NEW MEXICO",
		"artcc": "ZAB",
		"type": "RNAV",
		"updated": "06/06/2017"
	},
	{
		"name": "SIPDE",
		"latitude": "33-4-15.71 N",
		"longitude": "104-19-44.36 W",
		"state": "NEW MEXICO",
		"artcc": "ZAB",
		"type": "RNAV",
		"updated": "02/06/2014"
	},
	{
		"name": "SISIE",
		"latitude": "34-59-5.16 N",
		"longitude": "113-20-17.17 W",
		"state": "ARIZONA",
		"artcc": "ZAB",
		"type": "RP",
		"updated": "DRK*VORTAC*278.00/45.61"
	},
	{
		"name": "SIXTY",
		"latitude": "35-19-37.07 N",
		"longitude": "101-44-3.79 W",
		"state": "TEXAS",
		"artcc": "ZAB",
		"type": "RNAV",
		"updated": "08/18/2017"
	},
	{
		"name": "SIZVU",
		"latitude": "33-13-51.41 N",
		"longitude": "112-3-0.18 W",
		"state": "ARIZONA",
		"artcc": "ZAB",
		"type": "RNAV",
		"updated": "03/15/2001"
	},
	{
		"name": "SKEEN",
		"latitude": "32-52-58.45 N",
		"longitude": "105-19-4.52 W",
		"state": "NEW MEXICO",
		"artcc": "ZAB",
		"type": "MR",
		"updated": "HMN*TACAN*078.00/40.00"
	},
	{
		"name": "SKIIR",
		"latitude": "31-52-32.28 N",
		"longitude": "105-28-57.4 W",
		"state": "TEXAS",
		"artcc": "ZAB",
		"type": "RNAV",
		"updated": "12/06/2011"
	},
	{
		"name": "SKTTR",
		"latitude": "32-17-38 N",
		"longitude": "109-50-44 W",
		"state": "ARIZONA",
		"artcc": "ZAB",
		"type": "RNAV",
		"updated": "10/06/2005"
	},
	{
		"name": "SLAMN",
		"latitude": "32-44-26.15 N",
		"longitude": "111-15-36.16 W",
		"state": "ARIZONA",
		"artcc": "ZAB",
		"type": "RP",
		"updated": "PXR*VORTAC*127.00/54.79"
	},
	{
		"name": "SLDER",
		"latitude": "35-15-55.34 N",
		"longitude": "101-39-24 W",
		"state": "TEXAS",
		"artcc": "ZAB",
		"type": "RNAV",
		"updated": "08/18/2017"
	},
	{
		"name": "SLIDR",
		"latitude": "34-42-27.42 N",
		"longitude": "109-51-26.39 W",
		"state": "ARIZONA",
		"artcc": "ZAB",
		"type": "RP",
		"updated": "ZUN*VORTAC*232.19/38.00"
	},
	{
		"name": "SLIEE",
		"latitude": "33-24-25.92 N",
		"longitude": "111-39-41.65 W",
		"state": "ARIZONA",
		"artcc": "ZAB",
		"type": "RNAV",
		"updated": "05/28/2010"
	},
	{
		"name": "SLIMY",
		"latitude": "33-50-59.56 N",
		"longitude": "111-56-38.46 W",
		"state": "ARIZONA",
		"artcc": "ZAB",
		"type": "RP",
		"updated": "PXR*VORTAC*351.00/25.00"
	},
	{
		"name": "SLNNK",
		"latitude": "33-19-36 N",
		"longitude": "107-17-26.07 W",
		"state": "NEW MEXICO",
		"artcc": "ZAB",
		"type": "RNAV",
		"updated": "02/14/2014"
	},
	{
		"name": "SMALL",
		"latitude": "34-46-35.29 N",
		"longitude": "112-11-48.29 W",
		"state": "ARIZONA",
		"artcc": "ZAB",
		"type": "RNAV",
		"updated": "08/08/2014"
	},
	{
		"name": "SNAAK",
		"latitude": "34-45-53.65 N",
		"longitude": "111-46-51.98 W",
		"state": "ARIZONA",
		"artcc": "ZAB",
		"type": "RP",
		"updated": "FLG*VOR/DME*179.00/23.50"
	},
	{
		"name": "SNDIA",
		"latitude": "35-35-37.42 N",
		"longitude": "106-34-35.33 W",
		"state": "NEW MEXICO",
		"artcc": "ZAB",
		"type": "RNAV",
		"updated": "11/25/2012"
	},
	{
		"name": "SNEWP",
		"latitude": "34-54-50.79 N",
		"longitude": "105-29-30.4 W",
		"state": "NEW MEXICO",
		"artcc": "ZAB",
		"type": "RNAV",
		"updated": "11/25/2012"
	},
	{
		"name": "SNOBL",
		"latitude": "34-25-50.94 N",
		"longitude": "111-58-23.17 W",
		"state": "ARIZONA",
		"artcc": "ZAB",
		"type": "RNAV",
		"updated": "08/12/2014"
	},
	{
		"name": "SNOWL",
		"latitude": "33-13-41.98 N",
		"longitude": "111-33-42.55 W",
		"state": "ARIZONA",
		"artcc": "ZAB",
		"type": "RP",
		"updated": "PXR*VORTAC*108.73"
	},
	{
		"name": "SNRRA",
		"latitude": "33-20-14.07 N",
		"longitude": "113-27-38.72 W",
		"state": "ARIZONA",
		"artcc": "ZAB",
		"type": "RNAV",
		"updated": "12/02/2010"
	},
	{
		"name": "SNTRS",
		"latitude": "32-4-17.72 N",
		"longitude": "106-36-33.65 W",
		"state": "NEW MEXICO",
		"artcc": "ZAB",
		"type": "RNAV",
		"updated": "02/14/2014"
	},
	{
		"name": "SOLBE",
		"latitude": "35-9-4.45 N",
		"longitude": "111-39-27.43 W",
		"state": "ARIZONA",
		"artcc": "ZAB",
		"type": "RP",
		"updated": "FLG*VOR/DME*/0.85"
	},
	{
		"name": "SONRA",
		"latitude": "33-17-3.3 N",
		"longitude": "111-3-19.32 W",
		"state": "ARIZONA",
		"artcc": "ZAB",
		"type": "MR",
		"updated": "IWA*VORTAC*079.00/30.00"
	},
	{
		"name": "SOPKE",
		"latitude": "35-40-51.14 N",
		"longitude": "105-7-10.32 W",
		"state": "NEW MEXICO",
		"artcc": "ZAB",
		"type": "RNAV",
		"updated": "02/25/2005"
	},
	{
		"name": "SOPLE",
		"latitude": "34-14-25.19 N",
		"longitude": "103-9-31.08 W",
		"state": "NEW MEXICO",
		"artcc": "ZAB",
		"type": "MW",
		"updated": "02/14/2010"
	},
	{
		"name": "SOPPA",
		"latitude": "34-40-50.48 N",
		"longitude": "106-34-16.42 W",
		"state": "NEW MEXICO",
		"artcc": "ZAB",
		"type": "RNAV",
		"updated": "11/25/2012"
	},
	{
		"name": "SOQSY",
		"latitude": "33-51-45.47 N",
		"longitude": "111-52-17.73 W",
		"state": "ARIZONA",
		"artcc": "ZAB",
		"type": "RNAV",
		"updated": "04/06/2005"
	},
	{
		"name": "SOVOY",
		"latitude": "35-42-27.94 N",
		"longitude": "101-11-55.01 W",
		"state": "TEXAS",
		"artcc": "ZAB",
		"type": "RNAV",
		"updated": "07/08/2008"
	},
	{
		"name": "SOWAR",
		"latitude": "34-58-55.18 N",
		"longitude": "105-52-22.31 W",
		"state": "NEW MEXICO",
		"artcc": "ZAB",
		"type": "RNAV",
		"updated": "04/19/2016"
	},
	{
		"name": "SPEDY",
		"latitude": "35-6-43.82 N",
		"longitude": "106-53-47.36 W",
		"state": "NEW MEXICO",
		"artcc": "ZAB",
		"type": "RNAV",
		"updated": "03/06/2014"
	},
	{
		"name": "SPINK",
		"latitude": "33-26-7.9 N",
		"longitude": "113-56-46.51 W",
		"state": "ARIZONA",
		"artcc": "ZAB",
		"type": "RNAV",
		"updated": "10/28/2011"
	},
	{
		"name": "SPLIT",
		"latitude": "31-36-18.72 N",
		"longitude": "110-43-38 W",
		"state": "ARIZONA",
		"artcc": "ZAB",
		"type": "MR",
		"updated": "ARH*TACAN*261.48/19.93"
	},
	{
		"name": "SPLTZ",
		"latitude": "31-57-31.63 N",
		"longitude": "110-57-7.71 W",
		"state": "ARIZONA",
		"artcc": "ZAB",
		"type": "RNAV",
		"updated": "07/09/2007"
	},
	{
		"name": "SPNGS",
		"latitude": "33-31-30.1 N",
		"longitude": "106-0-42.94 W",
		"state": "NEW MEXICO",
		"artcc": "ZAB",
		"type": "MR",
		"updated": "HMN*TACAN*357.00/40.00"
	},
	{
		"name": "SPRKY",
		"latitude": "33-26-9.01 N",
		"longitude": "111-53-27.82 W",
		"state": "ARIZONA",
		"artcc": "ZAB",
		"type": "RNAV",
		"updated": "08/12/2014"
	},
	{
		"name": "SPRUL",
		"latitude": "31-9-0 N",
		"longitude": "104-23-0 W",
		"state": "TEXAS",
		"artcc": "ZAB",
		"type": "RNAV",
		"updated": "01/17/2007"
	},
	{
		"name": "SPTFR",
		"latitude": "33-23-49 N",
		"longitude": "113-43-29 W",
		"state": "ARIZONA",
		"artcc": "ZAB",
		"type": "RNAV",
		"updated": "10/04/2005"
	},
	{
		"name": "SQUEZ",
		"latitude": "32-59-55.44 N",
		"longitude": "111-23-58.32 W",
		"state": "ARIZONA",
		"artcc": "ZAB",
		"type": "RP",
		"updated": "PXR*VORTAC*120.00/38.75"
	},
	{
		"name": "SSAND",
		"latitude": "32-9-33.39 N",
		"longitude": "110-19-51.22 W",
		"state": "ARIZONA",
		"artcc": "ZAB",
		"type": "RP",
		"updated": "TUS*VORTAC*070.49/30.00"
	},
	{
		"name": "SSBEE",
		"latitude": "35-16-47.62 N",
		"longitude": "101-46-53.02 W",
		"state": "TEXAS",
		"artcc": "ZAB",
		"type": "RNAV",
		"updated": "08/18/2017"
	},
	{
		"name": "SSKYE",
		"latitude": "35-51-41.38 N",
		"longitude": "107-30-6.42 W",
		"state": "NEW MEXICO",
		"artcc": "ZAB",
		"type": "RNAV",
		"updated": "03/21/2014"
	},
	{
		"name": "STAFO",
		"latitude": "34-31-41.51 N",
		"longitude": "102-59-49.25 W",
		"state": "TEXAS",
		"artcc": "ZAB",
		"type": "MW",
		"updated": "07/26/2011"
	},
	{
		"name": "STIKI",
		"latitude": "34-57-7.97 N",
		"longitude": "106-42-31.9 W",
		"state": "NEW MEXICO",
		"artcc": "ZAB",
		"type": "RNAV",
		"updated": "03/21/2014"
	},
	{
		"name": "STIKS",
		"latitude": "34-12-30.88 N",
		"longitude": "103-34-7.25 W",
		"state": "NEW MEXICO",
		"artcc": "ZAB",
		"type": "MR",
		"updated": "CVS*TACAN*218.00/16.00"
	},
	{
		"name": "STONE",
		"latitude": "31-50-51.27 N",
		"longitude": "109-58-45.33 W",
		"state": "ARIZONA",
		"artcc": "ZAB",
		"type": "MW",
		"updated": "TUS*VORTAC*095.00/50.00"
	},
	{
		"name": "STONY",
		"latitude": "34-45-44.59 N",
		"longitude": "107-12-27.73 W",
		"state": "NEW MEXICO",
		"artcc": "ZAB",
		"type": "RP",
		"updated": "ONM*VORTAC*310.00"
	},
	{
		"name": "STRRM",
		"latitude": "32-53-10.57 N",
		"longitude": "111-54-32.21 W",
		"state": "ARIZONA",
		"artcc": "ZAB",
		"type": "RNAV",
		"updated": "03/30/2018"
	},
	{
		"name": "SUGOE",
		"latitude": "36-5-41.04 N",
		"longitude": "101-24-0.46 W",
		"state": "TEXAS",
		"artcc": "ZAB",
		"type": "RNAV",
		"updated": "10/28/2008"
	},
	{
		"name": "SULFR",
		"latitude": "31-36-18.74 N",
		"longitude": "109-53-26.58 W",
		"state": "ARIZONA",
		"artcc": "ZAB",
		"type": "MW",
		"updated": "TUS*VORTAC*107.00/60.00"
	},
	{
		"name": "SULLI",
		"latitude": "31-56-3.77 N",
		"longitude": "110-34-16.46 W",
		"state": "ARIZONA",
		"artcc": "ZAB",
		"type": "RP",
		"updated": "OLS*VOR/DME*012.49"
	},
	{
		"name": "SUMBE",
		"latitude": "33-5-14.63 N",
		"longitude": "105-48-59.82 W",
		"state": "NEW MEXICO",
		"artcc": "ZAB",
		"type": "MR",
		"updated": "HMN*TACAN*037.50/20.00"
	},
	{
		"name": "SUMMY",
		"latitude": "31-59-12.88 N",
		"longitude": "105-43-36.39 W",
		"state": "TEXAS",
		"artcc": "ZAB",
		"type": "RP",
		"updated": "CME*VORTAC*203.00/98.36"
	},
	{
		"name": "SUMVE",
		"latitude": "32-53-48.96 N",
		"longitude": "106-4-9.29 W",
		"state": "NEW MEXICO",
		"artcc": "ZAB",
		"type": "MR",
		"updated": "HMN*TACAN*034.00/2.90"
	},
	{
		"name": "SUNCY",
		"latitude": "33-41-9.73 N",
		"longitude": "112-6-38.94 W",
		"state": "ARIZONA",
		"artcc": "ZAB",
		"type": "MR",
		"updated": "LUF*TACAN*044.00/16.00"
	},
	{
		"name": "SUNEE",
		"latitude": "35-37-59.36 N",
		"longitude": "109-4-58.88 W",
		"state": "ARIZONA",
		"artcc": "ZAB",
		"type": "RP",
		"updated": "GUP*VORTAC*298.49/13.96"
	},
	{
		"name": "SUNSS",
		"latitude": "33-3-7.76 N",
		"longitude": "111-28-9.27 W",
		"state": "ARIZONA",
		"artcc": "ZAB",
		"type": "RP",
		"updated": "PXR*VORTAC*120.00/34.00"
	},
	{
		"name": "SUSIQ",
		"latitude": "31-59-25.06 N",
		"longitude": "107-1-36.83 W",
		"state": "NEW MEXICO",
		"artcc": "ZAB",
		"type": "RNAV",
		"updated": "09/19/2005"
	},
	{
		"name": "SUTBY",
		"latitude": "32-56-28.25 N",
		"longitude": "111-25-11.39 W",
		"state": "ARIZONA",
		"artcc": "ZAB",
		"type": "WP",
		"updated": "11/02/1998"
	},
	{
		"name": "SUTGE",
		"latitude": "35-55-51.44 N",
		"longitude": "106-1-8.69 W",
		"state": "NEW MEXICO",
		"artcc": "ZAB",
		"type": "RNAV",
		"updated": "04/05/2012"
	},
	{
		"name": "SWGNS",
		"latitude": "34-43-7.04 N",
		"longitude": "112-21-4.54 W",
		"state": "ARIZONA",
		"artcc": "ZAB",
		"type": "RP",
		"updated": "PRC*LD*028.29/5.92"
	},
	{
		"name": "SWIRL",
		"latitude": "34-11-59.87 N",
		"longitude": "111-55-18.57 W",
		"state": "ARIZONA",
		"artcc": "ZAB",
		"type": "RP",
		"updated": "PXR*VORTAC*351.00/46.00"
	},
	{
		"name": "SWOON",
		"latitude": "33-17-50.59 N",
		"longitude": "113-13-49.07 W",
		"state": "ARIZONA",
		"artcc": "ZAB",
		"type": "RNAV",
		"updated": "08/08/2014"
	}
]
