[
	{
		"name": "UCARO",
		"latitude": "35-55-59 N",
		"longitude": "101-58-24.05 W",
		"state": "TEXAS",
		"artcc": "ZAB",
		"type": "RNAV",
		"updated": "12/30/2009"
	},
	{
		"name": "UDECI",
		"latitude": "31-46-47.07 N",
		"longitude": "106-25-48.91 W",
		"state": "TEXAS",
		"artcc": "ZAB",
		"type": "RNAV",
		"updated": "04/02/2012"
	},
	{
		"name": "UDEVY",
		"latitude": "34-16-0.28 N",
		"longitude": "111-17-29.04 W",
		"state": "ARIZONA",
		"artcc": "ZAB",
		"type": "RNAV",
		"updated": "02/14/2000"
	},
	{
		"name": "UGAYA",
		"latitude": "31-55-32.67 N",
		"longitude": "106-19-30.99 W",
		"state": "TEXAS",
		"artcc": "ZAB",
		"type": "RNAV",
		"updated": "04/02/2014"
	},
	{
		"name": "UGETE",
		"latitude": "32-5-27.7 N",
		"longitude": "111-7-59.96 W",
		"state": "ARIZONA",
		"artcc": "ZAB",
		"type": "RNAV",
		"updated": "06/02/2006"
	},
	{
		"name": "UJZIN",
		"latitude": "36-31-47.67 N",
		"longitude": "105-46-4.37 W",
		"state": "NEW MEXICO",
		"artcc": "ZAB",
		"type": "RNAV",
		"updated": "09/26/2017"
	},
	{
		"name": "UKDEW",
		"latitude": "35-24-24.62 N",
		"longitude": "101-25-24.27 W",
		"state": "TEXAS",
		"artcc": "ZAB",
		"type": "RP",
		"updated": "BGD*VORTAC*173.82/24.06"
	},
	{
		"name": "UKITE",
		"latitude": "32-37-53.78 N",
		"longitude": "107-57-20.48 W",
		"state": "NEW MEXICO",
		"artcc": "ZAB",
		"type": "RNAV",
		"updated": "05/31/2006"
	},
	{
		"name": "UMGEH",
		"latitude": "36-13-33.83 N",
		"longitude": "102-32-49.38 W",
		"state": "TEXAS",
		"artcc": "ZAB",
		"type": "RNAV",
		"updated": "10/28/2013"
	},
	{
		"name": "UMHOB",
		"latitude": "35-8-35.97 N",
		"longitude": "101-10-36.53 W",
		"state": "TEXAS",
		"artcc": "ZAB",
		"type": "RNAV",
		"updated": "04/14/2011"
	},
	{
		"name": "UNCIR",
		"latitude": "35-2-43.16 N",
		"longitude": "106-48-3.68 W",
		"state": "NEW MEXICO",
		"artcc": "ZAB",
		"type": "RNAV",
		"updated": "03/21/2014"
	},
	{
		"name": "UNNOS",
		"latitude": "32-57-0 N",
		"longitude": "103-56-0 W",
		"state": "NEW MEXICO",
		"artcc": "ZAB",
		"type": "RNAV",
		"updated": "12/07/2005"
	},
	{
		"name": "UNOPE",
		"latitude": "33-0-16.48 N",
		"longitude": "104-38-50.58 W",
		"state": "NEW MEXICO",
		"artcc": "ZAB",
		"type": "RNAV",
		"updated": "02/14/2005"
	},
	{
		"name": "UNXIF",
		"latitude": "35-4-6.88 N",
		"longitude": "106-47-30.19 W",
		"state": "NEW MEXICO",
		"artcc": "ZAB",
		"type": "RNAV",
		"updated": "11/04/2015"
	},
	{
		"name": "UPEJI",
		"latitude": "34-40-44.88 N",
		"longitude": "112-0-25.71 W",
		"state": "ARIZONA",
		"artcc": "ZAB",
		"type": "RNAV",
		"updated": "03/21/2016"
	},
	{
		"name": "UPNIW",
		"latitude": "33-25-51.51 N",
		"longitude": "112-15-41.19 W",
		"state": "ARIZONA",
		"artcc": "ZAB",
		"type": "RNAV",
		"updated": "01/13/2009"
	},
	{
		"name": "USEYE",
		"latitude": "33-21-1.54 N",
		"longitude": "111-52-6.58 W",
		"state": "ARIZONA",
		"artcc": "ZAB",
		"type": "RNAV",
		"updated": "08/12/2014"
	},
	{
		"name": "UUTEP",
		"latitude": "31-35-18.84 N",
		"longitude": "105-47-56.31 W",
		"state": "TEXAS",
		"artcc": "ZAB",
		"type": "RNAV",
		"updated": "12/06/2011"
	},
	{
		"name": "UVISY",
		"latitude": "35-37-10.55 N",
		"longitude": "101-0-4.59 W",
		"state": "TEXAS",
		"artcc": "ZAB",
		"type": "RP",
		"updated": "BGD*VORTAC*110.00/21.74"
	},
	{
		"name": "UVIYO",
		"latitude": "33-25-48.36 N",
		"longitude": "111-35-37.9 W",
		"state": "ARIZONA",
		"artcc": "ZAB",
		"type": "RNAV",
		"updated": "01/13/2009"
	},
	{
		"name": "UXCUN",
		"latitude": "33-25-51.26 N",
		"longitude": "111-52-54.59 W",
		"state": "ARIZONA",
		"artcc": "ZAB",
		"type": "RNAV",
		"updated": "01/13/2009"
	},
	{
		"name": "UYOMU",
		"latitude": "35-14-19.87 N",
		"longitude": "101-41-23.89 W",
		"state": "TEXAS",
		"artcc": "ZAB",
		"type": "RP",
		"updated": "PNH*VORTAC*055.00/0.50"
	},
	{
		"name": "UYOSA",
		"latitude": "34-36-53.09 N",
		"longitude": "112-27-42.04 W",
		"state": "ARIZONA",
		"artcc": "ZAB",
		"type": "RNAV",
		"updated": "04/18/2014"
	}
]
