	{
		"name": "VAINE",
		"latitude": "31-56-7.85 N",
		"longitude": "110-43-40.89 W",
		"state": "ARIZONA",
		"artcc": "ZAB",
		"type": "RP",
		"updated": "TUS*VORTAC*123.04/13.50",
	},
	{
		"name": "VALTR",
		"latitude": "31-51-33.69 N",
		"longitude": "106-19-8.8 W",
		"state": "TEXAS",
		"artcc": "ZAB",
		"type": "RP",
		"updated": "ELP*LD*042.00/5.61",
	},
	{
		"name": "VALVE",
		"latitude": "31-29-59.75 N",
		"longitude": "110-54-39.14 W",
		"state": "ARIZONA",
		"artcc": "ZAB",
		"type": "RP",
		"updated": "OLS*VOR/DME*316.00/6.00",
	},
	{
		"name": "VANSS",
		"latitude": "34-2-0 N",
		"longitude": "103-34-0 W",
		"state": "NEW MEXICO",
		"artcc": "ZAB",
		"type": "RNAV",
		"updated": "08/22/2005",
	},
	{
		"name": "VASSY",
		"latitude": "35-6-34.7 N",
		"longitude": "101-46-39.09 W",
		"state": "TEXAS",
		"artcc": "ZAB",
		"type": "RNAV",
		"updated": "08/18/2017",
	},
	{
		"name": "VECUT",
		"latitude": "35-43-22.24 N",
		"longitude": "106-2-17.41 W",
		"state": "NEW MEXICO",
		"artcc": "ZAB",
		"type": "RP",
		"updated": "SAF*VORTAC*353.83/11.00",
	},
	{
		"name": "VEDTU",
		"latitude": "32-0-56.61 N",
		"longitude": "110-33-29.15 W",
		"state": "ARIZONA",
		"artcc": "ZAB",
		"type": "RP",
		"updated": "DMA*TACAN*106.00/18.58",
	},
	{
		"name": "VEEVA",
		"latitude": "32-55-34.72 N",
		"longitude": "106-7-51.43 W",
		"state": "NEW MEXICO",
		"artcc": "ZAB",
		"type": "MR",
		"updated": "HMN*TACAN*334.00/4.00",
	},
	{
		"name": "VEGBY",
		"latitude": "33-35-40.27 N",
		"longitude": "111-55-10.45 W",
		"state": "ARIZONA",
		"artcc": "ZAB",
		"type": "RP",
		"updated": "PXR*VORTAC*002.70/10.00",
	},
	{
		"name": "VEGGE",
		"latitude": "35-13-11.11 N",
		"longitude": "102-22-12.4 W",
		"state": "TEXAS",
		"artcc": "ZAB",
		"type": "RP",
		"updated": "DHT*VORTAC*158.67",
	},
	{
		"name": "VERNO",
		"latitude": "34-15-38.47 N",
		"longitude": "109-37-37.97 W",
		"state": "ARIZONA",
		"artcc": "ZAB",
		"type": "RP",
		"updated": "SJN*VORTAC*235.98/25.95",
	},
	{
		"name": "VERRO",
		"latitude": "35-11-13.33 N",
		"longitude": "101-36-10.06 W",
		"state": "TEXAS",
		"artcc": "ZAB",
		"type": "RNAV",
		"updated": "05/13/2015",
	},
	{
		"name": "VERRT",
		"latitude": "33-25-0 N",
		"longitude": "103-55-0 W",
		"state": "NEW MEXICO",
		"artcc": "ZAB",
		"type": "RNAV",
		"updated": "08/05/2005",
	},
	{
		"name": "VEYLE",
		"latitude": "31-56-27.48 N",
		"longitude": "110-44-15.31 W",
		"state": "ARIZONA",
		"artcc": "ZAB",
		"type": "RNAV",
		"updated": "07/09/2007",
	},
	{
		"name": "VEZFO",
		"latitude": "34-16-10.81 N",
		"longitude": "103-16-17.48 W",
		"state": "NEW MEXICO",
		"artcc": "ZAB",
		"type": "RNAV",
		"updated": "07/20/2004",
	},
	{
		"name": "VICKO",
		"latitude": "33-32-22.98 N",
		"longitude": "113-56-42.12 W",
		"state": "ARIZONA",
		"artcc": "ZAB",
		"type": "RP",
		"updated": "GBN*VORTAC*285.00/73.00",
	},
	{
		"name": "VICMA",
		"latitude": "31-57-2.9 N",
		"longitude": "106-22-33.65 W",
		"state": "TEXAS",
		"artcc": "ZAB",
		"type": "RNAV",
		"updated": "04/02/2014",
	},
	{
		"name": "VIDLE",
		"latitude": "32-37-54.96 N",
		"longitude": "108-1-44.88 W",
		"state": "NEW MEXICO",
		"artcc": "ZAB",
		"type": "RNAV",
		"updated": "05/31/2006",
	},
	{
		"name": "VIFPE",
		"latitude": "33-41-20.27 N",
		"longitude": "112-3-34.74 W",
		"state": "ARIZONA",
		"artcc": "ZAB",
		"type": "RNAV",
		"updated": "03/05/2010",
	},
	{
		"name": "VIGUY",
		"latitude": "32-10-27.58 N",
		"longitude": "107-22-51.43 W",
		"state": "NEW MEXICO",
		"artcc": "ZAB",
		"type": "RNAV",
		"updated": "05/10/2015",
	},
	{
		"name": "VIKKE",
		"latitude": "34-21-47.79 N",
		"longitude": "105-55-10.6 W",
		"state": "NEW MEXICO",
		"artcc": "ZAB",
		"type": "MR",
		"updated": "CNX*VORTAC*256.00/12.00",
	},
	{
		"name": "VISTL",
		"latitude": "33-20-30.68 N",
		"longitude": "112-10-35.01 W",
		"state": "ARIZONA",
		"artcc": "ZAB",
		"type": "RNAV",
		"updated": "08/08/2014",
	},
	{
		"name": "VIYUL",
		"latitude": "32-30-27.59 N",
		"longitude": "108-33-15.82 W",
		"state": "NEW MEXICO",
		"artcc": "ZAB",
		"type": "RP",
		"updated": "SVC*VOR/DME*235.78/21.41",
	},
	{
		"name": "VLCNO",
		"latitude": "35-29-11.26 N",
		"longitude": "106-38-3.36 W",
		"state": "NEW MEXICO",
		"artcc": "ZAB",
		"type": "RNAV",
		"updated": "03/21/2014",
	},
	{
		"name": "VLNTN",
		"latitude": "30-53-36.39 N",
		"longitude": "105-5-29.19 W",
		"state": "TEXAS",
		"artcc": "ZAB",
		"type": "MW",
		"updated": "HUP*VORTAC*148.00/43.00",
	},
	{
		"name": "VNILA",
		"latitude": "33-8-52.36 N",
		"longitude": "111-41-56.46 W",
		"state": "ARIZONA",
		"artcc": "ZAB",
		"type": "RNAV",
		"updated": "08/23/2007",
	},
	{
		"name": "VNNOM",
		"latitude": "33-47-33.27 N",
		"longitude": "111-28-48.19 W",
		"state": "ARIZONA",
		"artcc": "ZAB",
		"type": "RNAV",
		"updated": "08/07/2014",
	},
	{
		"name": "VOCHE",
		"latitude": "34-4-25.29 N",
		"longitude": "105-5-31.97 W",
		"state": "NEW MEXICO",
		"artcc": "ZAB",
		"type": "WP",
		"updated": "CME*VORTAC*320.00/50.00",
	},
	{
		"name": "VOCNU",
		"latitude": "32-42-52.63 N",
		"longitude": "107-51-38.23 W",
		"state": "NEW MEXICO",
		"artcc": "ZAB",
		"type": "RNAV",
		"updated": "05/31/2006",
	},
	{
		"name": "VPALL",
		"latitude": "33-20-58 N",
		"longitude": "112-35-12 W",
		"state": "ARIZONA",
		"artcc": "ZAB",
		"type": "VFR",
		"updated": "07/29/2002",
	},
	{
		"name": "VPAQU",
		"latitude": "33-40-3 N",
		"longitude": "112-41-23 W",
		"state": "ARIZONA",
		"artcc": "ZAB",
		"type": "VFR",
		"updated": "07/29/2002",
	},
	{
		"name": "VPARM",
		"latitude": "33-38-31 N",
		"longitude": "112-13-29 W",
		"state": "ARIZONA",
		"artcc": "ZAB",
		"type": "VFR",
		"updated": "12/04/2002",
	},
	{
		"name": "VPAWG",
		"latitude": "33-19-59 N",
		"longitude": "111-59-5 W",
		"state": "ARIZONA",
		"artcc": "ZAB",
		"type": "VFR",
		"updated": "07/29/2002",
	},
	{
		"name": "VPAZM",
		"latitude": "33-23-0 N",
		"longitude": "111-57-51 W",
		"state": "ARIZONA",
		"artcc": "ZAB",
		"type": "VFR",
		"updated": "04/19/2012",
	},
	{
		"name": "VPBAR",
		"latitude": "33-49-6 N",
		"longitude": "111-37-55 W",
		"state": "ARIZONA",
		"artcc": "ZAB",
		"type": "VFR",
		"updated": "07/29/2002",
	},
	{
		"name": "VPCCC",
		"latitude": "33-30-44 N",
		"longitude": "111-50-22 W",
		"state": "ARIZONA",
		"artcc": "ZAB",
		"type": "VFR",
		"updated": "07/29/2002",
	},
	{
		"name": "VPCNL",
		"latitude": "33-33-13.54 N",
		"longitude": "111-46-53.69 W",
		"state": "ARIZONA",
		"artcc": "ZAB",
		"type": "VFR",
		"updated": "11/10/2004",
	},
	{
		"name": "VPFRB",
		"latitude": "33-16-21 N",
		"longitude": "111-58-6 W",
		"state": "ARIZONA",
		"artcc": "ZAB",
		"type": "VFR",
		"updated": "07/29/2002",
	},
	{
		"name": "VPFTN",
		"latitude": "33-36-7 N",
		"longitude": "111-42-43 W",
		"state": "ARIZONA",
		"artcc": "ZAB",
		"type": "VFR",
		"updated": "07/29/2002",
	},
	{
		"name": "VPGLX",
		"latitude": "33-16-33 N",
		"longitude": "112-10-5 W",
		"state": "ARIZONA",
		"artcc": "ZAB",
		"type": "VFR",
		"updated": "07/29/2002",
	},
	{
		"name": "VPGPP",
		"latitude": "33-33-16 N",
		"longitude": "112-13-0 W",
		"state": "ARIZONA",
		"artcc": "ZAB",
		"type": "VFR",
		"updated": "07/29/2002",
	},
	{
		"name": "VPMAR",
		"latitude": "33-3-25 N",
		"longitude": "112-2-53 W",
		"state": "ARIZONA",
		"artcc": "ZAB",
		"type": "VFR",
		"updated": "07/29/2002",
	},
	{
		"name": "VPMHS",
		"latitude": "33-20-32 N",
		"longitude": "111-49-35 W",
		"state": "ARIZONA",
		"artcc": "ZAB",
		"type": "VFR",
		"updated": "07/29/2002",
	},
	{
		"name": "VPNRV",
		"latitude": "33-55-5 N",
		"longitude": "112-8-27 W",
		"state": "ARIZONA",
		"artcc": "ZAB",
		"type": "VFR",
		"updated": "07/29/2002",
	},
	{
		"name": "VPNTT",
		"latitude": "33-3-30 N",
		"longitude": "111-55-50 W",
		"state": "ARIZONA",
		"artcc": "ZAB",
		"type": "VFR",
		"updated": "03/11/2003",
	},
	{
		"name": "VPPIR",
		"latitude": "33-22-31.36 N",
		"longitude": "112-18-54.22 W",
		"state": "ARIZONA",
		"artcc": "ZAB",
		"type": "VFR",
		"updated": "11/10/2004",
	},
	{
		"name": "VPQTR",
		"latitude": "33-49-32 N",
		"longitude": "112-23-35 W",
		"state": "ARIZONA",
		"artcc": "ZAB",
		"type": "VFR",
		"updated": "07/29/2002",
	},
	{
		"name": "VPREN",
		"latitude": "33-19-7.08 N",
		"longitude": "111-25-45.96 W",
		"state": "ARIZONA",
		"artcc": "ZAB",
		"type": "VFR",
		"updated": "05/20/2011",
	},
	{
		"name": "VPRVC",
		"latitude": "33-44-22 N",
		"longitude": "111-39-37 W",
		"state": "ARIZONA",
		"artcc": "ZAB",
		"type": "VFR",
		"updated": "07/31/2002",
	},
	{
		"name": "VPSMC",
		"latitude": "33-23-1 N",
		"longitude": "112-2-7 W",
		"state": "ARIZONA",
		"artcc": "ZAB",
		"type": "VFR",
		"updated": "07/29/2002",
	},
	{
		"name": "VPSQP",
		"latitude": "33-32-50 N",
		"longitude": "112-1-16 W",
		"state": "ARIZONA",
		"artcc": "ZAB",
		"type": "VFR",
		"updated": "07/29/2002",
	},
	{
		"name": "VPSSS",
		"latitude": "33-23-30 N",
		"longitude": "111-41-22 W",
		"state": "ARIZONA",
		"artcc": "ZAB",
		"type": "VFR",
		"updated": "07/29/2002",
	},
	{
		"name": "VPSTN",
		"latitude": "33-9-14 N",
		"longitude": "111-40-55 W",
		"state": "ARIZONA",
		"artcc": "ZAB",
		"type": "VFR",
		"updated": "07/29/2002",
	},
	{
		"name": "VPSTT",
		"latitude": "32-56-15 N",
		"longitude": "111-59-40 W",
		"state": "ARIZONA",
		"artcc": "ZAB",
		"type": "VFR",
		"updated": "03/11/2003",
	},
	{
		"name": "VUGKU",
		"latitude": "35-33-6.63 N",
		"longitude": "100-12-2.14 W",
		"state": "TEXAS",
		"artcc": "ZAB",
		"type": "RNAV",
		"updated": "08/26/2011",
	},
	{
		"name": "VUSQU",
		"latitude": "36-52-43.96 N",
		"longitude": "102-21-28.78 W",
		"state": "OKLAHOMA",
		"artcc": "ZAB",
		"type": "RNAV",
		"updated": "08/27/2001",
	},
	{
		"name": "VUYUP",
		"latitude": "30-28-58.39 N",
		"longitude": "103-40-51.13 W",
		"state": "TEXAS",
		"artcc": "ZAB",
		"type": "RP",
		"updated": "MRF*VOR/DME*041.08/18.00",
	},
	{
		"name": "VYLLA",
		"latitude": "31-20-0.35 N",
		"longitude": "110-56-59.61 W",
		"state": "ARIZONA",
		"artcc": "ZAB",
		"type": "RP",
		"updated": "TUS*VORTAC*170.26/45.64",
	},
