[
	{
		"name": "YACUL",
		"latitude": "34-58-30.43 N",
		"longitude": "102-6-14.23 W",
		"state": "TEXAS",
		"artcc": "ZAB",
		"type": "RP",
		"updated": "PNH*VORTAC*224.12/25.29"
	},
	{
		"name": "YANNU",
		"latitude": "35-2-41.34 N",
		"longitude": "106-42-8.59 W",
		"state": "NEW MEXICO",
		"artcc": "ZAB",
		"type": "RNAV",
		"updated": "10/30/2012"
	},
	{
		"name": "YASCU",
		"latitude": "33-25-51.59 N",
		"longitude": "111-57-5.49 W",
		"state": "ARIZONA",
		"artcc": "ZAB",
		"type": "RNAV",
		"updated": "01/13/2009"
	},
	{
		"name": "YATUP",
		"latitude": "32-15-47.83 N",
		"longitude": "107-39-34.68 W",
		"state": "NEW MEXICO",
		"artcc": "ZAB",
		"type": "RNAV",
		"updated": "08/16/2010"
	},
	{
		"name": "YAXDE",
		"latitude": "36-42-52.08 N",
		"longitude": "102-45-23.65 W",
		"state": "OKLAHOMA",
		"artcc": "ZAB",
		"type": "RNAV",
		"updated": "08/27/2001"
	},
	{
		"name": "YECUG",
		"latitude": "34-59-18.02 N",
		"longitude": "106-59-58 W",
		"state": "NEW MEXICO",
		"artcc": "ZAB",
		"type": "RNAV",
		"updated": "08/10/2016"
	},
	{
		"name": "YECXY",
		"latitude": "33-25-51.86 N",
		"longitude": "112-8-23.87 W",
		"state": "ARIZONA",
		"artcc": "ZAB",
		"type": "RNAV",
		"updated": "01/13/2009"
	},
	{
		"name": "YEDUV",
		"latitude": "35-5-14.03 N",
		"longitude": "111-43-32.58 W",
		"state": "ARIZONA",
		"artcc": "ZAB",
		"type": "RNAV",
		"updated": "06/09/2010"
	},
	{
		"name": "YEKUY",
		"latitude": "35-42-12.27 N",
		"longitude": "100-49-55.87 W",
		"state": "TEXAS",
		"artcc": "ZAB",
		"type": "RNAV",
		"updated": "10/07/2014"
	},
	{
		"name": "YETUG",
		"latitude": "31-54-27.83 N",
		"longitude": "111-5-52.54 W",
		"state": "ARIZONA",
		"artcc": "ZAB",
		"type": "RNAV",
		"updated": "11/19/2010"
	},
	{
		"name": "YIBUL",
		"latitude": "35-29-51.7 N",
		"longitude": "100-12-0.81 W",
		"state": "TEXAS",
		"artcc": "ZAB",
		"type": "RNAV",
		"updated": "08/26/2011"
	},
	{
		"name": "YIBUY",
		"latitude": "32-20-52.52 N",
		"longitude": "107-25-50.19 W",
		"state": "NEW MEXICO",
		"artcc": "ZAB",
		"type": "RNAV",
		"updated": "08/19/2010"
	},
	{
		"name": "YICUY",
		"latitude": "33-27-15.99 N",
		"longitude": "104-20-5.41 W",
		"state": "NEW MEXICO",
		"artcc": "ZAB",
		"type": "MR",
		"updated": "CME*VORTAC*051.96/16.00"
	},
	{
		"name": "YINUD",
		"latitude": "31-35-13.08 N",
		"longitude": "110-19-31.52 W",
		"state": "ARIZONA",
		"artcc": "ZAB",
		"type": "MR",
		"updated": "ARH*TACAN*071.19/0.70"
	},
	{
		"name": "YIRTU",
		"latitude": "31-35-14.72 N",
		"longitude": "109-50-26.17 W",
		"state": "ARIZONA",
		"artcc": "ZAB",
		"type": "RP",
		"updated": "DUG*VORTAC*286.38/14.03"
	},
	{
		"name": "YITUK",
		"latitude": "32-57-6.36 N",
		"longitude": "109-7-33.79 W",
		"state": "ARIZONA",
		"artcc": "ZAB",
		"type": "RNAV",
		"updated": "01/05/2011"
	},
	{
		"name": "YOCAN",
		"latitude": "34-45-7.21 N",
		"longitude": "101-44-15.69 W",
		"state": "TEXAS",
		"artcc": "ZAB",
		"type": "RP",
		"updated": "TXO*VORTAC*062.94"
	},
	{
		"name": "YOHEE",
		"latitude": "31-50-14.38 N",
		"longitude": "106-34-26.96 W",
		"state": "TEXAS",
		"artcc": "ZAB",
		"type": "RP",
		"updated": "ELP*VORTAC*263.00/15.00"
	},
	{
		"name": "YOKUR",
		"latitude": "34-29-58.73 N",
		"longitude": "102-59-18.63 W",
		"state": "TEXAS",
		"artcc": "ZAB",
		"type": "RNAV",
		"updated": "08/21/2015"
	},
	{
		"name": "YOKXO",
		"latitude": "33-26-26.31 N",
		"longitude": "111-52-50.1 W",
		"state": "ARIZONA",
		"artcc": "ZAB",
		"type": "RNAV",
		"updated": "01/13/2009"
	},
	{
		"name": "YOLOW",
		"latitude": "33-51-25.05 N",
		"longitude": "111-50-36.54 W",
		"state": "ARIZONA",
		"artcc": "ZAB",
		"type": "RP",
		"updated": "PXR*VORTAC*002.00/26.17"
	},
	{
		"name": "YONIC",
		"latitude": "33-53-46.27 N",
		"longitude": "106-46-42.36 W",
		"state": "NEW MEXICO",
		"artcc": "ZAB",
		"type": "RNAV",
		"updated": "08/23/2015"
	},
	{
		"name": "YOOPR",
		"latitude": "35-39-24.72 N",
		"longitude": "110-26-6.72 W",
		"state": "ARIZONA",
		"artcc": "ZAB",
		"type": "RNAV",
		"updated": "08/12/2014"
	},
	{
		"name": "YORCU",
		"latitude": "35-45-45.75 N",
		"longitude": "102-25-17.07 W",
		"state": "TEXAS",
		"artcc": "ZAB",
		"type": "RNAV",
		"updated": "10/28/2013"
	},
	{
		"name": "YORUB",
		"latitude": "32-55-52.1 N",
		"longitude": "104-14-1.27 W",
		"state": "NEW MEXICO",
		"artcc": "ZAB",
		"type": "RNAV",
		"updated": "08/11/2011"
	},
	{
		"name": "YOTES",
		"latitude": "34-37-29.3 N",
		"longitude": "111-7-9.33 W",
		"state": "ARIZONA",
		"artcc": "ZAB",
		"type": "RNAV",
		"updated": "08/12/2014"
	},
	{
		"name": "YOVKU",
		"latitude": "33-25-59.42 N",
		"longitude": "112-11-50.63 W",
		"state": "ARIZONA",
		"artcc": "ZAB",
		"type": "RNAV",
		"updated": "02/22/2018"
	},
	{
		"name": "YUDUN",
		"latitude": "35-7-37.26 N",
		"longitude": "107-51-58.74 W",
		"state": "NEW MEXICO",
		"artcc": "ZAB",
		"type": "RNAV",
		"updated": "01/13/2004"
	},
	{
		"name": "YUGLU",
		"latitude": "34-56-28.23 N",
		"longitude": "106-30-49.07 W",
		"state": "NEW MEXICO",
		"artcc": "ZAB",
		"type": "RNAV",
		"updated": "11/19/2012"
	},
	{
		"name": "YULUY",
		"latitude": "36-3-28.17 N",
		"longitude": "102-32-47.42 W",
		"state": "TEXAS",
		"artcc": "ZAB",
		"type": "RNAV",
		"updated": "10/28/2013"
	},
	{
		"name": "YUNSU",
		"latitude": "35-51-28.33 N",
		"longitude": "106-8-49.9 W",
		"state": "NEW MEXICO",
		"artcc": "ZAB",
		"type": "RNAV",
		"updated": "04/05/2012"
	},
	{
		"name": "YUNUN",
		"latitude": "35-34-46.96 N",
		"longitude": "101-34-10.86 W",
		"state": "TEXAS",
		"artcc": "ZAB",
		"type": "RNAV",
		"updated": "04/14/2011"
	},
	{
		"name": "YUPUB",
		"latitude": "32-21-2.8 N",
		"longitude": "107-22-59.78 W",
		"state": "NEW MEXICO",
		"artcc": "ZAB",
		"type": "RNAV",
		"updated": "05/10/2015"
	},
	{
		"name": "YUPUL",
		"latitude": "32-58-58.25 N",
		"longitude": "104-44-34.98 W",
		"state": "NEW MEXICO",
		"artcc": "ZAB",
		"type": "RNAV",
		"updated": "02/06/2014"
	},
	{
		"name": "YYLEE",
		"latitude": "34-57-30.15 N",
		"longitude": "106-13-0.85 W",
		"state": "NEW MEXICO",
		"artcc": "ZAB",
		"type": "RNAV",
		"updated": "10/24/2013"
	}
]
