[
	{
		"name": "ZABCO",
		"latitude": "35-5-51.11 N",
		"longitude": "106-31-44.56 W",
		"state": "NEW MEXICO",
		"artcc": "ZAB",
		"type": "RNAV",
		"updated": "10/30/2012"
	},
	{
		"name": "ZABUS",
		"latitude": "34-36-51.19 N",
		"longitude": "111-44-30.1 W",
		"state": "ARIZONA",
		"artcc": "ZAB",
		"type": "RNAV",
		"updated": "02/12/2008"
	},
	{
		"name": "ZADGI",
		"latitude": "30-20-49.37 N",
		"longitude": "103-59-44.64 W",
		"state": "TEXAS",
		"artcc": "ZAB",
		"type": "RP",
		"updated": "MRF*VOR/DME*312.87/3.61"
	},
	{
		"name": "ZAGPI",
		"latitude": "32-5-30.29 N",
		"longitude": "110-2-27.04 W",
		"state": "ARIZONA",
		"artcc": "ZAB",
		"type": "RNAV",
		"updated": "06/19/2012"
	},
	{
		"name": "ZAGUB",
		"latitude": "31-30-4.49 N",
		"longitude": "109-37-8.56 W",
		"state": "ARIZONA",
		"artcc": "ZAB",
		"type": "RP",
		"updated": "DUG*VORTAC*320.00/1.92"
	},
	{
		"name": "ZAKEP",
		"latitude": "35-48-27.92 N",
		"longitude": "102-33-3.25 W",
		"state": "TEXAS",
		"artcc": "ZAB",
		"type": "RP",
		"updated": "DHT*VORTAC*169.03/17.00"
	},
	{
		"name": "ZAKUM",
		"latitude": "33-36-59.79 N",
		"longitude": "112-18-23.36 W",
		"state": "ARIZONA",
		"artcc": "ZAB",
		"type": "MR",
		"updated": "LUF*TACAN*025.00/6.00"
	},
	{
		"name": "ZAMAB",
		"latitude": "35-20-9.58 N",
		"longitude": "111-26-17.98 W",
		"state": "ARIZONA",
		"artcc": "ZAB",
		"type": "RP",
		"updated": "INW*VORTAC*283.64/35.65"
	},
	{
		"name": "ZAMEX",
		"latitude": "33-25-50.78 N",
		"longitude": "111-48-46.51 W",
		"state": "ARIZONA",
		"artcc": "ZAB",
		"type": "RNAV",
		"updated": "10/28/2011"
	},
	{
		"name": "ZANXI",
		"latitude": "33-25-43.76 N",
		"longitude": "112-13-42.32 W",
		"state": "ARIZONA",
		"artcc": "ZAB",
		"type": "RP",
		"updated": "TFD*VORTAC*321.74"
	},
	{
		"name": "ZAPAX",
		"latitude": "36-6-27.27 N",
		"longitude": "102-32-48 W",
		"state": "TEXAS",
		"artcc": "ZAB",
		"type": "RNAV",
		"updated": "10/28/2013"
	},
	{
		"name": "ZASIG",
		"latitude": "35-10-53.04 N",
		"longitude": "111-33-34.3 W",
		"state": "ARIZONA",
		"artcc": "ZAB",
		"type": "RP",
		"updated": "FLG*VOR/DME*056.00/6.00"
	},
	{
		"name": "ZATOX",
		"latitude": "34-50-8.71 N",
		"longitude": "104-37-9.58 W",
		"state": "NEW MEXICO",
		"artcc": "ZAB",
		"type": "RNAV",
		"updated": "11/25/2012"
	},
	{
		"name": "ZATRO",
		"latitude": "35-14-56.04 N",
		"longitude": "101-49-49.44 W",
		"state": "TEXAS",
		"artcc": "ZAB",
		"type": "RNAV",
		"updated": "05/13/2015"
	},
	{
		"name": "ZATSA",
		"latitude": "31-55-28.3 N",
		"longitude": "105-1-35.04 W",
		"state": "TEXAS",
		"artcc": "ZAB",
		"type": "RNAV",
		"updated": "12/06/2011"
	},
	{
		"name": "ZATVO",
		"latitude": "32-50-22.24 N",
		"longitude": "105-59-36.51 W",
		"state": "NEW MEXICO",
		"artcc": "ZAB",
		"type": "MR",
		"updated": "HMN*TACAN*093.00/6.00"
	},
	{
		"name": "ZAXIN",
		"latitude": "34-14-53.95 N",
		"longitude": "110-5-35.84 W",
		"state": "ARIZONA",
		"artcc": "ZAB",
		"type": "RNAV",
		"updated": "07/19/2011"
	},
	{
		"name": "ZAXOX",
		"latitude": "32-9-23.48 N",
		"longitude": "107-6-26.74 W",
		"state": "NEW MEXICO",
		"artcc": "ZAB",
		"type": "RP",
		"updated": "DMN*VORTAC*093.57/26.34"
	},
	{
		"name": "ZAZPY",
		"latitude": "34-16-25.52 N",
		"longitude": "103-15-59.27 W",
		"state": "NEW MEXICO",
		"artcc": "ZAB",
		"type": "RP",
		"updated": "TXO*VORTAC*/25.00"
	},
	{
		"name": "ZCARR",
		"latitude": "34-4-20.99 N",
		"longitude": "111-49-22.94 W",
		"state": "ARIZONA",
		"artcc": "ZAB",
		"type": "RP",
		"updated": "PXR*VORTAC*358.84/39.00"
	},
	{
		"name": "ZEBEG",
		"latitude": "35-40-13.58 N",
		"longitude": "100-40-24.87 W",
		"state": "TEXAS",
		"artcc": "ZAB",
		"type": "RP",
		"updated": "03/21/2017"
	},
	{
		"name": "ZEBIT",
		"latitude": "35-32-48.46 N",
		"longitude": "105-55-4.98 W",
		"state": "NEW MEXICO",
		"artcc": "ZAB",
		"type": "RNAV",
		"updated": "10/26/2016"
	},
	{
		"name": "ZEBOL",
		"latitude": "33-3-30 N",
		"longitude": "112-31-0 W",
		"state": "ARIZONA",
		"artcc": "ZAB",
		"type": "RNAV",
		"updated": "10/03/2005"
	},
	{
		"name": "ZEBUP",
		"latitude": "35-8-34.86 N",
		"longitude": "101-32-47.29 W",
		"state": "TEXAS",
		"artcc": "ZAB",
		"type": "RNAV",
		"updated": "04/14/2011"
	},
	{
		"name": "ZEDAN",
		"latitude": "36-2-15.74 N",
		"longitude": "105-59-29.87 W",
		"state": "NEW MEXICO",
		"artcc": "ZAB",
		"type": "RP",
		"updated": "SAF*VORTAC*353.83/30.00"
	},
	{
		"name": "ZEEBE",
		"latitude": "32-50-50 N",
		"longitude": "112-5-34 W",
		"state": "ARIZONA",
		"artcc": "ZAB",
		"type": "RNAV",
		"updated": "12/23/2008"
	},
	{
		"name": "ZEKPI",
		"latitude": "31-39-25.6 N",
		"longitude": "103-29-23.48 W",
		"state": "TEXAS",
		"artcc": "ZAB",
		"type": "RNAV",
		"updated": "07/16/2012"
	},
	{
		"name": "ZEMAG",
		"latitude": "32-15-44.81 N",
		"longitude": "107-51-7 W",
		"state": "NEW MEXICO",
		"artcc": "ZAB",
		"type": "RNAV",
		"updated": "08/16/2010"
	},
	{
		"name": "ZEMBI",
		"latitude": "31-45-25.44 N",
		"longitude": "110-39-38.42 W",
		"state": "ARIZONA",
		"artcc": "ZAB",
		"type": "RNAV",
		"updated": "07/19/2011"
	},
	{
		"name": "ZEMGO",
		"latitude": "36-15-37.55 N",
		"longitude": "101-10-1.41 W",
		"state": "TEXAS",
		"artcc": "ZAB",
		"type": "RNAV",
		"updated": "10/28/2008"
	},
	{
		"name": "ZEMIB",
		"latitude": "36-23-47.53 N",
		"longitude": "103-11-18.31 W",
		"state": "NEW MEXICO",
		"artcc": "ZAB",
		"type": "RNAV",
		"updated": "07/11/2013"
	},
	{
		"name": "ZEMOS",
		"latitude": "33-26-24.09 N",
		"longitude": "111-40-10.15 W",
		"state": "ARIZONA",
		"artcc": "ZAB",
		"type": "RP",
		"updated": "CWJ*LD*E CRS/18.26"
	},
	{
		"name": "ZENAM",
		"latitude": "33-26-59.71 N",
		"longitude": "111-44-47.74 W",
		"state": "ARIZONA",
		"artcc": "ZAB",
		"type": "RNAV",
		"updated": "10/19/2011"
	},
	{
		"name": "ZEPER",
		"latitude": "34-1-39.27 N",
		"longitude": "112-20-3.66 W",
		"state": "ARIZONA",
		"artcc": "ZAB",
		"type": "RP",
		"updated": "PXR*VORTAC*321.00/40.00"
	},
	{
		"name": "ZERAR",
		"latitude": "34-58-54.15 N",
		"longitude": "101-49-33.39 W",
		"state": "TEXAS",
		"artcc": "ZAB",
		"type": "RNAV",
		"updated": "03/26/2013"
	},
	{
		"name": "ZERIG",
		"latitude": "34-29-16.09 N",
		"longitude": "109-21-14.93 W",
		"state": "ARIZONA",
		"artcc": "ZAB",
		"type": "RNAV",
		"updated": "07/19/2011"
	},
	{
		"name": "ZERLO",
		"latitude": "33-35-37.39 N",
		"longitude": "111-31-42.76 W",
		"state": "ARIZONA",
		"artcc": "ZAB",
		"type": "RP",
		"updated": "PXR*VORTAC*054.40/24.16"
	},
	{
		"name": "ZESUP",
		"latitude": "35-9-10.46 N",
		"longitude": "111-39-18.23 W",
		"state": "ARIZONA",
		"artcc": "ZAB",
		"type": "RP",
		"updated": "FLG*VOR/DME*056.00/1.00"
	},
	{
		"name": "ZETIB",
		"latitude": "35-55-43.32 N",
		"longitude": "101-52-21.18 W",
		"state": "TEXAS",
		"artcc": "ZAB",
		"type": "RP",
		"updated": "DHT*VORTAC*094.40/34.14"
	},
	{
		"name": "ZETVO",
		"latitude": "32-14-15.94 N",
		"longitude": "104-22-16.12 W",
		"state": "NEW MEXICO",
		"artcc": "ZAB",
		"type": "RNAV",
		"updated": "06/27/2013"
	},
	{
		"name": "ZFLEX",
		"latitude": "34-37-0 N",
		"longitude": "103-49-0 W",
		"state": "NEW MEXICO",
		"artcc": "ZAB",
		"type": "RNAV",
		"updated": "08/05/2005"
	},
	{
		"name": "ZIASE",
		"latitude": "35-31-24.96 N",
		"longitude": "106-36-50.97 W",
		"state": "NEW MEXICO",
		"artcc": "ZAB",
		"type": "RP",
		"updated": "ABQ*VORTAC*006.00/30.41"
	},
	{
		"name": "ZIBAR",
		"latitude": "32-25-24.77 N",
		"longitude": "111-13-58.9 W",
		"state": "ARIZONA",
		"artcc": "ZAB",
		"type": "RNAV",
		"updated": "07/19/2011"
	},
	{
		"name": "ZIDOG",
		"latitude": "33-31-46.64 N",
		"longitude": "112-11-45.39 W",
		"state": "ARIZONA",
		"artcc": "ZAB",
		"type": "RNAV",
		"updated": "02/22/2018"
	},
	{
		"name": "ZIDOL",
		"latitude": "33-33-9.94 N",
		"longitude": "112-21-41.62 W",
		"state": "ARIZONA",
		"artcc": "ZAB",
		"type": "RP",
		"updated": "LUF*TACAN*033.00/1.30"
	},
	{
		"name": "ZILEK",
		"latitude": "31-50-58.68 N",
		"longitude": "106-48-53.78 W",
		"state": "NEW MEXICO",
		"artcc": "ZAB",
		"type": "RNAV",
		"updated": "02/14/2014"
	},
	{
		"name": "ZILEM",
		"latitude": "34-14-26.91 N",
		"longitude": "103-29-43.42 W",
		"state": "NEW MEXICO",
		"artcc": "ZAB",
		"type": "MR",
		"updated": "CVS*TACAN*/12.00"
	},
	{
		"name": "ZILIG",
		"latitude": "32-9-15.68 N",
		"longitude": "111-7-57.47 W",
		"state": "ARIZONA",
		"artcc": "ZAB",
		"type": "RNAV",
		"updated": "05/04/2010"
	},
	{
		"name": "ZILLA",
		"latitude": "33-25-51.59 N",
		"longitude": "111-56-58.3 W",
		"state": "ARIZONA",
		"artcc": "ZAB",
		"type": "RNAV",
		"updated": "09/04/2001"
	},
	{
		"name": "ZILUB",
		"latitude": "33-44-58.32 N",
		"longitude": "112-0-1.23 W",
		"state": "ARIZONA",
		"artcc": "ZAB",
		"type": "RNAV",
		"updated": "08/08/2014"
	},
	{
		"name": "ZIMSA",
		"latitude": "31-53-20.9 N",
		"longitude": "110-50-24.71 W",
		"state": "ARIZONA",
		"artcc": "ZAB",
		"type": "RNAV",
		"updated": "11/19/2010"
	},
	{
		"name": "ZINGA",
		"latitude": "33-25-51.88 N",
		"longitude": "112-7-0.2 W",
		"state": "ARIZONA",
		"artcc": "ZAB",
		"type": "RP",
		"updated": "PHX*LD*258.04/6.43"
	},
	{
		"name": "ZIPAK",
		"latitude": "34-41-21.41 N",
		"longitude": "112-22-56.96 W",
		"state": "ARIZONA",
		"artcc": "ZAB",
		"type": "RNAV",
		"updated": "02/19/2014"
	},
	{
		"name": "ZIPER",
		"latitude": "32-44-6.76 N",
		"longitude": "105-27-59.02 W",
		"state": "NEW MEXICO",
		"artcc": "ZAB",
		"type": "MR",
		"updated": "CME*VORTAC*218.00/56.00"
	},
	{
		"name": "ZIPKI",
		"latitude": "32-18-1.81 N",
		"longitude": "107-39-57.72 W",
		"state": "NEW MEXICO",
		"artcc": "ZAB",
		"type": "RNAV",
		"updated": "08/16/2010"
	},
	{
		"name": "ZIPPI",
		"latitude": "32-27-6.94 N",
		"longitude": "105-19-14.41 W",
		"state": "NEW MEXICO",
		"artcc": "ZAB",
		"type": "RNAV",
		"updated": "12/06/2011"
	},
	{
		"name": "ZIRHI",
		"latitude": "36-8-44.32 N",
		"longitude": "100-49-47.52 W",
		"state": "TEXAS",
		"artcc": "ZAB",
		"type": "RNAV",
		"updated": "06/20/2013"
	},
	{
		"name": "ZIRIK",
		"latitude": "33-31-47.78 N",
		"longitude": "111-56-23.39 W",
		"state": "ARIZONA",
		"artcc": "ZAB",
		"type": "RNAV",
		"updated": "02/24/2012"
	},
	{
		"name": "ZIRUK",
		"latitude": "32-55-0.77 N",
		"longitude": "112-29-1.14 W",
		"state": "ARIZONA",
		"artcc": "ZAB",
		"type": "MR",
		"updated": "LUF*TACAN*175.00/37.54"
	},
	{
		"name": "ZIRUS",
		"latitude": "32-12-51.95 N",
		"longitude": "111-3-29.52 W",
		"state": "ARIZONA",
		"artcc": "ZAB",
		"type": "RNAV",
		"updated": "04/06/2001"
	},
	{
		"name": "ZIVET",
		"latitude": "35-58-23.49 N",
		"longitude": "101-21-44.07 W",
		"state": "TEXAS",
		"artcc": "ZAB",
		"type": "RP",
		"updated": "BGD*VORTAC*354.56/10.00"
	},
	{
		"name": "ZIVIP",
		"latitude": "35-4-23.23 N",
		"longitude": "106-53-32.4 W",
		"state": "NEW MEXICO",
		"artcc": "ZAB",
		"type": "RNAV",
		"updated": "08/10/2016"
	},
	{
		"name": "ZOBEG",
		"latitude": "33-35-11.47 N",
		"longitude": "112-19-32.83 W",
		"state": "ARIZONA",
		"artcc": "ZAB",
		"type": "MR",
		"updated": "LUF*TACAN*030.00/4.00"
	},
	{
		"name": "ZOBTU",
		"latitude": "33-54-23.79 N",
		"longitude": "106-52-11.87 W",
		"state": "NEW MEXICO",
		"artcc": "ZAB",
		"type": "RNAV",
		"updated": "04/01/2012"
	},
	{
		"name": "ZODES",
		"latitude": "35-33-0.6 N",
		"longitude": "105-4-24.33 W",
		"state": "NEW MEXICO",
		"artcc": "ZAB",
		"type": "RNAV",
		"updated": "02/25/2005"
	},
	{
		"name": "ZOGIR",
		"latitude": "34-33-59.11 N",
		"longitude": "112-30-46.5 W",
		"state": "ARIZONA",
		"artcc": "ZAB",
		"type": "RNAV",
		"updated": "04/18/2014"
	},
	{
		"name": "ZOLUP",
		"latitude": "33-25-46.01 N",
		"longitude": "112-4-4.36 W",
		"state": "ARIZONA",
		"artcc": "ZAB",
		"type": "RNAV",
		"updated": "02/22/2018"
	},
	{
		"name": "ZOMAP",
		"latitude": "32-25-0.2 N",
		"longitude": "111-12-25.05 W",
		"state": "ARIZONA",
		"artcc": "ZAB",
		"type": "RNAV",
		"updated": "12/30/2005"
	},
	{
		"name": "ZONNA",
		"latitude": "32-12-33.38 N",
		"longitude": "109-50-55.28 W",
		"state": "ARIZONA",
		"artcc": "ZAB",
		"type": "RNAV",
		"updated": "07/12/2007"
	},
	{
		"name": "ZORUB",
		"latitude": "34-23-46.16 N",
		"longitude": "103-18-25.97 W",
		"state": "NEW MEXICO",
		"artcc": "ZAB",
		"type": "MR",
		"updated": "CVS*TACAN*032.00/1.20"
	},
	{
		"name": "ZORVA",
		"latitude": "31-46-21.39 N",
		"longitude": "106-31-14.95 W",
		"state": "TEXAS",
		"artcc": "ZAB",
		"type": "RNAV",
		"updated": "04/02/2012"
	},
	{
		"name": "ZOSDU",
		"latitude": "31-56-14.29 N",
		"longitude": "110-34-38.9 W",
		"state": "ARIZONA",
		"artcc": "ZAB",
		"type": "RNAV",
		"updated": "11/19/2010"
	},
	{
		"name": "ZOSWO",
		"latitude": "34-14-48.88 N",
		"longitude": "111-23-13.56 W",
		"state": "ARIZONA",
		"artcc": "ZAB",
		"type": "RNAV",
		"updated": "02/14/2000"
	},
	{
		"name": "ZOTEN",
		"latitude": "35-15-15.44 N",
		"longitude": "101-43-27.87 W",
		"state": "TEXAS",
		"artcc": "ZAB",
		"type": "RNAV",
		"updated": "12/01/2010"
	},
	{
		"name": "ZOTLU",
		"latitude": "34-27-31.11 N",
		"longitude": "102-58-48.3 W",
		"state": "TEXAS",
		"artcc": "ZAB",
		"type": "RP",
		"updated": "TXO*VORTAC*241.62/7.30"
	},
	{
		"name": "ZOVEK",
		"latitude": "34-33-3.22 N",
		"longitude": "109-24-4.11 W",
		"state": "ARIZONA",
		"artcc": "ZAB",
		"type": "RNAV",
		"updated": "01/24/2007"
	},
	{
		"name": "ZOVOS",
		"latitude": "33-13-17.11 N",
		"longitude": "106-1-5.7 W",
		"state": "NEW MEXICO",
		"artcc": "ZAB",
		"type": "MR",
		"updated": "HMN*TACAN*002.00/22.00"
	},
	{
		"name": "ZUBOD",
		"latitude": "35-39-11.06 N",
		"longitude": "109-3-40.96 W",
		"state": "ARIZONA",
		"artcc": "ZAB",
		"type": "RP",
		"updated": "GUP*VORTAC*305.00/14.07"
	},
	{
		"name": "ZUKTA",
		"latitude": "35-20-0.87 N",
		"longitude": "101-28-45.11 W",
		"state": "TEXAS",
		"artcc": "ZAB",
		"type": "RNAV",
		"updated": "12/01/2010"
	},
	{
		"name": "ZULAK",
		"latitude": "34-35-56.48 N",
		"longitude": "102-40-54.21 W",
		"state": "TEXAS",
		"artcc": "ZAB",
		"type": "RP",
		"updated": "TXO*VORTAC*040.47/10.00"
	},
	{
		"name": "ZULOM",
		"latitude": "32-53-18.3 N",
		"longitude": "109-40-36.76 W",
		"state": "ARIZONA",
		"artcc": "ZAB",
		"type": "RNAV",
		"updated": "05/05/2010"
	},
	{
		"name": "ZUMEX",
		"latitude": "35-2-37.73 N",
		"longitude": "106-32-15.97 W",
		"state": "NEW MEXICO",
		"artcc": "ZAB",
		"type": "RNAV",
		"updated": "10/30/2012"
	},
	{
		"name": "ZUMMO",
		"latitude": "32-47-57.78 N",
		"longitude": "109-34-22.26 W",
		"state": "ARIZONA",
		"artcc": "ZAB",
		"type": "RNAV",
		"updated": "05/05/2010"
	},
	{
		"name": "ZUMTA",
		"latitude": "35-59-37.36 N",
		"longitude": "101-49-46.83 W",
		"state": "TEXAS",
		"artcc": "ZAB",
		"type": "RNAV",
		"updated": "12/30/2009"
	},
	{
		"name": "ZUNEN",
		"latitude": "34-43-46.16 N",
		"longitude": "103-22-47.06 W",
		"state": "NEW MEXICO",
		"artcc": "ZAB",
		"type": "MW",
		"updated": "02/14/2010"
	},
	{
		"name": "ZUPRA",
		"latitude": "35-27-4.52 N",
		"longitude": "109-2-28.26 W",
		"state": "NEW MEXICO",
		"artcc": "ZAB",
		"type": "RNAV",
		"updated": "02/13/2006"
	},
	{
		"name": "ZUROS",
		"latitude": "35-13-43.78 N",
		"longitude": "107-57-21.99 W",
		"state": "NEW MEXICO",
		"artcc": "ZAB",
		"type": "RNAV",
		"updated": "01/13/2004"
	},
	{
		"name": "ZUSAL",
		"latitude": "33-18-50.54 N",
		"longitude": "104-32-33.78 W",
		"state": "NEW MEXICO",
		"artcc": "ZAB",
		"type": "RP",
		"updated": "CME*VORTAC*097.55/4.19"
	},
	{
		"name": "ZUSTI",
		"latitude": "32-8-48.36 N",
		"longitude": "110-51-47.27 W",
		"state": "ARIZONA",
		"artcc": "ZAB",
		"type": "MR",
		"updated": "DMA*TACAN*119.00/1.20"
	},
	{
		"name": "ZUTBI",
		"latitude": "31-35-22.42 N",
		"longitude": "110-24-57.3 W",
		"state": "ARIZONA",
		"artcc": "ZAB",
		"type": "MR",
		"updated": "ARH*TACAN*261.48/3.95"
	},
	{
		"name": "ZUTLO",
		"latitude": "32-15-48.58 N",
		"longitude": "107-35-57.52 W",
		"state": "NEW MEXICO",
		"artcc": "ZAB",
		"type": "RNAV",
		"updated": "05/10/2015"
	},
	{
		"name": "ZUTPA",
		"latitude": "35-52-30.16 N",
		"longitude": "106-14-33.99 W",
		"state": "NEW MEXICO",
		"artcc": "ZAB",
		"type": "RNAV",
		"updated": "04/05/2012"
	},
	{
		"name": "ZUTRI",
		"latitude": "36-27-34.86 N",
		"longitude": "105-40-29.06 W",
		"state": "NEW MEXICO",
		"artcc": "ZAB",
		"type": "RP",
		"updated": "TAS*VORTAC*115.51/14.32"
	},
	{
		"name": "ZUVPA",
		"latitude": "33-33-50.16 N",
		"longitude": "104-27-7.69 W",
		"state": "NEW MEXICO",
		"artcc": "ZAB",
		"type": "MR",
		"updated": "CME*VORTAC*020.00/16.00"
	},
	{
		"name": "ZUZXE",
		"latitude": "36-35-16.04 N",
		"longitude": "102-37-18.21 W",
		"state": "OKLAHOMA",
		"artcc": "ZAB",
		"type": "RNAV",
		"updated": "08/27/2001"
	}
]
