[
	{
		"name": "AAAXX",
		"latitude": "29-53-44.54 N",
		"longitude": "95-23-32.9 W",
		"state": "TEXAS",
		"artcc": "ZHU",
		"type": "RNAV",
		"updated": "05/18/2010"
	},
	{
		"name": "AAHZZ",
		"latitude": "29-43-51.34 N",
		"longitude": "95-55-53.99 W",
		"state": "TEXAS",
		"artcc": "ZHU",
		"type": "RNAV",
		"updated": "03/25/2014"
	},
	{
		"name": "AANDI",
		"latitude": "30-24-41.47 N",
		"longitude": "88-55-7.76 W",
		"state": "MISSISSIPPI",
		"artcc": "ZHU",
		"type": "MR",
		"updated": "GPT*VORTAC*086.00/8.20"
	},
	{
		"name": "ACADI",
		"latitude": "29-57-22.72 N",
		"longitude": "91-51-47.42 W",
		"state": "LOUISIANA",
		"artcc": "ZHU",
		"type": "RP",
		"updated": "ARA*LD*167.51/5.91"
	},
	{
		"name": "ACECI",
		"latitude": "30-0-40.7 N",
		"longitude": "95-48-17.98 W",
		"state": "TEXAS",
		"artcc": "ZHU",
		"type": "RNAV",
		"updated": "07/20/2007"
	},
	{
		"name": "ACGET",
		"latitude": "29-52-4.78 N",
		"longitude": "98-5-25.07 W",
		"state": "TEXAS",
		"artcc": "ZHU",
		"type": "RNAV",
		"updated": "12/27/2007"
	},
	{
		"name": "ACIVU",
		"latitude": "28-55-33.52 N",
		"longitude": "95-35-12.63 W",
		"state": "TEXAS",
		"artcc": "ZHU",
		"type": "RNAV",
		"updated": "12/01/2011"
	},
	{
		"name": "ACKLE",
		"latitude": "28-55-29.07 N",
		"longitude": "95-27-42.62 W",
		"state": "TEXAS",
		"artcc": "ZHU",
		"type": "RNAV",
		"updated": "06/29/2005"
	},
	{
		"name": "ACLIN",
		"latitude": "29-10-56.31 N",
		"longitude": "98-29-59.53 W",
		"state": "TEXAS",
		"artcc": "ZHU",
		"type": "MR",
		"updated": "KSY*TACAN*152.00/8.00"
	},
	{
		"name": "ACMES",
		"latitude": "30-55-27.13 N",
		"longitude": "88-22-10.82 W",
		"state": "ALABAMA",
		"artcc": "ZHU",
		"type": "RNAV",
		"updated": "08/14/2007"
	},
	{
		"name": "ACOLA",
		"latitude": "29-27-35.58 N",
		"longitude": "95-30-18.42 W",
		"state": "TEXAS",
		"artcc": "ZHU",
		"type": "RP",
		"updated": "HUB*VOR/DME*220.64/16.74"
	},
	{
		"name": "ACONU",
		"latitude": "28-44-19.25 N",
		"longitude": "96-16-7.73 W",
		"state": "TEXAS",
		"artcc": "ZHU",
		"type": "MR",
		"updated": "PSX*VORTAC*120.01/2.50"
	},
	{
		"name": "ACREW",
		"latitude": "25-54-36.61 N",
		"longitude": "97-39-45.33 W",
		"state": "",
		"artcc": "ZHU",
		"type": "RP",
		"updated": "BRO*VORTAC*258.00/15.57"
	},
	{
		"name": "ACUXA",
		"latitude": "27-42-23.54 N",
		"longitude": "97-18-28.4 W",
		"state": "TEXAS",
		"artcc": "ZHU",
		"type": "MR",
		"updated": "NGP*VORTAC*324.00/1.40"
	},
	{
		"name": "ACVEK",
		"latitude": "30-34-58.91 N",
		"longitude": "97-41-6.99 W",
		"state": "TEXAS",
		"artcc": "ZHU",
		"type": "RNAV",
		"updated": "11/05/2015"
	},
	{
		"name": "ACVIK",
		"latitude": "27-40-34.13 N",
		"longitude": "97-17-17.43 W",
		"state": "TEXAS",
		"artcc": "ZHU",
		"type": "MR",
		"updated": "NGP*VORTAC*144.00/0.70"
	},
	{
		"name": "ADDIL",
		"latitude": "28-24-6.9 N",
		"longitude": "99-40-57.66 W",
		"state": "TEXAS",
		"artcc": "ZHU",
		"type": "RNAV",
		"updated": "06/04/2013"
	},
	{
		"name": "ADING",
		"latitude": "29-43-50.14 N",
		"longitude": "95-22-6.26 W",
		"state": "TEXAS",
		"artcc": "ZHU",
		"type": "RP",
		"updated": "IAH*VORTAC*180.00"
	},
	{
		"name": "ADLIW",
		"latitude": "28-57-10.74 N",
		"longitude": "99-0-47.12 W",
		"state": "TEXAS",
		"artcc": "ZHU",
		"type": "RNAV",
		"updated": "04/20/2009"
	},
	{
		"name": "ADRAJ",
		"latitude": "30-32-5.7 N",
		"longitude": "88-4-1.99 W",
		"state": "ALABAMA",
		"artcc": "ZHU",
		"type": "CN",
		"updated": "01/30/2001"
	},
	{
		"name": "ADRIW",
		"latitude": "30-33-4.34 N",
		"longitude": "88-1-31.19 W",
		"state": "ALABAMA",
		"artcc": "ZHU",
		"type": "CN",
		"updated": "01/30/2001"
	},
	{
		"name": "ADYTA",
		"latitude": "28-25-14.28 N",
		"longitude": "99-10-36.82 W",
		"state": "TEXAS",
		"artcc": "ZHU",
		"type": "RNAV",
		"updated": "07/20/2014"
	},
	{
		"name": "AEROZ",
		"latitude": "30-42-13.48 N",
		"longitude": "98-51-49.1 W",
		"state": "TEXAS",
		"artcc": "ZHU",
		"type": "RNAV",
		"updated": "10/18/2017"
	},
	{
		"name": "AFJEJ",
		"latitude": "31-24-11.37 N",
		"longitude": "92-36-52.54 W",
		"state": "LOUISIANA",
		"artcc": "ZHU",
		"type": "RNAV",
		"updated": "10/03/2000"
	},
	{
		"name": "AFRUH",
		"latitude": "31-26-36.8 N",
		"longitude": "94-43-29.9 W",
		"state": "TEXAS",
		"artcc": "ZHU",
		"type": "RP",
		"updated": "LFK*VORTAC*353.59/16.83"
	},
	{
		"name": "AGAXE",
		"latitude": "29-51-1.48 N",
		"longitude": "95-53-54.84 W",
		"state": "TEXAS",
		"artcc": "ZHU",
		"type": "RNAV",
		"updated": "07/20/2007"
	},
	{
		"name": "AGEVE",
		"latitude": "30-37-39.65 N",
		"longitude": "94-56-21.78 W",
		"state": "TEXAS",
		"artcc": "ZHU",
		"type": "RNAV",
		"updated": "08/28/2000"
	},
	{
		"name": "AGGEE",
		"latitude": "30-19-43.2 N",
		"longitude": "96-0-58.18 W",
		"state": "TEXAS",
		"artcc": "ZHU",
		"type": "RNAV",
		"updated": "05/18/2010"
	},
	{
		"name": "AGGIT",
		"latitude": "29-3-17.18 N",
		"longitude": "95-29-9.99 W",
		"state": "TEXAS",
		"artcc": "ZHU",
		"type": "RP",
		"updated": "PSX*VORTAC*059.88/46.55"
	},
	{
		"name": "AGIZU",
		"latitude": "31-8-39.86 N",
		"longitude": "92-19-53.94 W",
		"state": "LOUISIANA",
		"artcc": "ZHU",
		"type": "RNAV",
		"updated": "02/20/2009"
	},
	{
		"name": "AHELU",
		"latitude": "30-31-1.27 N",
		"longitude": "89-3-59.82 W",
		"state": "MISSISSIPPI",
		"artcc": "ZHU",
		"type": "RNAV",
		"updated": "10/30/2017"
	},
	{
		"name": "AHESU",
		"latitude": "29-22-43.69 N",
		"longitude": "96-20-35.57 W",
		"state": "TEXAS",
		"artcc": "ZHU",
		"type": "RNAV",
		"updated": "07/12/2009"
	},
	{
		"name": "AHING",
		"latitude": "29-57-10.84 N",
		"longitude": "90-9-14.39 W",
		"state": "LOUISIANA",
		"artcc": "ZHU",
		"type": "RNAV",
		"updated": "02/10/2016"
	},
	{
		"name": "AHLAB",
		"latitude": "27-42-26.15 N",
		"longitude": "97-17-18.33 W",
		"state": "TEXAS",
		"artcc": "ZHU",
		"type": "MR",
		"updated": "NGP*VORTAC*009.00/1.30"
	},
	{
		"name": "AHOCK",
		"latitude": "30-16-4.82 N",
		"longitude": "94-48-53.68 W",
		"state": "TEXAS",
		"artcc": "ZHU",
		"type": "RP",
		"updated": "DAS*VORTAC*293.00/10.00"
	},
	{
		"name": "AHUGE",
		"latitude": "28-48-39.96 N",
		"longitude": "97-39-30.54 W",
		"state": "TEXAS",
		"artcc": "ZHU",
		"type": "MW",
		"updated": "12/27/2017"
	},
	{
		"name": "AIMEE",
		"latitude": "28-4-36.55 N",
		"longitude": "97-32-56.79 W",
		"state": "TEXAS",
		"artcc": "ZHU",
		"type": "RP",
		"updated": "NGP*VORTAC*324.00/27.00"
	},
	{
		"name": "AIRLG",
		"latitude": "29-24-16.38 N",
		"longitude": "90-18-11.14 W",
		"state": "LOUISIANA",
		"artcc": "ZHU",
		"type": "RNAV",
		"updated": "02/27/2015"
	},
	{
		"name": "AIVER",
		"latitude": "29-28-36.38 N",
		"longitude": "90-15-38.52 W",
		"state": "LOUISIANA",
		"artcc": "ZHU",
		"type": "RNAV",
		"updated": "09/30/2014"
	},
	{
		"name": "AJBOJ",
		"latitude": "31-15-7.12 N",
		"longitude": "92-29-11.46 W",
		"state": "LOUISIANA",
		"artcc": "ZHU",
		"type": "RNAV",
		"updated": "03/28/2005"
	},
	{
		"name": "AKEEM",
		"latitude": "30-6-19.89 N",
		"longitude": "95-7-6.98 W",
		"state": "TEXAS",
		"artcc": "ZHU",
		"type": "RNAV",
		"updated": "09/23/2010"
	},
	{
		"name": "AKEES",
		"latitude": "28-28-48.99 N",
		"longitude": "99-14-43.67 W",
		"state": "TEXAS",
		"artcc": "ZHU",
		"type": "RNAV",
		"updated": "07/20/2014"
	},
	{
		"name": "AKEKY",
		"latitude": "31-0-41.12 N",
		"longitude": "98-39-56.43 W",
		"state": "TEXAS",
		"artcc": "ZHU",
		"type": "RNAV",
		"updated": "10/14/2009"
	},
	{
		"name": "AKISY",
		"latitude": "31-57-52.21 N",
		"longitude": "92-33-42.51 W",
		"state": "LOUISIANA",
		"artcc": "ZHU",
		"type": "RNAV",
		"updated": "10/02/2009"
	},
	{
		"name": "AKVIL",
		"latitude": "28-24-11.94 N",
		"longitude": "97-53-28.41 W",
		"state": "TEXAS",
		"artcc": "ZHU",
		"type": "RP",
		"updated": "THX*VORTAC*105.87/15.00"
	},
	{
		"name": "AKVOC",
		"latitude": "26-43-8.74 N",
		"longitude": "98-2-47.62 W",
		"state": "TEXAS",
		"artcc": "ZHU",
		"type": "RNAV",
		"updated": "07/26/2012"
	},
	{
		"name": "AKXUT",
		"latitude": "30-54-37.69 N",
		"longitude": "89-14-39.46 W",
		"state": "MISSISSIPPI",
		"artcc": "ZHU",
		"type": "CN",
		"updated": "12/04/2014"
	},
	{
		"name": "ALAMO",
		"latitude": "29-36-28.24 N",
		"longitude": "98-34-10.12 W",
		"state": "TEXAS",
		"artcc": "ZHU",
		"type": "RP",
		"updated": "SAT*VORTAC*241.07"
	},
	{
		"name": "ALGAE",
		"latitude": "26-21-15.96 N",
		"longitude": "89-56-36.1 W",
		"state": "OFFSHORE GULF",
		"artcc": "ZHU",
		"type": "RNAV",
		"updated": "10/31/2012"
	},
	{
		"name": "ALGER",
		"latitude": "30-8-1.83 N",
		"longitude": "90-1-51.96 W",
		"state": "LOUISIANA",
		"artcc": "ZHU",
		"type": "RP",
		"updated": "HRV*VORTAC*353.08"
	},
	{
		"name": "ALIBI",
		"latitude": "30-25-56.57 N",
		"longitude": "95-28-32.75 W",
		"state": "TEXAS",
		"artcc": "ZHU",
		"type": "RP",
		"updated": "CXO*LD*319.48/6.43"
	},
	{
		"name": "ALIEF",
		"latitude": "28-41-13.74 N",
		"longitude": "96-44-18.32 W",
		"state": "TEXAS",
		"artcc": "ZHU",
		"type": "RP",
		"updated": "PSX*VORTAC*250.64/23.27"
	},
	{
		"name": "ALISS",
		"latitude": "30-15-49.66 N",
		"longitude": "99-20-50.03 W",
		"state": "TEXAS",
		"artcc": "ZHU",
		"type": "RNAV",
		"updated": "07/13/2010"
	},
	{
		"name": "ALIYA",
		"latitude": "30-33-26.95 N",
		"longitude": "91-24-20.44 W",
		"state": "LOUISIANA",
		"artcc": "ZHU",
		"type": "RP",
		"updated": "LSU*VORTAC*300.85/7.23"
	},
	{
		"name": "ALKOJ",
		"latitude": "27-43-51.23 N",
		"longitude": "97-29-43.7 W",
		"state": "TEXAS",
		"artcc": "ZHU",
		"type": "RP",
		"updated": "NGP*VORTAC*278.07"
	},
	{
		"name": "ALLLY",
		"latitude": "29-39-37.02 N",
		"longitude": "95-25-31.48 W",
		"state": "TEXAS",
		"artcc": "ZHU",
		"type": "RNAV",
		"updated": "03/25/2014"
	},
	{
		"name": "ALLOU",
		"latitude": "30-17-44.56 N",
		"longitude": "97-35-42.38 W",
		"state": "TEXAS",
		"artcc": "ZHU",
		"type": "RNAV",
		"updated": "10/23/2017"
	},
	{
		"name": "ALMOY",
		"latitude": "30-26-15.85 N",
		"longitude": "98-21-38.65 W",
		"state": "TEXAS",
		"artcc": "ZHU",
		"type": "RP",
		"updated": "03/31/2009"
	},
	{
		"name": "ALONS",
		"latitude": "29-42-17.03 N",
		"longitude": "90-11-16.34 W",
		"state": "LOUISIANA",
		"artcc": "ZHU",
		"type": "MR",
		"updated": "HRV*VORTAC*226.00/13.00"
	},
	{
		"name": "ALOXE",
		"latitude": "29-9-29.44 N",
		"longitude": "95-13-20.24 W",
		"state": "TEXAS",
		"artcc": "ZHU",
		"type": "MR",
		"updated": "EFD*TACAN*182.00/27.00"
	},
	{
		"name": "ALRGI",
		"latitude": "29-31-47.5 N",
		"longitude": "98-20-25.17 W",
		"state": "TEXAS",
		"artcc": "ZHU",
		"type": "RNAV",
		"updated": "06/02/2016"
	},
	{
		"name": "ALTOR",
		"latitude": "27-38-3.92 N",
		"longitude": "99-21-3.03 W",
		"state": "TEXAS",
		"artcc": "ZHU",
		"type": "RNAV",
		"updated": "06/28/2016"
	},
	{
		"name": "ALUDE",
		"latitude": "26-13-55.87 N",
		"longitude": "97-34-7.58 W",
		"state": "TEXAS",
		"artcc": "ZHU",
		"type": "RNAV",
		"updated": "08/09/2012"
	},
	{
		"name": "ALVNN",
		"latitude": "29-18-4.42 N",
		"longitude": "96-24-42.05 W",
		"state": "TEXAS",
		"artcc": "ZHU",
		"type": "RNAV",
		"updated": "03/14/2014"
	},
	{
		"name": "AMAND",
		"latitude": "29-41-11.02 N",
		"longitude": "91-4-18.13 W",
		"state": "LOUISIANA",
		"artcc": "ZHU",
		"type": "WP",
		"updated": "10/27/1998"
	},
	{
		"name": "AMAPE",
		"latitude": "26-5-15.4 N",
		"longitude": "97-30-22.96 W",
		"state": "TEXAS",
		"artcc": "ZHU",
		"type": "RNAV",
		"updated": "08/29/2003"
	},
	{
		"name": "AMBEE",
		"latitude": "30-53-5.03 N",
		"longitude": "95-43-33.22 W",
		"state": "TEXAS",
		"artcc": "ZHU",
		"type": "RP",
		"updated": "LOA*VORTAC*130.87/19.00"
	},
	{
		"name": "AMIME",
		"latitude": "30-16-20.13 N",
		"longitude": "97-51-15.09 W",
		"state": "TEXAS",
		"artcc": "ZHU",
		"type": "RP",
		"updated": "CWK*VORTAC*243.39/18.00"
	},
	{
		"name": "AMINE",
		"latitude": "29-30-53.92 N",
		"longitude": "98-35-18.21 W",
		"state": "TEXAS",
		"artcc": "ZHU",
		"type": "RNAV",
		"updated": "09/29/2014"
	},
	{
		"name": "AMMMO",
		"latitude": "28-35-20.02 N",
		"longitude": "96-33-12.36 W",
		"state": "TEXAS",
		"artcc": "ZHU",
		"type": "RNAV",
		"updated": "03/25/2014"
	},
	{
		"name": "AMORR",
		"latitude": "27-38-2.29 N",
		"longitude": "97-21-37.67 W",
		"state": "TEXAS",
		"artcc": "ZHU",
		"type": "MW",
		"updated": "07/09/2015"
	},
	{
		"name": "AMSTD",
		"latitude": "29-24-59.05 N",
		"longitude": "100-50-34.54 W",
		"state": "TEXAS",
		"artcc": "ZHU",
		"type": "MR",
		"updated": "DLF*VORTAC*304.69/5.00"
	},
	{
		"name": "AMUPE",
		"latitude": "29-48-4.74 N",
		"longitude": "90-3-43.52 W",
		"state": "LOUISIANA",
		"artcc": "ZHU",
		"type": "RNAV",
		"updated": "02/10/2016"
	},
	{
		"name": "AMUSE",
		"latitude": "30-27-23.21 N",
		"longitude": "98-17-39.08 W",
		"state": "TEXAS",
		"artcc": "ZHU",
		"type": "RP",
		"updated": "CWK*VORTAC*270.90/39.93"
	},
	{
		"name": "AMWIX",
		"latitude": "30-56-55.52 N",
		"longitude": "92-35-23.05 W",
		"state": "LOUISIANA",
		"artcc": "ZHU",
		"type": "RNAV",
		"updated": "06/22/2009"
	},
	{
		"name": "AMZAD",
		"latitude": "29-31-25.63 N",
		"longitude": "98-27-40.04 W",
		"state": "TEXAS",
		"artcc": "ZHU",
		"type": "WP",
		"updated": "11/02/1998"
	},
	{
		"name": "ANABE",
		"latitude": "30-35-51.24 N",
		"longitude": "96-7-33.99 W",
		"state": "TEXAS",
		"artcc": "ZHU",
		"type": "RNAV",
		"updated": "09/02/2012"
	},
	{
		"name": "ANADE",
		"latitude": "30-23-29.77 N",
		"longitude": "95-26-36.18 W",
		"state": "TEXAS",
		"artcc": "ZHU",
		"type": "RNAV",
		"updated": "01/27/2015"
	},
	{
		"name": "ANDIA",
		"latitude": "30-23-53.54 N",
		"longitude": "100-19-54.28 W",
		"state": "TEXAS",
		"artcc": "ZHU",
		"type": "RNAV",
		"updated": "10/07/2014"
	},
	{
		"name": "ANFED",
		"latitude": "29-39-30.96 N",
		"longitude": "91-9-41.44 W",
		"state": "LOUISIANA",
		"artcc": "ZHU",
		"type": "WP",
		"updated": "08/07/1998"
	},
	{
		"name": "ANGGS",
		"latitude": "30-7-21.41 N",
		"longitude": "97-46-4 W",
		"state": "TEXAS",
		"artcc": "ZHU",
		"type": "RNAV",
		"updated": "10/18/2017"
	},
	{
		"name": "ANKRR",
		"latitude": "27-40-55.56 N",
		"longitude": "93-12-1.39 W",
		"state": "OFFSHORE GULF",
		"artcc": "ZHU",
		"type": "RNAV",
		"updated": "03/07/2014"
	},
	{
		"name": "ANLIC",
		"latitude": "30-23-52.31 N",
		"longitude": "95-1-25.61 W",
		"state": "TEXAS",
		"artcc": "ZHU",
		"type": "RNAV",
		"updated": "10/11/2011"
	},
	{
		"name": "ANNZA",
		"latitude": "29-37-52.55 N",
		"longitude": "91-2-38.13 W",
		"state": "LOUISIANA",
		"artcc": "ZHU",
		"type": "WP",
		"updated": "08/24/1998"
	},
	{
		"name": "ANRUY",
		"latitude": "29-10-33.51 N",
		"longitude": "95-27-13.77 W",
		"state": "TEXAS",
		"artcc": "ZHU",
		"type": "MR",
		"updated": "EFD*TACAN*206.00/30.00"
	},
	{
		"name": "ANUTY",
		"latitude": "30-31-41.1 N",
		"longitude": "91-8-43.74 W",
		"state": "LOUISIANA",
		"artcc": "ZHU",
		"type": "WP",
		"updated": "07/13/1995"
	},
	{
		"name": "APALE",
		"latitude": "30-5-40.63 N",
		"longitude": "97-38-28.08 W",
		"state": "TEXAS",
		"artcc": "ZHU",
		"type": "RNAV",
		"updated": "10/23/2017"
	},
	{
		"name": "APALY",
		"latitude": "30-53-25.15 N",
		"longitude": "89-51-38.47 W",
		"state": "LOUISIANA",
		"artcc": "ZHU",
		"type": "RNAV",
		"updated": "08/28/2012"
	},
	{
		"name": "APCEX",
		"latitude": "30-40-0.99 N",
		"longitude": "97-25-49.04 W",
		"state": "TEXAS",
		"artcc": "ZHU",
		"type": "RNAV",
		"updated": "09/01/2017"
	},
	{
		"name": "APCHE",
		"latitude": "30-34-47.95 N",
		"longitude": "88-47-5.67 W",
		"state": "MISSISSIPPI",
		"artcc": "ZHU",
		"type": "MW",
		"updated": "08/16/2012"
	},
	{
		"name": "APIVE",
		"latitude": "30-25-41.37 N",
		"longitude": "88-31-9.49 W",
		"state": "MISSISSIPPI",
		"artcc": "ZHU",
		"type": "RNAV",
		"updated": "11/04/2015"
	},
	{
		"name": "APPIN",
		"latitude": "31-12-40.01 N",
		"longitude": "93-40-58.78 W",
		"state": "TEXAS",
		"artcc": "ZHU",
		"type": "RP",
		"updated": "LFK*VORTAC*081.59/53.30"
	},
	{
		"name": "APRIL",
		"latitude": "29-4-30.9 N",
		"longitude": "95-14-1.78 W",
		"state": "TEXAS",
		"artcc": "ZHU",
		"type": "MR",
		"updated": "EFD*TACAN*182.00/32.00"
	},
	{
		"name": "APYAP",
		"latitude": "29-7-44.73 N",
		"longitude": "99-41-59.38 W",
		"state": "TEXAS",
		"artcc": "ZHU",
		"type": "RNAV",
		"updated": "03/14/2000"
	},
	{
		"name": "APZIC",
		"latitude": "30-37-8.36 N",
		"longitude": "96-27-59.32 W",
		"state": "TEXAS",
		"artcc": "ZHU",
		"type": "RNAV",
		"updated": "06/20/2011"
	},
	{
		"name": "AQEKO",
		"latitude": "31-24-59.24 N",
		"longitude": "92-31-46.66 W",
		"state": "LOUISIANA",
		"artcc": "ZHU",
		"type": "RNAV",
		"updated": "06/22/2007"
	},
	{
		"name": "AREXE",
		"latitude": "29-20-9.29 N",
		"longitude": "100-53-26.81 W",
		"state": "TEXAS",
		"artcc": "ZHU",
		"type": "RNAV",
		"updated": "03/04/2010"
	},
	{
		"name": "ARMET",
		"latitude": "29-27-40.83 N",
		"longitude": "90-39-39.61 W",
		"state": "LOUISIANA",
		"artcc": "ZHU",
		"type": "RNAV",
		"updated": "05/04/2009"
	},
	{
		"name": "ARNNE",
		"latitude": "30-43-44.68 N",
		"longitude": "96-33-0.25 W",
		"state": "TEXAS",
		"artcc": "ZHU",
		"type": "RP",
		"updated": "LOA*VORTAC*223.95"
	},
	{
		"name": "ARODY",
		"latitude": "30-24-19.31 N",
		"longitude": "88-55-35.07 W",
		"state": "MISSISSIPPI",
		"artcc": "ZHU",
		"type": "MR",
		"updated": "BIX*TACAN*120.00/0.20"
	},
	{
		"name": "AROLL",
		"latitude": "30-38-48.52 N",
		"longitude": "90-51-48.04 W",
		"state": "LOUISIANA",
		"artcc": "ZHU",
		"type": "RP",
		"updated": "RQR*VOR/DME*335.00/36.39"
	},
	{
		"name": "AROLT",
		"latitude": "29-50-18.88 N",
		"longitude": "96-10-12.49 W",
		"state": "TEXAS",
		"artcc": "ZHU",
		"type": "RNAV",
		"updated": "06/04/2012"
	},
	{
		"name": "ARPER",
		"latitude": "30-26-31.28 N",
		"longitude": "99-22-12.19 W",
		"state": "TEXAS",
		"artcc": "ZHU",
		"type": "RP",
		"updated": "JCT*VORTAC*104.00/25.00"
	},
	{
		"name": "ARRCO",
		"latitude": "30-7-13.64 N",
		"longitude": "94-17-34.05 W",
		"state": "TEXAS",
		"artcc": "ZHU",
		"type": "RP",
		"updated": "BPT*VOR/DME*299.00/17.79"
	},
	{
		"name": "ARSEE",
		"latitude": "29-26-48.74 N",
		"longitude": "100-24-10.6 W",
		"state": "TEXAS",
		"artcc": "ZHU",
		"type": "MR",
		"updated": "DLF*VORTAC*068.00/20.00"
	},
	{
		"name": "ARTEL",
		"latitude": "30-9-36.57 N",
		"longitude": "92-43-52.72 W",
		"state": "LOUISIANA",
		"artcc": "ZHU",
		"type": "RP",
		"updated": "LCH*VORTAC*079.62/19.50"
	},
	{
		"name": "ARUXE",
		"latitude": "29-47-22.51 N",
		"longitude": "95-10-6.13 W",
		"state": "TEXAS",
		"artcc": "ZHU",
		"type": "RP",
		"updated": "HUB*VOR/DME*030.18"
	},
	{
		"name": "ASAGE",
		"latitude": "30-35-2.43 N",
		"longitude": "89-39-3.74 W",
		"state": "MISSISSIPPI",
		"artcc": "ZHU",
		"type": "RNAV",
		"updated": "05/25/2016"
	},
	{
		"name": "ASCOT",
		"latitude": "27-7-7.13 N",
		"longitude": "97-25-1.13 W",
		"state": "TEXAS",
		"artcc": "ZHU",
		"type": "RP",
		"updated": "ALI*VOR*132.90"
	},
	{
		"name": "ASHRR",
		"latitude": "30-19-4.57 N",
		"longitude": "96-30-27.66 W",
		"state": "TEXAS",
		"artcc": "ZHU",
		"type": "RNAV",
		"updated": "01/10/2015"
	},
	{
		"name": "ASHUN",
		"latitude": "28-30-54 N",
		"longitude": "91-3-18 W",
		"state": "OFFSHORE GULF",
		"artcc": "ZHU",
		"type": "RP",
		"updated": "06/25/1996"
	},
	{
		"name": "ASLYA",
		"latitude": "30-32-14.65 N",
		"longitude": "100-25-25.3 W",
		"state": "TEXAS",
		"artcc": "ZHU",
		"type": "RNAV",
		"updated": "10/07/2014"
	},
	{
		"name": "ATAGE",
		"latitude": "26-18-33.03 N",
		"longitude": "97-39-27.84 W",
		"state": "TEXAS",
		"artcc": "ZHU",
		"type": "RNAV",
		"updated": "08/09/2012"
	},
	{
		"name": "ATCHA",
		"latitude": "30-10-26.35 N",
		"longitude": "91-53-30.78 W",
		"state": "LOUISIANA",
		"artcc": "ZHU",
		"type": "RNAV",
		"updated": "01/19/2007"
	},
	{
		"name": "ATHIS",
		"latitude": "28-4-24.46 N",
		"longitude": "97-50-19.74 W",
		"state": "TEXAS",
		"artcc": "ZHU",
		"type": "RP",
		"updated": "ALI*VOR*019.88"
	},
	{
		"name": "ATILA",
		"latitude": "29-50-50.81 N",
		"longitude": "95-36-9.6 W",
		"state": "TEXAS",
		"artcc": "ZHU",
		"type": "RP",
		"updated": "IAH*VORTAC*239.01/14.92"
	},
	{
		"name": "ATOQU",
		"latitude": "29-20-53.67 N",
		"longitude": "96-28-11.99 W",
		"state": "TEXAS",
		"artcc": "ZHU",
		"type": "RNAV",
		"updated": "06/04/2012"
	},
	{
		"name": "ATUYE",
		"latitude": "30-5-34.54 N",
		"longitude": "93-12-30.44 W",
		"state": "LOUISIANA",
		"artcc": "ZHU",
		"type": "RNAV",
		"updated": "05/30/2012"
	},
	{
		"name": "AUGHT",
		"latitude": "31-8-41.12 N",
		"longitude": "92-8-14.78 W",
		"state": "LOUISIANA",
		"artcc": "ZHU",
		"type": "RNAV",
		"updated": "02/20/2009"
	},
	{
		"name": "AUGUR",
		"latitude": "31-12-29.54 N",
		"longitude": "97-25-47.03 W",
		"state": "TEXAS",
		"artcc": "ZHU",
		"type": "RP",
		"updated": "TPL*LD*335.61/4.36"
	},
	{
		"name": "AUSTS",
		"latitude": "28-13-40.9 N",
		"longitude": "97-8-53.41 W",
		"state": "TEXAS",
		"artcc": "ZHU",
		"type": "RP",
		"updated": "CRP*VORTAC*030.00/24.99"
	},
	{
		"name": "AUTEC",
		"latitude": "29-48-25.58 N",
		"longitude": "91-7-57.49 W",
		"state": "LOUISIANA",
		"artcc": "ZHU",
		"type": "WP",
		"updated": "08/07/1998"
	},
	{
		"name": "AVAYA",
		"latitude": "26-8-30.44 N",
		"longitude": "97-41-0.17 W",
		"state": "TEXAS",
		"artcc": "ZHU",
		"type": "RP",
		"updated": "HRL*VOR/DME*193.00/5.50"
	},
	{
		"name": "AVDUW",
		"latitude": "28-27-35.96 N",
		"longitude": "99-45-2.31 W",
		"state": "TEXAS",
		"artcc": "ZHU",
		"type": "RNAV",
		"updated": "06/04/2013"
	},
	{
		"name": "AVIBI",
		"latitude": "29-41-36.38 N",
		"longitude": "98-23-52.62 W",
		"state": "TEXAS",
		"artcc": "ZHU",
		"type": "MW",
		"updated": "09/05/2013"
	},
	{
		"name": "AVOPE",
		"latitude": "27-26-22.1 N",
		"longitude": "97-57-4.38 W",
		"state": "TEXAS",
		"artcc": "ZHU",
		"type": "RNAV",
		"updated": "06/28/2016"
	},
	{
		"name": "AVUDE",
		"latitude": "26-8-37.62 N",
		"longitude": "97-39-35.11 W",
		"state": "TEXAS",
		"artcc": "ZHU",
		"type": "RNAV",
		"updated": "09/14/2012"
	},
	{
		"name": "AVVOS",
		"latitude": "29-42-37.26 N",
		"longitude": "95-12-23.84 W",
		"state": "TEXAS",
		"artcc": "ZHU",
		"type": "RP",
		"updated": "IAH*VORTAC*148.77"
	},
	{
		"name": "AVYUM",
		"latitude": "30-29-11.19 N",
		"longitude": "89-9-54.45 W",
		"state": "MISSISSIPPI",
		"artcc": "ZHU",
		"type": "RP",
		"updated": "GPT*VORTAC*/6.61"
	},
	{
		"name": "AWALT",
		"latitude": "30-41-51.02 N",
		"longitude": "98-2-50.73 W",
		"state": "TEXAS",
		"artcc": "ZHU",
		"type": "RNAV",
		"updated": "11/14/2016"
	},
	{
		"name": "AWDAD",
		"latitude": "30-6-59.4 N",
		"longitude": "90-57-7.56 W",
		"state": "LOUISIANA",
		"artcc": "ZHU",
		"type": "RP",
		"updated": "RQR*VOR/DME*273.33/19.00"
	},
	{
		"name": "AWSTN",
		"latitude": "29-34-54.81 N",
		"longitude": "95-31-49.24 W",
		"state": "TEXAS",
		"artcc": "ZHU",
		"type": "RNAV",
		"updated": "03/25/2014"
	},
	{
		"name": "AXAGE",
		"latitude": "30-39-30.26 N",
		"longitude": "89-35-46.83 W",
		"state": "MISSISSIPPI",
		"artcc": "ZHU",
		"type": "RNAV",
		"updated": "11/02/2017"
	},
	{
		"name": "AXEJA",
		"latitude": "31-2-32.36 N",
		"longitude": "87-57-1.58 W",
		"state": "ALABAMA",
		"artcc": "ZHU",
		"type": "CN",
		"updated": "12/04/2014"
	},
	{
		"name": "AXEXO",
		"latitude": "25-19-29.37 N",
		"longitude": "94-35-8.69 W",
		"state": "OFFSHORE GULF",
		"artcc": "ZHU",
		"type": "RNAV",
		"updated": "10/31/2012"
	},
	{
		"name": "AXINE",
		"latitude": "26-18-28.88 N",
		"longitude": "97-38-51.99 W",
		"state": "TEXAS",
		"artcc": "ZHU",
		"type": "RNAV",
		"updated": "09/14/2012"
	},
	{
		"name": "AXSIS",
		"latitude": "30-56-44.67 N",
		"longitude": "88-4-32.68 W",
		"state": "ALABAMA",
		"artcc": "ZHU",
		"type": "RP",
		"updated": "BFM*VORTAC*353.00/19.96"
	},
	{
		"name": "AXTEP",
		"latitude": "30-31-40.66 N",
		"longitude": "95-33-6.52 W",
		"state": "TEXAS",
		"artcc": "ZHU",
		"type": "RNAV",
		"updated": "01/27/2015"
	},
	{
		"name": "AXWUB",
		"latitude": "30-52-32.01 N",
		"longitude": "97-29-1.86 W",
		"state": "TEXAS",
		"artcc": "ZHU",
		"type": "RNAV",
		"updated": "01/05/2017"
	},
	{
		"name": "AYDEN",
		"latitude": "30-18-29.46 N",
		"longitude": "96-21-26.4 W",
		"state": "TEXAS",
		"artcc": "ZHU",
		"type": "RP",
		"updated": "TNV*VOR/DME*266.41/15.58"
	},
	{
		"name": "AYEYI",
		"latitude": "31-35-52.85 N",
		"longitude": "91-17-45.02 W",
		"state": "MISSISSIPPI",
		"artcc": "ZHU",
		"type": "RNAV",
		"updated": "10/17/2007"
	},
	{
		"name": "AYOTY",
		"latitude": "30-2-4.23 N",
		"longitude": "92-8-33.09 W",
		"state": "LOUISIANA",
		"artcc": "ZHU",
		"type": "RP",
		"updated": "TYN*LD*215.75/12.28"
	},
	{
		"name": "AYUDU",
		"latitude": "30-27-14.5 N",
		"longitude": "89-27-15.61 W",
		"state": "MISSISSIPPI",
		"artcc": "ZHU",
		"type": "RNAV",
		"updated": "03/31/2016"
	},
	{
		"name": "AYUNA",
		"latitude": "26-10-34.75 N",
		"longitude": "97-38-57.82 W",
		"state": "TEXAS",
		"artcc": "ZHU",
		"type": "RNAV",
		"updated": "09/14/2012"
	},
	{
		"name": "AYUYE",
		"latitude": "30-21-42.17 N",
		"longitude": "90-58-24.05 W",
		"state": "LOUISIANA",
		"artcc": "ZHU",
		"type": "RNAV",
		"updated": "07/18/2012"
	},
	{
		"name": "AZOBE",
		"latitude": "29-2-6.12 N",
		"longitude": "100-34-1.73 W",
		"state": "TEXAS",
		"artcc": "ZHU",
		"type": "RNAV",
		"updated": "08/19/2009"
	},
	{
		"name": "AZTIB",
		"latitude": "29-32-35.39 N",
		"longitude": "95-9-45.55 W",
		"state": "TEXAS",
		"artcc": "ZHU",
		"type": "RNAV",
		"updated": "02/23/2012"
	},
	{
		"name": "AZWAR",
		"latitude": "30-8-25.72 N",
		"longitude": "94-4-40.31 W",
		"state": "TEXAS",
		"artcc": "ZHU",
		"type": "RNAV",
		"updated": "10/27/2009"
	},
	{
		"name": "AZYUC",
		"latitude": "27-28-20.6 N",
		"longitude": "98-52-42.56 W",
		"state": "TEXAS",
		"artcc": "ZHU",
		"type": "RNAV",
		"updated": "05/16/2010"
	}
]
