[
	{
		"name": "BAAAB",
		"latitude": "30-9-30.16 N",
		"longitude": "98-10-20.8 W",
		"state": "TEXAS",
		"artcc": "ZHU",
		"type": "RNAV",
		"updated": "10/19/2017"
	},
	{
		"name": "BAAGO",
		"latitude": "29-24-46.37 N",
		"longitude": "98-12-33.55 W",
		"state": "TEXAS",
		"artcc": "ZHU",
		"type": "MR",
		"updated": "RND*VORTAC*143.00/7.50"
	},
	{
		"name": "BAAKE",
		"latitude": "29-50-48.68 N",
		"longitude": "95-55-45.28 W",
		"state": "TEXAS",
		"artcc": "ZHU",
		"type": "RNAV",
		"updated": "03/26/2014"
	},
	{
		"name": "BAATS",
		"latitude": "30-31-36.04 N",
		"longitude": "95-56-22.84 W",
		"state": "TEXAS",
		"artcc": "ZHU",
		"type": "RP",
		"updated": "TNV*VOR/DME*015.31"
	},
	{
		"name": "BACAC",
		"latitude": "26-6-49.36 N",
		"longitude": "97-31-14.86 W",
		"state": "TEXAS",
		"artcc": "ZHU",
		"type": "RNAV",
		"updated": "05/14/2013"
	},
	{
		"name": "BACOK",
		"latitude": "29-55-8.8 N",
		"longitude": "92-13-46.8 W",
		"state": "LOUISIANA",
		"artcc": "ZHU",
		"type": "WP",
		"updated": "08/07/1998"
	},
	{
		"name": "BAKAY",
		"latitude": "30-47-9.4 N",
		"longitude": "88-14-11.53 W",
		"state": "ALABAMA",
		"artcc": "ZHU",
		"type": "RNAV",
		"updated": "06/20/2012"
	},
	{
		"name": "BALKK",
		"latitude": "29-25-11.78 N",
		"longitude": "97-1-36.9 W",
		"state": "TEXAS",
		"artcc": "ZHU",
		"type": "RNAV",
		"updated": "11/13/2014"
	},
	{
		"name": "BALLD",
		"latitude": "29-55-35.58 N",
		"longitude": "97-39-2.39 W",
		"state": "TEXAS",
		"artcc": "ZHU",
		"type": "RP",
		"updated": "HCE*LD*174.70/15.00"
	},
	{
		"name": "BALTS",
		"latitude": "27-39-33.63 N",
		"longitude": "97-56-28.14 W",
		"state": "TEXAS",
		"artcc": "ZHU",
		"type": "MR",
		"updated": "NQI*TACAN*319.00/12.00"
	},
	{
		"name": "BAMML",
		"latitude": "31-15-49.08 N",
		"longitude": "97-56-8.26 W",
		"state": "TEXAS",
		"artcc": "ZHU",
		"type": "RNAV",
		"updated": "07/13/2014"
	},
	{
		"name": "BANVE",
		"latitude": "30-28-1.41 N",
		"longitude": "98-21-36.31 W",
		"state": "TEXAS",
		"artcc": "ZHU",
		"type": "RNAV",
		"updated": "03/31/2009"
	},
	{
		"name": "BAPAY",
		"latitude": "30-51-8.16 N",
		"longitude": "89-51-46.11 W",
		"state": "LOUISIANA",
		"artcc": "ZHU",
		"type": "RNAV",
		"updated": "08/28/2012"
	},
	{
		"name": "BAPRE",
		"latitude": "30-15-36.21 N",
		"longitude": "91-3-7.45 W",
		"state": "LOUISIANA",
		"artcc": "ZHU",
		"type": "RNAV",
		"updated": "07/14/2015"
	},
	{
		"name": "BARBA",
		"latitude": "31-6-4.09 N",
		"longitude": "97-11-20.21 W",
		"state": "TEXAS",
		"artcc": "ZHU",
		"type": "RP",
		"updated": "ACT*VORTAC*164.00/33.85"
	},
	{
		"name": "BARRI",
		"latitude": "30-30-57.26 N",
		"longitude": "92-1-24.04 W",
		"state": "LOUISIANA",
		"artcc": "ZHU",
		"type": "RP",
		"updated": "LFT*VORTAC*352.27/19.35"
	},
	{
		"name": "BARSA",
		"latitude": "30-0-6.56 N",
		"longitude": "98-44-19.8 W",
		"state": "TEXAS",
		"artcc": "ZHU",
		"type": "RP",
		"updated": "SAT*VORTAC*318.00/26.00"
	},
	{
		"name": "BARUN",
		"latitude": "30-46-24.19 N",
		"longitude": "90-25-17.74 W",
		"state": "LOUISIANA",
		"artcc": "ZHU",
		"type": "RP",
		"updated": "PCU*VOR/DME*284.73"
	},
	{
		"name": "BASGE",
		"latitude": "29-49-17.62 N",
		"longitude": "95-46-17.53 W",
		"state": "TEXAS",
		"artcc": "ZHU",
		"type": "RNAV",
		"updated": "06/01/2009"
	},
	{
		"name": "BASIS",
		"latitude": "30-37-22.53 N",
		"longitude": "98-15-34.71 W",
		"state": "TEXAS",
		"artcc": "ZHU",
		"type": "RP",
		"updated": "AGJ*VORTAC*185.26/34.22"
	},
	{
		"name": "BASTO",
		"latitude": "30-10-25.05 N",
		"longitude": "97-17-4.09 W",
		"state": "TEXAS",
		"artcc": "ZHU",
		"type": "RP",
		"updated": "IDU*VORTAC*281.28/39.80"
	},
	{
		"name": "BAWWI",
		"latitude": "27-40-46.12 N",
		"longitude": "97-16-39.34 W",
		"state": "TEXAS",
		"artcc": "ZHU",
		"type": "MR",
		"updated": "NGP*VORTAC*108.00/1.00"
	},
	{
		"name": "BAXTR",
		"latitude": "29-51-46.69 N",
		"longitude": "94-1-34.4 W",
		"state": "TEXAS",
		"artcc": "ZHU",
		"type": "RP",
		"updated": "BPT*VOR/DME*179.00/5.00"
	},
	{
		"name": "BAYAS",
		"latitude": "30-51-30 N",
		"longitude": "88-23-4.2 W",
		"state": "ALABAMA",
		"artcc": "ZHU",
		"type": "RNAV",
		"updated": "06/20/2012"
	},
	{
		"name": "BAYED",
		"latitude": "30-20-51.51 N",
		"longitude": "98-12-11.44 W",
		"state": "TEXAS",
		"artcc": "ZHU",
		"type": "RP",
		"updated": "CWK*VORTAC*261.14/35.00"
	},
	{
		"name": "BAYOU",
		"latitude": "30-29-5.08 N",
		"longitude": "89-9-47.41 W",
		"state": "MISSISSIPPI",
		"artcc": "ZHU",
		"type": "RP",
		"updated": "GPT*VORTAC*/6.47"
	},
	{
		"name": "BAYUU",
		"latitude": "29-34-58.15 N",
		"longitude": "95-9-48.86 W",
		"state": "TEXAS",
		"artcc": "ZHU",
		"type": "RP",
		"updated": "EFD*TACAN*/1.40"
	},
	{
		"name": "BAYYY",
		"latitude": "29-22-38.83 N",
		"longitude": "94-22-15.95 W",
		"state": "TEXAS",
		"artcc": "ZHU",
		"type": "RNAV",
		"updated": "03/25/2014"
	},
	{
		"name": "BAZBL",
		"latitude": "30-38-16.18 N",
		"longitude": "96-3-24.1 W",
		"state": "TEXAS",
		"artcc": "ZHU",
		"type": "RP",
		"updated": "LOA*VORTAC*180.97"
	},
	{
		"name": "BBQUE",
		"latitude": "29-31-3.24 N",
		"longitude": "93-57-9.04 W",
		"state": "TEXAS",
		"artcc": "ZHU",
		"type": "RNAV",
		"updated": "03/14/2014"
	},
	{
		"name": "BBURT",
		"latitude": "29-11-14.25 N",
		"longitude": "93-34-50.54 W",
		"state": "OFFSHORE GULF",
		"artcc": "ZHU",
		"type": "RNAV",
		"updated": "03/09/2014"
	},
	{
		"name": "BBYSE",
		"latitude": "30-5-43.23 N",
		"longitude": "95-24-13.19 W",
		"state": "TEXAS",
		"artcc": "ZHU",
		"type": "RNAV",
		"updated": "03/06/2015"
	},
	{
		"name": "BDDRO",
		"latitude": "29-57-7.73 N",
		"longitude": "94-33-48.73 W",
		"state": "TEXAS",
		"artcc": "ZHU",
		"type": "RP",
		"updated": "BPT*VOR/DME*263.87/28.53"
	},
	{
		"name": "BEANE",
		"latitude": "30-36-18.52 N",
		"longitude": "96-25-14.77 W",
		"state": "TEXAS",
		"artcc": "ZHU",
		"type": "RNAV",
		"updated": "03/14/2014"
	},
	{
		"name": "BEATL",
		"latitude": "30-32-45.63 N",
		"longitude": "94-5-18.22 W",
		"state": "TEXAS",
		"artcc": "ZHU",
		"type": "RNAV",
		"updated": "03/11/2014"
	},
	{
		"name": "BEBAY",
		"latitude": "29-31-16.84 N",
		"longitude": "95-42-56.37 W",
		"state": "TEXAS",
		"artcc": "ZHU",
		"type": "RNAV",
		"updated": "05/21/2003"
	},
	{
		"name": "BEBNE",
		"latitude": "29-18-5.86 N",
		"longitude": "98-33-43.5 W",
		"state": "TEXAS",
		"artcc": "ZHU",
		"type": "RNAV",
		"updated": "06/02/2016"
	},
	{
		"name": "BEBSE",
		"latitude": "26-9-30.64 N",
		"longitude": "97-34-58.9 W",
		"state": "TEXAS",
		"artcc": "ZHU",
		"type": "RNAV",
		"updated": "09/14/2012"
	},
	{
		"name": "BEBUY",
		"latitude": "29-29-38.11 N",
		"longitude": "94-56-48.61 W",
		"state": "TEXAS",
		"artcc": "ZHU",
		"type": "RP",
		"updated": "EFD*TACAN*116.00/13.00"
	},
	{
		"name": "BEDDY",
		"latitude": "30-26-28.62 N",
		"longitude": "91-45-58.48 W",
		"state": "LOUISIANA",
		"artcc": "ZHU",
		"type": "RP",
		"updated": "LFT*VORTAC*035.38/18.91"
	},
	{
		"name": "BEDEI",
		"latitude": "29-18-52.08 N",
		"longitude": "90-5-8.77 W",
		"state": "LOUISIANA",
		"artcc": "ZHU",
		"type": "WP",
		"updated": "08/07/1998"
	},
	{
		"name": "BEDIA",
		"latitude": "29-11-41.37 N",
		"longitude": "89-50-57.34 W",
		"state": "LOUISIANA",
		"artcc": "ZHU",
		"type": "WP",
		"updated": "08/07/1998"
	},
	{
		"name": "BEDLM",
		"latitude": "29-46-16.42 N",
		"longitude": "94-51-43.81 W",
		"state": "TEXAS",
		"artcc": "ZHU",
		"type": "RNAV",
		"updated": "03/11/2014"
	},
	{
		"name": "BEEEP",
		"latitude": "29-50-47.39 N",
		"longitude": "95-33-48.77 W",
		"state": "TEXAS",
		"artcc": "ZHU",
		"type": "RNAV",
		"updated": "03/07/2014"
	},
	{
		"name": "BEEHE",
		"latitude": "30-25-35.66 N",
		"longitude": "90-25-5.65 W",
		"state": "LOUISIANA",
		"artcc": "ZHU",
		"type": "RNAV",
		"updated": "05/14/2010"
	},
	{
		"name": "BEESO",
		"latitude": "30-20-15.33 N",
		"longitude": "97-34-23.54 W",
		"state": "TEXAS",
		"artcc": "ZHU",
		"type": "RNAV",
		"updated": "10/19/2017"
	},
	{
		"name": "BEFAL",
		"latitude": "29-48-46.37 N",
		"longitude": "91-59-13.02 W",
		"state": "LOUISIANA",
		"artcc": "ZHU",
		"type": "WP",
		"updated": "08/07/1998"
	},
	{
		"name": "BEFOR",
		"latitude": "29-32-51.16 N",
		"longitude": "91-8-39.25 W",
		"state": "LOUISIANA",
		"artcc": "ZHU",
		"type": "WP",
		"updated": "08/07/1998"
	},
	{
		"name": "BEKYO",
		"latitude": "29-28-35.49 N",
		"longitude": "90-35-30.75 W",
		"state": "LOUISIANA",
		"artcc": "ZHU",
		"type": "RNAV",
		"updated": "12/12/2017"
	},
	{
		"name": "BELLR",
		"latitude": "29-19-29.45 N",
		"longitude": "96-5-19.17 W",
		"state": "TEXAS",
		"artcc": "ZHU",
		"type": "RP",
		"updated": "ELA*VOR/DME*141.32/23.48"
	},
	{
		"name": "BEMSS",
		"latitude": "29-36-48.74 N",
		"longitude": "90-19-30.83 W",
		"state": "LOUISIANA",
		"artcc": "ZHU",
		"type": "MR",
		"updated": "HRV*VORTAC*224.00/22.00"
	},
	{
		"name": "BENEY",
		"latitude": "29-50-19.76 N",
		"longitude": "98-59-26.02 W",
		"state": "TEXAS",
		"artcc": "ZHU",
		"type": "RP",
		"updated": "SAT*VORTAC*285.00/30.00"
	},
	{
		"name": "BENYA",
		"latitude": "27-46-9.43 N",
		"longitude": "99-19-48.54 W",
		"state": "TEXAS",
		"artcc": "ZHU",
		"type": "RP",
		"updated": "LRD*VORTAC*006.00/18.00"
	},
	{
		"name": "BENZZ",
		"latitude": "31-2-37.36 N",
		"longitude": "92-14-3.48 W",
		"state": "LOUISIANA",
		"artcc": "ZHU",
		"type": "RNAV",
		"updated": "02/20/2009"
	},
	{
		"name": "BEPEA",
		"latitude": "30-5-26.35 N",
		"longitude": "95-49-32.93 W",
		"state": "TEXAS",
		"artcc": "ZHU",
		"type": "RNAV",
		"updated": "03/13/2014"
	},
	{
		"name": "BEPKY",
		"latitude": "30-42-58.6 N",
		"longitude": "98-14-46.31 W",
		"state": "TEXAS",
		"artcc": "ZHU",
		"type": "RNAV",
		"updated": "09/30/2009"
	},
	{
		"name": "BEPUH",
		"latitude": "29-25-10.74 N",
		"longitude": "96-15-35.97 W",
		"state": "TEXAS",
		"artcc": "ZHU",
		"type": "RNAV",
		"updated": "07/12/2009"
	},
	{
		"name": "BERIY",
		"latitude": "27-32-30.99 N",
		"longitude": "97-51-1.59 W",
		"state": "TEXAS",
		"artcc": "ZHU",
		"type": "MR",
		"updated": "NQI*TACAN*312.90/3.50"
	},
	{
		"name": "BETGE",
		"latitude": "29-30-28.15 N",
		"longitude": "98-16-31.2 W",
		"state": "TEXAS",
		"artcc": "ZHU",
		"type": "MW",
		"updated": "09/05/2013"
	},
	{
		"name": "BETTI",
		"latitude": "29-57-54.97 N",
		"longitude": "98-3-23.98 W",
		"state": "TEXAS",
		"artcc": "ZHU",
		"type": "RP",
		"updated": "SAT*VORTAC*039.59/28.56"
	},
	{
		"name": "BETVE",
		"latitude": "26-24-26.83 N",
		"longitude": "97-38-47.54 W",
		"state": "TEXAS",
		"artcc": "ZHU",
		"type": "RNAV",
		"updated": "08/29/2003"
	},
	{
		"name": "BETZY",
		"latitude": "28-14-50.19 N",
		"longitude": "96-54-33.69 W",
		"state": "TEXAS",
		"artcc": "ZHU",
		"type": "RP",
		"updated": "PSX*VORTAC*218.00/44.43"
	},
	{
		"name": "BEVPE",
		"latitude": "29-46-20.49 N",
		"longitude": "90-45-16.94 W",
		"state": "LOUISIANA",
		"artcc": "ZHU",
		"type": "RNAV",
		"updated": "05/04/2009"
	},
	{
		"name": "BEYYE",
		"latitude": "27-42-25.41 N",
		"longitude": "97-16-44.37 W",
		"state": "TEXAS",
		"artcc": "ZHU",
		"type": "MR",
		"updated": "NGP*VORTAC*028.00/1.50"
	},
	{
		"name": "BEZJU",
		"latitude": "30-38-50.45 N",
		"longitude": "88-34-56.1 W",
		"state": "MISSISSIPPI",
		"artcc": "ZHU",
		"type": "RP",
		"updated": "SJI*VORTAC*242.86"
	},
	{
		"name": "BEZLE",
		"latitude": "29-33-23.33 N",
		"longitude": "95-42-58.09 W",
		"state": "TEXAS",
		"artcc": "ZHU",
		"type": "RP",
		"updated": "IAH*VORTAC*214.00/30.80"
	},
	{
		"name": "BFFET",
		"latitude": "30-13-59.15 N",
		"longitude": "94-48-50.84 W",
		"state": "TEXAS",
		"artcc": "ZHU",
		"type": "RNAV",
		"updated": "03/07/2014"
	},
	{
		"name": "BFMCG",
		"latitude": "28-0-0 N",
		"longitude": "88-0-0 W",
		"state": "OFFSHORE GULF",
		"artcc": "ZHU",
		"type": "RNAV",
		"updated": "06/24/2013"
	},
	{
		"name": "BFMCH",
		"latitude": "27-40-0 N",
		"longitude": "88-0-0 W",
		"state": "OFFSHORE GULF",
		"artcc": "ZHU",
		"type": "RNAV",
		"updated": "06/24/2013"
	},
	{
		"name": "BFMCI",
		"latitude": "27-20-0 N",
		"longitude": "88-0-0 W",
		"state": "OFFSHORE GULF",
		"artcc": "ZHU",
		"type": "RNAV",
		"updated": "06/24/2013"
	},
	{
		"name": "BFMCJ",
		"latitude": "27-0-0 N",
		"longitude": "88-0-0 W",
		"state": "OFFSHORE GULF",
		"artcc": "ZHU",
		"type": "RNAV",
		"updated": "06/24/2013"
	},
	{
		"name": "BFMCK",
		"latitude": "26-40-0 N",
		"longitude": "88-0-0 W",
		"state": "OFFSHORE GULF",
		"artcc": "ZHU",
		"type": "RNAV",
		"updated": "06/24/2013"
	},
	{
		"name": "BFMCL",
		"latitude": "26-20-0 N",
		"longitude": "88-0-0 W",
		"state": "OFFSHORE GULF",
		"artcc": "ZHU",
		"type": "RNAV",
		"updated": "06/24/2013"
	},
	{
		"name": "BFMCM",
		"latitude": "26-0-0 N",
		"longitude": "88-0-0 W",
		"state": "OFFSHORE GULF",
		"artcc": "ZHU",
		"type": "RNAV",
		"updated": "06/24/2013"
	},
	{
		"name": "BFMCN",
		"latitude": "25-40-0 N",
		"longitude": "88-0-0 W",
		"state": "OFFSHORE GULF",
		"artcc": "ZHU",
		"type": "RNAV",
		"updated": "06/24/2013"
	},
	{
		"name": "BFMCO",
		"latitude": "25-20-0 N",
		"longitude": "88-0-0 W",
		"state": "OFFSHORE GULF",
		"artcc": "ZHU",
		"type": "RNAV",
		"updated": "06/24/2013"
	},
	{
		"name": "BFMCP",
		"latitude": "25-0-0 N",
		"longitude": "88-0-0 W",
		"state": "OFFSHORE GULF",
		"artcc": "ZHU",
		"type": "RNAV",
		"updated": "06/24/2013"
	},
	{
		"name": "BFMCQ",
		"latitude": "24-40-0 N",
		"longitude": "88-0-0 W",
		"state": "OFFSHORE GULF",
		"artcc": "ZHU",
		"type": "RNAV",
		"updated": "06/24/2013"
	},
	{
		"name": "BFMLA",
		"latitude": "30-0-0 N",
		"longitude": "88-20-0 W",
		"state": "OFFSHORE GULF",
		"artcc": "ZHU",
		"type": "RNAV",
		"updated": "01/19/2017"
	},
	{
		"name": "BFMLB",
		"latitude": "29-40-0 N",
		"longitude": "88-20-0 W",
		"state": "OFFSHORE GULF",
		"artcc": "ZHU",
		"type": "WP",
		"updated": "07/17/1998"
	},
	{
		"name": "BFMLC",
		"latitude": "29-20-0 N",
		"longitude": "88-20-0 W",
		"state": "OFFSHORE GULF",
		"artcc": "ZHU",
		"type": "WP",
		"updated": "07/17/1998"
	},
	{
		"name": "BFMLD",
		"latitude": "29-0-0 N",
		"longitude": "88-20-0 W",
		"state": "OFFSHORE GULF",
		"artcc": "ZHU",
		"type": "WP",
		"updated": "07/17/1998"
	},
	{
		"name": "BFMLE",
		"latitude": "28-40-0 N",
		"longitude": "88-20-0 W",
		"state": "OFFSHORE GULF",
		"artcc": "ZHU",
		"type": "WP",
		"updated": "07/17/1998"
	},
	{
		"name": "BFMLF",
		"latitude": "28-20-0 N",
		"longitude": "88-20-0 W",
		"state": "OFFSHORE GULF",
		"artcc": "ZHU",
		"type": "WP",
		"updated": "07/17/1998"
	},
	{
		"name": "BFMLG",
		"latitude": "28-0-0 N",
		"longitude": "88-20-0 W",
		"state": "OFFSHORE GULF",
		"artcc": "ZHU",
		"type": "WP",
		"updated": "07/17/1998"
	},
	{
		"name": "BFMLH",
		"latitude": "27-40-0 N",
		"longitude": "88-20-0 W",
		"state": "OFFSHORE GULF",
		"artcc": "ZHU",
		"type": "WP",
		"updated": "07/17/1998"
	},
	{
		"name": "BFMLI",
		"latitude": "27-20-0 N",
		"longitude": "88-20-0 W",
		"state": "OFFSHORE GULF",
		"artcc": "ZHU",
		"type": "WP",
		"updated": "07/17/1998"
	},
	{
		"name": "BFMLJ",
		"latitude": "27-0-0 N",
		"longitude": "88-20-0 W",
		"state": "OFFSHORE GULF",
		"artcc": "ZHU",
		"type": "WP",
		"updated": "07/17/1998"
	},
	{
		"name": "BFMLK",
		"latitude": "26-40-0 N",
		"longitude": "88-20-0 W",
		"state": "OFFSHORE GULF",
		"artcc": "ZHU",
		"type": "WP",
		"updated": "07/17/1998"
	},
	{
		"name": "BFMLL",
		"latitude": "26-20-0 N",
		"longitude": "88-20-0 W",
		"state": "OFFSHORE GULF",
		"artcc": "ZHU",
		"type": "WP",
		"updated": "07/17/1998"
	},
	{
		"name": "BFMLM",
		"latitude": "26-0-0 N",
		"longitude": "88-20-0 W",
		"state": "OFFSHORE GULF",
		"artcc": "ZHU",
		"type": "WP",
		"updated": "07/17/1998"
	},
	{
		"name": "BFMLN",
		"latitude": "25-40-0 N",
		"longitude": "88-20-0 W",
		"state": "OFFSHORE GULF",
		"artcc": "ZHU",
		"type": "WP",
		"updated": "07/17/1998"
	},
	{
		"name": "BFMLO",
		"latitude": "25-20-0 N",
		"longitude": "88-20-0 W",
		"state": "OFFSHORE GULF",
		"artcc": "ZHU",
		"type": "WP",
		"updated": "07/17/1998"
	},
	{
		"name": "BFMLP",
		"latitude": "25-0-0 N",
		"longitude": "88-20-0 W",
		"state": "OFFSHORE GULF",
		"artcc": "ZHU",
		"type": "WP",
		"updated": "07/17/1998"
	},
	{
		"name": "BFMLQ",
		"latitude": "24-40-0 N",
		"longitude": "88-20-0 W",
		"state": "OFFSHORE GULF",
		"artcc": "ZHU",
		"type": "WP",
		"updated": "07/17/1998"
	},
	{
		"name": "BGBUK",
		"latitude": "30-1-24.71 N",
		"longitude": "95-54-39.82 W",
		"state": "TEXAS",
		"artcc": "ZHU",
		"type": "RNAV",
		"updated": "03/13/2014"
	},
	{
		"name": "BIBLY",
		"latitude": "29-58-21.36 N",
		"longitude": "89-52-13.12 W",
		"state": "LOUISIANA",
		"artcc": "ZHU",
		"type": "MW",
		"updated": "06/22/2009"
	},
	{
		"name": "BIBRE",
		"latitude": "29-40-15.33 N",
		"longitude": "98-58-51.25 W",
		"state": "TEXAS",
		"artcc": "ZHU",
		"type": "RNAV",
		"updated": "08/30/2015"
	},
	{
		"name": "BIGFT",
		"latitude": "28-57-34.53 N",
		"longitude": "98-55-55.94 W",
		"state": "TEXAS",
		"artcc": "ZHU",
		"type": "MR",
		"updated": "KSY*TACAN*215.00/29.00"
	},
	{
		"name": "BIGTX",
		"latitude": "28-49-17.82 N",
		"longitude": "96-36-56.48 W",
		"state": "TEXAS",
		"artcc": "ZHU",
		"type": "RP",
		"updated": "PSX*VORTAC*273.92"
	},
	{
		"name": "BIIGG",
		"latitude": "29-53-32.44 N",
		"longitude": "95-28-52.17 W",
		"state": "TEXAS",
		"artcc": "ZHU",
		"type": "RP",
		"updated": "TNV*VOR/DME*120.15/38.27"
	},
	{
		"name": "BIIRD",
		"latitude": "30-4-27.66 N",
		"longitude": "97-40-32.56 W",
		"state": "TEXAS",
		"artcc": "ZHU",
		"type": "RP",
		"updated": "BSM*LD*174.69/6.15"
	},
	{
		"name": "BILEE",
		"latitude": "31-9-52.25 N",
		"longitude": "96-22-53.62 W",
		"state": "TEXAS",
		"artcc": "ZHU",
		"type": "RP",
		"updated": "TNV*VOR/DME*334.40/55.04"
	},
	{
		"name": "BIMTE",
		"latitude": "30-0-32.83 N",
		"longitude": "95-59-48.99 W",
		"state": "TEXAS",
		"artcc": "ZHU",
		"type": "RNAV",
		"updated": "07/20/2007"
	},
	{
		"name": "BISGE",
		"latitude": "29-36-30.8 N",
		"longitude": "98-23-8.45 W",
		"state": "TEXAS",
		"artcc": "ZHU",
		"type": "RNAV",
		"updated": "05/31/2005"
	},
	{
		"name": "BISHE",
		"latitude": "29-51-5.95 N",
		"longitude": "95-12-42.09 W",
		"state": "TEXAS",
		"artcc": "ZHU",
		"type": "RP",
		"updated": "IAH*VORTAC*127.00/9.41"
	},
	{
		"name": "BISON",
		"latitude": "28-2-24.01 N",
		"longitude": "97-8-34.07 W",
		"state": "TEXAS",
		"artcc": "ZHU",
		"type": "RP",
		"updated": "CRP*VORTAC*054.00/18.00"
	},
	{
		"name": "BISOR",
		"latitude": "27-52-7.8 N",
		"longitude": "98-19-23.35 W",
		"state": "TEXAS",
		"artcc": "ZHU",
		"type": "MR",
		"updated": "NOG*TACAN*255.00/15.00"
	},
	{
		"name": "BISYA",
		"latitude": "31-32-59.88 N",
		"longitude": "89-49-26.39 W",
		"state": "MISSISSIPPI",
		"artcc": "ZHU",
		"type": "RNAV",
		"updated": "05/20/2013"
	},
	{
		"name": "BITAY",
		"latitude": "31-7-47.96 N",
		"longitude": "93-13-36.67 W",
		"state": "LOUISIANA",
		"artcc": "ZHU",
		"type": "RNAV",
		"updated": "03/28/2013"
	},
	{
		"name": "BITER",
		"latitude": "30-6-45.05 N",
		"longitude": "97-4-47.75 W",
		"state": "TEXAS",
		"artcc": "ZHU",
		"type": "RP",
		"updated": "IDU*VORTAC*281.28/28.54"
	},
	{
		"name": "BITTO",
		"latitude": "29-46-53.8 N",
		"longitude": "93-22-18.91 W",
		"state": "LOUISIANA",
		"artcc": "ZHU",
		"type": "WP",
		"updated": "08/07/1998"
	},
	{
		"name": "BIYAL",
		"latitude": "30-57-23.59 N",
		"longitude": "93-9-18.89 W",
		"state": "LOUISIANA",
		"artcc": "ZHU",
		"type": "RNAV",
		"updated": "04/26/2011"
	},
	{
		"name": "BLAME",
		"latitude": "27-44-4.09 N",
		"longitude": "99-35-44.01 W",
		"state": "TEXAS",
		"artcc": "ZHU",
		"type": "RP",
		"updated": "LRD*VORTAC*319.26/18.00"
	},
	{
		"name": "BLATE",
		"latitude": "29-38-39.07 N",
		"longitude": "91-15-11.85 W",
		"state": "LOUISIANA",
		"artcc": "ZHU",
		"type": "RNAV",
		"updated": "04/11/2012"
	},
	{
		"name": "BLATR",
		"latitude": "30-20-2.89 N",
		"longitude": "98-16-0.17 W",
		"state": "TEXAS",
		"artcc": "ZHU",
		"type": "RNAV",
		"updated": "03/31/2009"
	},
	{
		"name": "BLATZ",
		"latitude": "29-40-52.15 N",
		"longitude": "92-3-53.41 W",
		"state": "LOUISIANA",
		"artcc": "ZHU",
		"type": "WP",
		"updated": "08/07/1998"
	},
	{
		"name": "BLEAU",
		"latitude": "29-24-45.55 N",
		"longitude": "94-42-37.29 W",
		"state": "TEXAS",
		"artcc": "ZHU",
		"type": "RNAV",
		"updated": "04/03/2014"
	},
	{
		"name": "BLING",
		"latitude": "30-1-50.16 N",
		"longitude": "94-1-5.75 W",
		"state": "TEXAS",
		"artcc": "ZHU",
		"type": "RNAV",
		"updated": "03/26/2014"
	},
	{
		"name": "BLOKS",
		"latitude": "28-23-23.78 N",
		"longitude": "96-59-56.72 W",
		"state": "TEXAS",
		"artcc": "ZHU",
		"type": "RP",
		"updated": "VCT*VOR/DME*176.00"
	},
	{
		"name": "BLTWY",
		"latitude": "30-36-20.36 N",
		"longitude": "95-29-27.98 W",
		"state": "TEXAS",
		"artcc": "ZHU",
		"type": "RP",
		"updated": "TNV*VOR/DME*049.02/35.01"
	},
	{
		"name": "BLUBL",
		"latitude": "30-18-16.42 N",
		"longitude": "96-18-10.89 W",
		"state": "TEXAS",
		"artcc": "ZHU",
		"type": "RP",
		"updated": "TNV*VOR/DME*266.38"
	},
	{
		"name": "BLUMS",
		"latitude": "29-39-35.15 N",
		"longitude": "95-45-10.16 W",
		"state": "TEXAS",
		"artcc": "ZHU",
		"type": "RP",
		"updated": "TNV*VOR/DME*149.00"
	},
	{
		"name": "BLURG",
		"latitude": "30-5-3.06 N",
		"longitude": "97-41-55.97 W",
		"state": "TEXAS",
		"artcc": "ZHU",
		"type": "RNAV",
		"updated": "10/23/2017"
	},
	{
		"name": "BLUUZ",
		"latitude": "30-21-22.8 N",
		"longitude": "94-38-45.5 W",
		"state": "TEXAS",
		"artcc": "ZHU",
		"type": "RNAV",
		"updated": "03/11/2014"
	},
	{
		"name": "BLVNS",
		"latitude": "28-22-56.19 N",
		"longitude": "88-2-2.98 W",
		"state": "OFFSHORE GULF",
		"artcc": "ZHU",
		"type": "RNAV",
		"updated": "08/31/2005"
	},
	{
		"name": "BNDIA",
		"latitude": "29-38-38.92 N",
		"longitude": "98-27-40.22 W",
		"state": "TEXAS",
		"artcc": "ZHU",
		"type": "RNAV",
		"updated": "01/10/2015"
	},
	{
		"name": "BNDTO",
		"latitude": "29-58-38.29 N",
		"longitude": "95-38-13.36 W",
		"state": "TEXAS",
		"artcc": "ZHU",
		"type": "RNAV",
		"updated": "03/26/2014"
	},
	{
		"name": "BOBKO",
		"latitude": "30-34-23.84 N",
		"longitude": "94-51-57.97 W",
		"state": "TEXAS",
		"artcc": "ZHU",
		"type": "RNAV",
		"updated": "08/28/2000"
	},
	{
		"name": "BOBLE",
		"latitude": "29-32-19.43 N",
		"longitude": "94-52-25.77 W",
		"state": "TEXAS",
		"artcc": "ZHU",
		"type": "RNAV",
		"updated": "11/16/2012"
	},
	{
		"name": "BOBPA",
		"latitude": "26-8-30.72 N",
		"longitude": "97-35-50.88 W",
		"state": "TEXAS",
		"artcc": "ZHU",
		"type": "RP",
		"updated": "HRL*VOR/DME*145.48/6.00"
	},
	{
		"name": "BOCCK",
		"latitude": "29-56-12.26 N",
		"longitude": "96-12-27.32 W",
		"state": "TEXAS",
		"artcc": "ZHU",
		"type": "RP",
		"updated": "TNV*VOR/DME*192.30"
	},
	{
		"name": "BODTA",
		"latitude": "31-10-21.49 N",
		"longitude": "94-29-2.95 W",
		"state": "TEXAS",
		"artcc": "ZHU",
		"type": "RP",
		"updated": "LFK*VORTAC*082.00/12.00"
	},
	{
		"name": "BOELO",
		"latitude": "30-1-16.45 N",
		"longitude": "94-8-14.24 W",
		"state": "TEXAS",
		"artcc": "ZHU",
		"type": "RP",
		"updated": "BPT*VOR/DME*298.53/7.75"
	},
	{
		"name": "BOFXO",
		"latitude": "31-12-24.58 N",
		"longitude": "93-20-32.63 W",
		"state": "LOUISIANA",
		"artcc": "ZHU",
		"type": "RNAV",
		"updated": "08/22/2011"
	},
	{
		"name": "BOGGY",
		"latitude": "28-15-1.73 N",
		"longitude": "91-27-45.38 W",
		"state": "OFFSHORE GULF",
		"artcc": "ZHU",
		"type": "RP",
		"updated": "08/22/1985"
	},
	{
		"name": "BOGLY",
		"latitude": "30-8-14.13 N",
		"longitude": "90-1-52.22 W",
		"state": "LOUISIANA",
		"artcc": "ZHU",
		"type": "RP",
		"updated": "NEW*LD*357.26/6.19"
	},
	{
		"name": "BOINT",
		"latitude": "28-34-32.98 N",
		"longitude": "96-31-37.82 W",
		"state": "TEXAS",
		"artcc": "ZHU",
		"type": "RP",
		"updated": "PSX*VORTAC*218.00/16.23"
	},
	{
		"name": "BOKKE",
		"latitude": "30-6-20.49 N",
		"longitude": "97-1-18.62 W",
		"state": "TEXAS",
		"artcc": "ZHU",
		"type": "RNAV",
		"updated": "06/11/2010"
	},
	{
		"name": "BOKPE",
		"latitude": "31-31-20.32 N",
		"longitude": "91-17-49.74 W",
		"state": "MISSISSIPPI",
		"artcc": "ZHU",
		"type": "RNAV",
		"updated": "06/17/2013"
	},
	{
		"name": "BOLOS",
		"latitude": "29-23-35.04 N",
		"longitude": "94-37-24.76 W",
		"state": "TEXAS",
		"artcc": "ZHU",
		"type": "RP",
		"updated": "HUB*VOR/DME*109.53/37.62"
	},
	{
		"name": "BOMRS",
		"latitude": "28-34-47.67 N",
		"longitude": "97-29-20.81 W",
		"state": "TEXAS",
		"artcc": "ZHU",
		"type": "MW",
		"updated": "12/22/2017"
	},
	{
		"name": "BONDD",
		"latitude": "31-10-38.55 N",
		"longitude": "96-34-27.6 W",
		"state": "TEXAS",
		"artcc": "ZHU",
		"type": "RP",
		"updated": "LOA*VORTAC*268.00/31.00"
	},
	{
		"name": "BOPPR",
		"latitude": "30-6-7.5 N",
		"longitude": "94-40-58.92 W",
		"state": "TEXAS",
		"artcc": "ZHU",
		"type": "RNAV",
		"updated": "03/11/2014"
	},
	{
		"name": "BORDE",
		"latitude": "30-28-22.27 N",
		"longitude": "88-52-23.25 W",
		"state": "MISSISSIPPI",
		"artcc": "ZHU",
		"type": "MR",
		"updated": "BIX*TACAN*/4.91"
	},
	{
		"name": "BORRN",
		"latitude": "29-54-5.37 N",
		"longitude": "95-45-28.2 W",
		"state": "TEXAS",
		"artcc": "ZHU",
		"type": "RNAV",
		"updated": "04/04/2014"
	},
	{
		"name": "BORRO",
		"latitude": "29-45-19.19 N",
		"longitude": "95-47-13.73 W",
		"state": "TEXAS",
		"artcc": "ZHU",
		"type": "RP",
		"updated": "IAH*VORTAC*237.46/26.00"
	},
	{
		"name": "BOSCY",
		"latitude": "32-15-56.67 N",
		"longitude": "91-55-42.4 W",
		"state": "LOUISIANA",
		"artcc": "ZHU",
		"type": "RP",
		"updated": "MLU*VORTAC*157.00/16.00"
	},
	{
		"name": "BOSWU",
		"latitude": "30-36-57.01 N",
		"longitude": "89-4-0.97 W",
		"state": "MISSISSIPPI",
		"artcc": "ZHU",
		"type": "RNAV",
		"updated": "01/04/2005"
	},
	{
		"name": "BOTLL",
		"latitude": "29-49-25.54 N",
		"longitude": "95-8-6 W",
		"state": "TEXAS",
		"artcc": "ZHU",
		"type": "RNAV",
		"updated": "03/26/2014"
	},
	{
		"name": "BOTVE",
		"latitude": "26-2-39.76 N",
		"longitude": "97-39-39.46 W",
		"state": "TEXAS",
		"artcc": "ZHU",
		"type": "RP",
		"updated": "BRO*VORTAC*286.04/17.04"
	},
	{
		"name": "BOUGR",
		"latitude": "30-18-0.71 N",
		"longitude": "97-38-34.94 W",
		"state": "TEXAS",
		"artcc": "ZHU",
		"type": "RNAV",
		"updated": "10/23/2017"
	},
	{
		"name": "BOURG",
		"latitude": "29-30-49.51 N",
		"longitude": "90-34-10.03 W",
		"state": "LOUISIANA",
		"artcc": "ZHU",
		"type": "RP",
		"updated": "TBD*VOR/DME*121.50/16.30"
	},
	{
		"name": "BOVIN",
		"latitude": "31-13-7.24 N",
		"longitude": "94-49-34.49 W",
		"state": "TEXAS",
		"artcc": "ZHU",
		"type": "RNAV",
		"updated": "10/23/2017"
	},
	{
		"name": "BOWFN",
		"latitude": "28-59-21 N",
		"longitude": "91-13-41 W",
		"state": "TEXAS",
		"artcc": "ZHU",
		"type": "RNAV",
		"updated": "03/06/2015"
	},
	{
		"name": "BOWTZ",
		"latitude": "30-5-17.29 N",
		"longitude": "97-32-9.18 W",
		"state": "TEXAS",
		"artcc": "ZHU",
		"type": "RNAV",
		"updated": "12/15/2014"
	},
	{
		"name": "BOWUN",
		"latitude": "28-26-29.58 N",
		"longitude": "97-54-57.9 W",
		"state": "TEXAS",
		"artcc": "ZHU",
		"type": "MR",
		"updated": "THX*VORTAC*099.00/13.00"
	},
	{
		"name": "BOYAG",
		"latitude": "30-39-16.06 N",
		"longitude": "91-17-59.12 W",
		"state": "LOUISIANA",
		"artcc": "ZHU",
		"type": "RNAV",
		"updated": "01/13/2004"
	},
	{
		"name": "BOYCE",
		"latitude": "31-21-21.6 N",
		"longitude": "92-41-18.2 W",
		"state": "LOUISIANA",
		"artcc": "ZHU",
		"type": "RP",
		"updated": "AEX*VORTAC*298.72/11.32"
	},
	{
		"name": "BOYZZ",
		"latitude": "30-33-41.82 N",
		"longitude": "97-55-59.7 W",
		"state": "TEXAS",
		"artcc": "ZHU",
		"type": "RNAV",
		"updated": "12/15/2014"
	},
	{
		"name": "BOZAN",
		"latitude": "30-30-25.5 N",
		"longitude": "92-14-2.7 W",
		"state": "LOUISIANA",
		"artcc": "ZHU",
		"type": "RP",
		"updated": "LFT*VORTAC*323.29/22.56"
	},
	{
		"name": "BOZZZ",
		"latitude": "30-0-31.96 N",
		"longitude": "94-46-1.33 W",
		"state": "TEXAS",
		"artcc": "ZHU",
		"type": "RNAV",
		"updated": "03/11/2014"
	},
	{
		"name": "BRAMA",
		"latitude": "27-18-2.26 N",
		"longitude": "97-50-12.64 W",
		"state": "TEXAS",
		"artcc": "ZHU",
		"type": "MR",
		"updated": "NQI*TACAN*184.00/12.00"
	},
	{
		"name": "BRANO",
		"latitude": "29-39-55 N",
		"longitude": "90-58-56.01 W",
		"state": "LOUISIANA",
		"artcc": "ZHU",
		"type": "WP",
		"updated": "08/31/1998"
	},
	{
		"name": "BRASY",
		"latitude": "28-9-58.15 N",
		"longitude": "96-46-14.74 W",
		"state": "TEXAS",
		"artcc": "ZHU",
		"type": "RP",
		"updated": "VCT*VOR/DME*159.89/45.29"
	},
	{
		"name": "BRAUN",
		"latitude": "29-48-46.18 N",
		"longitude": "98-3-47.63 W",
		"state": "TEXAS",
		"artcc": "ZHU",
		"type": "RP",
		"updated": "SAT*VORTAC*055.99/23.12"
	},
	{
		"name": "BRAZA",
		"latitude": "30-17-58.07 N",
		"longitude": "97-40-53.87 W",
		"state": "TEXAS",
		"artcc": "ZHU",
		"type": "RP",
		"updated": "CWK*VORTAC*233.04"
	},
	{
		"name": "BREDY",
		"latitude": "31-1-23.42 N",
		"longitude": "99-25-52.82 W",
		"state": "TEXAS",
		"artcc": "ZHU",
		"type": "RP",
		"updated": "JCT*VORTAC*030.00/32.34"
	},
	{
		"name": "BRIRR",
		"latitude": "30-40-33.48 N",
		"longitude": "94-2-20.12 W",
		"state": "TEXAS",
		"artcc": "ZHU",
		"type": "RNAV",
		"updated": "07/07/2009"
	},
	{
		"name": "BRKAT",
		"latitude": "30-57-12.94 N",
		"longitude": "96-23-27.98 W",
		"state": "TEXAS",
		"artcc": "ZHU",
		"type": "RNAV",
		"updated": "03/11/2014"
	},
	{
		"name": "BRKMN",
		"latitude": "30-23-26.45 N",
		"longitude": "95-47-49.27 W",
		"state": "TEXAS",
		"artcc": "ZHU",
		"type": "RP",
		"updated": "TNV*VOR/DME*057.66"
	},
	{
		"name": "BROWA",
		"latitude": "30-33-21.44 N",
		"longitude": "89-14-45.01 W",
		"state": "MISSISSIPPI",
		"artcc": "ZHU",
		"type": "RNAV",
		"updated": "10/31/2017"
	},
	{
		"name": "BROWN",
		"latitude": "30-1-36.39 N",
		"longitude": "93-10-21.03 W",
		"state": "LOUISIANA",
		"artcc": "ZHU",
		"type": "RP",
		"updated": "LCH*VORTAC*199.92"
	},
	{
		"name": "BRRES",
		"latitude": "29-57-43.66 N",
		"longitude": "90-8-20.17 W",
		"state": "LOUISIANA",
		"artcc": "ZHU",
		"type": "RP",
		"updated": "HOX*LD*106.49/5.93"
	},
	{
		"name": "BRRIG",
		"latitude": "29-48-20.24 N",
		"longitude": "92-17-41.51 W",
		"state": "LOUISIANA",
		"artcc": "ZHU",
		"type": "WP",
		"updated": "08/07/1998"
	},
	{
		"name": "BRRNS",
		"latitude": "28-49-19.14 N",
		"longitude": "96-57-21.31 W",
		"state": "TEXAS",
		"artcc": "ZHU",
		"type": "RNAV",
		"updated": "03/14/2014"
	},
	{
		"name": "BRWCK",
		"latitude": "30-35-13.63 N",
		"longitude": "93-42-21.71 W",
		"state": "LOUISIANA",
		"artcc": "ZHU",
		"type": "RP",
		"updated": "LFK*VORTAC*118.16"
	},
	{
		"name": "BRWER",
		"latitude": "31-29-31.05 N",
		"longitude": "95-19-7.6 W",
		"state": "TEXAS",
		"artcc": "ZHU",
		"type": "RNAV",
		"updated": "10/28/2011"
	},
	{
		"name": "BRYIN",
		"latitude": "30-40-45.21 N",
		"longitude": "96-22-53.88 W",
		"state": "TEXAS",
		"artcc": "ZHU",
		"type": "RP",
		"updated": "CLL*VORTAC*016.45"
	},
	{
		"name": "BRZZI",
		"latitude": "30-13-5.32 N",
		"longitude": "95-13-27.59 W",
		"state": "TEXAS",
		"artcc": "ZHU",
		"type": "RNAV",
		"updated": "01/27/2015"
	},
	{
		"name": "BUBAY",
		"latitude": "30-54-46.68 N",
		"longitude": "101-20-46.45 W",
		"state": "TEXAS",
		"artcc": "ZHU",
		"type": "RNAV",
		"updated": "05/21/2003"
	},
	{
		"name": "BUDAM",
		"latitude": "30-9-43.49 N",
		"longitude": "91-33-6.45 W",
		"state": "LOUISIANA",
		"artcc": "ZHU",
		"type": "RP",
		"updated": "LFT*VORTAC*091.63/23.00"
	},
	{
		"name": "BUEKR",
		"latitude": "29-45-0 N",
		"longitude": "91-49-52 W",
		"state": "LOUISIANA",
		"artcc": "ZHU",
		"type": "WP",
		"updated": "12/07/2009"
	},
	{
		"name": "BUGLE",
		"latitude": "30-36-45.6 N",
		"longitude": "88-36-56.37 W",
		"state": "MISSISSIPPI",
		"artcc": "ZHU",
		"type": "RP",
		"updated": "GCV*VORTAC*188.00"
	},
	{
		"name": "BUGZY",
		"latitude": "29-45-44.12 N",
		"longitude": "95-13-52.56 W",
		"state": "TEXAS",
		"artcc": "ZHU",
		"type": "RNAV",
		"updated": "03/25/2014"
	},
	{
		"name": "BUHOL",
		"latitude": "29-35-30.03 N",
		"longitude": "96-0-58.26 W",
		"state": "TEXAS",
		"artcc": "ZHU",
		"type": "RP",
		"updated": "ELA*VOR/DME*096.99"
	},
	{
		"name": "BUMCO",
		"latitude": "30-38-54.38 N",
		"longitude": "95-18-1.51 W",
		"state": "TEXAS",
		"artcc": "ZHU",
		"type": "RP",
		"updated": "LOA*VORTAC*121.39"
	},
	{
		"name": "BUNER",
		"latitude": "29-26-46.78 N",
		"longitude": "95-2-35.82 W",
		"state": "TEXAS",
		"artcc": "ZHU",
		"type": "RP",
		"updated": "UPU*LD*130.96/16.20"
	},
	{
		"name": "BUNKE",
		"latitude": "31-2-38.9 N",
		"longitude": "98-0-33 W",
		"state": "TEXAS",
		"artcc": "ZHU",
		"type": "RNAV",
		"updated": "08/04/2005"
	},
	{
		"name": "BUNNE",
		"latitude": "29-34-29.87 N",
		"longitude": "90-50-42.95 W",
		"state": "LOUISIANA",
		"artcc": "ZHU",
		"type": "WP",
		"updated": "08/07/1998"
	},
	{
		"name": "BUNVE",
		"latitude": "30-25-31.75 N",
		"longitude": "89-39-4.66 W",
		"state": "MISSISSIPPI",
		"artcc": "ZHU",
		"type": "RNAV",
		"updated": "05/25/2016"
	},
	{
		"name": "BURIN",
		"latitude": "30-58-43.51 N",
		"longitude": "88-22-47.31 W",
		"state": "ALABAMA",
		"artcc": "ZHU",
		"type": "RP",
		"updated": "GCV*VORTAC*137.45/9.00"
	},
	{
		"name": "BUSTS",
		"latitude": "31-0-7.96 N",
		"longitude": "97-2-5.26 W",
		"state": "TEXAS",
		"artcc": "ZHU",
		"type": "RP",
		"updated": "ACT*VORTAC*154.00"
	},
	{
		"name": "BUTAC",
		"latitude": "26-18-9.23 N",
		"longitude": "97-29-40.29 W",
		"state": "TEXAS",
		"artcc": "ZHU",
		"type": "RNAV",
		"updated": "06/13/2008"
	},
	{
		"name": "BUUOY",
		"latitude": "26-1-48.89 N",
		"longitude": "85-16-26.57 W",
		"state": "OFFSHORE GULF",
		"artcc": "ZHU",
		"type": "RNAV",
		"updated": "10/31/2012"
	},
	{
		"name": "BUVAC",
		"latitude": "30-9-43.09 N",
		"longitude": "96-21-51.39 W",
		"state": "TEXAS",
		"artcc": "ZHU",
		"type": "RNAV",
		"updated": "04/18/2003"
	},
	{
		"name": "BUVTE",
		"latitude": "26-17-36.44 N",
		"longitude": "97-43-45.8 W",
		"state": "TEXAS",
		"artcc": "ZHU",
		"type": "RNAV",
		"updated": "09/14/2012"
	},
	{
		"name": "BUXQU",
		"latitude": "29-3-12.17 N",
		"longitude": "99-39-34.6 W",
		"state": "TEXAS",
		"artcc": "ZHU",
		"type": "RNAV",
		"updated": "03/14/2000"
	},
	{
		"name": "BUYAT",
		"latitude": "28-31-10.86 N",
		"longitude": "99-17-26.99 W",
		"state": "TEXAS",
		"artcc": "ZHU",
		"type": "RNAV",
		"updated": "07/20/2014"
	},
	{
		"name": "BUYAY",
		"latitude": "29-50-53.6 N",
		"longitude": "94-37-52.11 W",
		"state": "TEXAS",
		"artcc": "ZHU",
		"type": "RNAV",
		"updated": "11/19/2004"
	},
	{
		"name": "BYSUN",
		"latitude": "29-58-47.55 N",
		"longitude": "95-22-16.85 W",
		"state": "TEXAS",
		"artcc": "ZHU",
		"type": "RNAV",
		"updated": "03/11/2014"
	}
]
