[
	{
		"name": "DACAY",
		"latitude": "26-10-51.73 N",
		"longitude": "97-36-26.73 W",
		"state": "TEXAS",
		"artcc": "ZHU",
		"type": "RNAV",
		"updated": "08/09/2012"
	},
	{
		"name": "DACEN",
		"latitude": "30-27-34.53 N",
		"longitude": "92-25-18.86 W",
		"state": "LOUISIANA",
		"artcc": "ZHU",
		"type": "RP",
		"updated": "LFT*VORTAC*302.62/27.39"
	},
	{
		"name": "DACTA",
		"latitude": "29-21-28.42 N",
		"longitude": "90-3-25.93 W",
		"state": "LOUISIANA",
		"artcc": "ZHU",
		"type": "WP",
		"updated": "08/10/1998"
	},
	{
		"name": "DACUS",
		"latitude": "30-33-4.62 N",
		"longitude": "95-39-37.89 W",
		"state": "TEXAS",
		"artcc": "ZHU",
		"type": "RP",
		"updated": "TNV*VOR/DME*044.68/25.94"
	},
	{
		"name": "DADCA",
		"latitude": "31-29-15.01 N",
		"longitude": "89-42-38.52 W",
		"state": "MISSISSIPPI",
		"artcc": "ZHU",
		"type": "RNAV",
		"updated": "07/24/2008"
	},
	{
		"name": "DAETN",
		"latitude": "30-6-18.73 N",
		"longitude": "94-54-3.92 W",
		"state": "TEXAS",
		"artcc": "ZHU",
		"type": "RP",
		"updated": "IAH*VORTAC*063.92/24.80"
	},
	{
		"name": "DAFIN",
		"latitude": "30-6-0 N",
		"longitude": "88-27-30 W",
		"state": "OFFSHORE GULF",
		"artcc": "ZHU",
		"type": "RNAV",
		"updated": "10/30/2013"
	},
	{
		"name": "DAGGR",
		"latitude": "27-6-30.06 N",
		"longitude": "89-14-13.74 W",
		"state": "OFFSHORE GULF",
		"artcc": "ZHU",
		"type": "RNAV",
		"updated": "10/31/2012"
	},
	{
		"name": "DAGHU",
		"latitude": "30-53-41.22 N",
		"longitude": "97-50-36.3 W",
		"state": "TEXAS",
		"artcc": "ZHU",
		"type": "RNAV",
		"updated": "01/05/2017"
	},
	{
		"name": "DAHNY",
		"latitude": "29-16-15.71 N",
		"longitude": "90-6-51.52 W",
		"state": "LOUISIANA",
		"artcc": "ZHU",
		"type": "WP",
		"updated": "08/11/1998"
	},
	{
		"name": "DAJOW",
		"latitude": "29-14-17.56 N",
		"longitude": "89-49-14.31 W",
		"state": "LOUISIANA",
		"artcc": "ZHU",
		"type": "WP",
		"updated": "08/11/1998"
	},
	{
		"name": "DALLI",
		"latitude": "29-9-5.16 N",
		"longitude": "89-52-40.28 W",
		"state": "LOUISIANA",
		"artcc": "ZHU",
		"type": "WP",
		"updated": "08/11/1998"
	},
	{
		"name": "DAMMS",
		"latitude": "29-30-31.6 N",
		"longitude": "90-58-56.96 W",
		"state": "LOUISIANA",
		"artcc": "ZHU",
		"type": "WP",
		"updated": "08/11/1998"
	},
	{
		"name": "DAMON",
		"latitude": "30-19-43.05 N",
		"longitude": "89-13-39.53 W",
		"state": "MISSISSIPPI",
		"artcc": "ZHU",
		"type": "RNAV",
		"updated": "08/16/2017"
	},
	{
		"name": "DAMPS",
		"latitude": "27-48-32.41 N",
		"longitude": "97-59-27.3 W",
		"state": "TEXAS",
		"artcc": "ZHU",
		"type": "MR",
		"updated": "NQI*TACAN*328.00/21.00"
	},
	{
		"name": "DANYE",
		"latitude": "28-42-24.96 N",
		"longitude": "100-12-50.37 W",
		"state": "TEXAS",
		"artcc": "ZHU",
		"type": "RNAV",
		"updated": "12/23/2002"
	},
	{
		"name": "DAPSE",
		"latitude": "26-2-46.99 N",
		"longitude": "97-43-3.6 W",
		"state": "TEXAS",
		"artcc": "ZHU",
		"type": "RP",
		"updated": "HRL*VOR/DME*193.00/11.50"
	},
	{
		"name": "DARBE",
		"latitude": "29-52-56.48 N",
		"longitude": "98-31-17.32 W",
		"state": "TEXAS",
		"artcc": "ZHU",
		"type": "RP",
		"updated": "RND*VORTAC*325.46/25.00"
	},
	{
		"name": "DARDE",
		"latitude": "27-36-39.56 N",
		"longitude": "99-11-0.38 W",
		"state": "TEXAS",
		"artcc": "ZHU",
		"type": "RNAV",
		"updated": "05/10/2002"
	},
	{
		"name": "DARRA",
		"latitude": "30-6-33.09 N",
		"longitude": "98-39-49.21 W",
		"state": "TEXAS",
		"artcc": "ZHU",
		"type": "MR",
		"updated": "DHK*TACAN*320.00/40.00"
	},
	{
		"name": "DARTE",
		"latitude": "30-45-58.08 N",
		"longitude": "97-27-6.6 W",
		"state": "TEXAS",
		"artcc": "ZHU",
		"type": "RP",
		"updated": "CWK*VORTAC*003.86/23.55"
	},
	{
		"name": "DARTR",
		"latitude": "30-24-11.24 N",
		"longitude": "95-0-24.32 W",
		"state": "TEXAS",
		"artcc": "ZHU",
		"type": "RP",
		"updated": "DAS*VORTAC*299.30"
	},
	{
		"name": "DAUGG",
		"latitude": "30-11-0.85 N",
		"longitude": "95-41-27.93 W",
		"state": "TEXAS",
		"artcc": "ZHU",
		"type": "RNAV",
		"updated": "10/06/2006"
	},
	{
		"name": "DAVYE",
		"latitude": "31-7-26.65 N",
		"longitude": "95-38-39.72 W",
		"state": "TEXAS",
		"artcc": "ZHU",
		"type": "RNAV",
		"updated": "10/28/2011"
	},
	{
		"name": "DAWGS",
		"latitude": "29-34-26.75 N",
		"longitude": "95-26-48.33 W",
		"state": "TEXAS",
		"artcc": "ZHU",
		"type": "RNAV",
		"updated": "10/31/2017"
	},
	{
		"name": "DAWIV",
		"latitude": "29-31-55.21 N",
		"longitude": "95-3-10.02 W",
		"state": "TEXAS",
		"artcc": "ZHU",
		"type": "RP",
		"updated": "HUB*VOR/DME*117.23"
	},
	{
		"name": "DAYAG",
		"latitude": "30-18-32.41 N",
		"longitude": "93-11-50.84 W",
		"state": "LOUISIANA",
		"artcc": "ZHU",
		"type": "RNAV",
		"updated": "10/27/2004"
	},
	{
		"name": "DAYBO",
		"latitude": "30-7-28.28 N",
		"longitude": "94-50-33.85 W",
		"state": "TEXAS",
		"artcc": "ZHU",
		"type": "RP",
		"updated": "DAS*VORTAC*244.27/11.00"
	},
	{
		"name": "DAYET",
		"latitude": "27-46-38.37 N",
		"longitude": "97-51-36.75 W",
		"state": "TEXAS",
		"artcc": "ZHU",
		"type": "MR",
		"updated": "NQI*TACAN*346.09/16.89"
	},
	{
		"name": "DAYNA",
		"latitude": "29-37-42.47 N",
		"longitude": "95-7-18.8 W",
		"state": "TEXAS",
		"artcc": "ZHU",
		"type": "RNAV",
		"updated": "03/25/2014"
	},
	{
		"name": "DBORD",
		"latitude": "30-8-47.56 N",
		"longitude": "97-51-18.53 W",
		"state": "TEXAS",
		"artcc": "ZHU",
		"type": "RNAV",
		"updated": "10/30/2017"
	},
	{
		"name": "DBOYS",
		"latitude": "29-42-49.78 N",
		"longitude": "95-41-13.45 W",
		"state": "TEXAS",
		"artcc": "ZHU",
		"type": "RNAV",
		"updated": "10/23/2017"
	},
	{
		"name": "DBRAA",
		"latitude": "28-47-36.68 N",
		"longitude": "100-16-16.72 W",
		"state": "TEXAS",
		"artcc": "ZHU",
		"type": "RNAV",
		"updated": "12/23/2002"
	},
	{
		"name": "DDTOO",
		"latitude": "30-15-31.64 N",
		"longitude": "97-39-33.59 W",
		"state": "TEXAS",
		"artcc": "ZHU",
		"type": "RP",
		"updated": "CWK*VORTAC*217.20"
	},
	{
		"name": "DEBUQ",
		"latitude": "30-7-27.51 N",
		"longitude": "94-17-0.99 W",
		"state": "TEXAS",
		"artcc": "ZHU",
		"type": "RNAV",
		"updated": "04/10/2018"
	},
	{
		"name": "DECKE",
		"latitude": "30-31-19.15 N",
		"longitude": "88-6-13.9 W",
		"state": "ALABAMA",
		"artcc": "ZHU",
		"type": "RP",
		"updated": "BFM*VORTAC*200.68"
	},
	{
		"name": "DELKY",
		"latitude": "30-17-39.8 N",
		"longitude": "93-28-58.8 W",
		"state": "LOUISIANA",
		"artcc": "ZHU",
		"type": "RNAV",
		"updated": "01/03/2009"
	},
	{
		"name": "DELTE",
		"latitude": "29-57-33.8 N",
		"longitude": "89-21-20.6 W",
		"state": "LOUISIANA",
		"artcc": "ZHU",
		"type": "RNAV",
		"updated": "08/04/2005"
	},
	{
		"name": "DELVE",
		"latitude": "29-8-3.17 N",
		"longitude": "95-15-30.36 W",
		"state": "TEXAS",
		"artcc": "ZHU",
		"type": "RP",
		"updated": "HUB*VOR/DME*173.25"
	},
	{
		"name": "DENSE",
		"latitude": "29-10-51.1 N",
		"longitude": "100-37-18.1 W",
		"state": "TEXAS",
		"artcc": "ZHU",
		"type": "RNAV",
		"updated": "06/10/2008"
	},
	{
		"name": "DENTO",
		"latitude": "29-58-38.63 N",
		"longitude": "94-59-48.61 W",
		"state": "TEXAS",
		"artcc": "ZHU",
		"type": "RP",
		"updated": "HUB*VOR/DME*032.10"
	},
	{
		"name": "DEPOO",
		"latitude": "25-59-1.81 N",
		"longitude": "97-30-31.71 W",
		"state": "TEXAS",
		"artcc": "ZHU",
		"type": "RP",
		"updated": "BRO*LD*312.40/7.34"
	},
	{
		"name": "DEPPY",
		"latitude": "29-49-29.92 N",
		"longitude": "94-44-27.01 W",
		"state": "TEXAS",
		"artcc": "ZHU",
		"type": "RNAV",
		"updated": "08/28/2000"
	},
	{
		"name": "DEQHU",
		"latitude": "30-31-25.5 N",
		"longitude": "93-30-48.72 W",
		"state": "LOUISIANA",
		"artcc": "ZHU",
		"type": "RNAV",
		"updated": "01/05/2015"
	},
	{
		"name": "DEREK",
		"latitude": "29-41-38.84 N",
		"longitude": "91-14-54.05 W",
		"state": "LOUISIANA",
		"artcc": "ZHU",
		"type": "RNAV",
		"updated": "04/11/2012"
	},
	{
		"name": "DERRS",
		"latitude": "30-47-18.95 N",
		"longitude": "96-24-23.6 W",
		"state": "TEXAS",
		"artcc": "ZHU",
		"type": "RP",
		"updated": "LOA*VORTAC*220.53"
	},
	{
		"name": "DESEA",
		"latitude": "27-24-40.22 N",
		"longitude": "97-36-13.01 W",
		"state": "TEXAS",
		"artcc": "ZHU",
		"type": "MR",
		"updated": "NQI*TACAN*112.00/12.00"
	},
	{
		"name": "DEVOE",
		"latitude": "26-32-38.93 N",
		"longitude": "99-10-12.42 W",
		"state": "TEXAS",
		"artcc": "ZHU",
		"type": "RP",
		"updated": "CRP*VORTAC*220.00/123.00"
	},
	{
		"name": "DEVVO",
		"latitude": "27-36-50.05 N",
		"longitude": "97-14-52.22 W",
		"state": "TEXAS",
		"artcc": "ZHU",
		"type": "MR",
		"updated": "NGP*VORTAC*144.00/5.00"
	},
	{
		"name": "DEXOW",
		"latitude": "30-35-35.16 N",
		"longitude": "88-2-21.87 W",
		"state": "ALABAMA",
		"artcc": "ZHU",
		"type": "RP",
		"updated": "RUJ*LD*139.76/3.39"
	},
	{
		"name": "DEYPA",
		"latitude": "30-33-0.41 N",
		"longitude": "88-10-51.29 W",
		"state": "ALABAMA",
		"artcc": "ZHU",
		"type": "RNAV",
		"updated": "10/07/2008"
	},
	{
		"name": "DEYYA",
		"latitude": "30-22-40.35 N",
		"longitude": "93-24-15.2 W",
		"state": "LOUISIANA",
		"artcc": "ZHU",
		"type": "RP",
		"updated": "LCH*VORTAC*305.43/21.00"
	},
	{
		"name": "DEZIV",
		"latitude": "29-19-50.52 N",
		"longitude": "96-12-11.34 W",
		"state": "TEXAS",
		"artcc": "ZHU",
		"type": "RNAV",
		"updated": "07/12/2009"
	},
	{
		"name": "DIANT",
		"latitude": "30-40-11.56 N",
		"longitude": "101-24-58.36 W",
		"state": "TEXAS",
		"artcc": "ZHU",
		"type": "RNAV",
		"updated": "06/01/2016"
	},
	{
		"name": "DICAD",
		"latitude": "30-44-5.29 N",
		"longitude": "88-16-52.09 W",
		"state": "ALABAMA",
		"artcc": "ZHU",
		"type": "RNAV",
		"updated": "06/20/2012"
	},
	{
		"name": "DIDAY",
		"latitude": "26-21-25.36 N",
		"longitude": "97-20-0.92 W",
		"state": "TEXAS",
		"artcc": "ZHU",
		"type": "RP",
		"updated": "BRO*VORTAC*355.96/26.00"
	},
	{
		"name": "DIDEC",
		"latitude": "30-44-23.44 N",
		"longitude": "88-14-11.49 W",
		"state": "ALABAMA",
		"artcc": "ZHU",
		"type": "RNAV",
		"updated": "06/20/2012"
	},
	{
		"name": "DIEAN",
		"latitude": "29-46-17.02 N",
		"longitude": "90-33-47.52 W",
		"state": "LOUISIANA",
		"artcc": "ZHU",
		"type": "RNAV",
		"updated": "05/04/2009"
	},
	{
		"name": "DIESL",
		"latitude": "30-57-52.17 N",
		"longitude": "98-50-31.61 W",
		"state": "TEXAS",
		"artcc": "ZHU",
		"type": "RNAV",
		"updated": "03/14/2014"
	},
	{
		"name": "DIJHU",
		"latitude": "29-45-47.25 N",
		"longitude": "94-44-41.08 W",
		"state": "TEXAS",
		"artcc": "ZHU",
		"type": "RNAV",
		"updated": "11/19/2004"
	},
	{
		"name": "DILKS",
		"latitude": "30-40-25.96 N",
		"longitude": "95-0-6.25 W",
		"state": "TEXAS",
		"artcc": "ZHU",
		"type": "RNAV",
		"updated": "08/28/2000"
	},
	{
		"name": "DILLO",
		"latitude": "30-47-46.76 N",
		"longitude": "98-47-13.91 W",
		"state": "TEXAS",
		"artcc": "ZHU",
		"type": "RNAV",
		"updated": "10/23/2017"
	},
	{
		"name": "DILLS",
		"latitude": "30-30-12 N",
		"longitude": "90-57-9.66 W",
		"state": "LOUISIANA",
		"artcc": "ZHU",
		"type": "RP",
		"updated": "RQR*VOR/DME*320.87/31.26"
	},
	{
		"name": "DILRE",
		"latitude": "29-54-23.96 N",
		"longitude": "95-53-57.88 W",
		"state": "TEXAS",
		"artcc": "ZHU",
		"type": "RNAV",
		"updated": "04/04/2014"
	},
	{
		"name": "DIMMR",
		"latitude": "27-46-59.28 N",
		"longitude": "97-15-56.03 W",
		"state": "TEXAS",
		"artcc": "ZHU",
		"type": "MR",
		"updated": "NGP*VORTAC*009.00/6.00"
	},
	{
		"name": "DINRE",
		"latitude": "29-50-56.91 N",
		"longitude": "90-3-26.88 W",
		"state": "LOUISIANA",
		"artcc": "ZHU",
		"type": "MW",
		"updated": "02/10/2016"
	},
	{
		"name": "DINVE",
		"latitude": "29-36-6.8 N",
		"longitude": "98-18-53.93 W",
		"state": "TEXAS",
		"artcc": "ZHU",
		"type": "MR",
		"updated": "SAT*VORTAC*100.21/8.06"
	},
	{
		"name": "DISNE",
		"latitude": "29-16-2.73 N",
		"longitude": "98-5-41.71 W",
		"state": "TEXAS",
		"artcc": "ZHU",
		"type": "MW",
		"updated": "09/05/2013"
	},
	{
		"name": "DIVAN",
		"latitude": "26-8-49.76 N",
		"longitude": "98-12-36.48 W",
		"state": "TEXAS",
		"artcc": "ZHU",
		"type": "RP",
		"updated": "MFE*VOR/DME*125.00/2.30"
	},
	{
		"name": "DIYER",
		"latitude": "29-50-47.45 N",
		"longitude": "98-54-53.73 W",
		"state": "TEXAS",
		"artcc": "ZHU",
		"type": "RNAV",
		"updated": "02/24/2012"
	},
	{
		"name": "DIYET",
		"latitude": "31-32-9.34 N",
		"longitude": "89-19-11.06 W",
		"state": "MISSISSIPPI",
		"artcc": "ZHU",
		"type": "RNAV",
		"updated": "01/07/2011"
	},
	{
		"name": "DIZGY",
		"latitude": "29-50-7.21 N",
		"longitude": "95-34-50.06 W",
		"state": "TEXAS",
		"artcc": "ZHU",
		"type": "RNAV",
		"updated": "06/02/2009"
	},
	{
		"name": "DLAKE",
		"latitude": "30-58-20.09 N",
		"longitude": "93-57-30.12 W",
		"state": "TEXAS",
		"artcc": "ZHU",
		"type": "RNAV",
		"updated": "05/07/2015"
	},
	{
		"name": "DLBRT",
		"latitude": "27-11-50.8 N",
		"longitude": "97-13-44.67 W",
		"state": "TEXAS",
		"artcc": "ZHU",
		"type": "RNAV",
		"updated": "10/29/2012"
	},
	{
		"name": "DLORA",
		"latitude": "30-54-19.81 N",
		"longitude": "98-10-57.74 W",
		"state": "TEXAS",
		"artcc": "ZHU",
		"type": "RNAV",
		"updated": "09/30/2009"
	},
	{
		"name": "DMKSJ",
		"latitude": "30-39-51.84 N",
		"longitude": "89-47-38.46 W",
		"state": "MISSISSIPPI",
		"artcc": "ZHU",
		"type": "CN",
		"updated": "11/01/1999"
	},
	{
		"name": "DOBBY",
		"latitude": "28-59-1.13 N",
		"longitude": "98-34-43.2 W",
		"state": "TEXAS",
		"artcc": "ZHU",
		"type": "RNAV",
		"updated": "10/23/2017"
	},
	{
		"name": "DOBEY",
		"latitude": "30-47-20.31 N",
		"longitude": "96-37-29.73 W",
		"state": "TEXAS",
		"artcc": "ZHU",
		"type": "RNAV",
		"updated": "07/27/2011"
	},
	{
		"name": "DOCCC",
		"latitude": "29-21-42.97 N",
		"longitude": "94-40-35.58 W",
		"state": "TEXAS",
		"artcc": "ZHU",
		"type": "RNAV",
		"updated": "03/09/2014"
	},
	{
		"name": "DOCET",
		"latitude": "30-45-44.35 N",
		"longitude": "91-10-53.73 W",
		"state": "LOUISIANA",
		"artcc": "ZHU",
		"type": "RP",
		"updated": "RQR*VOR/DME*320.86"
	},
	{
		"name": "DOFFS",
		"latitude": "30-27-9.59 N",
		"longitude": "97-39-51.86 W",
		"state": "TEXAS",
		"artcc": "ZHU",
		"type": "RP",
		"updated": "CWK*VORTAC*296.47"
	},
	{
		"name": "DOGEY",
		"latitude": "30-26-36.5 N",
		"longitude": "101-4-57.7 W",
		"state": "TEXAS",
		"artcc": "ZHU",
		"type": "RNAV",
		"updated": "08/04/2005"
	},
	{
		"name": "DOGMA",
		"latitude": "30-13-40.3 N",
		"longitude": "89-3-5.34 W",
		"state": "MISSISSIPPI",
		"artcc": "ZHU",
		"type": "RP",
		"updated": "HRV*VORTAC*063.24/54.46"
	},
	{
		"name": "DOHNN",
		"latitude": "29-58-37.53 N",
		"longitude": "95-36-39.49 W",
		"state": "TEXAS",
		"artcc": "ZHU",
		"type": "RP",
		"updated": "HUB*VOR/DME*312.88"
	},
	{
		"name": "DOLIJ",
		"latitude": "29-57-8.42 N",
		"longitude": "95-31-48.46 W",
		"state": "TEXAS",
		"artcc": "ZHU",
		"type": "RNAV",
		"updated": "10/31/2017"
	},
	{
		"name": "DOLPH",
		"latitude": "28-15-8.89 N",
		"longitude": "90-3-11.65 W",
		"state": "OFFSHORE GULF",
		"artcc": "ZHU",
		"type": "RP",
		"updated": "03/14/1996"
	},
	{
		"name": "DOMIW",
		"latitude": "27-48-10.58 N",
		"longitude": "97-32-30.3 W",
		"state": "TEXAS",
		"artcc": "ZHU",
		"type": "RP",
		"updated": "CRP*VORTAC*211.52"
	},
	{
		"name": "DOMNO",
		"latitude": "30-5-33.28 N",
		"longitude": "95-29-1.63 W",
		"state": "TEXAS",
		"artcc": "ZHU",
		"type": "RNAV",
		"updated": "03/11/2014"
	},
	{
		"name": "DONBE",
		"latitude": "30-7-20.92 N",
		"longitude": "91-1-43.34 W",
		"state": "LOUISIANA",
		"artcc": "ZHU",
		"type": "RP",
		"updated": "RQR*VOR/DME*273.33/23.00"
	},
	{
		"name": "DOOBI",
		"latitude": "30-24-1.02 N",
		"longitude": "94-24-19.89 W",
		"state": "TEXAS",
		"artcc": "ZHU",
		"type": "RNAV",
		"updated": "03/11/2014"
	},
	{
		"name": "DOOEE",
		"latitude": "29-47-24.54 N",
		"longitude": "96-19-37.02 W",
		"state": "TEXAS",
		"artcc": "ZHU",
		"type": "RNAV",
		"updated": "10/19/2017"
	},
	{
		"name": "DOOTL",
		"latitude": "30-45-47.04 N",
		"longitude": "94-13-14.39 W",
		"state": "TEXAS",
		"artcc": "ZHU",
		"type": "RNAV",
		"updated": "05/07/2015"
	},
	{
		"name": "DOQHU",
		"latitude": "30-7-53.6 N",
		"longitude": "93-22-21.27 W",
		"state": "LOUISIANA",
		"artcc": "ZHU",
		"type": "RP",
		"updated": "LCH*VORTAC*260.61/13.90"
	},
	{
		"name": "DORKY",
		"latitude": "28-25-37.27 N",
		"longitude": "98-11-13.64 W",
		"state": "TEXAS",
		"artcc": "ZHU",
		"type": "WP",
		"updated": "11/06/2002"
	},
	{
		"name": "DORPS",
		"latitude": "29-51-33.85 N",
		"longitude": "89-59-49.83 W",
		"state": "LOUISIANA",
		"artcc": "ZHU",
		"type": "MW",
		"updated": "02/10/2016"
	},
	{
		"name": "DORTY",
		"latitude": "29-36-53.04 N",
		"longitude": "95-45-19.16 W",
		"state": "TEXAS",
		"artcc": "ZHU",
		"type": "RP",
		"updated": "HUB*VOR/DME*259.53/25.15"
	},
	{
		"name": "DOSDE",
		"latitude": "29-38-41.87 N",
		"longitude": "90-35-36.05 W",
		"state": "LOUISIANA",
		"artcc": "ZHU",
		"type": "RNAV",
		"updated": "12/08/2017"
	},
	{
		"name": "DOSEC",
		"latitude": "30-21-47.98 N",
		"longitude": "96-11-52.47 W",
		"state": "TEXAS",
		"artcc": "ZHU",
		"type": "RNAV",
		"updated": "06/20/2011"
	},
	{
		"name": "DOSSY",
		"latitude": "30-22-46.55 N",
		"longitude": "99-30-10.38 W",
		"state": "TEXAS",
		"artcc": "ZHU",
		"type": "RP",
		"updated": "JCT*VORTAC*120.64/20.90"
	},
	{
		"name": "DOVIE",
		"latitude": "29-8-33.12 N",
		"longitude": "100-32-9.19 W",
		"state": "TEXAS",
		"artcc": "ZHU",
		"type": "MR",
		"updated": "DLF*VORTAC*129.50/18.00"
	},
	{
		"name": "DOYAD",
		"latitude": "29-39-53.27 N",
		"longitude": "92-5-12.06 W",
		"state": "LOUISIANA",
		"artcc": "ZHU",
		"type": "RP",
		"updated": "LLA*VOR/DME*085.57/15.00"
	},
	{
		"name": "DOYAN",
		"latitude": "30-56-54.79 N",
		"longitude": "101-9-24.86 W",
		"state": "TEXAS",
		"artcc": "ZHU",
		"type": "RNAV",
		"updated": "05/21/2003"
	},
	{
		"name": "DPATY",
		"latitude": "32-4-20.65 N",
		"longitude": "91-32-52.9 W",
		"state": "LOUISIANA",
		"artcc": "ZHU",
		"type": "RNAV",
		"updated": "04/03/2014"
	},
	{
		"name": "DPLAN",
		"latitude": "30-51-27.1 N",
		"longitude": "96-6-19.54 W",
		"state": "TEXAS",
		"artcc": "ZHU",
		"type": "RNAV",
		"updated": "03/14/2014"
	},
	{
		"name": "DPLOY",
		"latitude": "29-59-32.66 N",
		"longitude": "95-45-53.04 W",
		"state": "TEXAS",
		"artcc": "ZHU",
		"type": "RP",
		"updated": "TNV*VOR/DME*131.18"
	},
	{
		"name": "DRAPH",
		"latitude": "29-39-58.36 N",
		"longitude": "94-39-20.47 W",
		"state": "TEXAS",
		"artcc": "ZHU",
		"type": "RP",
		"updated": "IAH*VORTAC*110.61/40.00"
	},
	{
		"name": "DREMR",
		"latitude": "30-18-4.72 N",
		"longitude": "95-25-7.26 W",
		"state": "TEXAS",
		"artcc": "ZHU",
		"type": "RNAV",
		"updated": "03/31/2014"
	},
	{
		"name": "DREWZ",
		"latitude": "29-45-27.72 N",
		"longitude": "95-37-2.8 W",
		"state": "TEXAS",
		"artcc": "ZHU",
		"type": "RP",
		"updated": "IAH*VORTAC*225.00"
	},
	{
		"name": "DRIED",
		"latitude": "30-37-32.04 N",
		"longitude": "93-2-51.22 W",
		"state": "LOUISIANA",
		"artcc": "ZHU",
		"type": "RP",
		"updated": "LFT*VORTAC*292.54/60.53"
	},
	{
		"name": "DRKAR",
		"latitude": "30-5-34.38 N",
		"longitude": "95-10-9.46 W",
		"state": "TEXAS",
		"artcc": "ZHU",
		"type": "RNAV",
		"updated": "03/21/2014"
	},
	{
		"name": "DRLLR",
		"latitude": "30-21-26.43 N",
		"longitude": "95-44-19.17 W",
		"state": "TEXAS",
		"artcc": "ZHU",
		"type": "RNAV",
		"updated": "03/11/2014"
	},
	{
		"name": "DROPP",
		"latitude": "29-13-37.67 N",
		"longitude": "95-32-4.42 W",
		"state": "TEXAS",
		"artcc": "ZHU",
		"type": "MR",
		"updated": "EFD*TACAN*216.00/30.00"
	},
	{
		"name": "DRPPD",
		"latitude": "30-46-53.83 N",
		"longitude": "96-41-26.85 W",
		"state": "TEXAS",
		"artcc": "ZHU",
		"type": "RP",
		"updated": "LOA*VORTAC*233.39"
	},
	{
		"name": "DRYCK",
		"latitude": "27-55-44.76 N",
		"longitude": "98-17-3.2 W",
		"state": "TEXAS",
		"artcc": "ZHU",
		"type": "MR",
		"updated": "NOG*TACAN*274.00/13.00"
	},
	{
		"name": "DUBBY",
		"latitude": "28-57-30.72 N",
		"longitude": "98-56-18.25 W",
		"state": "TEXAS",
		"artcc": "ZHU",
		"type": "MR",
		"updated": "KSY*TACAN*212.00/32.00"
	},
	{
		"name": "DUCCA",
		"latitude": "29-17-19.42 N",
		"longitude": "91-2-16.72 W",
		"state": "LOUISIANA",
		"artcc": "ZHU",
		"type": "RP",
		"updated": "TBD*VOR/DME*204.00/25.00"
	},
	{
		"name": "DUCKS",
		"latitude": "29-30-50.83 N",
		"longitude": "95-36-5 W",
		"state": "TEXAS",
		"artcc": "ZHU",
		"type": "RP",
		"updated": "HUB*VOR/DME*238.58"
	},
	{
		"name": "DUCOZ",
		"latitude": "30-15-11.09 N",
		"longitude": "95-31-27.33 W",
		"state": "TEXAS",
		"artcc": "ZHU",
		"type": "RP",
		"updated": "IAH*VORTAC*/20.01"
	},
	{
		"name": "DUDKE",
		"latitude": "30-28-15.81 N",
		"longitude": "88-52-3.82 W",
		"state": "MISSISSIPPI",
		"artcc": "ZHU",
		"type": "MR",
		"updated": "BIX*TACAN*039.00/5.00"
	},
	{
		"name": "DUDMY",
		"latitude": "29-48-6.59 N",
		"longitude": "95-14-39.25 W",
		"state": "TEXAS",
		"artcc": "ZHU",
		"type": "RP",
		"updated": "IAH*VORTAC*/10.69"
	},
	{
		"name": "DUDYA",
		"latitude": "30-26-4.33 N",
		"longitude": "96-24-44.11 W",
		"state": "TEXAS",
		"artcc": "ZHU",
		"type": "RNAV",
		"updated": "06/11/2010"
	},
	{
		"name": "DUFOS",
		"latitude": "30-10-23.48 N",
		"longitude": "89-42-13.65 W",
		"state": "LOUISIANA",
		"artcc": "ZHU",
		"type": "RNAV",
		"updated": "02/28/2005"
	},
	{
		"name": "DUJAR",
		"latitude": "29-23-44.44 N",
		"longitude": "95-18-55.9 W",
		"state": "TEXAS",
		"artcc": "ZHU",
		"type": "MR",
		"updated": "EFD*TACAN*208.00/15.00"
	},
	{
		"name": "DUMPE",
		"latitude": "31-4-47.52 N",
		"longitude": "93-20-33.38 W",
		"state": "LOUISIANA",
		"artcc": "ZHU",
		"type": "RNAV",
		"updated": "08/22/2011"
	},
	{
		"name": "DUNAY",
		"latitude": "30-35-8.4 N",
		"longitude": "91-12-56.52 W",
		"state": "LOUISIANA",
		"artcc": "ZHU",
		"type": "RNAV",
		"updated": "07/15/2015"
	},
	{
		"name": "DUNBE",
		"latitude": "30-41-48.59 N",
		"longitude": "89-49-33.96 W",
		"state": "MISSISSIPPI",
		"artcc": "ZHU",
		"type": "RP",
		"updated": "PCU*VOR/DME*323.67/9.51"
	},
	{
		"name": "DUNDE",
		"latitude": "30-1-2.56 N",
		"longitude": "100-18-10.09 W",
		"state": "TEXAS",
		"artcc": "ZHU",
		"type": "RP",
		"updated": "CSI*VORTAC*268.00/57.00"
	},
	{
		"name": "DUREC",
		"latitude": "30-21-22.16 N",
		"longitude": "93-21-6.14 W",
		"state": "LOUISIANA",
		"artcc": "ZHU",
		"type": "RNAV",
		"updated": "10/27/2004"
	},
	{
		"name": "DUSON",
		"latitude": "30-18-47.37 N",
		"longitude": "92-16-53.41 W",
		"state": "LOUISIANA",
		"artcc": "ZHU",
		"type": "RP",
		"updated": "LFT*VORTAC*292.54/16.64"
	},
	{
		"name": "DUTNA",
		"latitude": "24-30-0 N",
		"longitude": "91-20-5 W",
		"state": "OFFSHORE GULF",
		"artcc": "ZHU",
		"type": "RNAV",
		"updated": "10/31/2012"
	},
	{
		"name": "DUUDE",
		"latitude": "29-9-47.22 N",
		"longitude": "96-28-46.44 W",
		"state": "TEXAS",
		"artcc": "ZHU",
		"type": "RP",
		"updated": "ELA*VOR/DME*187.94/31.08"
	},
	{
		"name": "DUUPO",
		"latitude": "30-27-44.99 N",
		"longitude": "95-2-54.22 W",
		"state": "TEXAS",
		"artcc": "ZHU",
		"type": "RNAV",
		"updated": "07/30/2011"
	},
	{
		"name": "DUUUK",
		"latitude": "29-39-42.52 N",
		"longitude": "95-57-39.38 W",
		"state": "TEXAS",
		"artcc": "ZHU",
		"type": "RP",
		"updated": "TNV*VOR/DME*164.28/37.85"
	},
	{
		"name": "DUVAL",
		"latitude": "27-58-21.46 N",
		"longitude": "98-36-1.38 W",
		"state": "TEXAS",
		"artcc": "ZHU",
		"type": "MR",
		"updated": "NOG*TACAN*274.00/30.00"
	},
	{
		"name": "DUYSE",
		"latitude": "26-44-3.7 N",
		"longitude": "98-25-31.64 W",
		"state": "TEXAS",
		"artcc": "ZHU",
		"type": "RNAV",
		"updated": "08/08/2005"
	},
	{
		"name": "DWELT",
		"latitude": "30-33-2.28 N",
		"longitude": "98-2-19.45 W",
		"state": "TEXAS",
		"artcc": "ZHU",
		"type": "RNAV",
		"updated": "11/29/2012"
	},
	{
		"name": "DWSUN",
		"latitude": "29-56-20.08 N",
		"longitude": "95-7-12.83 W",
		"state": "TEXAS",
		"artcc": "ZHU",
		"type": "RNAV",
		"updated": "03/26/2014"
	},
	{
		"name": "DXEEE",
		"latitude": "30-3-34.29 N",
		"longitude": "98-12-11.45 W",
		"state": "TEXAS",
		"artcc": "ZHU",
		"type": "RNAV",
		"updated": "10/19/2017"
	},
	{
		"name": "DYUGA",
		"latitude": "29-42-21.02 N",
		"longitude": "95-29-50.66 W",
		"state": "TEXAS",
		"artcc": "ZHU",
		"type": "RNAV",
		"updated": "11/29/2017"
	}
]
