[
	{
		"name": "FAACE",
		"latitude": "30-11-29.43 N",
		"longitude": "97-57-19.72 W",
		"state": "TEXAS",
		"artcc": "ZHU",
		"type": "RNAV",
		"updated": "10/19/2017"
	},
	{
		"name": "FABMI",
		"latitude": "30-25-30 N",
		"longitude": "88-54-44.51 W",
		"state": "MISSISSIPPI",
		"artcc": "ZHU",
		"type": "MR",
		"updated": "BIX*TACAN*039.00/1.40"
	},
	{
		"name": "FABRE",
		"latitude": "29-8-21.23 N",
		"longitude": "90-11-4.65 W",
		"state": "LOUISIANA",
		"artcc": "ZHU",
		"type": "RNAV",
		"updated": "09/12/2011"
	},
	{
		"name": "FADAD",
		"latitude": "30-21-37.99 N",
		"longitude": "90-56-31.04 W",
		"state": "LOUISIANA",
		"artcc": "ZHU",
		"type": "RNAV",
		"updated": "09/30/2003"
	},
	{
		"name": "FADXY",
		"latitude": "31-3-48.75 N",
		"longitude": "97-22-37.51 W",
		"state": "TEXAS",
		"artcc": "ZHU",
		"type": "RNAV",
		"updated": "08/18/2010"
	},
	{
		"name": "FAFOD",
		"latitude": "29-26-49.42 N",
		"longitude": "95-10-55.36 W",
		"state": "TEXAS",
		"artcc": "ZHU",
		"type": "RNAV",
		"updated": "03/11/2011"
	},
	{
		"name": "FALFA",
		"latitude": "29-8-18.17 N",
		"longitude": "90-11-44.72 W",
		"state": "LOUISIANA",
		"artcc": "ZHU",
		"type": "RNAV",
		"updated": "09/12/2011"
	},
	{
		"name": "FALSE",
		"latitude": "29-57-4.5 N",
		"longitude": "94-28-2.11 W",
		"state": "TEXAS",
		"artcc": "ZHU",
		"type": "RP",
		"updated": "DAS*VORTAC*142.00"
	},
	{
		"name": "FALTO",
		"latitude": "26-27-45.9 N",
		"longitude": "99-6-11.6 W",
		"state": "TEXAS",
		"artcc": "ZHU",
		"type": "RNAV",
		"updated": "08/30/2005"
	},
	{
		"name": "FAMAB",
		"latitude": "29-36-12.13 N",
		"longitude": "90-39-36.24 W",
		"state": "LOUISIANA",
		"artcc": "ZHU",
		"type": "RP",
		"updated": "TBD*VOR/DME*110.39/9.56"
	},
	{
		"name": "FAMAD",
		"latitude": "29-15-18.54 N",
		"longitude": "89-22-52.37 W",
		"state": "LOUISIANA",
		"artcc": "ZHU",
		"type": "RNAV",
		"updated": "01/31/2008"
	},
	{
		"name": "FAMDO",
		"latitude": "29-34-54.08 N",
		"longitude": "98-39-13.99 W",
		"state": "TEXAS",
		"artcc": "ZHU",
		"type": "MR",
		"updated": "KSY*TACAN*337.49/12.00"
	},
	{
		"name": "FAMOG",
		"latitude": "29-36-26.73 N",
		"longitude": "95-14-1.95 W",
		"state": "TEXAS",
		"artcc": "ZHU",
		"type": "RNAV",
		"updated": "05/09/2011"
	},
	{
		"name": "FAMVI",
		"latitude": "26-14-49.6 N",
		"longitude": "97-56-19.26 W",
		"state": "TEXAS",
		"artcc": "ZHU",
		"type": "RNAV",
		"updated": "09/14/2012"
	},
	{
		"name": "FANAG",
		"latitude": "29-36-53.11 N",
		"longitude": "91-31-23.23 W",
		"state": "LOUISIANA",
		"artcc": "ZHU",
		"type": "RNAV",
		"updated": "07/08/2003"
	},
	{
		"name": "FANBI",
		"latitude": "27-46-39.73 N",
		"longitude": "97-17-17.55 W",
		"state": "TEXAS",
		"artcc": "ZHU",
		"type": "RNAV",
		"updated": "07/12/2016"
	},
	{
		"name": "FANEP",
		"latitude": "30-38-58.02 N",
		"longitude": "88-12-35.7 W",
		"state": "ALABAMA",
		"artcc": "ZHU",
		"type": "RNAV",
		"updated": "06/20/2012"
	},
	{
		"name": "FANIK",
		"latitude": "30-38-32.8 N",
		"longitude": "93-25-55.62 W",
		"state": "LOUISIANA",
		"artcc": "ZHU",
		"type": "RNAV",
		"updated": "03/19/2009"
	},
	{
		"name": "FAPIL",
		"latitude": "29-49-27.61 N",
		"longitude": "95-36-42.49 W",
		"state": "TEXAS",
		"artcc": "ZHU",
		"type": "RNAV",
		"updated": "01/24/2018"
	},
	{
		"name": "FAPMA",
		"latitude": "27-40-6.52 N",
		"longitude": "97-8-28.32 W",
		"state": "TEXAS",
		"artcc": "ZHU",
		"type": "RNAV",
		"updated": "04/29/2016"
	},
	{
		"name": "FAPOB",
		"latitude": "31-21-23.86 N",
		"longitude": "89-22-36.99 W",
		"state": "MISSISSIPPI",
		"artcc": "ZHU",
		"type": "RNAV",
		"updated": "11/02/2017"
	},
	{
		"name": "FAPOK",
		"latitude": "26-24-47.84 N",
		"longitude": "97-42-24.03 W",
		"state": "TEXAS",
		"artcc": "ZHU",
		"type": "RP",
		"updated": "HRL*VOR/DME*340.00/11.40"
	},
	{
		"name": "FARAG",
		"latitude": "29-2-52.54 N",
		"longitude": "96-7-55.63 W",
		"state": "TEXAS",
		"artcc": "ZHU",
		"type": "RNAV",
		"updated": "07/12/2009"
	},
	{
		"name": "FARAT",
		"latitude": "29-7-55.63 N",
		"longitude": "90-4-14.6 W",
		"state": "LOUISIANA",
		"artcc": "ZHU",
		"type": "RNAV",
		"updated": "09/12/2011"
	},
	{
		"name": "FAREL",
		"latitude": "30-34-49.34 N",
		"longitude": "94-23-3.01 W",
		"state": "TEXAS",
		"artcc": "ZHU",
		"type": "RP",
		"updated": "LFK*VORTAC*148.66"
	},
	{
		"name": "FARER",
		"latitude": "30-52-11.18 N",
		"longitude": "92-14-1.96 W",
		"state": "LOUISIANA",
		"artcc": "ZHU",
		"type": "RNAV",
		"updated": "02/20/2009"
	},
	{
		"name": "FARMU",
		"latitude": "30-24-47 N",
		"longitude": "91-0-20.24 W",
		"state": "LOUISIANA",
		"artcc": "ZHU",
		"type": "WP",
		"updated": "07/13/1995"
	},
	{
		"name": "FARSU",
		"latitude": "29-21-12.82 N",
		"longitude": "98-10-25.9 W",
		"state": "TEXAS",
		"artcc": "ZHU",
		"type": "MR",
		"updated": "RND*VORTAC*144.60/11.50"
	},
	{
		"name": "FASAG",
		"latitude": "29-16-24.59 N",
		"longitude": "99-41-22.51 W",
		"state": "TEXAS",
		"artcc": "ZHU",
		"type": "MR",
		"updated": "DLF*VORTAC*088.00/57.00"
	},
	{
		"name": "FASHU",
		"latitude": "30-7-27.8 N",
		"longitude": "96-21-27.67 W",
		"state": "TEXAS",
		"artcc": "ZHU",
		"type": "RNAV",
		"updated": "06/11/2010"
	},
	{
		"name": "FASMO",
		"latitude": "31-9-33.73 N",
		"longitude": "89-43-24.29 W",
		"state": "MISSISSIPPI",
		"artcc": "ZHU",
		"type": "RNAV",
		"updated": "11/02/2017"
	},
	{
		"name": "FATLI",
		"latitude": "29-37-13.51 N",
		"longitude": "90-38-36.14 W",
		"state": "LOUISIANA",
		"artcc": "ZHU",
		"type": "RNAV",
		"updated": "12/08/2017"
	},
	{
		"name": "FATOR",
		"latitude": "26-19-36.44 N",
		"longitude": "98-22-36.71 W",
		"state": "TEXAS",
		"artcc": "ZHU",
		"type": "RP",
		"updated": "HRL*VOR/DME*273.65/39.51"
	},
	{
		"name": "FATSO",
		"latitude": "29-41-23.99 N",
		"longitude": "89-47-4.46 W",
		"state": "OFFSHORE GULF",
		"artcc": "ZHU",
		"type": "RNAV",
		"updated": "08/31/2005"
	},
	{
		"name": "FAUST",
		"latitude": "29-43-17 N",
		"longitude": "97-57-8.6 W",
		"state": "TEXAS",
		"artcc": "ZHU",
		"type": "RP",
		"updated": "SAT*VORTAC*072.00/27.00"
	},
	{
		"name": "FAVEG",
		"latitude": "29-25-18.73 N",
		"longitude": "98-35-49.84 W",
		"state": "TEXAS",
		"artcc": "ZHU",
		"type": "MR",
		"updated": "KSY*TACAN*331.01/2.00"
	},
	{
		"name": "FAVEP",
		"latitude": "27-29-1.86 N",
		"longitude": "97-46-12.82 W",
		"state": "TEXAS",
		"artcc": "ZHU",
		"type": "MR",
		"updated": "NQI*TACAN*112.00/2.10"
	},
	{
		"name": "FAVLA",
		"latitude": "29-24-24.21 N",
		"longitude": "98-35-20.8 W",
		"state": "TEXAS",
		"artcc": "ZHU",
		"type": "MR",
		"updated": "KSY*TACAN*331.01/1.00"
	},
	{
		"name": "FAVOT",
		"latitude": "31-13-35.74 N",
		"longitude": "89-12-5.42 W",
		"state": "MISSISSIPPI",
		"artcc": "ZHU",
		"type": "RNAV",
		"updated": "05/13/2004"
	},
	{
		"name": "FAWPE",
		"latitude": "30-1-25.04 N",
		"longitude": "90-22-21.39 W",
		"state": "LOUISIANA",
		"artcc": "ZHU",
		"type": "RP",
		"updated": "RQR*VOR/DME*106.72/11.88"
	},
	{
		"name": "FAXUM",
		"latitude": "29-26-5.66 N",
		"longitude": "89-31-46.22 W",
		"state": "LOUISIANA",
		"artcc": "ZHU",
		"type": "RNAV",
		"updated": "04/27/2018"
	},
	{
		"name": "FBURG",
		"latitude": "30-56-33.32 N",
		"longitude": "97-26-5.04 W",
		"state": "TEXAS",
		"artcc": "ZHU",
		"type": "RNAV",
		"updated": "08/18/2010"
	},
	{
		"name": "FEBYI",
		"latitude": "30-29-40.21 N",
		"longitude": "97-32-54.39 W",
		"state": "TEXAS",
		"artcc": "ZHU",
		"type": "RNAV",
		"updated": "09/05/2017"
	},
	{
		"name": "FEDAB",
		"latitude": "29-38-13.3 N",
		"longitude": "98-21-38.19 W",
		"state": "TEXAS",
		"artcc": "ZHU",
		"type": "MW",
		"updated": "09/05/2013"
	},
	{
		"name": "FEDEB",
		"latitude": "27-51-47.29 N",
		"longitude": "97-42-45.52 W",
		"state": "TEXAS",
		"artcc": "ZHU",
		"type": "RNAV",
		"updated": "08/18/2010"
	},
	{
		"name": "FEDOB",
		"latitude": "27-31-9.33 N",
		"longitude": "97-49-21.08 W",
		"state": "TEXAS",
		"artcc": "ZHU",
		"type": "MR",
		"updated": "NQI*TACAN*319.00/1.50"
	},
	{
		"name": "FEDOK",
		"latitude": "30-59-5.1 N",
		"longitude": "99-25-19.66 W",
		"state": "TEXAS",
		"artcc": "ZHU",
		"type": "RNAV",
		"updated": "12/28/2007"
	},
	{
		"name": "FEDOL",
		"latitude": "29-19-35.26 N",
		"longitude": "98-33-50.01 W",
		"state": "TEXAS",
		"artcc": "ZHU",
		"type": "MR",
		"updated": "KSY*TACAN*160.00/4.00"
	},
	{
		"name": "FEEGI",
		"latitude": "27-58-4.14 N",
		"longitude": "98-7-15.96 W",
		"state": "TEXAS",
		"artcc": "ZHU",
		"type": "MR",
		"updated": "NOG*TACAN*311.14/6.02"
	},
	{
		"name": "FEELS",
		"latitude": "28-37-44.24 N",
		"longitude": "99-6-54.91 W",
		"state": "TEXAS",
		"artcc": "ZHU",
		"type": "RP",
		"updated": "COT*VORTAC*352.00/10.00"
	},
	{
		"name": "FEFEP",
		"latitude": "30-18-41.62 N",
		"longitude": "96-23-26.05 W",
		"state": "TEXAS",
		"artcc": "ZHU",
		"type": "RNAV",
		"updated": "06/11/2010"
	},
	{
		"name": "FEGDU",
		"latitude": "29-31-38.85 N",
		"longitude": "90-40-3.26 W",
		"state": "LOUISIANA",
		"artcc": "ZHU",
		"type": "RNAV",
		"updated": "12/08/2017"
	},
	{
		"name": "FEGIP",
		"latitude": "30-49-8.53 N",
		"longitude": "99-10-56.89 W",
		"state": "TEXAS",
		"artcc": "ZHU",
		"type": "RNAV",
		"updated": "09/27/2012"
	},
	{
		"name": "FEGRI",
		"latitude": "29-21-17.27 N",
		"longitude": "90-17-46.04 W",
		"state": "LOUISIANA",
		"artcc": "ZHU",
		"type": "RNAV",
		"updated": "01/16/2004"
	},
	{
		"name": "FEGSA",
		"latitude": "29-28-50.35 N",
		"longitude": "98-36-59.81 W",
		"state": "TEXAS",
		"artcc": "ZHU",
		"type": "MR",
		"updated": "KSY*TACAN*/5.65"
	},
	{
		"name": "FEKEL",
		"latitude": "27-50-8.18 N",
		"longitude": "97-29-50.29 W",
		"state": "TEXAS",
		"artcc": "ZHU",
		"type": "RNAV",
		"updated": "12/26/2013"
	},
	{
		"name": "FEKNI",
		"latitude": "29-37-43.29 N",
		"longitude": "97-57-12.71 W",
		"state": "TEXAS",
		"artcc": "ZHU",
		"type": "RNAV",
		"updated": "01/08/2008"
	},
	{
		"name": "FEKOG",
		"latitude": "29-25-45.69 N",
		"longitude": "90-21-49.36 W",
		"state": "LOUISIANA",
		"artcc": "ZHU",
		"type": "RNAV",
		"updated": "01/16/2004"
	},
	{
		"name": "FELEL",
		"latitude": "29-59-46.77 N",
		"longitude": "95-31-7.12 W",
		"state": "TEXAS",
		"artcc": "ZHU",
		"type": "RNAV",
		"updated": "10/31/2017"
	},
	{
		"name": "FELLO",
		"latitude": "30-29-5.2 N",
		"longitude": "90-25-7.67 W",
		"state": "LOUISIANA",
		"artcc": "ZHU",
		"type": "RNAV",
		"updated": "05/14/2010"
	},
	{
		"name": "FELMA",
		"latitude": "29-14-45.1 N",
		"longitude": "98-25-43.75 W",
		"state": "TEXAS",
		"artcc": "ZHU",
		"type": "RNAV",
		"updated": "12/27/2007"
	},
	{
		"name": "FEMAB",
		"latitude": "30-31-15.64 N",
		"longitude": "96-7-38.84 W",
		"state": "TEXAS",
		"artcc": "ZHU",
		"type": "RP",
		"updated": "CLL*VORTAC*100.24/16.00"
	},
	{
		"name": "FEMEL",
		"latitude": "28-56-39.42 N",
		"longitude": "95-55-13.38 W",
		"state": "TEXAS",
		"artcc": "ZHU",
		"type": "RP",
		"updated": "PSX*VORTAC*054.00/23.00"
	},
	{
		"name": "FEMME",
		"latitude": "29-14-19.08 N",
		"longitude": "90-11-44.72 W",
		"state": "LOUISIANA",
		"artcc": "ZHU",
		"type": "RNAV",
		"updated": "09/12/2011"
	},
	{
		"name": "FENAK",
		"latitude": "28-25-23.7 N",
		"longitude": "98-7-51.29 W",
		"state": "TEXAS",
		"artcc": "ZHU",
		"type": "RP",
		"updated": "THX*VORTAC*160.06/5.00"
	},
	{
		"name": "FENAN",
		"latitude": "30-13-10.52 N",
		"longitude": "92-46-52.6 W",
		"state": "LOUISIANA",
		"artcc": "ZHU",
		"type": "RP",
		"updated": "LCH*VORTAC*067.43/17.50"
	},
	{
		"name": "FENCE",
		"latitude": "28-47-13.1 N",
		"longitude": "96-50-22.16 W",
		"state": "TEXAS",
		"artcc": "ZHU",
		"type": "RP",
		"updated": "VCT*VOR/DME*126.68/10.00"
	},
	{
		"name": "FENDS",
		"latitude": "29-56-52.7 N",
		"longitude": "95-20-3.53 W",
		"state": "TEXAS",
		"artcc": "ZHU",
		"type": "RP",
		"updated": "IAH*VORTAC*127.00/0.80"
	},
	{
		"name": "FENKU",
		"latitude": "26-6-52.67 N",
		"longitude": "97-39-36.39 W",
		"state": "TEXAS",
		"artcc": "ZHU",
		"type": "RNAV",
		"updated": "08/09/2012"
	},
	{
		"name": "FENPA",
		"latitude": "30-15-44.8 N",
		"longitude": "90-57-22.11 W",
		"state": "LOUISIANA",
		"artcc": "ZHU",
		"type": "RNAV",
		"updated": "07/19/2012"
	},
	{
		"name": "FENPI",
		"latitude": "29-19-11.79 N",
		"longitude": "98-20-34.31 W",
		"state": "TEXAS",
		"artcc": "ZHU",
		"type": "RNAV",
		"updated": "06/12/2002"
	},
	{
		"name": "FENPU",
		"latitude": "30-54-39.27 N",
		"longitude": "91-27-42.72 W",
		"state": "LOUISIANA",
		"artcc": "ZHU",
		"type": "RNAV",
		"updated": "04/02/2008"
	},
	{
		"name": "FENTO",
		"latitude": "30-20-52.41 N",
		"longitude": "92-55-34.16 W",
		"state": "LOUISIANA",
		"artcc": "ZHU",
		"type": "RP",
		"updated": "LFT*VORTAC*278.00"
	},
	{
		"name": "FEPET",
		"latitude": "29-25-44.34 N",
		"longitude": "98-35-51.3 W",
		"state": "TEXAS",
		"artcc": "ZHU",
		"type": "MR",
		"updated": "KSY*TACAN*334.84/2.40"
	},
	{
		"name": "FEPIV",
		"latitude": "29-24-23.86 N",
		"longitude": "98-35-21.69 W",
		"state": "TEXAS",
		"artcc": "ZHU",
		"type": "MR",
		"updated": "KSY*TACAN*330.20/1.00"
	},
	{
		"name": "FEPNI",
		"latitude": "30-49-58.56 N",
		"longitude": "98-39-46.14 W",
		"state": "TEXAS",
		"artcc": "ZHU",
		"type": "RNAV",
		"updated": "10/14/2009"
	},
	{
		"name": "FEPRA",
		"latitude": "30-49-58.27 N",
		"longitude": "96-13-2.86 W",
		"state": "TEXAS",
		"artcc": "ZHU",
		"type": "RNAV",
		"updated": "06/21/2011"
	},
	{
		"name": "FEPRO",
		"latitude": "30-37-0.96 N",
		"longitude": "93-33-31.02 W",
		"state": "LOUISIANA",
		"artcc": "ZHU",
		"type": "RNAV",
		"updated": "11/09/2004"
	},
	{
		"name": "FEPRU",
		"latitude": "27-4-7.47 N",
		"longitude": "98-25-52.01 W",
		"state": "TEXAS",
		"artcc": "ZHU",
		"type": "RNAV",
		"updated": "08/08/2005"
	},
	{
		"name": "FERDU",
		"latitude": "30-1-50.7 N",
		"longitude": "93-2-39.63 W",
		"state": "LOUISIANA",
		"artcc": "ZHU",
		"type": "RNAV",
		"updated": "10/27/2004"
	},
	{
		"name": "FEREM",
		"latitude": "29-58-44.73 N",
		"longitude": "93-26-28.52 W",
		"state": "LOUISIANA",
		"artcc": "ZHU",
		"type": "RP",
		"updated": "LCH*VORTAC*234.00/20.00"
	},
	{
		"name": "FERNI",
		"latitude": "31-15-14.44 N",
		"longitude": "90-30-42.1 W",
		"state": "MISSISSIPPI",
		"artcc": "ZHU",
		"type": "RP",
		"updated": "MCB*VORTAC*254.03"
	},
	{
		"name": "FERVU",
		"latitude": "30-24-29.95 N",
		"longitude": "94-33-19.83 W",
		"state": "TEXAS",
		"artcc": "ZHU",
		"type": "RNAV",
		"updated": "06/14/2012"
	},
	{
		"name": "FESEP",
		"latitude": "30-22-29.84 N",
		"longitude": "97-32-9.65 W",
		"state": "TEXAS",
		"artcc": "ZHU",
		"type": "RNAV",
		"updated": "07/15/2010"
	},
	{
		"name": "FESIS",
		"latitude": "30-31-21.69 N",
		"longitude": "97-43-45.98 W",
		"state": "TEXAS",
		"artcc": "ZHU",
		"type": "RNAV",
		"updated": "07/15/2010"
	},
	{
		"name": "FESJU",
		"latitude": "26-50-7.97 N",
		"longitude": "98-11-35.16 W",
		"state": "TEXAS",
		"artcc": "ZHU",
		"type": "RNAV",
		"updated": "07/26/2012"
	},
	{
		"name": "FESTA",
		"latitude": "29-58-39.3 N",
		"longitude": "95-8-7.49 W",
		"state": "TEXAS",
		"artcc": "ZHU",
		"type": "RP",
		"updated": "HUB*VOR/DME*015.90"
	},
	{
		"name": "FETMO",
		"latitude": "26-10-35.6 N",
		"longitude": "98-23-31.3 W",
		"state": "TEXAS",
		"artcc": "ZHU",
		"type": "RNAV",
		"updated": "08/30/2005"
	},
	{
		"name": "FETNI",
		"latitude": "30-18-36.39 N",
		"longitude": "91-42-55.42 W",
		"state": "LOUISIANA",
		"artcc": "ZHU",
		"type": "RP",
		"updated": "LFT*VORTAC*061.14/16.00"
	},
	{
		"name": "FEVIB",
		"latitude": "31-13-38.19 N",
		"longitude": "87-26-50.76 W",
		"state": "ALABAMA",
		"artcc": "ZHU",
		"type": "RNAV",
		"updated": "12/08/2017"
	},
	{
		"name": "FFOAM",
		"latitude": "29-55-40.52 N",
		"longitude": "95-57-41 W",
		"state": "TEXAS",
		"artcc": "ZHU",
		"type": "RNAV",
		"updated": "04/21/2014"
	},
	{
		"name": "FFSSH",
		"latitude": "29-39-40.97 N",
		"longitude": "96-47-59.82 W",
		"state": "TEXAS",
		"artcc": "ZHU",
		"type": "RP",
		"updated": "ELA*VOR/DME*261.97/25.24"
	},
	{
		"name": "FFUEL",
		"latitude": "30-46-56.61 N",
		"longitude": "97-2-8.41 W",
		"state": "TEXAS",
		"artcc": "ZHU",
		"type": "RNAV",
		"updated": "03/14/2014"
	},
	{
		"name": "FIBOR",
		"latitude": "29-5-37.42 N",
		"longitude": "98-0-4.27 W",
		"state": "TEXAS",
		"artcc": "ZHU",
		"type": "MR",
		"updated": "RND*VORTAC*144.60/29.50"
	},
	{
		"name": "FIDDI",
		"latitude": "28-53-20.21 N",
		"longitude": "95-38-54.89 W",
		"state": "TEXAS",
		"artcc": "ZHU",
		"type": "RP",
		"updated": "ELA*VOR/DME*134.68/58.08"
	},
	{
		"name": "FIDGA",
		"latitude": "30-11-48.18 N",
		"longitude": "93-15-53.78 W",
		"state": "LOUISIANA",
		"artcc": "ZHU",
		"type": "RP",
		"updated": "LCH*VORTAC*284.77"
	},
	{
		"name": "FIDGU",
		"latitude": "29-53-40.23 N",
		"longitude": "98-42-54.65 W",
		"state": "TEXAS",
		"artcc": "ZHU",
		"type": "RNAV",
		"updated": "11/21/2006"
	},
	{
		"name": "FIDOX",
		"latitude": "28-19-3.73 N",
		"longitude": "97-50-57.36 W",
		"state": "TEXAS",
		"artcc": "ZHU",
		"type": "RNAV",
		"updated": "07/12/2016"
	},
	{
		"name": "FIDRU",
		"latitude": "31-23-36.41 N",
		"longitude": "92-13-49.13 W",
		"state": "LOUISIANA",
		"artcc": "ZHU",
		"type": "RP",
		"updated": "ESF*LD*089.87/4.11"
	},
	{
		"name": "FIGER",
		"latitude": "28-45-3.17 N",
		"longitude": "96-16-48.24 W",
		"state": "TEXAS",
		"artcc": "ZHU",
		"type": "RNAV",
		"updated": "12/10/2012"
	},
	{
		"name": "FIGGG",
		"latitude": "29-34-54.51 N",
		"longitude": "95-8-26.43 W",
		"state": "TEXAS",
		"artcc": "ZHU",
		"type": "RNAV",
		"updated": "03/25/2014"
	},
	{
		"name": "FIGNU",
		"latitude": "28-8-5.72 N",
		"longitude": "97-43-46.73 W",
		"state": "TEXAS",
		"artcc": "ZHU",
		"type": "RNAV",
		"updated": "02/09/2018"
	},
	{
		"name": "FIGUR",
		"latitude": "30-3-19.12 N",
		"longitude": "90-31-35.12 W",
		"state": "LOUISIANA",
		"artcc": "ZHU",
		"type": "RNAV",
		"updated": "05/01/2003"
	},
	{
		"name": "FIHNU",
		"latitude": "30-46-6.91 N",
		"longitude": "97-40-19.18 W",
		"state": "TEXAS",
		"artcc": "ZHU",
		"type": "RNAV",
		"updated": "11/05/2015"
	},
	{
		"name": "FIJSI",
		"latitude": "29-40-36.36 N",
		"longitude": "95-9-56.7 W",
		"state": "TEXAS",
		"artcc": "ZHU",
		"type": "RP",
		"updated": "HUB*VOR/DME*072.66"
	},
	{
		"name": "FIKEG",
		"latitude": "27-43-18.47 N",
		"longitude": "97-19-31.02 W",
		"state": "TEXAS",
		"artcc": "ZHU",
		"type": "MW",
		"updated": "07/09/2015"
	},
	{
		"name": "FIKEL",
		"latitude": "30-10-17.56 N",
		"longitude": "89-56-4.26 W",
		"state": "LOUISIANA",
		"artcc": "ZHU",
		"type": "RNAV",
		"updated": "02/28/2005"
	},
	{
		"name": "FIKFE",
		"latitude": "29-5-19.18 N",
		"longitude": "99-34-24.27 W",
		"state": "TEXAS",
		"artcc": "ZHU",
		"type": "RNAV",
		"updated": "03/14/2000"
	},
	{
		"name": "FIKIP",
		"latitude": "27-59-9.6 N",
		"longitude": "96-51-16.9 W",
		"state": "TEXAS",
		"artcc": "ZHU",
		"type": "RNAV",
		"updated": "03/28/2010"
	},
	{
		"name": "FIKKO",
		"latitude": "29-36-59.3 N",
		"longitude": "95-8-41.25 W",
		"state": "TEXAS",
		"artcc": "ZHU",
		"type": "MR",
		"updated": "EFD*TACAN*046.00/1.00"
	},
	{
		"name": "FIKLI",
		"latitude": "27-47-22.28 N",
		"longitude": "97-38-14.37 W",
		"state": "TEXAS",
		"artcc": "ZHU",
		"type": "RNAV",
		"updated": "08/18/2010"
	},
	{
		"name": "FILEK",
		"latitude": "29-45-52.9 N",
		"longitude": "94-37-46.87 W",
		"state": "TEXAS",
		"artcc": "ZHU",
		"type": "RNAV",
		"updated": "11/19/2004"
	},
	{
		"name": "FILPO",
		"latitude": "27-47-34.64 N",
		"longitude": "97-53-49.92 W",
		"state": "TEXAS",
		"artcc": "ZHU",
		"type": "RNAV",
		"updated": "06/28/2016"
	},
	{
		"name": "FILTO",
		"latitude": "29-14-53.49 N",
		"longitude": "100-39-15.81 W",
		"state": "TEXAS",
		"artcc": "ZHU",
		"type": "RNAV",
		"updated": "06/20/2005"
	},
	{
		"name": "FIMEL",
		"latitude": "29-54-35.7 N",
		"longitude": "98-51-9.04 W",
		"state": "TEXAS",
		"artcc": "ZHU",
		"type": "RNAV",
		"updated": "09/22/2005"
	},
	{
		"name": "FIMUL",
		"latitude": "29-24-27.86 N",
		"longitude": "98-52-36.97 W",
		"state": "TEXAS",
		"artcc": "ZHU",
		"type": "RNAV",
		"updated": "08/30/2015"
	},
	{
		"name": "FINEL",
		"latitude": "29-44-41.46 N",
		"longitude": "95-38-50.48 W",
		"state": "TEXAS",
		"artcc": "ZHU",
		"type": "RNAV",
		"updated": "05/08/2018"
	},
	{
		"name": "FINET",
		"latitude": "29-10-55.63 N",
		"longitude": "90-3-59.83 W",
		"state": "LOUISIANA",
		"artcc": "ZHU",
		"type": "RNAV",
		"updated": "09/12/2011"
	},
	{
		"name": "FINIG",
		"latitude": "29-24-41.49 N",
		"longitude": "98-12-43.01 W",
		"state": "TEXAS",
		"artcc": "ZHU",
		"type": "MR",
		"updated": "SSF*VOR*043.89"
	},
	{
		"name": "FINOS",
		"latitude": "30-52-28.78 N",
		"longitude": "89-32-8.8 W",
		"state": "MISSISSIPPI",
		"artcc": "ZHU",
		"type": "RNAV",
		"updated": "11/02/2015"
	},
	{
		"name": "FINTI",
		"latitude": "30-40-3.9 N",
		"longitude": "98-15-44.78 W",
		"state": "TEXAS",
		"artcc": "ZHU",
		"type": "RNAV",
		"updated": "09/30/2009"
	},
	{
		"name": "FINTO",
		"latitude": "29-5-54.15 N",
		"longitude": "97-59-27.07 W",
		"state": "TEXAS",
		"artcc": "ZHU",
		"type": "MR",
		"updated": "DHK*TACAN*145.97/30.00"
	},
	{
		"name": "FIRIB",
		"latitude": "29-41-51.15 N",
		"longitude": "89-55-30.53 W",
		"state": "LOUISIANA",
		"artcc": "ZHU",
		"type": "MR",
		"updated": "HRV*VORTAC*154.00/10.00"
	},
	{
		"name": "FIRMA",
		"latitude": "29-59-57.85 N",
		"longitude": "90-1-44.86 W",
		"state": "LOUISIANA",
		"artcc": "ZHU",
		"type": "RNAV",
		"updated": "06/16/2009"
	},
	{
		"name": "FIRNO",
		"latitude": "30-36-11.85 N",
		"longitude": "91-4-15.9 W",
		"state": "LOUISIANA",
		"artcc": "ZHU",
		"type": "RP",
		"updated": "LSU*VORTAC*052.47/13.55"
	},
	{
		"name": "FIRTA",
		"latitude": "26-3-17.84 N",
		"longitude": "97-35-11.84 W",
		"state": "TEXAS",
		"artcc": "ZHU",
		"type": "RNAV",
		"updated": "04/15/2008"
	},
	{
		"name": "FIRVU",
		"latitude": "29-49-46.95 N",
		"longitude": "95-31-33.07 W",
		"state": "TEXAS",
		"artcc": "ZHU",
		"type": "RNAV",
		"updated": "12/05/2017"
	},
	{
		"name": "FISAS",
		"latitude": "28-58-19.88 N",
		"longitude": "98-49-27.66 W",
		"state": "TEXAS",
		"artcc": "ZHU",
		"type": "RNAV",
		"updated": "04/20/2009"
	},
	{
		"name": "FISTY",
		"latitude": "30-59-26.18 N",
		"longitude": "91-37-10.29 W",
		"state": "LOUISIANA",
		"artcc": "ZHU",
		"type": "RP",
		"updated": "LSU*VORTAC*325.00/34.62"
	},
	{
		"name": "FITAP",
		"latitude": "30-10-58.96 N",
		"longitude": "94-23-33.04 W",
		"state": "TEXAS",
		"artcc": "ZHU",
		"type": "RP",
		"updated": "DAS*VORTAC*086.68"
	},
	{
		"name": "FITER",
		"latitude": "29-8-50.5 N",
		"longitude": "98-31-0.56 W",
		"state": "TEXAS",
		"artcc": "ZHU",
		"type": "MR",
		"updated": "KSY*TACAN*163.00/15.00"
	},
	{
		"name": "FITTS",
		"latitude": "30-55-40.27 N",
		"longitude": "97-20-38.78 W",
		"state": "TEXAS",
		"artcc": "ZHU",
		"type": "RP",
		"updated": "CWK*VORTAC*010.25/34.26"
	},
	{
		"name": "FITUP",
		"latitude": "31-19-1.29 N",
		"longitude": "92-32-29.63 W",
		"state": "LOUISIANA",
		"artcc": "ZHU",
		"type": "RP",
		"updated": "AEX*VORTAC*326.98/4.17"
	},
	{
		"name": "FIXUL",
		"latitude": "31-6-41.6 N",
		"longitude": "97-51-1.54 W",
		"state": "TEXAS",
		"artcc": "ZHU",
		"type": "RNAV",
		"updated": "10/23/2009"
	},
	{
		"name": "FIZVY",
		"latitude": "28-33-0.84 N",
		"longitude": "99-51-23.36 W",
		"state": "TEXAS",
		"artcc": "ZHU",
		"type": "RNAV",
		"updated": "06/04/2013"
	},
	{
		"name": "FLAGS",
		"latitude": "29-33-39.45 N",
		"longitude": "91-15-41.53 W",
		"state": "LOUISIANA",
		"artcc": "ZHU",
		"type": "RNAV",
		"updated": "04/11/2012"
	},
	{
		"name": "FLAKK",
		"latitude": "27-10-10.95 N",
		"longitude": "98-13-43.05 W",
		"state": "TEXAS",
		"artcc": "ZHU",
		"type": "MR",
		"updated": "NQI*TACAN*220.00/30.00"
	},
	{
		"name": "FLAKY",
		"latitude": "28-28-39.94 N",
		"longitude": "96-23-29.78 W",
		"state": "TEXAS",
		"artcc": "ZHU",
		"type": "RP",
		"updated": "PSX*VORTAC*186.76/17.73"
	},
	{
		"name": "FLANL",
		"latitude": "29-23-57.66 N",
		"longitude": "96-30-0.5 W",
		"state": "TEXAS",
		"artcc": "ZHU",
		"type": "RP",
		"updated": "PSX*VORTAC*337.03/39.34"
	},
	{
		"name": "FLATZ",
		"latitude": "26-12-18.22 N",
		"longitude": "97-54-43.94 W",
		"state": "TEXAS",
		"artcc": "ZHU",
		"type": "RP",
		"updated": "HRL*VOR/DME*259.18/14.10"
	},
	{
		"name": "FLENC",
		"latitude": "29-14-19.04 N",
		"longitude": "90-15-10.47 W",
		"state": "LOUISIANA",
		"artcc": "ZHU",
		"type": "RNAV",
		"updated": "09/12/2011"
	},
	{
		"name": "FLIBZ",
		"latitude": "30-0-24.77 N",
		"longitude": "95-31-58.72 W",
		"state": "TEXAS",
		"artcc": "ZHU",
		"type": "RP",
		"updated": "BZU*LD*266.94/8.90"
	},
	{
		"name": "FLIES",
		"latitude": "30-28-52.99 N",
		"longitude": "98-32-56.2 W",
		"state": "TEXAS",
		"artcc": "ZHU",
		"type": "RP",
		"updated": "CWK*VORTAC*270.89/53.22"
	},
	{
		"name": "FLIKA",
		"latitude": "30-9-6.66 N",
		"longitude": "95-33-58.74 W",
		"state": "TEXAS",
		"artcc": "ZHU",
		"type": "RP",
		"updated": "IAH*VORTAC*310.50"
	},
	{
		"name": "FLOID",
		"latitude": "30-43-10.92 N",
		"longitude": "89-52-12.65 W",
		"state": "LOUISIANA",
		"artcc": "ZHU",
		"type": "RNAV",
		"updated": "09/05/2012"
	},
	{
		"name": "FLOTA",
		"latitude": "27-33-30.79 N",
		"longitude": "97-8-19.58 W",
		"state": "TEXAS",
		"artcc": "ZHU",
		"type": "MW",
		"updated": "07/09/2015"
	},
	{
		"name": "FLUBB",
		"latitude": "29-4-55.63 N",
		"longitude": "90-4-29.36 W",
		"state": "LOUISIANA",
		"artcc": "ZHU",
		"type": "RNAV",
		"updated": "09/12/2011"
	},
	{
		"name": "FLUFY",
		"latitude": "31-13-8.25 N",
		"longitude": "94-49-30.01 W",
		"state": "TEXAS",
		"artcc": "ZHU",
		"type": "RP",
		"updated": "LFK*VORTAC*296.32"
	},
	{
		"name": "FLYER",
		"latitude": "30-6-13.91 N",
		"longitude": "98-40-25.56 W",
		"state": "TEXAS",
		"artcc": "ZHU",
		"type": "MR",
		"updated": "RND*VORTAC*321.00"
	},
	{
		"name": "FLYZA",
		"latitude": "29-45-3.98 N",
		"longitude": "95-4-15.93 W",
		"state": "TEXAS",
		"artcc": "ZHU",
		"type": "RNAV",
		"updated": "03/26/2014"
	},
	{
		"name": "FNNLY",
		"latitude": "30-7-21.94 N",
		"longitude": "97-39-20.77 W",
		"state": "TEXAS",
		"artcc": "ZHU",
		"type": "RP",
		"updated": "HCE*LD*174.70/3.26"
	},
	{
		"name": "FOALS",
		"latitude": "26-11-29.14 N",
		"longitude": "97-37-7.27 W",
		"state": "TEXAS",
		"artcc": "ZHU",
		"type": "RNAV",
		"updated": "01/23/2017"
	},
	{
		"name": "FOBKI",
		"latitude": "30-11-45.68 N",
		"longitude": "88-49-47.13 W",
		"state": "MISSISSIPPI",
		"artcc": "ZHU",
		"type": "MR",
		"updated": "GPT*VORTAC*/18.00"
	},
	{
		"name": "FOBNA",
		"latitude": "30-26-28.69 N",
		"longitude": "95-28-58.28 W",
		"state": "TEXAS",
		"artcc": "ZHU",
		"type": "RNAV",
		"updated": "01/27/2015"
	},
	{
		"name": "FODGE",
		"latitude": "29-27-34.28 N",
		"longitude": "95-18-54.33 W",
		"state": "TEXAS",
		"artcc": "ZHU",
		"type": "RNAV",
		"updated": "04/16/2008"
	},
	{
		"name": "FODRA",
		"latitude": "29-21-41.58 N",
		"longitude": "98-9-24.05 W",
		"state": "TEXAS",
		"artcc": "ZHU",
		"type": "MW",
		"updated": "09/05/2013"
	},
	{
		"name": "FODUT",
		"latitude": "30-55-50.86 N",
		"longitude": "101-15-5.72 W",
		"state": "TEXAS",
		"artcc": "ZHU",
		"type": "RNAV",
		"updated": "05/21/2003"
	},
	{
		"name": "FOHPU",
		"latitude": "30-10-29.73 N",
		"longitude": "94-20-51.8 W",
		"state": "TEXAS",
		"artcc": "ZHU",
		"type": "RNAV",
		"updated": "02/09/2018"
	},
	{
		"name": "FOILS",
		"latitude": "30-41-15.49 N",
		"longitude": "90-12-46.24 W",
		"state": "LOUISIANA",
		"artcc": "ZHU",
		"type": "RP",
		"updated": "PCU*VOR/DME*281.99"
	},
	{
		"name": "FOLAL",
		"latitude": "27-52-56.19 N",
		"longitude": "97-10-55.84 W",
		"state": "TEXAS",
		"artcc": "ZHU",
		"type": "RNAV",
		"updated": "07/31/2006"
	},
	{
		"name": "FOLAV",
		"latitude": "29-30-54.89 N",
		"longitude": "98-15-28.17 W",
		"state": "TEXAS",
		"artcc": "ZHU",
		"type": "MR",
		"updated": "DHK*TACAN*153.07/1.40"
	},
	{
		"name": "FOLEG",
		"latitude": "31-20-16.51 N",
		"longitude": "92-33-33.29 W",
		"state": "LOUISIANA",
		"artcc": "ZHU",
		"type": "RP",
		"updated": "AEX*VORTAC*325.37/5.71"
	},
	{
		"name": "FOLEM",
		"latitude": "27-49-36.42 N",
		"longitude": "97-8-36.29 W",
		"state": "TEXAS",
		"artcc": "ZHU",
		"type": "MW",
		"updated": "07/09/2015"
	},
	{
		"name": "FOLEN",
		"latitude": "30-17-18.62 N",
		"longitude": "92-26-44.13 W",
		"state": "LOUISIANA",
		"artcc": "ZHU",
		"type": "RNAV",
		"updated": "09/03/2003"
	},
	{
		"name": "FOLUL",
		"latitude": "26-15-24.94 N",
		"longitude": "98-18-49.77 W",
		"state": "TEXAS",
		"artcc": "ZHU",
		"type": "RNAV",
		"updated": "11/05/2015"
	},
	{
		"name": "FOMAH",
		"latitude": "29-19-26.8 N",
		"longitude": "95-9-59.12 W",
		"state": "TEXAS",
		"artcc": "ZHU",
		"type": "RNAV",
		"updated": "11/16/2012"
	},
	{
		"name": "FOMUS",
		"latitude": "31-12-24.99 N",
		"longitude": "97-22-24.39 W",
		"state": "TEXAS",
		"artcc": "ZHU",
		"type": "RNAV",
		"updated": "07/27/2006"
	},
	{
		"name": "FOMUX",
		"latitude": "27-19-9.9 N",
		"longitude": "99-28-27.28 W",
		"state": "TEXAS",
		"artcc": "ZHU",
		"type": "RP",
		"updated": "LRD*LD*177.55/12.66"
	},
	{
		"name": "FONEK",
		"latitude": "29-43-54.69 N",
		"longitude": "98-2-35.91 W",
		"state": "TEXAS",
		"artcc": "ZHU",
		"type": "RNAV",
		"updated": "06/01/2006"
	},
	{
		"name": "FONOL",
		"latitude": "29-36-10.4 N",
		"longitude": "98-18-46.72 W",
		"state": "TEXAS",
		"artcc": "ZHU",
		"type": "MR",
		"updated": "DHK*TACAN*324.10/4.60"
	},
	{
		"name": "FOODS",
		"latitude": "26-6-58.47 N",
		"longitude": "97-50-29.7 W",
		"state": "TEXAS",
		"artcc": "ZHU",
		"type": "RP",
		"updated": "HRL*VOR/DME*231.61"
	},
	{
		"name": "FORDE",
		"latitude": "29-29-9.51 N",
		"longitude": "100-31-25.14 W",
		"state": "TEXAS",
		"artcc": "ZHU",
		"type": "MR",
		"updated": "DLF*VORTAC*053.00/15.00"
	},
	{
		"name": "FORES",
		"latitude": "29-29-58.09 N",
		"longitude": "98-2-47.93 W",
		"state": "TEXAS",
		"artcc": "ZHU",
		"type": "RNAV",
		"updated": "12/27/2007"
	},
	{
		"name": "FORJA",
		"latitude": "29-27-5.79 N",
		"longitude": "89-30-33.65 W",
		"state": "LOUISIANA",
		"artcc": "ZHU",
		"type": "RNAV",
		"updated": "01/31/2008"
	},
	{
		"name": "FORLU",
		"latitude": "28-40-4.54 N",
		"longitude": "97-49-55.03 W",
		"state": "TEXAS",
		"artcc": "ZHU",
		"type": "RNAV",
		"updated": "10/13/2011"
	},
	{
		"name": "FORNA",
		"latitude": "30-43-15.29 N",
		"longitude": "97-40-31.38 W",
		"state": "TEXAS",
		"artcc": "ZHU",
		"type": "RNAV",
		"updated": "11/05/2015"
	},
	{
		"name": "FORSS",
		"latitude": "31-10-19.88 N",
		"longitude": "98-4-39.86 W",
		"state": "TEXAS",
		"artcc": "ZHU",
		"type": "RNAV",
		"updated": "01/10/2015"
	},
	{
		"name": "FOSAL",
		"latitude": "29-14-27.01 N",
		"longitude": "96-55-1.25 W",
		"state": "TEXAS",
		"artcc": "ZHU",
		"type": "RNAV",
		"updated": "05/21/2003"
	},
	{
		"name": "FOSIM",
		"latitude": "28-19-13.79 N",
		"longitude": "99-3-43.28 W",
		"state": "TEXAS",
		"artcc": "ZHU",
		"type": "RNAV",
		"updated": "07/20/2014"
	},
	{
		"name": "FOSIN",
		"latitude": "31-30-48.59 N",
		"longitude": "93-11-40.76 W",
		"state": "LOUISIANA",
		"artcc": "ZHU",
		"type": "RP",
		"updated": "AEX*VORTAC*290.52"
	},
	{
		"name": "FOSOT",
		"latitude": "29-5-5.78 N",
		"longitude": "95-45-57.34 W",
		"state": "TEXAS",
		"artcc": "ZHU",
		"type": "RNAV",
		"updated": "10/31/2017"
	},
	{
		"name": "FOSSY",
		"latitude": "29-0-47.02 N",
		"longitude": "90-11-44.72 W",
		"state": "LOUISIANA",
		"artcc": "ZHU",
		"type": "RNAV",
		"updated": "09/12/2011"
	},
	{
		"name": "FOSUX",
		"latitude": "30-48-8.88 N",
		"longitude": "92-41-16.83 W",
		"state": "LOUISIANA",
		"artcc": "ZHU",
		"type": "RNAV",
		"updated": "06/22/2009"
	},
	{
		"name": "FOVID",
		"latitude": "31-22-1.52 N",
		"longitude": "87-54-52.38 W",
		"state": "ALABAMA",
		"artcc": "ZHU",
		"type": "RNAV",
		"updated": "04/17/2010"
	},
	{
		"name": "FOVMO",
		"latitude": "29-20-31.41 N",
		"longitude": "100-45-33.74 W",
		"state": "TEXAS",
		"artcc": "ZHU",
		"type": "MR",
		"updated": "DLF*VORTAC*143.11/1.30"
	},
	{
		"name": "FOVUD",
		"latitude": "26-0-45.95 N",
		"longitude": "98-5-29.65 W",
		"state": "OFFSHORE GULF",
		"artcc": "ZHU",
		"type": "RNAV",
		"updated": "08/09/2006"
	},
	{
		"name": "FOWLR",
		"latitude": "30-17-47.44 N",
		"longitude": "98-21-58.72 W",
		"state": "TEXAS",
		"artcc": "ZHU",
		"type": "RNAV",
		"updated": "03/26/2014"
	},
	{
		"name": "FOXES",
		"latitude": "29-8-8.54 N",
		"longitude": "90-7-39.61 W",
		"state": "LOUISIANA",
		"artcc": "ZHU",
		"type": "RNAV",
		"updated": "09/12/2011"
	},
	{
		"name": "FOXEY",
		"latitude": "30-57-58.93 N",
		"longitude": "93-29-10.46 W",
		"state": "LOUISIANA",
		"artcc": "ZHU",
		"type": "RNAV",
		"updated": "08/22/2011"
	},
	{
		"name": "FRAIL",
		"latitude": "29-11-18.63 N",
		"longitude": "90-11-44.72 W",
		"state": "LOUISIANA",
		"artcc": "ZHU",
		"type": "RNAV",
		"updated": "09/12/2011"
	},
	{
		"name": "FRANK",
		"latitude": "30-32-57.87 N",
		"longitude": "90-0-0.09 W",
		"state": "LOUISIANA",
		"artcc": "ZHU",
		"type": "RP",
		"updated": "PCU*VOR/DME*262.18/13.98"
	},
	{
		"name": "FRDDY",
		"latitude": "29-29-12.75 N",
		"longitude": "94-52-39.4 W",
		"state": "TEXAS",
		"artcc": "ZHU",
		"type": "RNAV",
		"updated": "03/25/2014"
	},
	{
		"name": "FREEP",
		"latitude": "29-11-39.61 N",
		"longitude": "95-27-43.97 W",
		"state": "TEXAS",
		"artcc": "ZHU",
		"type": "RNAV",
		"updated": "LBX*LO*000.00"
	},
	{
		"name": "FRINK",
		"latitude": "30-50-2.74 N",
		"longitude": "95-34-36.93 W",
		"state": "TEXAS",
		"artcc": "ZHU",
		"type": "RNAV",
		"updated": "01/28/2009"
	},
	{
		"name": "FRITZ",
		"latitude": "29-42-24.71 N",
		"longitude": "94-28-4.29 W",
		"state": "TEXAS",
		"artcc": "ZHU",
		"type": "RNAV",
		"updated": "11/13/2014"
	},
	{
		"name": "FRONT",
		"latitude": "29-20-32.79 N",
		"longitude": "89-26-20.7 W",
		"state": "LOUISIANA",
		"artcc": "ZHU",
		"type": "WP",
		"updated": "08/12/1998"
	},
	{
		"name": "FRSTY",
		"latitude": "29-21-38.34 N",
		"longitude": "98-34-22.42 W",
		"state": "TEXAS",
		"artcc": "ZHU",
		"type": "MR",
		"updated": "KSY*TACAN*163.00/1.90"
	},
	{
		"name": "FRUGG",
		"latitude": "30-35-22.6 N",
		"longitude": "98-29-12.31 W",
		"state": "TEXAS",
		"artcc": "ZHU",
		"type": "RP",
		"updated": "LLO*VORTAC*120.43/19.87"
	},
	{
		"name": "FRYED",
		"latitude": "29-45-50.63 N",
		"longitude": "94-48-46.68 W",
		"state": "TEXAS",
		"artcc": "ZHU",
		"type": "RP",
		"updated": "DAS*VORTAC*194.00"
	},
	{
		"name": "FUGAL",
		"latitude": "29-48-9.91 N",
		"longitude": "94-57-11.09 W",
		"state": "TEXAS",
		"artcc": "ZHU",
		"type": "RNAV",
		"updated": "09/06/2017"
	},
	{
		"name": "FULDA",
		"latitude": "29-17-53.33 N",
		"longitude": "89-24-38.17 W",
		"state": "LOUISIANA",
		"artcc": "ZHU",
		"type": "WP",
		"updated": "08/12/1998"
	},
	{
		"name": "FUNNN",
		"latitude": "30-7-27.96 N",
		"longitude": "97-40-37.23 W",
		"state": "TEXAS",
		"artcc": "ZHU",
		"type": "RP",
		"updated": "BSM*LD*174.69/3.16"
	},
	{
		"name": "FUSED",
		"latitude": "29-49-1 N",
		"longitude": "92-50-5.03 W",
		"state": "LOUISIANA",
		"artcc": "ZHU",
		"type": "RNAV",
		"updated": "02/28/2017"
	}
]
