[
	{
		"name": "GALES",
		"latitude": "29-54-27.52 N",
		"longitude": "95-16-58.53 W",
		"state": "TEXAS",
		"artcc": "ZHU",
		"type": "RP",
		"updated": "IAH*VORTAC*127.00/4.41"
	},
	{
		"name": "GANLE",
		"latitude": "29-9-0.55 N",
		"longitude": "98-23-19.8 W",
		"state": "TEXAS",
		"artcc": "ZHU",
		"type": "RNAV",
		"updated": "12/27/2007"
	},
	{
		"name": "GARDS",
		"latitude": "30-3-7.52 N",
		"longitude": "97-56-47.71 W",
		"state": "TEXAS",
		"artcc": "ZHU",
		"type": "RP",
		"updated": "CWK*VORTAC*222.05/29.18"
	},
	{
		"name": "GARNR",
		"latitude": "29-3-48.98 N",
		"longitude": "99-48-2.43 W",
		"state": "TEXAS",
		"artcc": "ZHU",
		"type": "MR",
		"updated": "DLF*VORTAC*102.00/54.00"
	},
	{
		"name": "GARON",
		"latitude": "30-40-56.68 N",
		"longitude": "88-8-20.01 W",
		"state": "ALABAMA",
		"artcc": "ZHU",
		"type": "RP",
		"updated": "BFM*VORTAC*310.04/6.00"
	},
	{
		"name": "GARRR",
		"latitude": "29-58-31.89 N",
		"longitude": "94-45-55 W",
		"state": "TEXAS",
		"artcc": "ZHU",
		"type": "RNAV",
		"updated": "03/14/2014"
	},
	{
		"name": "GARYS",
		"latitude": "29-57-36.11 N",
		"longitude": "97-56-52.78 W",
		"state": "TEXAS",
		"artcc": "ZHU",
		"type": "RP",
		"updated": "CWK*VORTAC*215.07"
	},
	{
		"name": "GASEC",
		"latitude": "30-48-42.04 N",
		"longitude": "96-35-4.75 W",
		"state": "TEXAS",
		"artcc": "ZHU",
		"type": "RP",
		"updated": "CLL*VORTAC*317.61/15.00"
	},
	{
		"name": "GASHS",
		"latitude": "26-6-3.35 N",
		"longitude": "98-10-18.04 W",
		"state": "TEXAS",
		"artcc": "ZHU",
		"type": "RP",
		"updated": "LLM*LD*136.58/5.04"
	},
	{
		"name": "GASNE",
		"latitude": "30-10-40.81 N",
		"longitude": "90-35-49.68 W",
		"state": "LOUISIANA",
		"artcc": "ZHU",
		"type": "RNAV",
		"updated": "09/09/2015"
	},
	{
		"name": "GASVE",
		"latitude": "29-47-45.65 N",
		"longitude": "92-0-13.06 W",
		"state": "LOUISIANA",
		"artcc": "ZHU",
		"type": "RNAV",
		"updated": "06/14/2011"
	},
	{
		"name": "GATKY",
		"latitude": "29-15-6.25 N",
		"longitude": "90-45-16.49 W",
		"state": "LOUISIANA",
		"artcc": "ZHU",
		"type": "RP",
		"updated": "TBD*VOR/DME*169.00/25.00"
	},
	{
		"name": "GAYRE",
		"latitude": "26-4-4.93 N",
		"longitude": "97-36-8.81 W",
		"state": "TEXAS",
		"artcc": "ZHU",
		"type": "RP",
		"updated": "BRO*VORTAC*296.09/15.00"
	},
	{
		"name": "GBSON",
		"latitude": "29-40-3.91 N",
		"longitude": "91-2-24.37 W",
		"state": "LOUISIANA",
		"artcc": "ZHU",
		"type": "RP",
		"updated": "12/06/1994"
	},
	{
		"name": "GECEK",
		"latitude": "27-31-22.06 N",
		"longitude": "99-27-50.78 W",
		"state": "TEXAS",
		"artcc": "ZHU",
		"type": "RP",
		"updated": "LRD*LD*177.55/0.48"
	},
	{
		"name": "GEDNY",
		"latitude": "31-20-36.72 N",
		"longitude": "89-21-31.49 W",
		"state": "MISSISSIPPI",
		"artcc": "ZHU",
		"type": "RNAV",
		"updated": "11/02/2017"
	},
	{
		"name": "GEEAR",
		"latitude": "29-20-59.37 N",
		"longitude": "93-53-7.72 W",
		"state": "OFFSHORE GULF",
		"artcc": "ZHU",
		"type": "RNAV",
		"updated": "03/25/2014"
	},
	{
		"name": "GEEEO",
		"latitude": "29-28-49.23 N",
		"longitude": "95-38-56.3 W",
		"state": "TEXAS",
		"artcc": "ZHU",
		"type": "RNAV",
		"updated": "03/07/2014"
	},
	{
		"name": "GEMJO",
		"latitude": "27-45-25.7 N",
		"longitude": "97-21-54.41 W",
		"state": "TEXAS",
		"artcc": "ZHU",
		"type": "MR",
		"updated": "NGP*VORTAC*312.55/5.66"
	},
	{
		"name": "GENLE",
		"latitude": "30-6-35.76 N",
		"longitude": "93-15-17.88 W",
		"state": "LOUISIANA",
		"artcc": "ZHU",
		"type": "RP",
		"updated": "LCH*VORTAC*249.37/8.00"
	},
	{
		"name": "GENNO",
		"latitude": "27-29-33.52 N",
		"longitude": "97-47-25.58 W",
		"state": "TEXAS",
		"artcc": "ZHU",
		"type": "MR",
		"updated": "NQI*TACAN*112.00/0.90"
	},
	{
		"name": "GENNY",
		"latitude": "27-33-46.95 N",
		"longitude": "97-26-24.11 W",
		"state": "TEXAS",
		"artcc": "ZHU",
		"type": "MW",
		"updated": "07/09/2015"
	},
	{
		"name": "GESNR",
		"latitude": "30-24-7.78 N",
		"longitude": "94-42-0.06 W",
		"state": "TEXAS",
		"artcc": "ZHU",
		"type": "RP",
		"updated": "DAS*VORTAC*342.35/13.03"
	},
	{
		"name": "GEVTE",
		"latitude": "30-32-52.03 N",
		"longitude": "88-47-35.66 W",
		"state": "MISSISSIPPI",
		"artcc": "ZHU",
		"type": "MR",
		"updated": "BIX*TACAN*039.00/11.00"
	},
	{
		"name": "GEWAV",
		"latitude": "26-13-45.99 N",
		"longitude": "97-24-46.22 W",
		"state": "TEXAS",
		"artcc": "ZHU",
		"type": "RNAV",
		"updated": "06/13/2008"
	},
	{
		"name": "GEYGR",
		"latitude": "29-54-42.07 N",
		"longitude": "94-48-31.33 W",
		"state": "TEXAS",
		"artcc": "ZHU",
		"type": "RNAV",
		"updated": "08/10/2016"
	},
	{
		"name": "GEYXI",
		"latitude": "27-55-30.81 N",
		"longitude": "97-10-8.97 W",
		"state": "TEXAS",
		"artcc": "ZHU",
		"type": "RNAV",
		"updated": "03/28/2010"
	},
	{
		"name": "GGRIZ",
		"latitude": "30-2-58.03 N",
		"longitude": "95-7-11.29 W",
		"state": "TEXAS",
		"artcc": "ZHU",
		"type": "RNAV",
		"updated": "03/21/2014"
	},
	{
		"name": "GHIIA",
		"latitude": "31-10-11.77 N",
		"longitude": "92-26-33.58 W",
		"state": "LOUISIANA",
		"artcc": "ZHU",
		"type": "RP",
		"updated": "AEX*VORTAC*146.98/6.00"
	},
	{
		"name": "GIBDE",
		"latitude": "29-27-46.46 N",
		"longitude": "98-13-24.02 W",
		"state": "TEXAS",
		"artcc": "ZHU",
		"type": "MW",
		"updated": "09/05/2013"
	},
	{
		"name": "GICER",
		"latitude": "26-3-16.41 N",
		"longitude": "97-32-34.06 W",
		"state": "TEXAS",
		"artcc": "ZHU",
		"type": "RP",
		"updated": "HRL*VOR/DME*145.48/12.00"
	},
	{
		"name": "GIDDY",
		"latitude": "30-3-48.64 N",
		"longitude": "94-14-7.96 W",
		"state": "TEXAS",
		"artcc": "ZHU",
		"type": "RP",
		"updated": "BPT*VOR/DME*294.66"
	},
	{
		"name": "GIDGE",
		"latitude": "26-14-35.68 N",
		"longitude": "97-33-35.33 W",
		"state": "TEXAS",
		"artcc": "ZHU",
		"type": "RNAV",
		"updated": "08/29/2003"
	},
	{
		"name": "GIFFA",
		"latitude": "31-22-53.23 N",
		"longitude": "95-15-6.11 W",
		"state": "TEXAS",
		"artcc": "ZHU",
		"type": "RP",
		"updated": "LOA*VORTAC*059.11"
	},
	{
		"name": "GIFLE",
		"latitude": "30-49-7.6 N",
		"longitude": "96-14-6 W",
		"state": "TEXAS",
		"artcc": "ZHU",
		"type": "RP",
		"updated": "TNV*VOR/DME*335.95"
	},
	{
		"name": "GIKAW",
		"latitude": "29-37-49.7 N",
		"longitude": "95-9-56.22 W",
		"state": "TEXAS",
		"artcc": "ZHU",
		"type": "MR",
		"updated": "EFD*TACAN*343.00/1.50"
	},
	{
		"name": "GIKEY",
		"latitude": "30-53-40.31 N",
		"longitude": "88-18-17.7 W",
		"state": "ALABAMA",
		"artcc": "ZHU",
		"type": "RP",
		"updated": "BFM*VORTAC*318.67/21.23"
	},
	{
		"name": "GILCO",
		"latitude": "29-53-56.66 N",
		"longitude": "95-12-26.6 W",
		"state": "TEXAS",
		"artcc": "ZHU",
		"type": "RP",
		"updated": "IAH*VORTAC*110.61/8.00"
	},
	{
		"name": "GILLL",
		"latitude": "29-40-30.29 N",
		"longitude": "94-32-50.21 W",
		"state": "TEXAS",
		"artcc": "ZHU",
		"type": "RNAV",
		"updated": "03/14/2014"
	},
	{
		"name": "GIMBE",
		"latitude": "29-45-38.76 N",
		"longitude": "101-21-36.75 W",
		"state": "TEXAS",
		"artcc": "ZHU",
		"type": "MR",
		"updated": "DLF*VORTAC*301.00/39.00"
	},
	{
		"name": "GIMVE",
		"latitude": "30-59-3.63 N",
		"longitude": "99-13-41.67 W",
		"state": "TEXAS",
		"artcc": "ZHU",
		"type": "RNAV",
		"updated": "12/28/2007"
	},
	{
		"name": "GIPAW",
		"latitude": "30-0-47.94 N",
		"longitude": "97-26-53.66 W",
		"state": "TEXAS",
		"artcc": "ZHU",
		"type": "RNAV",
		"updated": "06/22/2011"
	},
	{
		"name": "GIPGE",
		"latitude": "30-48-30.07 N",
		"longitude": "97-42-13.6 W",
		"state": "TEXAS",
		"artcc": "ZHU",
		"type": "RP",
		"updated": "BTJ*LD*153.35/17.80"
	},
	{
		"name": "GIRLY",
		"latitude": "29-29-5.35 N",
		"longitude": "93-4-38.4 W",
		"state": "OFFSHORE GULF",
		"artcc": "ZHU",
		"type": "RP",
		"updated": "LFT*VORTAC*230.41/70.75"
	},
	{
		"name": "GIVKE",
		"latitude": "29-18-37.3 N",
		"longitude": "98-13-0.7 W",
		"state": "TEXAS",
		"artcc": "ZHU",
		"type": "MR",
		"updated": "RND*VORTAC*159.00/13.00"
	},
	{
		"name": "GIZER",
		"latitude": "30-38-51.97 N",
		"longitude": "92-39-49.38 W",
		"state": "LOUISIANA",
		"artcc": "ZHU",
		"type": "RP",
		"updated": "LFT*VORTAC*305.14"
	},
	{
		"name": "GLADS",
		"latitude": "30-59-57.94 N",
		"longitude": "90-22-40.01 W",
		"state": "LOUISIANA",
		"artcc": "ZHU",
		"type": "RNAV",
		"updated": "06/19/2008"
	},
	{
		"name": "GLAND",
		"latitude": "29-39-40.31 N",
		"longitude": "95-59-29.67 W",
		"state": "TEXAS",
		"artcc": "ZHU",
		"type": "RP",
		"updated": "TNV*VOR/DME*166.70"
	},
	{
		"name": "GLASN",
		"latitude": "27-46-28.63 N",
		"longitude": "97-22-33.62 W",
		"state": "TEXAS",
		"artcc": "ZHU",
		"type": "RNAV",
		"updated": "08/18/2010"
	},
	{
		"name": "GLCER",
		"latitude": "29-4-56.02 N",
		"longitude": "98-29-59.09 W",
		"state": "TEXAS",
		"artcc": "ZHU",
		"type": "MR",
		"updated": "KSY*TACAN*163.00/19.00"
	},
	{
		"name": "GLENS",
		"latitude": "31-24-32.38 N",
		"longitude": "92-36-37.29 W",
		"state": "LOUISIANA",
		"artcc": "ZHU",
		"type": "RP",
		"updated": "AEX*VORTAC*325.37/10.71"
	},
	{
		"name": "GLENZ",
		"latitude": "27-30-45.17 N",
		"longitude": "97-10-56.19 W",
		"state": "TEXAS",
		"artcc": "ZHU",
		"type": "MR",
		"updated": "NGP*VORTAC*144.00/12.00"
	},
	{
		"name": "GLOCK",
		"latitude": "29-22-48.61 N",
		"longitude": "96-38-52.68 W",
		"state": "TEXAS",
		"artcc": "ZHU",
		"type": "RNAV",
		"updated": "03/25/2014"
	},
	{
		"name": "GLSCD",
		"latitude": "29-0-0 N",
		"longitude": "95-0-0 W",
		"state": "OFFSHORE GULF",
		"artcc": "ZHU",
		"type": "WP",
		"updated": "07/01/1998"
	},
	{
		"name": "GLSCE",
		"latitude": "28-40-0 N",
		"longitude": "95-0-0 W",
		"state": "OFFSHORE GULF",
		"artcc": "ZHU",
		"type": "WP",
		"updated": "07/07/1998"
	},
	{
		"name": "GLSCF",
		"latitude": "28-20-0 N",
		"longitude": "95-0-0 W",
		"state": "OFFSHORE GULF",
		"artcc": "ZHU",
		"type": "WP",
		"updated": "07/07/1998"
	},
	{
		"name": "GLSCG",
		"latitude": "28-0-0 N",
		"longitude": "95-0-0 W",
		"state": "OFFSHORE GULF",
		"artcc": "ZHU",
		"type": "WP",
		"updated": "07/07/1998"
	},
	{
		"name": "GLSCH",
		"latitude": "27-40-0 N",
		"longitude": "95-0-0 W",
		"state": "OFFSHORE GULF",
		"artcc": "ZHU",
		"type": "WP",
		"updated": "07/07/1998"
	},
	{
		"name": "GLSCI",
		"latitude": "27-20-0 N",
		"longitude": "95-0-0 W",
		"state": "OFFSHORE GULF",
		"artcc": "ZHU",
		"type": "WP",
		"updated": "07/07/1998"
	},
	{
		"name": "GLSCJ",
		"latitude": "27-0-0 N",
		"longitude": "95-0-0 W",
		"state": "OFFSHORE GULF",
		"artcc": "ZHU",
		"type": "WP",
		"updated": "07/07/1998"
	},
	{
		"name": "GLSCK",
		"latitude": "26-40-0 N",
		"longitude": "95-0-0 W",
		"state": "OFFSHORE GULF",
		"artcc": "ZHU",
		"type": "WP",
		"updated": "07/07/1998"
	},
	{
		"name": "GLSCL",
		"latitude": "26-20-0 N",
		"longitude": "95-0-0 W",
		"state": "OFFSHORE GULF",
		"artcc": "ZHU",
		"type": "WP",
		"updated": "07/07/1998"
	},
	{
		"name": "GLSCM",
		"latitude": "26-0-0 N",
		"longitude": "95-0-0 W",
		"state": "OFFSHORE GULF",
		"artcc": "ZHU",
		"type": "WP",
		"updated": "07/07/1998"
	},
	{
		"name": "GLSCN",
		"latitude": "25-40-0 N",
		"longitude": "95-0-0 W",
		"state": "OFFSHORE GULF",
		"artcc": "ZHU",
		"type": "WP",
		"updated": "07/07/1998"
	},
	{
		"name": "GLSLD",
		"latitude": "29-0-0 N",
		"longitude": "95-20-0 W",
		"state": "OFFSHORE GULF",
		"artcc": "ZHU",
		"type": "WP",
		"updated": "06/30/1998"
	},
	{
		"name": "GLSLE",
		"latitude": "28-40-0 N",
		"longitude": "95-20-0 W",
		"state": "OFFSHORE GULF",
		"artcc": "ZHU",
		"type": "WP",
		"updated": "07/01/1998"
	},
	{
		"name": "GLSLF",
		"latitude": "28-20-0 N",
		"longitude": "95-20-0 W",
		"state": "OFFSHORE GULF",
		"artcc": "ZHU",
		"type": "WP",
		"updated": "07/01/1998"
	},
	{
		"name": "GLSLG",
		"latitude": "28-0-0 N",
		"longitude": "95-20-0 W",
		"state": "OFFSHORE GULF",
		"artcc": "ZHU",
		"type": "WP",
		"updated": "10/28/1998"
	},
	{
		"name": "GLSLH",
		"latitude": "27-40-0 N",
		"longitude": "95-20-0 W",
		"state": "OFFSHORE GULF",
		"artcc": "ZHU",
		"type": "RNAV",
		"updated": "01/14/2012"
	},
	{
		"name": "GLSLI",
		"latitude": "27-20-0 N",
		"longitude": "95-20-0 W",
		"state": "OFFSHORE GULF",
		"artcc": "ZHU",
		"type": "WP",
		"updated": "07/01/1998"
	},
	{
		"name": "GLSLJ",
		"latitude": "27-0-0 N",
		"longitude": "95-20-0 W",
		"state": "OFFSHORE GULF",
		"artcc": "ZHU",
		"type": "WP",
		"updated": "07/01/1998"
	},
	{
		"name": "GLSLK",
		"latitude": "26-40-0 N",
		"longitude": "95-20-0 W",
		"state": "OFFSHORE GULF",
		"artcc": "ZHU",
		"type": "WP",
		"updated": "07/01/1998"
	},
	{
		"name": "GLSLL",
		"latitude": "26-20-0 N",
		"longitude": "95-20-0 W",
		"state": "OFFSHORE GULF",
		"artcc": "ZHU",
		"type": "WP",
		"updated": "07/01/1998"
	},
	{
		"name": "GLSLM",
		"latitude": "26-0-0 N",
		"longitude": "95-20-0 W",
		"state": "OFFSHORE GULF",
		"artcc": "ZHU",
		"type": "WP",
		"updated": "07/01/1998"
	},
	{
		"name": "GLSRC",
		"latitude": "29-20-0 N",
		"longitude": "94-40-0 W",
		"state": "OFFSHORE GULF",
		"artcc": "ZHU",
		"type": "WP",
		"updated": "07/07/1998"
	},
	{
		"name": "GLSRD",
		"latitude": "29-0-0 N",
		"longitude": "94-40-0 W",
		"state": "OFFSHORE GULF",
		"artcc": "ZHU",
		"type": "WP",
		"updated": "07/07/1998"
	},
	{
		"name": "GLSRE",
		"latitude": "28-40-0 N",
		"longitude": "94-40-0 W",
		"state": "OFFSHORE GULF",
		"artcc": "ZHU",
		"type": "WP",
		"updated": "07/07/1998"
	},
	{
		"name": "GLSRF",
		"latitude": "28-20-0 N",
		"longitude": "94-40-0 W",
		"state": "OFFSHORE GULF",
		"artcc": "ZHU",
		"type": "WP",
		"updated": "07/07/1998"
	},
	{
		"name": "GLSRG",
		"latitude": "28-0-0 N",
		"longitude": "94-40-0 W",
		"state": "OFFSHORE GULF",
		"artcc": "ZHU",
		"type": "WP",
		"updated": "07/07/1998"
	},
	{
		"name": "GLSRH",
		"latitude": "27-40-0 N",
		"longitude": "94-40-0 W",
		"state": "OFFSHORE GULF",
		"artcc": "ZHU",
		"type": "WP",
		"updated": "07/07/1998"
	},
	{
		"name": "GLSRI",
		"latitude": "27-20-0 N",
		"longitude": "94-40-0 W",
		"state": "OFFSHORE GULF",
		"artcc": "ZHU",
		"type": "WP",
		"updated": "07/07/1998"
	},
	{
		"name": "GLSRJ",
		"latitude": "27-0-0 N",
		"longitude": "94-40-0 W",
		"state": "OFFSHORE GULF",
		"artcc": "ZHU",
		"type": "WP",
		"updated": "07/07/1998"
	},
	{
		"name": "GLSRK",
		"latitude": "26-40-0 N",
		"longitude": "94-40-0 W",
		"state": "OFFSHORE GULF",
		"artcc": "ZHU",
		"type": "WP",
		"updated": "07/07/1998"
	},
	{
		"name": "GLSRL",
		"latitude": "26-20-0 N",
		"longitude": "94-40-0 W",
		"state": "OFFSHORE GULF",
		"artcc": "ZHU",
		"type": "WP",
		"updated": "07/07/1998"
	},
	{
		"name": "GLSRM",
		"latitude": "26-0-0 N",
		"longitude": "94-40-0 W",
		"state": "OFFSHORE GULF",
		"artcc": "ZHU",
		"type": "WP",
		"updated": "07/07/1998"
	},
	{
		"name": "GLSRN",
		"latitude": "25-40-0 N",
		"longitude": "94-40-0 W",
		"state": "OFFSHORE GULF",
		"artcc": "ZHU",
		"type": "WP",
		"updated": "07/07/1998"
	},
	{
		"name": "GLUVR",
		"latitude": "29-39-7.93 N",
		"longitude": "95-52-50.59 W",
		"state": "TEXAS",
		"artcc": "ZHU",
		"type": "RNAV",
		"updated": "03/25/2014"
	},
	{
		"name": "GLYND",
		"latitude": "31-1-15.09 N",
		"longitude": "93-26-12.98 W",
		"state": "LOUISIANA",
		"artcc": "ZHU",
		"type": "RNAV",
		"updated": "03/19/2009"
	},
	{
		"name": "GMANN",
		"latitude": "29-32-46.74 N",
		"longitude": "96-11-56.88 W",
		"state": "TEXAS",
		"artcc": "ZHU",
		"type": "RP",
		"updated": "ELA*VOR/DME*130.38"
	},
	{
		"name": "GOBBY",
		"latitude": "30-4-58.41 N",
		"longitude": "98-22-16.91 W",
		"state": "TEXAS",
		"artcc": "ZHU",
		"type": "RP",
		"updated": "AGJ*VORTAC*185.26/67.06"
	},
	{
		"name": "GOBTY",
		"latitude": "31-24-22.34 N",
		"longitude": "90-35-31.71 W",
		"state": "MISSISSIPPI",
		"artcc": "ZHU",
		"type": "RP",
		"updated": "MCB*VORTAC*286.64/18.21"
	},
	{
		"name": "GOCET",
		"latitude": "30-27-10.69 N",
		"longitude": "91-14-8.56 W",
		"state": "LOUISIANA",
		"artcc": "ZHU",
		"type": "RNAV",
		"updated": "07/13/2015"
	},
	{
		"name": "GODRD",
		"latitude": "29-50-57.19 N",
		"longitude": "90-1-36.85 W",
		"state": "LOUISIANA",
		"artcc": "ZHU",
		"type": "RNAV",
		"updated": "06/16/2009"
	},
	{
		"name": "GOGAN",
		"latitude": "29-48-47.8 N",
		"longitude": "95-40-11.78 W",
		"state": "TEXAS",
		"artcc": "ZHU",
		"type": "RNAV",
		"updated": "IAH*VORTAC*238.13/18.97"
	},
	{
		"name": "GOGEY",
		"latitude": "31-3-53.69 N",
		"longitude": "89-8-0.01 W",
		"state": "MISSISSIPPI",
		"artcc": "ZHU",
		"type": "RNAV",
		"updated": "05/13/2004"
	},
	{
		"name": "GOGNE",
		"latitude": "30-7-16.35 N",
		"longitude": "93-5-38.37 W",
		"state": "LOUISIANA",
		"artcc": "ZHU",
		"type": "RNAV",
		"updated": "03/22/2010"
	},
	{
		"name": "GOGOZ",
		"latitude": "29-5-19.09 N",
		"longitude": "96-2-56.67 W",
		"state": "TEXAS",
		"artcc": "ZHU",
		"type": "RNAV",
		"updated": "07/12/2009"
	},
	{
		"name": "GOING",
		"latitude": "29-31-31.36 N",
		"longitude": "90-7-44.11 W",
		"state": "LOUISIANA",
		"artcc": "ZHU",
		"type": "RP",
		"updated": "TBD*VOR/DME*100.62/37.56"
	},
	{
		"name": "GOKKE",
		"latitude": "29-58-15.23 N",
		"longitude": "92-5-10.12 W",
		"state": "LOUISIANA",
		"artcc": "ZHU",
		"type": "RP",
		"updated": "LFT*VORTAC*197.08/14.20"
	},
	{
		"name": "GOLBY",
		"latitude": "29-42-55.23 N",
		"longitude": "94-35-2.4 W",
		"state": "TEXAS",
		"artcc": "ZHU",
		"type": "RNAV",
		"updated": "08/28/2000"
	},
	{
		"name": "GOMER",
		"latitude": "30-20-5.17 N",
		"longitude": "95-32-43.48 W",
		"state": "TEXAS",
		"artcc": "ZHU",
		"type": "RP",
		"updated": "TNV*VOR/DME*075.94/26.78"
	},
	{
		"name": "GONEY",
		"latitude": "31-16-2.2 N",
		"longitude": "99-27-20.1 W",
		"state": "TEXAS",
		"artcc": "ZHU",
		"type": "RNAV",
		"updated": "08/04/2005"
	},
	{
		"name": "GOPLY",
		"latitude": "30-32-41.97 N",
		"longitude": "96-37-17.08 W",
		"state": "TEXAS",
		"artcc": "ZHU",
		"type": "RP",
		"updated": "CLL*VORTAC*242.99/11.00"
	},
	{
		"name": "GOTDA",
		"latitude": "29-3-15.52 N",
		"longitude": "96-37-53.5 W",
		"state": "TEXAS",
		"artcc": "ZHU",
		"type": "CN",
		"updated": "02/06/2012"
	},
	{
		"name": "GOVEY",
		"latitude": "30-29-53.62 N",
		"longitude": "96-39-22.65 W",
		"state": "TEXAS",
		"artcc": "ZHU",
		"type": "RNAV",
		"updated": "06/21/2011"
	},
	{
		"name": "GOVVV",
		"latitude": "30-5-32.85 N",
		"longitude": "95-22-12.94 W",
		"state": "TEXAS",
		"artcc": "ZHU",
		"type": "RNAV",
		"updated": "03/11/2014"
	},
	{
		"name": "GPTCA",
		"latitude": "30-0-0 N",
		"longitude": "89-0-0 W",
		"state": "OFFSHORE GULF",
		"artcc": "ZHU",
		"type": "WP",
		"updated": "07/17/1998"
	},
	{
		"name": "GPTCB",
		"latitude": "29-40-0 N",
		"longitude": "89-0-0 W",
		"state": "OFFSHORE GULF",
		"artcc": "ZHU",
		"type": "WP",
		"updated": "07/17/1998"
	},
	{
		"name": "GPTCC",
		"latitude": "29-20-0 N",
		"longitude": "89-0-0 W",
		"state": "OFFSHORE GULF",
		"artcc": "ZHU",
		"type": "WP",
		"updated": "08/12/1998"
	},
	{
		"name": "GPTCD",
		"latitude": "29-0-0 N",
		"longitude": "89-0-0 W",
		"state": "OFFSHORE GULF",
		"artcc": "ZHU",
		"type": "WP",
		"updated": "08/12/1998"
	},
	{
		"name": "GPTCE",
		"latitude": "28-40-0 N",
		"longitude": "89-0-0 W",
		"state": "OFFSHORE GULF",
		"artcc": "ZHU",
		"type": "WP",
		"updated": "07/17/1998"
	},
	{
		"name": "GPTCF",
		"latitude": "28-20-0 N",
		"longitude": "89-0-0 W",
		"state": "OFFSHORE GULF",
		"artcc": "ZHU",
		"type": "WP",
		"updated": "07/17/1998"
	},
	{
		"name": "GPTCG",
		"latitude": "28-0-0 N",
		"longitude": "89-0-0 W",
		"state": "OFFSHORE GULF",
		"artcc": "ZHU",
		"type": "WP",
		"updated": "07/17/1998"
	},
	{
		"name": "GPTCH",
		"latitude": "27-40-0 N",
		"longitude": "89-0-0 W",
		"state": "OFFSHORE GULF",
		"artcc": "ZHU",
		"type": "WP",
		"updated": "07/17/1998"
	},
	{
		"name": "GPTCI",
		"latitude": "27-20-0 N",
		"longitude": "89-0-0 W",
		"state": "OFFSHORE GULF",
		"artcc": "ZHU",
		"type": "WP",
		"updated": "07/17/1998"
	},
	{
		"name": "GPTCJ",
		"latitude": "27-0-0 N",
		"longitude": "89-0-0 W",
		"state": "OFFSHORE GULF",
		"artcc": "ZHU",
		"type": "WP",
		"updated": "07/17/1998"
	},
	{
		"name": "GPTCK",
		"latitude": "26-40-0 N",
		"longitude": "89-0-0 W",
		"state": "OFFSHORE GULF",
		"artcc": "ZHU",
		"type": "WP",
		"updated": "07/17/1998"
	},
	{
		"name": "GPTCL",
		"latitude": "26-20-0 N",
		"longitude": "89-0-0 W",
		"state": "OFFSHORE GULF",
		"artcc": "ZHU",
		"type": "WP",
		"updated": "07/17/1998"
	},
	{
		"name": "GPTCM",
		"latitude": "26-0-0 N",
		"longitude": "89-0-0 W",
		"state": "OFFSHORE GULF",
		"artcc": "ZHU",
		"type": "WP",
		"updated": "07/17/1998"
	},
	{
		"name": "GPTCN",
		"latitude": "25-40-0 N",
		"longitude": "89-0-0 W",
		"state": "OFFSHORE GULF",
		"artcc": "ZHU",
		"type": "WP",
		"updated": "07/17/1998"
	},
	{
		"name": "GPTCO",
		"latitude": "25-20-0 N",
		"longitude": "89-0-0 W",
		"state": "OFFSHORE GULF",
		"artcc": "ZHU",
		"type": "WP",
		"updated": "07/17/1998"
	},
	{
		"name": "GPTCP",
		"latitude": "25-0-0 N",
		"longitude": "89-0-0 W",
		"state": "OFFSHORE GULF",
		"artcc": "ZHU",
		"type": "WP",
		"updated": "07/17/1998"
	},
	{
		"name": "GPTCQ",
		"latitude": "24-40-0 N",
		"longitude": "89-0-0 W",
		"state": "OFFSHORE GULF",
		"artcc": "ZHU",
		"type": "WP",
		"updated": "07/17/1998"
	},
	{
		"name": "GPTLA",
		"latitude": "30-0-0 N",
		"longitude": "89-20-0 W",
		"state": "OFFSHORE GULF",
		"artcc": "ZHU",
		"type": "WP",
		"updated": "07/17/1998"
	},
	{
		"name": "GPTLB",
		"latitude": "29-40-0 N",
		"longitude": "89-20-0 W",
		"state": "OFFSHORE GULF",
		"artcc": "ZHU",
		"type": "WP",
		"updated": "07/17/1998"
	},
	{
		"name": "GPTLC",
		"latitude": "29-20-0 N",
		"longitude": "89-20-0 W",
		"state": "OFFSHORE GULF",
		"artcc": "ZHU",
		"type": "WP",
		"updated": "07/17/1998"
	},
	{
		"name": "GPTLD",
		"latitude": "29-0-0 N",
		"longitude": "89-20-0 W",
		"state": "OFFSHORE GULF",
		"artcc": "ZHU",
		"type": "WP",
		"updated": "08/12/1998"
	},
	{
		"name": "GPTLE",
		"latitude": "28-40-0 N",
		"longitude": "89-20-0 W",
		"state": "OFFSHORE GULF",
		"artcc": "ZHU",
		"type": "WP",
		"updated": "07/17/1998"
	},
	{
		"name": "GPTLF",
		"latitude": "28-20-0 N",
		"longitude": "89-20-0 W",
		"state": "OFFSHORE GULF",
		"artcc": "ZHU",
		"type": "WP",
		"updated": "07/17/1998"
	},
	{
		"name": "GPTLG",
		"latitude": "28-0-0 N",
		"longitude": "89-20-0 W",
		"state": "OFFSHORE GULF",
		"artcc": "ZHU",
		"type": "WP",
		"updated": "07/17/1998"
	},
	{
		"name": "GPTLH",
		"latitude": "27-40-0 N",
		"longitude": "89-20-0 W",
		"state": "OFFSHORE GULF",
		"artcc": "ZHU",
		"type": "WP",
		"updated": "07/17/1998"
	},
	{
		"name": "GPTLI",
		"latitude": "27-20-0 N",
		"longitude": "89-20-0 W",
		"state": "OFFSHORE GULF",
		"artcc": "ZHU",
		"type": "WP",
		"updated": "07/17/1998"
	},
	{
		"name": "GPTLJ",
		"latitude": "27-0-0 N",
		"longitude": "89-20-0 W",
		"state": "OFFSHORE GULF",
		"artcc": "ZHU",
		"type": "WP",
		"updated": "07/17/1998"
	},
	{
		"name": "GPTLK",
		"latitude": "26-40-0 N",
		"longitude": "89-20-0 W",
		"state": "OFFSHORE GULF",
		"artcc": "ZHU",
		"type": "WP",
		"updated": "07/17/1998"
	},
	{
		"name": "GPTLL",
		"latitude": "26-20-0 N",
		"longitude": "89-20-0 W",
		"state": "OFFSHORE GULF",
		"artcc": "ZHU",
		"type": "WP",
		"updated": "07/17/1998"
	},
	{
		"name": "GPTLM",
		"latitude": "26-0-0 N",
		"longitude": "89-20-0 W",
		"state": "OFFSHORE GULF",
		"artcc": "ZHU",
		"type": "WP",
		"updated": "07/17/1998"
	},
	{
		"name": "GPTLN",
		"latitude": "25-40-0 N",
		"longitude": "89-20-0 W",
		"state": "OFFSHORE GULF",
		"artcc": "ZHU",
		"type": "WP",
		"updated": "07/17/1998"
	},
	{
		"name": "GPTLO",
		"latitude": "25-20-0 N",
		"longitude": "89-20-0 W",
		"state": "OFFSHORE GULF",
		"artcc": "ZHU",
		"type": "WP",
		"updated": "07/17/1998"
	},
	{
		"name": "GPTLP",
		"latitude": "25-0-0 N",
		"longitude": "89-20-0 W",
		"state": "OFFSHORE GULF",
		"artcc": "ZHU",
		"type": "WP",
		"updated": "07/17/1998"
	},
	{
		"name": "GPTLQ",
		"latitude": "24-40-0 N",
		"longitude": "89-20-0 W",
		"state": "OFFSHORE GULF",
		"artcc": "ZHU",
		"type": "WP",
		"updated": "07/17/1998"
	},
	{
		"name": "GPTRA",
		"latitude": "30-0-0 N",
		"longitude": "88-40-0 W",
		"state": "OFFSHORE GULF",
		"artcc": "ZHU",
		"type": "RNAV",
		"updated": "03/01/2012"
	},
	{
		"name": "GPTRB",
		"latitude": "29-40-0 N",
		"longitude": "88-40-0 W",
		"state": "OFFSHORE GULF",
		"artcc": "ZHU",
		"type": "WP",
		"updated": "07/17/1998"
	},
	{
		"name": "GPTRC",
		"latitude": "29-20-0 N",
		"longitude": "88-40-0 W",
		"state": "OFFSHORE GULF",
		"artcc": "ZHU",
		"type": "WP",
		"updated": "07/17/1998"
	},
	{
		"name": "GPTRD",
		"latitude": "29-0-0 N",
		"longitude": "88-40-0 W",
		"state": "OFFSHORE GULF",
		"artcc": "ZHU",
		"type": "WP",
		"updated": "07/17/1998"
	},
	{
		"name": "GPTRE",
		"latitude": "28-40-0 N",
		"longitude": "88-40-0 W",
		"state": "OFFSHORE GULF",
		"artcc": "ZHU",
		"type": "WP",
		"updated": "07/17/1998"
	},
	{
		"name": "GPTRF",
		"latitude": "28-20-0 N",
		"longitude": "88-40-0 W",
		"state": "OFFSHORE GULF",
		"artcc": "ZHU",
		"type": "WP",
		"updated": "07/17/1998"
	},
	{
		"name": "GPTRG",
		"latitude": "28-0-0 N",
		"longitude": "88-40-0 W",
		"state": "OFFSHORE GULF",
		"artcc": "ZHU",
		"type": "WP",
		"updated": "07/17/1998"
	},
	{
		"name": "GPTRH",
		"latitude": "27-40-0 N",
		"longitude": "88-40-0 W",
		"state": "OFFSHORE GULF",
		"artcc": "ZHU",
		"type": "WP",
		"updated": "07/17/1998"
	},
	{
		"name": "GPTRI",
		"latitude": "27-20-0 N",
		"longitude": "88-40-0 W",
		"state": "OFFSHORE GULF",
		"artcc": "ZHU",
		"type": "WP",
		"updated": "07/17/1998"
	},
	{
		"name": "GPTRJ",
		"latitude": "27-0-0 N",
		"longitude": "88-40-0 W",
		"state": "OFFSHORE GULF",
		"artcc": "ZHU",
		"type": "WP",
		"updated": "07/17/1998"
	},
	{
		"name": "GPTRK",
		"latitude": "26-40-0 N",
		"longitude": "88-40-0 W",
		"state": "OFFSHORE GULF",
		"artcc": "ZHU",
		"type": "WP",
		"updated": "07/17/1998"
	},
	{
		"name": "GPTRL",
		"latitude": "26-20-0 N",
		"longitude": "88-40-0 W",
		"state": "OFFSHORE GULF",
		"artcc": "ZHU",
		"type": "WP",
		"updated": "07/17/1998"
	},
	{
		"name": "GPTRM",
		"latitude": "26-0-0 N",
		"longitude": "88-40-0 W",
		"state": "OFFSHORE GULF",
		"artcc": "ZHU",
		"type": "WP",
		"updated": "07/17/1998"
	},
	{
		"name": "GPTRN",
		"latitude": "25-40-0 N",
		"longitude": "88-40-0 W",
		"state": "OFFSHORE GULF",
		"artcc": "ZHU",
		"type": "WP",
		"updated": "07/17/1998"
	},
	{
		"name": "GPTRO",
		"latitude": "25-20-0 N",
		"longitude": "88-40-0 W",
		"state": "OFFSHORE GULF",
		"artcc": "ZHU",
		"type": "WP",
		"updated": "07/17/1998"
	},
	{
		"name": "GPTRP",
		"latitude": "25-0-0 N",
		"longitude": "88-40-0 W",
		"state": "OFFSHORE GULF",
		"artcc": "ZHU",
		"type": "WP",
		"updated": "07/17/1998"
	},
	{
		"name": "GPTRQ",
		"latitude": "24-40-0 N",
		"longitude": "88-40-0 W",
		"state": "OFFSHORE GULF",
		"artcc": "ZHU",
		"type": "WP",
		"updated": "07/17/1998"
	},
	{
		"name": "GRAAF",
		"latitude": "30-10-45.34 N",
		"longitude": "95-28-43.81 W",
		"state": "TEXAS",
		"artcc": "ZHU",
		"type": "RP",
		"updated": "IAH*VORTAC*/15.01"
	},
	{
		"name": "GRABS",
		"latitude": "29-15-51.76 N",
		"longitude": "89-59-12.14 W",
		"state": "LOUISIANA",
		"artcc": "ZHU",
		"type": "WP",
		"updated": "08/12/1998"
	},
	{
		"name": "GRANE",
		"latitude": "28-2-58.93 N",
		"longitude": "98-12-53.3 W",
		"state": "TEXAS",
		"artcc": "ZHU",
		"type": "MR",
		"updated": "THX*VORTAC*179.15/27.46"
	},
	{
		"name": "GRAYN",
		"latitude": "29-46-34.19 N",
		"longitude": "94-42-59.06 W",
		"state": "TEXAS",
		"artcc": "ZHU",
		"type": "RNAV",
		"updated": "03/26/2014"
	},
	{
		"name": "GREAL",
		"latitude": "29-14-41.96 N",
		"longitude": "89-56-53.55 W",
		"state": "LOUISIANA",
		"artcc": "ZHU",
		"type": "WP",
		"updated": "08/12/1998"
	},
	{
		"name": "GRENT",
		"latitude": "29-13-11.7 N",
		"longitude": "89-53-55.4 W",
		"state": "LOUISIANA",
		"artcc": "ZHU",
		"type": "WP",
		"updated": "08/12/1998"
	},
	{
		"name": "GRETL",
		"latitude": "29-27-28.7 N",
		"longitude": "90-29-58.39 W",
		"state": "LOUISIANA",
		"artcc": "ZHU",
		"type": "MR",
		"updated": "HRV*VORTAC*226.00/35.00"
	},
	{
		"name": "GRICE",
		"latitude": "29-48-39.32 N",
		"longitude": "91-8-51.37 W",
		"state": "LOUISIANA",
		"artcc": "ZHU",
		"type": "RP",
		"updated": "TBD*VOR/DME*295.89/18.81"
	},
	{
		"name": "GRIEG",
		"latitude": "29-59-35.62 N",
		"longitude": "94-59-48.48 W",
		"state": "TEXAS",
		"artcc": "ZHU",
		"type": "RP",
		"updated": "HUB*VOR/DME*030.79"
	},
	{
		"name": "GRIND",
		"latitude": "29-6-50.13 N",
		"longitude": "100-40-39.82 W",
		"state": "TEXAS",
		"artcc": "ZHU",
		"type": "RNAV",
		"updated": "09/30/2014"
	},
	{
		"name": "GRIPY",
		"latitude": "29-44-40.29 N",
		"longitude": "94-32-18.37 W",
		"state": "TEXAS",
		"artcc": "ZHU",
		"type": "RNAV",
		"updated": "03/07/2014"
	},
	{
		"name": "GRIZL",
		"latitude": "30-1-59.07 N",
		"longitude": "94-46-9.44 W",
		"state": "TEXAS",
		"artcc": "ZHU",
		"type": "RNAV",
		"updated": "03/08/2014"
	},
	{
		"name": "GRNDE",
		"latitude": "28-58-35.02 N",
		"longitude": "100-24-19.05 W",
		"state": "TEXAS",
		"artcc": "ZHU",
		"type": "MR",
		"updated": "DLF*VORTAC*133.00/30.00"
	},
	{
		"name": "GROSZ",
		"latitude": "25-51-5.34 N",
		"longitude": "97-26-44.73 W",
		"state": "TEXAS",
		"artcc": "ZHU",
		"type": "RP",
		"updated": "BRO*VORTAC*212.30/5.80"
	},
	{
		"name": "GROTN",
		"latitude": "29-24-31.48 N",
		"longitude": "94-58-51.21 W",
		"state": "TEXAS",
		"artcc": "ZHU",
		"type": "RNAV",
		"updated": "06/04/2012"
	},
	{
		"name": "GROVI",
		"latitude": "27-33-32.3 N",
		"longitude": "97-50-0.68 W",
		"state": "TEXAS",
		"artcc": "ZHU",
		"type": "MR",
		"updated": "NOG*TACAN*146.00/23.00"
	},
	{
		"name": "GROWN",
		"latitude": "30-30-3.2 N",
		"longitude": "97-38-49.81 W",
		"state": "TEXAS",
		"artcc": "ZHU",
		"type": "RP",
		"updated": "10/08/1998"
	},
	{
		"name": "GRUNG",
		"latitude": "29-58-35.66 N",
		"longitude": "94-41-58.96 W",
		"state": "TEXAS",
		"artcc": "ZHU",
		"type": "RNAV",
		"updated": "03/08/2014"
	},
	{
		"name": "GRUUV",
		"latitude": "30-50-14.59 N",
		"longitude": "97-56-37.13 W",
		"state": "TEXAS",
		"artcc": "ZHU",
		"type": "RNAV",
		"updated": "03/11/2014"
	},
	{
		"name": "GRZIA",
		"latitude": "29-52-12.89 N",
		"longitude": "95-49-13.37 W",
		"state": "TEXAS",
		"artcc": "ZHU",
		"type": "RNAV",
		"updated": "03/26/2014"
	},
	{
		"name": "GUACO",
		"latitude": "30-52-34.13 N",
		"longitude": "93-43-41.25 W",
		"state": "TEXAS",
		"artcc": "ZHU",
		"type": "RNAV",
		"updated": "12/31/2008"
	},
	{
		"name": "GUADA",
		"latitude": "29-52-51.88 N",
		"longitude": "98-33-50.03 W",
		"state": "TEXAS",
		"artcc": "ZHU",
		"type": "RP",
		"updated": "CSI*VORTAC*086.00"
	},
	{
		"name": "GUBUB",
		"latitude": "30-18-55.83 N",
		"longitude": "88-58-36.13 W",
		"state": "MISSISSIPPI",
		"artcc": "ZHU",
		"type": "MR",
		"updated": "BIX*TACAN*203.00/6.00"
	},
	{
		"name": "GUBVE",
		"latitude": "31-9-58.89 N",
		"longitude": "98-12-26.36 W",
		"state": "TEXAS",
		"artcc": "ZHU",
		"type": "RNAV",
		"updated": "10/20/2009"
	},
	{
		"name": "GUDFA",
		"latitude": "28-47-40.01 N",
		"longitude": "97-53-36.73 W",
		"state": "TEXAS",
		"artcc": "ZHU",
		"type": "RP",
		"updated": "THX*VORTAC*030.00/22.00"
	},
	{
		"name": "GUDFY",
		"latitude": "28-47-31.41 N",
		"longitude": "96-19-35.44 W",
		"state": "TEXAS",
		"artcc": "ZHU",
		"type": "RNAV",
		"updated": "12/10/2012"
	},
	{
		"name": "GUDNY",
		"latitude": "28-45-21.53 N",
		"longitude": "96-34-17.31 W",
		"state": "TEXAS",
		"artcc": "ZHU",
		"type": "RP",
		"updated": "PSX*VORTAC*260.00/14.00"
	},
	{
		"name": "GUKWI",
		"latitude": "30-26-32.54 N",
		"longitude": "97-37-27.04 W",
		"state": "TEXAS",
		"artcc": "ZHU",
		"type": "RNAV",
		"updated": "07/15/2010"
	},
	{
		"name": "GUMBY",
		"latitude": "29-56-22.26 N",
		"longitude": "95-4-38.09 W",
		"state": "TEXAS",
		"artcc": "ZHU",
		"type": "RNAV",
		"updated": "03/26/2014"
	},
	{
		"name": "GUNGE",
		"latitude": "29-4-28.38 N",
		"longitude": "98-33-43.68 W",
		"state": "TEXAS",
		"artcc": "ZHU",
		"type": "MR",
		"updated": "KSY*TACAN*173.00/19.00"
	},
	{
		"name": "GUQEM",
		"latitude": "31-28-22.62 N",
		"longitude": "92-40-26.03 W",
		"state": "LOUISIANA",
		"artcc": "ZHU",
		"type": "RP",
		"updated": "AEX*VORTAC*322.59/15.70"
	},
	{
		"name": "GUSHR",
		"latitude": "30-13-22.44 N",
		"longitude": "95-50-28.14 W",
		"state": "TEXAS",
		"artcc": "ZHU",
		"type": "RNAV",
		"updated": "03/14/2014"
	},
	{
		"name": "GUSRE",
		"latitude": "30-7-17.4 N",
		"longitude": "91-54-18.83 W",
		"state": "LOUISIANA",
		"artcc": "ZHU",
		"type": "RNAV",
		"updated": "03/21/2017"
	},
	{
		"name": "GUSTI",
		"latitude": "29-58-15.34 N",
		"longitude": "92-54-35.29 W",
		"state": "LOUISIANA",
		"artcc": "ZHU",
		"type": "RP",
		"updated": "LFT*VORTAC*251.62/49.57"
	},
	{
		"name": "GUTCE",
		"latitude": "30-29-35.81 N",
		"longitude": "96-20-21.81 W",
		"state": "TEXAS",
		"artcc": "ZHU",
		"type": "RNAV",
		"updated": "06/21/2011"
	},
	{
		"name": "GUVLY",
		"latitude": "28-17-55.76 N",
		"longitude": "97-42-32.29 W",
		"state": "TEXAS",
		"artcc": "ZHU",
		"type": "RNAV",
		"updated": "04/10/2018"
	},
	{
		"name": "GUYEV",
		"latitude": "26-32-56.23 N",
		"longitude": "98-19-28.04 W",
		"state": "TEXAS",
		"artcc": "ZHU",
		"type": "RNAV",
		"updated": "07/27/2006"
	},
	{
		"name": "GYTON",
		"latitude": "28-12-12.44 N",
		"longitude": "99-2-51.26 W",
		"state": "TEXAS",
		"artcc": "ZHU",
		"type": "RNAV",
		"updated": "11/27/2017"
	}
]
