[
	{
		"name": "HABTU",
		"latitude": "29-57-46.53 N",
		"longitude": "90-6-4.21 W",
		"state": "LOUISIANA",
		"artcc": "ZHU",
		"type": "RNAV",
		"updated": "03/20/2012"
	},
	{
		"name": "HACHA",
		"latitude": "30-6-58.8 N",
		"longitude": "89-9-58.73 W",
		"state": "MISSISSIPPI",
		"artcc": "ZHU",
		"type": "MR",
		"updated": "GPT*VORTAC*193.00/18.00"
	},
	{
		"name": "HACKT",
		"latitude": "29-36-20.46 N",
		"longitude": "95-39-16.72 W",
		"state": "TEXAS",
		"artcc": "ZHU",
		"type": "RNAV",
		"updated": "03/25/2014"
	},
	{
		"name": "HADON",
		"latitude": "27-33-56.97 N",
		"longitude": "97-29-33.34 W",
		"state": "TEXAS",
		"artcc": "ZHU",
		"type": "RP",
		"updated": "NGP*VORTAC*229.69/12.77"
	},
	{
		"name": "HADUG",
		"latitude": "29-39-59.15 N",
		"longitude": "91-25-28.43 W",
		"state": "LOUISIANA",
		"artcc": "ZHU",
		"type": "RP",
		"updated": "07/08/2003"
	},
	{
		"name": "HAGMO",
		"latitude": "30-23-58.04 N",
		"longitude": "88-56-1.07 W",
		"state": "MISSISSIPPI",
		"artcc": "ZHU",
		"type": "MR",
		"updated": "BIX*TACAN*203.00/0.50"
	},
	{
		"name": "HAGPO",
		"latitude": "30-6-5.8 N",
		"longitude": "93-12-47.42 W",
		"state": "LOUISIANA",
		"artcc": "ZHU",
		"type": "RP",
		"updated": "LCH*VORTAC*239.92"
	},
	{
		"name": "HAKTI",
		"latitude": "29-41-24.87 N",
		"longitude": "98-26-17.93 W",
		"state": "TEXAS",
		"artcc": "ZHU",
		"type": "MR",
		"updated": "RND*VORTAC*317.00/13.00"
	},
	{
		"name": "HAKVA",
		"latitude": "30-28-49.33 N",
		"longitude": "88-51-2.83 W",
		"state": "MISSISSIPPI",
		"artcc": "ZHU",
		"type": "MR",
		"updated": "BIX*TACAN*042.00/6.00"
	},
	{
		"name": "HALKE",
		"latitude": "29-7-16.98 N",
		"longitude": "98-28-41.42 W",
		"state": "TEXAS",
		"artcc": "ZHU",
		"type": "RNAV",
		"updated": "12/27/2007"
	},
	{
		"name": "HALOL",
		"latitude": "30-0-27.58 N",
		"longitude": "99-7-51.93 W",
		"state": "TEXAS",
		"artcc": "ZHU",
		"type": "RNAV",
		"updated": "02/24/2012"
	},
	{
		"name": "HALRU",
		"latitude": "30-13-35.34 N",
		"longitude": "92-46-57.55 W",
		"state": "LOUISIANA",
		"artcc": "ZHU",
		"type": "RNAV",
		"updated": "07/28/2014"
	},
	{
		"name": "HALVU",
		"latitude": "27-46-58.77 N",
		"longitude": "97-31-11.78 W",
		"state": "TEXAS",
		"artcc": "ZHU",
		"type": "RP",
		"updated": "CRP*LD*311.81/1.91"
	},
	{
		"name": "HAMAN",
		"latitude": "30-59-38.87 N",
		"longitude": "96-43-48.51 W",
		"state": "TEXAS",
		"artcc": "ZHU",
		"type": "RP",
		"updated": "LOA*VORTAC*251.00"
	},
	{
		"name": "HAMIX",
		"latitude": "29-25-6.26 N",
		"longitude": "100-50-26.97 W",
		"state": "TEXAS",
		"artcc": "ZHU",
		"type": "MR",
		"updated": "DLF*VORTAC*306.56/5.00"
	},
	{
		"name": "HAMMU",
		"latitude": "29-32-43.26 N",
		"longitude": "96-10-4.08 W",
		"state": "TEXAS",
		"artcc": "ZHU",
		"type": "RP",
		"updated": "ELA*VOR/DME*123.87"
	},
	{
		"name": "HAMOK",
		"latitude": "31-31-15.38 N",
		"longitude": "89-16-17.23 W",
		"state": "MISSISSIPPI",
		"artcc": "ZHU",
		"type": "RP",
		"updated": "LBY*VORTAC*023.99/7.00"
	},
	{
		"name": "HANAK",
		"latitude": "30-5-52.97 N",
		"longitude": "93-18-39.47 W",
		"state": "LOUISIANA",
		"artcc": "ZHU",
		"type": "RP",
		"updated": "LCH*VORTAC*249.37/11.00"
	},
	{
		"name": "HANCO",
		"latitude": "30-27-4.81 N",
		"longitude": "89-27-15.64 W",
		"state": "MISSISSIPPI",
		"artcc": "ZHU",
		"type": "RP",
		"updated": "PCU*VOR/DME*109.60"
	},
	{
		"name": "HANMA",
		"latitude": "29-45-47.44 N",
		"longitude": "94-44-33.38 W",
		"state": "TEXAS",
		"artcc": "ZHU",
		"type": "CN",
		"updated": "02/06/2012"
	},
	{
		"name": "HANNN",
		"latitude": "30-17-43.13 N",
		"longitude": "97-35-40.17 W",
		"state": "TEXAS",
		"artcc": "ZHU",
		"type": "RNAV",
		"updated": "10/23/2017"
	},
	{
		"name": "HAPAP",
		"latitude": "28-21-59.96 N",
		"longitude": "97-45-30.53 W",
		"state": "TEXAS",
		"artcc": "ZHU",
		"type": "RNAV",
		"updated": "07/12/2016"
	},
	{
		"name": "HAPAV",
		"latitude": "30-32-40.1 N",
		"longitude": "89-39-3.97 W",
		"state": "MISSISSIPPI",
		"artcc": "ZHU",
		"type": "RNAV",
		"updated": "05/25/2016"
	},
	{
		"name": "HAPSU",
		"latitude": "29-17-57.85 N",
		"longitude": "100-42-25.45 W",
		"state": "TEXAS",
		"artcc": "ZHU",
		"type": "MR",
		"updated": "DLF*VORTAC*130.33/5.00"
	},
	{
		"name": "HARAK",
		"latitude": "30-8-6.8 N",
		"longitude": "88-54-49.94 W",
		"state": "MISSISSIPPI",
		"artcc": "ZHU",
		"type": "RNAV",
		"updated": "08/16/2017"
	},
	{
		"name": "HARBA",
		"latitude": "31-4-49.19 N",
		"longitude": "94-1-52.41 W",
		"state": "TEXAS",
		"artcc": "ZHU",
		"type": "RNAV",
		"updated": "07/07/2009"
	},
	{
		"name": "HARDD",
		"latitude": "29-21-22.05 N",
		"longitude": "98-38-3.63 W",
		"state": "TEXAS",
		"artcc": "ZHU",
		"type": "RP",
		"updated": "SSF*VOR*291.35"
	},
	{
		"name": "HAREL",
		"latitude": "29-5-49.79 N",
		"longitude": "98-42-59.24 W",
		"state": "TEXAS",
		"artcc": "ZHU",
		"type": "MR",
		"updated": "KSY*TACAN*198.00/19.00"
	},
	{
		"name": "HAREV",
		"latitude": "30-24-59.53 N",
		"longitude": "94-20-9.36 W",
		"state": "TEXAS",
		"artcc": "ZHU",
		"type": "RNAV",
		"updated": "06/14/2012"
	},
	{
		"name": "HARGI",
		"latitude": "26-27-45.63 N",
		"longitude": "97-59-27.06 W",
		"state": "TEXAS",
		"artcc": "ZHU",
		"type": "RP",
		"updated": "HRL*VOR/DME*302.50/22.98"
	},
	{
		"name": "HARQE",
		"latitude": "30-15-21.16 N",
		"longitude": "96-59-24.1 W",
		"state": "TEXAS",
		"artcc": "ZHU",
		"type": "RNAV",
		"updated": "06/11/2010"
	},
	{
		"name": "HARTA",
		"latitude": "28-24-12.61 N",
		"longitude": "98-9-40.44 W",
		"state": "TEXAS",
		"artcc": "ZHU",
		"type": "RNAV",
		"updated": "11/05/2002"
	},
	{
		"name": "HASAX",
		"latitude": "30-0-27.37 N",
		"longitude": "100-51-46.65 W",
		"state": "TEXAS",
		"artcc": "ZHU",
		"type": "MR",
		"updated": "DLF*VORTAC*346.00/39.00"
	},
	{
		"name": "HASDO",
		"latitude": "29-40-36.69 N",
		"longitude": "98-39-31.18 W",
		"state": "TEXAS",
		"artcc": "ZHU",
		"type": "RP",
		"updated": "SAT*VORTAC*272.83"
	},
	{
		"name": "HASSY",
		"latitude": "29-45-25.8 N",
		"longitude": "90-58-50.42 W",
		"state": "LOUISIANA",
		"artcc": "ZHU",
		"type": "WP",
		"updated": "08/07/1998"
	},
	{
		"name": "HATCH",
		"latitude": "29-58-13.7 N",
		"longitude": "91-29-51.2 W",
		"state": "LOUISIANA",
		"artcc": "ZHU",
		"type": "RP",
		"updated": "LFT*VORTAC*114.30/29.03"
	},
	{
		"name": "HATGU",
		"latitude": "30-15-54.62 N",
		"longitude": "93-23-19.96 W",
		"state": "LOUISIANA",
		"artcc": "ZHU",
		"type": "RNAV",
		"updated": "11/09/2004"
	},
	{
		"name": "HATHA",
		"latitude": "30-18-41.91 N",
		"longitude": "92-42-9.43 W",
		"state": "LOUISIANA",
		"artcc": "ZHU",
		"type": "RP",
		"updated": "LFT*VORTAC*278.00"
	},
	{
		"name": "HATNU",
		"latitude": "26-55-30.3 N",
		"longitude": "98-18-21.84 W",
		"state": "TEXAS",
		"artcc": "ZHU",
		"type": "RNAV",
		"updated": "07/26/2012"
	},
	{
		"name": "HAULS",
		"latitude": "27-36-16.39 N",
		"longitude": "97-5-20.7 W",
		"state": "TEXAS",
		"artcc": "ZHU",
		"type": "MR",
		"updated": "NGP*VORTAC*108.00/12.00"
	},
	{
		"name": "HAUWK",
		"latitude": "30-28-8.23 N",
		"longitude": "92-4-25.38 W",
		"state": "LOUISIANA",
		"artcc": "ZHU",
		"type": "RP",
		"updated": "LFT*VORTAC*342.67/17.00"
	},
	{
		"name": "HAVET",
		"latitude": "31-12-47 N",
		"longitude": "96-39-8 W",
		"state": "TEXAS",
		"artcc": "ZHU",
		"type": "RNAV",
		"updated": "08/12/2005"
	},
	{
		"name": "HAVIK",
		"latitude": "29-59-23.89 N",
		"longitude": "100-12-29.53 W",
		"state": "TEXAS",
		"artcc": "ZHU",
		"type": "RNAV",
		"updated": "05/12/2003"
	},
	{
		"name": "HAVIX",
		"latitude": "26-10-28.91 N",
		"longitude": "97-23-2.22 W",
		"state": "TEXAS",
		"artcc": "ZHU",
		"type": "RP",
		"updated": "BRO*VORTAC*349.21/15.00"
	},
	{
		"name": "HAWGS",
		"latitude": "30-10-8.46 N",
		"longitude": "89-27-18.9 W",
		"state": "MISSISSIPPI",
		"artcc": "ZHU",
		"type": "RNAV",
		"updated": "03/31/2016"
	},
	{
		"name": "HAWWK",
		"latitude": "27-16-42.92 N",
		"longitude": "98-18-35.62 W",
		"state": "TEXAS",
		"artcc": "ZHU",
		"type": "MR",
		"updated": "NQI*TACAN*235.00/30.00"
	},
	{
		"name": "HAWXE",
		"latitude": "30-32-58.84 N",
		"longitude": "95-4-53.93 W",
		"state": "TEXAS",
		"artcc": "ZHU",
		"type": "RNAV",
		"updated": "07/30/2011"
	},
	{
		"name": "HAWZO",
		"latitude": "29-35-5.78 N",
		"longitude": "95-10-30.97 W",
		"state": "TEXAS",
		"artcc": "ZHU",
		"type": "MR",
		"updated": "EFD*TACAN*208.00/1.50"
	},
	{
		"name": "HAXUN",
		"latitude": "30-48-53.04 N",
		"longitude": "96-31-57.06 W",
		"state": "TEXAS",
		"artcc": "ZHU",
		"type": "RNAV",
		"updated": "06/21/2011"
	},
	{
		"name": "HAYES",
		"latitude": "30-9-4.36 N",
		"longitude": "92-54-49.2 W",
		"state": "LOUISIANA",
		"artcc": "ZHU",
		"type": "RP",
		"updated": "LCH*VORTAC*079.62/10.00"
	},
	{
		"name": "HAYYY",
		"latitude": "30-10-10.16 N",
		"longitude": "97-44-46.53 W",
		"state": "TEXAS",
		"artcc": "ZHU",
		"type": "RNAV",
		"updated": "03/26/2014"
	},
	{
		"name": "HAZER",
		"latitude": "30-37-58.52 N",
		"longitude": "91-29-9.91 W",
		"state": "LOUISIANA",
		"artcc": "ZHU",
		"type": "RP",
		"updated": "LSU*VORTAC*305.70"
	},
	{
		"name": "HAZEY",
		"latitude": "31-15-33.23 N",
		"longitude": "88-24-9.75 W",
		"state": "ALABAMA",
		"artcc": "ZHU",
		"type": "RP",
		"updated": "SJI*VORTAC*351.00/32.00"
	},
	{
		"name": "HEATS",
		"latitude": "29-42-29.49 N",
		"longitude": "92-38-18.98 W",
		"state": "LOUISIANA",
		"artcc": "ZHU",
		"type": "RNAV",
		"updated": "02/28/2017"
	},
	{
		"name": "HEBIM",
		"latitude": "26-38-30.05 N",
		"longitude": "98-21-49.84 W",
		"state": "TEXAS",
		"artcc": "ZHU",
		"type": "RNAV",
		"updated": "08/08/2005"
	},
	{
		"name": "HEBOT",
		"latitude": "29-57-4.26 N",
		"longitude": "90-1-42.28 W",
		"state": "LOUISIANA",
		"artcc": "ZHU",
		"type": "RNAV",
		"updated": "06/16/2009"
	},
	{
		"name": "HEBUR",
		"latitude": "29-21-40.41 N",
		"longitude": "95-24-44.72 W",
		"state": "TEXAS",
		"artcc": "ZHU",
		"type": "RNAV",
		"updated": "05/21/2003"
	},
	{
		"name": "HECEN",
		"latitude": "30-32-57.28 N",
		"longitude": "98-9-25.35 W",
		"state": "TEXAS",
		"artcc": "ZHU",
		"type": "RP",
		"updated": "CWK*VORTAC*281.60/34.09"
	},
	{
		"name": "HECLY",
		"latitude": "29-44-15.48 N",
		"longitude": "94-4-50.22 W",
		"state": "TEXAS",
		"artcc": "ZHU",
		"type": "RNAV",
		"updated": "10/27/2009"
	},
	{
		"name": "HECXU",
		"latitude": "29-20-49.1 N",
		"longitude": "96-11-28.42 W",
		"state": "TEXAS",
		"artcc": "ZHU",
		"type": "RP",
		"updated": "ELA*VOR/DME*152.72/20.00"
	},
	{
		"name": "HEDIR",
		"latitude": "29-53-35.36 N",
		"longitude": "94-0-24.31 W",
		"state": "TEXAS",
		"artcc": "ZHU",
		"type": "RNAV",
		"updated": "10/27/2009"
	},
	{
		"name": "HEDIX",
		"latitude": "30-26-20.8 N",
		"longitude": "96-13-48.91 W",
		"state": "TEXAS",
		"artcc": "ZHU",
		"type": "RP",
		"updated": "CLL*VORTAC*127.13/14.00"
	},
	{
		"name": "HEDKI",
		"latitude": "30-14-5.69 N",
		"longitude": "96-59-30.88 W",
		"state": "TEXAS",
		"artcc": "ZHU",
		"type": "CN",
		"updated": "02/06/2012"
	},
	{
		"name": "HEDUN",
		"latitude": "31-19-42.93 N",
		"longitude": "89-20-16.77 W",
		"state": "MISSISSIPPI",
		"artcc": "ZHU",
		"type": "RNAV",
		"updated": "11/02/2017"
	},
	{
		"name": "HEFNO",
		"latitude": "30-4-55.56 N",
		"longitude": "96-58-24.57 W",
		"state": "TEXAS",
		"artcc": "ZHU",
		"type": "CN",
		"updated": "02/06/2012"
	},
	{
		"name": "HEGRE",
		"latitude": "29-30-6.56 N",
		"longitude": "95-24-37.58 W",
		"state": "TEXAS",
		"artcc": "ZHU",
		"type": "RNAV",
		"updated": "03/27/2007"
	},
	{
		"name": "HEGUR",
		"latitude": "30-39-0.6 N",
		"longitude": "97-37-30.17 W",
		"state": "TEXAS",
		"artcc": "ZHU",
		"type": "RNAV",
		"updated": "10/16/2009"
	},
	{
		"name": "HEGVO",
		"latitude": "30-4-59.71 N",
		"longitude": "97-37-30.67 W",
		"state": "TEXAS",
		"artcc": "ZHU",
		"type": "RNAV",
		"updated": "10/23/2017"
	},
	{
		"name": "HEIGH",
		"latitude": "29-38-49.15 N",
		"longitude": "94-17-8.3 W",
		"state": "TEXAS",
		"artcc": "ZHU",
		"type": "RP",
		"updated": "DAS*VORTAC*144.93"
	},
	{
		"name": "HEKAG",
		"latitude": "26-53-43.42 N",
		"longitude": "98-31-58.02 W",
		"state": "TEXAS",
		"artcc": "ZHU",
		"type": "RNAV",
		"updated": "08/08/2005"
	},
	{
		"name": "HEKIP",
		"latitude": "31-4-9.24 N",
		"longitude": "97-43-35.21 W",
		"state": "TEXAS",
		"artcc": "ZHU",
		"type": "RP",
		"updated": "GRK*VOR/DME*057.18/5.00"
	},
	{
		"name": "HEKNU",
		"latitude": "31-6-45.25 N",
		"longitude": "97-50-59.57 W",
		"state": "TEXAS",
		"artcc": "ZHU",
		"type": "RP",
		"updated": "GRK*VOR/DME*331.71/5.12"
	},
	{
		"name": "HEKRI",
		"latitude": "30-35-15.61 N",
		"longitude": "95-27-6 W",
		"state": "TEXAS",
		"artcc": "ZHU",
		"type": "RNAV",
		"updated": "01/27/2015"
	},
	{
		"name": "HELDU",
		"latitude": "29-59-56.12 N",
		"longitude": "100-32-2.92 W",
		"state": "TEXAS",
		"artcc": "ZHU",
		"type": "MR",
		"updated": "DLF*VORTAC*143.00/25.00"
	},
	{
		"name": "HELMT",
		"latitude": "29-56-22.9 N",
		"longitude": "90-2-47.44 W",
		"state": "LOUISIANA",
		"artcc": "ZHU",
		"type": "RP",
		"updated": "HRV*VORTAC*335.05"
	},
	{
		"name": "HELMU",
		"latitude": "30-40-43.69 N",
		"longitude": "88-21-30.78 W",
		"state": "ALABAMA",
		"artcc": "ZHU",
		"type": "RNAV",
		"updated": "10/07/2008"
	},
	{
		"name": "HELOX",
		"latitude": "27-48-10.15 N",
		"longitude": "97-16-59.79 W",
		"state": "TEXAS",
		"artcc": "ZHU",
		"type": "MR",
		"updated": "NGP*VORTAC*359.00/7.00"
	},
	{
		"name": "HEMKU",
		"latitude": "28-55-4.74 N",
		"longitude": "97-0-5.34 W",
		"state": "TEXAS",
		"artcc": "ZHU",
		"type": "RP",
		"updated": "VCT*LD*308.45/6.61"
	},
	{
		"name": "HEMPI",
		"latitude": "30-7-16.84 N",
		"longitude": "93-43-0.01 W",
		"state": "TEXAS",
		"artcc": "ZHU",
		"type": "RP",
		"updated": "BPT*VOR/DME*049.00/18.80"
	},
	{
		"name": "HEMRY",
		"latitude": "30-38-54.88 N",
		"longitude": "100-38-34.78 W",
		"state": "TEXAS",
		"artcc": "ZHU",
		"type": "CN",
		"updated": "02/06/2012"
	},
	{
		"name": "HEMUS",
		"latitude": "29-15-15.33 N",
		"longitude": "90-55-11.94 W",
		"state": "LOUISIANA",
		"artcc": "ZHU",
		"type": "RP",
		"updated": "TBD*VOR/DME*189.00/25.00"
	},
	{
		"name": "HENEM",
		"latitude": "30-10-49.08 N",
		"longitude": "92-17-59.52 W",
		"state": "LOUISIANA",
		"artcc": "ZHU",
		"type": "RP",
		"updated": "LFT*VORTAC*264.18/16.00"
	},
	{
		"name": "HENHU",
		"latitude": "28-43-28.96 N",
		"longitude": "96-44-19.11 W",
		"state": "TEXAS",
		"artcc": "ZHU",
		"type": "RNAV",
		"updated": "10/22/2014"
	},
	{
		"name": "HENLY",
		"latitude": "30-6-29.04 N",
		"longitude": "98-23-36.27 W",
		"state": "TEXAS",
		"artcc": "ZHU",
		"type": "RP",
		"updated": "CWK*VORTAC*244.38"
	},
	{
		"name": "HENVA",
		"latitude": "30-2-32.9 N",
		"longitude": "92-6-51.21 W",
		"state": "LOUISIANA",
		"artcc": "ZHU",
		"type": "RNAV",
		"updated": "06/14/2011"
	},
	{
		"name": "HEPOT",
		"latitude": "29-28-38.41 N",
		"longitude": "90-40-5.7 W",
		"state": "LOUISIANA",
		"artcc": "ZHU",
		"type": "RNAV",
		"updated": "12/08/2017"
	},
	{
		"name": "HEPRI",
		"latitude": "27-45-52.61 N",
		"longitude": "99-27-7.04 W",
		"state": "TEXAS",
		"artcc": "ZHU",
		"type": "RP",
		"updated": "LRD*LD*357.56/14.00"
	},
	{
		"name": "HEPUP",
		"latitude": "31-13-58.32 N",
		"longitude": "89-47-42.37 W",
		"state": "MISSISSIPPI",
		"artcc": "ZHU",
		"type": "RNAV",
		"updated": "11/02/2017"
	},
	{
		"name": "HERBY",
		"latitude": "29-40-53.83 N",
		"longitude": "93-30-59.34 W",
		"state": "LOUISIANA",
		"artcc": "ZHU",
		"type": "RP",
		"updated": "LCH*VORTAC*211.00"
	},
	{
		"name": "HERSY",
		"latitude": "29-30-10.35 N",
		"longitude": "95-2-47.79 W",
		"state": "TEXAS",
		"artcc": "ZHU",
		"type": "WP",
		"updated": "11/02/1998"
	},
	{
		"name": "HERUM",
		"latitude": "26-24-13.07 N",
		"longitude": "97-36-33.97 W",
		"state": "TEXAS",
		"artcc": "ZHU",
		"type": "RNAV",
		"updated": "08/09/2012"
	},
	{
		"name": "HESON",
		"latitude": "29-43-48.36 N",
		"longitude": "101-18-53.19 W",
		"state": "TEXAS",
		"artcc": "ZHU",
		"type": "MR",
		"updated": "DLF*VORTAC*301.00/36.00"
	},
	{
		"name": "HESPY",
		"latitude": "30-0-46.4 N",
		"longitude": "95-24-10.6 W",
		"state": "TEXAS",
		"artcc": "ZHU",
		"type": "WP",
		"updated": "11/02/1998"
	},
	{
		"name": "HESST",
		"latitude": "31-4-31.94 N",
		"longitude": "95-55-6.09 W",
		"state": "TEXAS",
		"artcc": "ZHU",
		"type": "RNAV",
		"updated": "12/13/2001"
	},
	{
		"name": "HESUD",
		"latitude": "27-53-28.92 N",
		"longitude": "97-0-35.26 W",
		"state": "TEXAS",
		"artcc": "ZHU",
		"type": "RNAV",
		"updated": "03/28/2010"
	},
	{
		"name": "HETAL",
		"latitude": "29-46-50.55 N",
		"longitude": "98-27-18.51 W",
		"state": "TEXAS",
		"artcc": "ZHU",
		"type": "MR",
		"updated": "RND*VORTAC*325.46/18.00"
	},
	{
		"name": "HETUG",
		"latitude": "29-25-23.08 N",
		"longitude": "95-1-20.69 W",
		"state": "TEXAS",
		"artcc": "ZHU",
		"type": "RNAV",
		"updated": "03/18/2011"
	},
	{
		"name": "HETUK",
		"latitude": "26-7-30.12 N",
		"longitude": "97-25-12.43 W",
		"state": "TEXAS",
		"artcc": "ZHU",
		"type": "RNAV",
		"updated": "08/15/2011"
	},
	{
		"name": "HEVLO",
		"latitude": "29-55-0.88 N",
		"longitude": "94-0-48.84 W",
		"state": "TEXAS",
		"artcc": "ZHU",
		"type": "RNAV",
		"updated": "10/27/2009"
	},
	{
		"name": "HEVOT",
		"latitude": "30-38-35.99 N",
		"longitude": "90-33-39.73 W",
		"state": "LOUISIANA",
		"artcc": "ZHU",
		"type": "RNAV",
		"updated": "05/14/2010"
	},
	{
		"name": "HEVUM",
		"latitude": "27-20-57.32 N",
		"longitude": "99-17-57.32 W",
		"state": "TEXAS",
		"artcc": "ZHU",
		"type": "RP",
		"updated": "LRD*VORTAC*131.75/10.00"
	},
	{
		"name": "HEYNE",
		"latitude": "29-30-55.15 N",
		"longitude": "95-34-47.3 W",
		"state": "TEXAS",
		"artcc": "ZHU",
		"type": "CN",
		"updated": "02/06/2012"
	},
	{
		"name": "HEZMI",
		"latitude": "29-29-54.35 N",
		"longitude": "95-22-26.28 W",
		"state": "TEXAS",
		"artcc": "ZHU",
		"type": "CN",
		"updated": "02/06/2012"
	},
	{
		"name": "HFMAN",
		"latitude": "27-55-37.76 N",
		"longitude": "99-13-8.41 W",
		"state": "TEXAS",
		"artcc": "ZHU",
		"type": "RNAV",
		"updated": "10/23/2017"
	},
	{
		"name": "HHART",
		"latitude": "30-12-28.11 N",
		"longitude": "94-35-19.84 W",
		"state": "TEXAS",
		"artcc": "ZHU",
		"type": "RNAV",
		"updated": "03/11/2014"
	},
	{
		"name": "HHOOF",
		"latitude": "30-23-36.22 N",
		"longitude": "97-34-7.75 W",
		"state": "TEXAS",
		"artcc": "ZHU",
		"type": "RNAV",
		"updated": "12/15/2014"
	},
	{
		"name": "HHOOG",
		"latitude": "29-55-34.3 N",
		"longitude": "95-34-59.83 W",
		"state": "TEXAS",
		"artcc": "ZHU",
		"type": "RNAV",
		"updated": "03/21/2014"
	},
	{
		"name": "HHOPS",
		"latitude": "29-49-54.12 N",
		"longitude": "94-45-57.69 W",
		"state": "TEXAS",
		"artcc": "ZHU",
		"type": "RNAV",
		"updated": "03/26/2014"
	},
	{
		"name": "HIBUD",
		"latitude": "29-24-16.66 N",
		"longitude": "100-57-21.86 W",
		"state": "TEXAS",
		"artcc": "ZHU",
		"type": "RNAV",
		"updated": "03/04/2010"
	},
	{
		"name": "HIBYU",
		"latitude": "29-20-23.85 N",
		"longitude": "89-33-58.46 W",
		"state": "LOUISIANA",
		"artcc": "ZHU",
		"type": "RNAV",
		"updated": "04/26/2018"
	},
	{
		"name": "HICHY",
		"latitude": "30-12-25.87 N",
		"longitude": "93-25-32.83 W",
		"state": "LOUISIANA",
		"artcc": "ZHU",
		"type": "RNAV",
		"updated": "01/03/2009"
	},
	{
		"name": "HICKU",
		"latitude": "29-27-17.77 N",
		"longitude": "98-14-25.81 W",
		"state": "TEXAS",
		"artcc": "ZHU",
		"type": "MR",
		"updated": "RND*VORTAC*143.67/4.50"
	},
	{
		"name": "HIDIM",
		"latitude": "29-48-47.77 N",
		"longitude": "96-21-34.33 W",
		"state": "TEXAS",
		"artcc": "ZHU",
		"type": "RNAV",
		"updated": "06/04/2012"
	},
	{
		"name": "HIDSU",
		"latitude": "30-20-45.07 N",
		"longitude": "97-29-52.86 W",
		"state": "TEXAS",
		"artcc": "ZHU",
		"type": "RNAV",
		"updated": "07/15/2010"
	},
	{
		"name": "HIDUR",
		"latitude": "30-1-11.04 N",
		"longitude": "93-21-26.67 W",
		"state": "LOUISIANA",
		"artcc": "ZHU",
		"type": "RP",
		"updated": "LCH*VORTAC*233.99/15.00"
	},
	{
		"name": "HIGLU",
		"latitude": "31-14-39.51 N",
		"longitude": "99-19-55.71 W",
		"state": "TEXAS",
		"artcc": "ZHU",
		"type": "CN",
		"updated": "02/06/2012"
	},
	{
		"name": "HIGON",
		"latitude": "29-58-11.59 N",
		"longitude": "100-12-48.98 W",
		"state": "TEXAS",
		"artcc": "ZHU",
		"type": "RP",
		"updated": "RSG*VORTAC*110.76/5.23"
	},
	{
		"name": "HIKEN",
		"latitude": "29-38-12.58 N",
		"longitude": "90-15-31.72 W",
		"state": "LOUISIANA",
		"artcc": "ZHU",
		"type": "RNAV",
		"updated": "09/30/2014"
	},
	{
		"name": "HIKRE",
		"latitude": "27-53-13.69 N",
		"longitude": "98-2-16.2 W",
		"state": "TEXAS",
		"artcc": "ZHU",
		"type": "MR",
		"updated": "NQI*TACAN*328.00/26.30"
	},
	{
		"name": "HIKUS",
		"latitude": "29-3-12.15 N",
		"longitude": "100-28-42.09 W",
		"state": "TEXAS",
		"artcc": "ZHU",
		"type": "MR",
		"updated": "DLF*VORTAC*133.00/24.00"
	},
	{
		"name": "HILGA",
		"latitude": "31-24-34.93 N",
		"longitude": "89-26-50.54 W",
		"state": "MISSISSIPPI",
		"artcc": "ZHU",
		"type": "RNAV",
		"updated": "01/07/2011"
	},
	{
		"name": "HILLI",
		"latitude": "28-14-27.9 N",
		"longitude": "99-19-13.54 W",
		"state": "TEXAS",
		"artcc": "ZHU",
		"type": "MR",
		"updated": "COT*VORTAC*210.00/17.00"
	},
	{
		"name": "HIMPA",
		"latitude": "29-20-32.18 N",
		"longitude": "100-45-32.24 W",
		"state": "TEXAS",
		"artcc": "ZHU",
		"type": "MR",
		"updated": "DLF*VORTAC*142.00/1.30"
	},
	{
		"name": "HIMTO",
		"latitude": "29-50-7.54 N",
		"longitude": "95-2-31.59 W",
		"state": "TEXAS",
		"artcc": "ZHU",
		"type": "RNAV",
		"updated": "09/06/2017"
	},
	{
		"name": "HIMUR",
		"latitude": "29-29-3.15 N",
		"longitude": "100-57-8.29 W",
		"state": "TEXAS",
		"artcc": "ZHU",
		"type": "MR",
		"updated": "DLF*VORTAC*301.00/12.00"
	},
	{
		"name": "HINET",
		"latitude": "30-38-44.51 N",
		"longitude": "95-35-56.4 W",
		"state": "TEXAS",
		"artcc": "ZHU",
		"type": "RNAV",
		"updated": "01/28/2009"
	},
	{
		"name": "HINKO",
		"latitude": "30-4-13.13 N",
		"longitude": "100-7-59.36 W",
		"state": "TEXAS",
		"artcc": "ZHU",
		"type": "MR",
		"updated": "DLF*VORTAC*031.00/54.00"
	},
	{
		"name": "HINLU",
		"latitude": "29-11-20.31 N",
		"longitude": "100-39-14.54 W",
		"state": "TEXAS",
		"artcc": "ZHU",
		"type": "MR",
		"updated": "DLF*VORTAC*142.00/12.00"
	},
	{
		"name": "HINSI",
		"latitude": "30-55-3.16 N",
		"longitude": "97-39-5.57 W",
		"state": "TEXAS",
		"artcc": "ZHU",
		"type": "RNAV",
		"updated": "11/20/2006"
	},
	{
		"name": "HIPAR",
		"latitude": "29-45-51.45 N",
		"longitude": "97-40-32.77 W",
		"state": "TEXAS",
		"artcc": "ZHU",
		"type": "RNAV",
		"updated": "06/22/2011"
	},
	{
		"name": "HIPKU",
		"latitude": "31-16-5.6 N",
		"longitude": "92-33-24.93 W",
		"state": "LOUISIANA",
		"artcc": "ZHU",
		"type": "RNAV",
		"updated": "06/22/2007"
	},
	{
		"name": "HIPPS",
		"latitude": "30-34-48.7 N",
		"longitude": "95-50-31.51 W",
		"state": "TEXAS",
		"artcc": "ZHU",
		"type": "RNAV",
		"updated": "01/03/2013"
	},
	{
		"name": "HIRLI",
		"latitude": "26-19-38.2 N",
		"longitude": "97-33-18.01 W",
		"state": "TEXAS",
		"artcc": "ZHU",
		"type": "RP",
		"updated": "BRO*VORTAC*329.12/26.00"
	},
	{
		"name": "HIROX",
		"latitude": "29-13-58.26 N",
		"longitude": "89-25-48.99 W",
		"state": "LOUISIANA",
		"artcc": "ZHU",
		"type": "RNAV",
		"updated": "04/26/2018"
	},
	{
		"name": "HIRTA",
		"latitude": "26-28-52.27 N",
		"longitude": "97-40-25.36 W",
		"state": "TEXAS",
		"artcc": "ZHU",
		"type": "RNAV",
		"updated": "09/14/2012"
	},
	{
		"name": "HISAL",
		"latitude": "30-38-57.48 N",
		"longitude": "88-14-11.43 W",
		"state": "ALABAMA",
		"artcc": "ZHU",
		"type": "RNAV",
		"updated": "08/07/2009"
	},
	{
		"name": "HISBY",
		"latitude": "28-28-41.79 N",
		"longitude": "99-46-12.01 W",
		"state": "TEXAS",
		"artcc": "ZHU",
		"type": "CN",
		"updated": "02/06/2012"
	},
	{
		"name": "HISEM",
		"latitude": "30-40-13.5 N",
		"longitude": "96-37-43.78 W",
		"state": "TEXAS",
		"artcc": "ZHU",
		"type": "RNAV",
		"updated": "07/27/2011"
	},
	{
		"name": "HISIK",
		"latitude": "27-42-33.86 N",
		"longitude": "99-34-55.76 W",
		"state": "TEXAS",
		"artcc": "ZHU",
		"type": "RNAV",
		"updated": "04/12/2006"
	},
	{
		"name": "HITGA",
		"latitude": "30-18-23.87 N",
		"longitude": "88-5-58.32 W",
		"state": "ALABAMA",
		"artcc": "ZHU",
		"type": "RNAV",
		"updated": "03/16/2011"
	},
	{
		"name": "HITPA",
		"latitude": "30-9-8.78 N",
		"longitude": "95-33-58.97 W",
		"state": "TEXAS",
		"artcc": "ZHU",
		"type": "RNAV",
		"updated": "03/28/2007"
	},
	{
		"name": "HIVAL",
		"latitude": "29-13-6.63 N",
		"longitude": "95-45-38.22 W",
		"state": "TEXAS",
		"artcc": "ZHU",
		"type": "RNAV",
		"updated": "10/31/2017"
	},
	{
		"name": "HIVAP",
		"latitude": "30-3-23.28 N",
		"longitude": "90-29-0.57 W",
		"state": "LOUISIANA",
		"artcc": "ZHU",
		"type": "RP",
		"updated": "TBD*VOR/DME*035.45/29.60"
	},
	{
		"name": "HIVBA",
		"latitude": "27-36-9.7 N",
		"longitude": "97-34-34.46 W",
		"state": "TEXAS",
		"artcc": "ZHU",
		"type": "RNAV",
		"updated": "06/28/2016"
	},
	{
		"name": "HIVBO",
		"latitude": "29-36-25.8 N",
		"longitude": "95-38-46.27 W",
		"state": "TEXAS",
		"artcc": "ZHU",
		"type": "RNAV",
		"updated": "12/05/2017"
	},
	{
		"name": "HIVEB",
		"latitude": "27-54-40.35 N",
		"longitude": "97-17-36.01 W",
		"state": "TEXAS",
		"artcc": "ZHU",
		"type": "RNAV",
		"updated": "07/12/2016"
	},
	{
		"name": "HIWDE",
		"latitude": "29-58-17.86 N",
		"longitude": "95-32-23.9 W",
		"state": "TEXAS",
		"artcc": "ZHU",
		"type": "RNAV",
		"updated": "03/28/2007"
	},
	{
		"name": "HIWGO",
		"latitude": "30-52-12.51 N",
		"longitude": "98-39-48.28 W",
		"state": "TEXAS",
		"artcc": "ZHU",
		"type": "RNAV",
		"updated": "10/14/2009"
	},
	{
		"name": "HIXIM",
		"latitude": "30-33-49.39 N",
		"longitude": "89-39-22.43 W",
		"state": "MISSISSIPPI",
		"artcc": "ZHU",
		"type": "RNAV",
		"updated": "11/02/2017"
	},
	{
		"name": "HIXUV",
		"latitude": "29-33-55.12 N",
		"longitude": "99-4-39.46 W",
		"state": "TEXAS",
		"artcc": "ZHU",
		"type": "RNAV",
		"updated": "12/06/2010"
	},
	{
		"name": "HJORN",
		"latitude": "29-57-8.27 N",
		"longitude": "100-14-24.75 W",
		"state": "TEXAS",
		"artcc": "ZHU",
		"type": "MR",
		"updated": "DLF*VORTAC*031.00/45.00"
	},
	{
		"name": "HNTRR",
		"latitude": "29-28-10.22 N",
		"longitude": "95-52-42.41 W",
		"state": "TEXAS",
		"artcc": "ZHU",
		"type": "RNAV",
		"updated": "03/25/2014"
	},
	{
		"name": "HOARY",
		"latitude": "30-34-37.88 N",
		"longitude": "97-46-31.01 W",
		"state": "TEXAS",
		"artcc": "ZHU",
		"type": "RP",
		"updated": "ACT*VORTAC*193.00/70.00"
	},
	{
		"name": "HOBEX",
		"latitude": "30-30-9.11 N",
		"longitude": "96-19-48.17 W",
		"state": "TEXAS",
		"artcc": "ZHU",
		"type": "RNAV",
		"updated": "09/02/2012"
	},
	{
		"name": "HOBIR",
		"latitude": "27-49-36.15 N",
		"longitude": "97-0-22.41 W",
		"state": "TEXAS",
		"artcc": "ZHU",
		"type": "RNAV",
		"updated": "07/31/2006"
	},
	{
		"name": "HOBOR",
		"latitude": "29-28-33.47 N",
		"longitude": "100-57-33.35 W",
		"state": "TEXAS",
		"artcc": "ZHU",
		"type": "MR",
		"updated": "DLF*VORTAC*298.07/12.00"
	},
	{
		"name": "HOBOT",
		"latitude": "29-53-27.03 N",
		"longitude": "100-16-38.46 W",
		"state": "TEXAS",
		"artcc": "ZHU",
		"type": "MR",
		"updated": "RSG*VORTAC*161.00/7.50"
	},
	{
		"name": "HOBOZ",
		"latitude": "27-54-52.94 N",
		"longitude": "97-56-55.01 W",
		"state": "TEXAS",
		"artcc": "ZHU",
		"type": "MR",
		"updated": "NQI*TACAN*339.00/26.00"
	},
	{
		"name": "HOBUT",
		"latitude": "30-55-1.74 N",
		"longitude": "91-33-30.49 W",
		"state": "LOUISIANA",
		"artcc": "ZHU",
		"type": "RNAV",
		"updated": "04/01/2008"
	},
	{
		"name": "HOBVI",
		"latitude": "30-36-14.25 N",
		"longitude": "88-44-6.25 W",
		"state": "MISSISSIPPI",
		"artcc": "ZHU",
		"type": "MW",
		"updated": "08/16/2012"
	},
	{
		"name": "HOCCO",
		"latitude": "29-52-35.67 N",
		"longitude": "95-40-49.68 W",
		"state": "TEXAS",
		"artcc": "ZHU",
		"type": "CN",
		"updated": "02/06/2012"
	},
	{
		"name": "HODAL",
		"latitude": "29-45-20.92 N",
		"longitude": "97-41-45 W",
		"state": "TEXAS",
		"artcc": "ZHU",
		"type": "RNAV",
		"updated": "04/18/2013"
	},
	{
		"name": "HODEL",
		"latitude": "31-7-23.45 N",
		"longitude": "92-8-41.16 W",
		"state": "LOUISIANA",
		"artcc": "ZHU",
		"type": "RP",
		"updated": "AEX*VORTAC*110.47/20.00"
	},
	{
		"name": "HODIS",
		"latitude": "29-57-9.54 N",
		"longitude": "99-8-46.07 W",
		"state": "TEXAS",
		"artcc": "ZHU",
		"type": "RP",
		"updated": "CSI*VORTAC*055.00/4.00"
	},
	{
		"name": "HODRI",
		"latitude": "30-45-1.48 N",
		"longitude": "97-40-4.17 W",
		"state": "TEXAS",
		"artcc": "ZHU",
		"type": "CN",
		"updated": "02/06/2012"
	},
	{
		"name": "HOGIP",
		"latitude": "26-5-51.11 N",
		"longitude": "97-58-37.4 W",
		"state": "TEXAS",
		"artcc": "ZHU",
		"type": "RNAV",
		"updated": "11/05/2015"
	},
	{
		"name": "HOGTO",
		"latitude": "30-29-52.25 N",
		"longitude": "91-11-11.86 W",
		"state": "LOUISIANA",
		"artcc": "ZHU",
		"type": "RNAV",
		"updated": "08/09/2012"
	},
	{
		"name": "HOGUD",
		"latitude": "26-53-55.35 N",
		"longitude": "98-16-21.94 W",
		"state": "TEXAS",
		"artcc": "ZHU",
		"type": "RNAV",
		"updated": "10/10/2008"
	},
	{
		"name": "HOHME",
		"latitude": "29-15-57.31 N",
		"longitude": "99-10-19.06 W",
		"state": "TEXAS",
		"artcc": "ZHU",
		"type": "RNAV",
		"updated": "12/07/2010"
	},
	{
		"name": "HOLAB",
		"latitude": "31-23-42.22 N",
		"longitude": "92-21-16.83 W",
		"state": "LOUISIANA",
		"artcc": "ZHU",
		"type": "RNAV",
		"updated": "10/22/2012"
	},
	{
		"name": "HOLET",
		"latitude": "30-13-39.08 N",
		"longitude": "95-28-15.55 W",
		"state": "TEXAS",
		"artcc": "ZHU",
		"type": "RNAV",
		"updated": "09/05/2017"
	},
	{
		"name": "HOLME",
		"latitude": "29-46-53.81 N",
		"longitude": "93-15-25.21 W",
		"state": "LOUISIANA",
		"artcc": "ZHU",
		"type": "WP",
		"updated": "08/07/1998"
	},
	{
		"name": "HOLMI",
		"latitude": "30-16-34.24 N",
		"longitude": "94-45-23.39 W",
		"state": "TEXAS",
		"artcc": "ZHU",
		"type": "RNAV",
		"updated": "08/06/2012"
	},
	{
		"name": "HOLOD",
		"latitude": "31-6-10.96 N",
		"longitude": "97-50-46.67 W",
		"state": "TEXAS",
		"artcc": "ZHU",
		"type": "RP",
		"updated": "GRK*VOR/DME*/4.52"
	},
	{
		"name": "HOLOV",
		"latitude": "27-38-53.15 N",
		"longitude": "99-27-17.02 W",
		"state": "TEXAS",
		"artcc": "ZHU",
		"type": "RNAV",
		"updated": "12/19/2017"
	},
	{
		"name": "HOMPI",
		"latitude": "29-53-58.41 N",
		"longitude": "95-42-50.02 W",
		"state": "TEXAS",
		"artcc": "ZHU",
		"type": "CN",
		"updated": "02/06/2012"
	},
	{
		"name": "HOMRN",
		"latitude": "30-49-34.68 N",
		"longitude": "96-15-21.47 W",
		"state": "TEXAS",
		"artcc": "ZHU",
		"type": "RP",
		"updated": "TNV*VOR/DME*334.40/33.78"
	},
	{
		"name": "HONAX",
		"latitude": "29-48-58.07 N",
		"longitude": "91-8-15.3 W",
		"state": "LOUISIANA",
		"artcc": "ZHU",
		"type": "RNAV",
		"updated": "03/29/2011"
	},
	{
		"name": "HONBU",
		"latitude": "29-25-12.2 N",
		"longitude": "98-11-42.58 W",
		"state": "TEXAS",
		"artcc": "ZHU",
		"type": "MR",
		"updated": "KSY*TACAN*081.09/20.29"
	},
	{
		"name": "HONDI",
		"latitude": "29-8-4.48 N",
		"longitude": "98-47-36.92 W",
		"state": "TEXAS",
		"artcc": "ZHU",
		"type": "MR",
		"updated": "KSY*TACAN*212.00/19.00"
	},
	{
		"name": "HONEE",
		"latitude": "30-24-21.96 N",
		"longitude": "94-24-59.99 W",
		"state": "TEXAS",
		"artcc": "ZHU",
		"type": "RP",
		"updated": "LFK*VORTAC*156.01/47.86"
	},
	{
		"name": "HONES",
		"latitude": "30-48-31.95 N",
		"longitude": "98-12-54.57 W",
		"state": "TEXAS",
		"artcc": "ZHU",
		"type": "RNAV",
		"updated": "09/30/2009"
	},
	{
		"name": "HONWO",
		"latitude": "29-44-12.67 N",
		"longitude": "95-37-52.61 W",
		"state": "TEXAS",
		"artcc": "ZHU",
		"type": "CN",
		"updated": "02/06/2012"
	},
	{
		"name": "HOOCK",
		"latitude": "28-13-44.61 N",
		"longitude": "88-40-2.18 W",
		"state": "OFFSHORE GULF",
		"artcc": "ZHU",
		"type": "RNAV",
		"updated": "10/31/2012"
	},
	{
		"name": "HOODO",
		"latitude": "28-59-48.51 N",
		"longitude": "94-21-9.1 W",
		"state": "TEXAS",
		"artcc": "ZHU",
		"type": "RNAV",
		"updated": "03/06/2015"
	},
	{
		"name": "HOOKK",
		"latitude": "30-21-36 N",
		"longitude": "97-12-10.88 W",
		"state": "TEXAS",
		"artcc": "ZHU",
		"type": "RP",
		"updated": "CWK*VORTAC*087.66/17.00"
	},
	{
		"name": "HOOLR",
		"latitude": "28-55-49.05 N",
		"longitude": "98-18-6.25 W",
		"state": "TEXAS",
		"artcc": "ZHU",
		"type": "RNAV",
		"updated": "10/23/2017"
	},
	{
		"name": "HOOTI",
		"latitude": "30-6-44.5 N",
		"longitude": "94-43-47.35 W",
		"state": "TEXAS",
		"artcc": "ZHU",
		"type": "RNAV",
		"updated": "03/11/2014"
	},
	{
		"name": "HOOTY",
		"latitude": "30-10-20.7 N",
		"longitude": "89-49-8.72 W",
		"state": "LOUISIANA",
		"artcc": "ZHU",
		"type": "RNAV",
		"updated": "02/28/2005"
	},
	{
		"name": "HOPAG",
		"latitude": "30-37-1.74 N",
		"longitude": "97-40-58.21 W",
		"state": "TEXAS",
		"artcc": "ZHU",
		"type": "RNAV",
		"updated": "11/05/2015"
	},
	{
		"name": "HOPAL",
		"latitude": "30-41-8.25 N",
		"longitude": "96-22-59.2 W",
		"state": "TEXAS",
		"artcc": "ZHU",
		"type": "RNAV",
		"updated": "06/21/2011"
	},
	{
		"name": "HOPIW",
		"latitude": "30-34-58.27 N",
		"longitude": "99-45-49.24 W",
		"state": "TEXAS",
		"artcc": "ZHU",
		"type": "CN",
		"updated": "02/06/2012"
	},
	{
		"name": "HOPNU",
		"latitude": "30-9-51.98 N",
		"longitude": "95-29-2.04 W",
		"state": "TEXAS",
		"artcc": "ZHU",
		"type": "RNAV",
		"updated": "08/12/2010"
	},
	{
		"name": "HOREG",
		"latitude": "31-38-52.71 N",
		"longitude": "93-4-25.17 W",
		"state": "LOUISIANA",
		"artcc": "ZHU",
		"type": "RNAV",
		"updated": "04/19/2012"
	},
	{
		"name": "HORUR",
		"latitude": "27-44-8.17 N",
		"longitude": "97-17-18.57 W",
		"state": "TEXAS",
		"artcc": "ZHU",
		"type": "MW",
		"updated": "07/09/2015"
	},
	{
		"name": "HOSEK",
		"latitude": "29-43-59.56 N",
		"longitude": "89-56-52.99 W",
		"state": "LOUISIANA",
		"artcc": "ZHU",
		"type": "MW",
		"updated": "02/10/2016"
	},
	{
		"name": "HOSPA",
		"latitude": "29-25-2.56 N",
		"longitude": "98-2-45.08 W",
		"state": "TEXAS",
		"artcc": "ZHU",
		"type": "MW",
		"updated": "11/08/2013"
	},
	{
		"name": "HOSPO",
		"latitude": "29-30-18 N",
		"longitude": "98-16-30.17 W",
		"state": "TEXAS",
		"artcc": "ZHU",
		"type": "MR",
		"updated": "RND*VORTAC*142.99/1.00"
	},
	{
		"name": "HOSRU",
		"latitude": "27-55-1.16 N",
		"longitude": "97-15-20.92 W",
		"state": "TEXAS",
		"artcc": "ZHU",
		"type": "RNAV",
		"updated": "04/05/2006"
	},
	{
		"name": "HOTIP",
		"latitude": "30-20-36.18 N",
		"longitude": "88-59-14.22 W",
		"state": "MISSISSIPPI",
		"artcc": "ZHU",
		"type": "RP",
		"updated": "GPT*VORTAC*127.25/6.00"
	},
	{
		"name": "HOTRO",
		"latitude": "29-53-35.03 N",
		"longitude": "94-56-48.28 W",
		"state": "TEXAS",
		"artcc": "ZHU",
		"type": "RNAV",
		"updated": "11/19/2004"
	},
	{
		"name": "HOUKM",
		"latitude": "30-25-44.35 N",
		"longitude": "97-45-8.98 W",
		"state": "TEXAS",
		"artcc": "ZHU",
		"type": "RNAV",
		"updated": "10/27/2017"
	},
	{
		"name": "HOURN",
		"latitude": "29-59-45.76 N",
		"longitude": "94-18-16.28 W",
		"state": "TEXAS",
		"artcc": "ZHU",
		"type": "RP",
		"updated": "DAS*VORTAC*118.11"
	},
	{
		"name": "HOVCO",
		"latitude": "27-37-15.11 N",
		"longitude": "99-30-58.79 W",
		"state": "TEXAS",
		"artcc": "ZHU",
		"type": "RP",
		"updated": "LRD*VORTAC*319.28/10.00"
	},
	{
		"name": "HOVOG",
		"latitude": "29-20-31.78 N",
		"longitude": "98-24-38.19 W",
		"state": "TEXAS",
		"artcc": "ZHU",
		"type": "RNAV",
		"updated": "03/15/2011"
	},
	{
		"name": "HOVPU",
		"latitude": "29-27-10.02 N",
		"longitude": "90-28-35.18 W",
		"state": "LOUISIANA",
		"artcc": "ZHU",
		"type": "RNAV",
		"updated": "05/04/2009"
	},
	{
		"name": "HOVUS",
		"latitude": "31-23-43.7 N",
		"longitude": "92-23-16.01 W",
		"state": "LOUISIANA",
		"artcc": "ZHU",
		"type": "RNAV",
		"updated": "10/22/2012"
	},
	{
		"name": "HOWLN",
		"latitude": "29-53-32.21 N",
		"longitude": "95-27-54.9 W",
		"state": "TEXAS",
		"artcc": "ZHU",
		"type": "RNAV",
		"updated": "03/11/2014"
	},
	{
		"name": "HOXID",
		"latitude": "30-32-52.45 N",
		"longitude": "96-7-20.4 W",
		"state": "TEXAS",
		"artcc": "ZHU",
		"type": "RNAV",
		"updated": "01/20/2013"
	},
	{
		"name": "HOXOB",
		"latitude": "29-24-20.02 N",
		"longitude": "98-3-5.45 W",
		"state": "TEXAS",
		"artcc": "ZHU",
		"type": "MR",
		"updated": "RND*VORTAC*114.00/14.00"
	},
	{
		"name": "HRSHO",
		"latitude": "30-43-12.23 N",
		"longitude": "98-27-4.18 W",
		"state": "TEXAS",
		"artcc": "ZHU",
		"type": "RNAV",
		"updated": "01/28/2009"
	},
	{
		"name": "HRVCC",
		"latitude": "29-20-0 N",
		"longitude": "90-0-0 W",
		"state": "OFFSHORE GULF",
		"artcc": "ZHU",
		"type": "WP",
		"updated": "07/17/1998"
	},
	{
		"name": "HRVCD",
		"latitude": "29-0-0 N",
		"longitude": "90-0-0 W",
		"state": "OFFSHORE GULF",
		"artcc": "ZHU",
		"type": "RNAV",
		"updated": "09/12/2011"
	},
	{
		"name": "HRVCE",
		"latitude": "28-40-0 N",
		"longitude": "90-0-0 W",
		"state": "OFFSHORE GULF",
		"artcc": "ZHU",
		"type": "WP",
		"updated": "07/17/1998"
	},
	{
		"name": "HRVCF",
		"latitude": "28-20-0 N",
		"longitude": "90-0-0 W",
		"state": "OFFSHORE GULF",
		"artcc": "ZHU",
		"type": "WP",
		"updated": "07/17/1998"
	},
	{
		"name": "HRVCG",
		"latitude": "28-0-0 N",
		"longitude": "90-0-0 W",
		"state": "OFFSHORE GULF",
		"artcc": "ZHU",
		"type": "WP",
		"updated": "07/17/1998"
	},
	{
		"name": "HRVCH",
		"latitude": "27-40-0 N",
		"longitude": "90-0-0 W",
		"state": "OFFSHORE GULF",
		"artcc": "ZHU",
		"type": "WP",
		"updated": "07/17/1998"
	},
	{
		"name": "HRVCI",
		"latitude": "27-20-0 N",
		"longitude": "90-0-0 W",
		"state": "OFFSHORE GULF",
		"artcc": "ZHU",
		"type": "WP",
		"updated": "07/17/1998"
	},
	{
		"name": "HRVCJ",
		"latitude": "27-0-0 N",
		"longitude": "90-0-0 W",
		"state": "OFFSHORE GULF",
		"artcc": "ZHU",
		"type": "WP",
		"updated": "07/17/1998"
	},
	{
		"name": "HRVCK",
		"latitude": "26-40-0 N",
		"longitude": "90-0-0 W",
		"state": "OFFSHORE GULF",
		"artcc": "ZHU",
		"type": "WP",
		"updated": "07/17/1998"
	},
	{
		"name": "HRVCL",
		"latitude": "26-20-0 N",
		"longitude": "90-0-0 W",
		"state": "OFFSHORE GULF",
		"artcc": "ZHU",
		"type": "WP",
		"updated": "07/17/1998"
	},
	{
		"name": "HRVCM",
		"latitude": "26-0-0 N",
		"longitude": "90-0-0 W",
		"state": "OFFSHORE GULF",
		"artcc": "ZHU",
		"type": "WP",
		"updated": "07/17/1998"
	},
	{
		"name": "HRVCN",
		"latitude": "25-40-0 N",
		"longitude": "90-0-0 W",
		"state": "OFFSHORE GULF",
		"artcc": "ZHU",
		"type": "WP",
		"updated": "07/17/1998"
	},
	{
		"name": "HRVCO",
		"latitude": "25-20-0 N",
		"longitude": "90-0-0 W",
		"state": "OFFSHORE GULF",
		"artcc": "ZHU",
		"type": "WP",
		"updated": "07/17/1998"
	},
	{
		"name": "HRVCP",
		"latitude": "25-0-0 N",
		"longitude": "90-0-0 W",
		"state": "OFFSHORE GULF",
		"artcc": "ZHU",
		"type": "WP",
		"updated": "07/17/1998"
	},
	{
		"name": "HRVCQ",
		"latitude": "24-40-0 N",
		"longitude": "90-0-0 W",
		"state": "OFFSHORE GULF",
		"artcc": "ZHU",
		"type": "WP",
		"updated": "07/17/1998"
	},
	{
		"name": "HRVLC",
		"latitude": "29-20-0 N",
		"longitude": "90-20-0 W",
		"state": "OFFSHORE GULF",
		"artcc": "ZHU",
		"type": "RNAV",
		"updated": "12/28/2017"
	},
	{
		"name": "HRVLD",
		"latitude": "29-0-0 N",
		"longitude": "90-20-0 W",
		"state": "OFFSHORE GULF",
		"artcc": "ZHU",
		"type": "RNAV",
		"updated": "09/12/2011"
	},
	{
		"name": "HRVLE",
		"latitude": "28-40-0 N",
		"longitude": "90-20-0 W",
		"state": "OFFSHORE GULF",
		"artcc": "ZHU",
		"type": "WP",
		"updated": "07/17/1998"
	},
	{
		"name": "HRVLF",
		"latitude": "28-20-0 N",
		"longitude": "90-20-0 W",
		"state": "OFFSHORE GULF",
		"artcc": "ZHU",
		"type": "WP",
		"updated": "07/17/1998"
	},
	{
		"name": "HRVLG",
		"latitude": "28-0-0 N",
		"longitude": "90-20-0 W",
		"state": "OFFSHORE GULF",
		"artcc": "ZHU",
		"type": "WP",
		"updated": "07/17/1998"
	},
	{
		"name": "HRVLH",
		"latitude": "27-40-0 N",
		"longitude": "90-20-0 W",
		"state": "OFFSHORE GULF",
		"artcc": "ZHU",
		"type": "WP",
		"updated": "07/17/1998"
	},
	{
		"name": "HRVLI",
		"latitude": "27-20-0 N",
		"longitude": "90-20-0 W",
		"state": "OFFSHORE GULF",
		"artcc": "ZHU",
		"type": "WP",
		"updated": "07/17/1998"
	},
	{
		"name": "HRVLJ",
		"latitude": "27-0-0 N",
		"longitude": "90-20-0 W",
		"state": "OFFSHORE GULF",
		"artcc": "ZHU",
		"type": "WP",
		"updated": "07/17/1998"
	},
	{
		"name": "HRVLK",
		"latitude": "26-40-0 N",
		"longitude": "90-20-0 W",
		"state": "OFFSHORE GULF",
		"artcc": "ZHU",
		"type": "WP",
		"updated": "07/17/1998"
	},
	{
		"name": "HRVLL",
		"latitude": "26-20-0 N",
		"longitude": "90-20-0 W",
		"state": "OFFSHORE GULF",
		"artcc": "ZHU",
		"type": "WP",
		"updated": "07/17/1998"
	},
	{
		"name": "HRVLM",
		"latitude": "26-0-0 N",
		"longitude": "90-20-0 W",
		"state": "OFFSHORE GULF",
		"artcc": "ZHU",
		"type": "WP",
		"updated": "07/17/1998"
	},
	{
		"name": "HRVLN",
		"latitude": "25-40-0 N",
		"longitude": "90-20-0 W",
		"state": "OFFSHORE GULF",
		"artcc": "ZHU",
		"type": "WP",
		"updated": "07/17/1998"
	},
	{
		"name": "HRVLO",
		"latitude": "25-20-0 N",
		"longitude": "90-20-0 W",
		"state": "OFFSHORE GULF",
		"artcc": "ZHU",
		"type": "WP",
		"updated": "07/17/1998"
	},
	{
		"name": "HRVLP",
		"latitude": "25-0-0 N",
		"longitude": "90-20-0 W",
		"state": "OFFSHORE GULF",
		"artcc": "ZHU",
		"type": "WP",
		"updated": "07/17/1998"
	},
	{
		"name": "HRVLQ",
		"latitude": "24-40-0 N",
		"longitude": "90-20-0 W",
		"state": "OFFSHORE GULF",
		"artcc": "ZHU",
		"type": "WP",
		"updated": "07/17/1998"
	},
	{
		"name": "HRVRB",
		"latitude": "29-40-0 N",
		"longitude": "89-40-0 W",
		"state": "OFFSHORE GULF",
		"artcc": "ZHU",
		"type": "WP",
		"updated": "07/17/1998"
	},
	{
		"name": "HRVRC",
		"latitude": "29-20-0 N",
		"longitude": "89-40-0 W",
		"state": "OFFSHORE GULF",
		"artcc": "ZHU",
		"type": "WP",
		"updated": "08/12/1998"
	},
	{
		"name": "HRVRD",
		"latitude": "29-0-0 N",
		"longitude": "89-40-0 W",
		"state": "OFFSHORE GULF",
		"artcc": "ZHU",
		"type": "WP",
		"updated": "10/28/1998"
	},
	{
		"name": "HRVRE",
		"latitude": "28-40-0 N",
		"longitude": "89-40-0 W",
		"state": "OFFSHORE GULF",
		"artcc": "ZHU",
		"type": "WP",
		"updated": "07/17/1998"
	},
	{
		"name": "HRVRF",
		"latitude": "28-20-0 N",
		"longitude": "89-40-0 W",
		"state": "OFFSHORE GULF",
		"artcc": "ZHU",
		"type": "WP",
		"updated": "07/17/1998"
	},
	{
		"name": "HRVRG",
		"latitude": "28-0-0 N",
		"longitude": "89-40-0 W",
		"state": "OFFSHORE GULF",
		"artcc": "ZHU",
		"type": "WP",
		"updated": "07/17/1998"
	},
	{
		"name": "HRVRH",
		"latitude": "27-40-0 N",
		"longitude": "89-40-0 W",
		"state": "OFFSHORE GULF",
		"artcc": "ZHU",
		"type": "WP",
		"updated": "07/17/1998"
	},
	{
		"name": "HRVRI",
		"latitude": "27-20-0 N",
		"longitude": "89-40-0 W",
		"state": "OFFSHORE GULF",
		"artcc": "ZHU",
		"type": "WP",
		"updated": "07/17/1998"
	},
	{
		"name": "HRVRJ",
		"latitude": "27-0-0 N",
		"longitude": "89-40-0 W",
		"state": "OFFSHORE GULF",
		"artcc": "ZHU",
		"type": "WP",
		"updated": "07/17/1998"
	},
	{
		"name": "HRVRK",
		"latitude": "26-40-0 N",
		"longitude": "89-40-0 W",
		"state": "OFFSHORE GULF",
		"artcc": "ZHU",
		"type": "WP",
		"updated": "07/17/1998"
	},
	{
		"name": "HRVRL",
		"latitude": "26-20-0 N",
		"longitude": "89-40-0 W",
		"state": "OFFSHORE GULF",
		"artcc": "ZHU",
		"type": "WP",
		"updated": "07/17/1998"
	},
	{
		"name": "HRVRM",
		"latitude": "26-0-0 N",
		"longitude": "89-40-0 W",
		"state": "OFFSHORE GULF",
		"artcc": "ZHU",
		"type": "WP",
		"updated": "07/17/1998"
	},
	{
		"name": "HRVRN",
		"latitude": "25-40-0 N",
		"longitude": "89-40-0 W",
		"state": "OFFSHORE GULF",
		"artcc": "ZHU",
		"type": "WP",
		"updated": "07/17/1998"
	},
	{
		"name": "HRVRO",
		"latitude": "25-20-0 N",
		"longitude": "89-40-0 W",
		"state": "OFFSHORE GULF",
		"artcc": "ZHU",
		"type": "WP",
		"updated": "07/17/1998"
	},
	{
		"name": "HRVRP",
		"latitude": "25-0-0 N",
		"longitude": "89-40-0 W",
		"state": "OFFSHORE GULF",
		"artcc": "ZHU",
		"type": "WP",
		"updated": "07/17/1998"
	},
	{
		"name": "HRVRQ",
		"latitude": "24-40-0 N",
		"longitude": "89-40-0 W",
		"state": "OFFSHORE GULF",
		"artcc": "ZHU",
		"type": "WP",
		"updated": "07/17/1998"
	},
	{
		"name": "HTOWN",
		"latitude": "29-43-8.43 N",
		"longitude": "96-0-44.28 W",
		"state": "TEXAS",
		"artcc": "ZHU",
		"type": "RNAV",
		"updated": "03/14/2014"
	},
	{
		"name": "HUBDA",
		"latitude": "30-27-22.44 N",
		"longitude": "89-3-59.12 W",
		"state": "MISSISSIPPI",
		"artcc": "ZHU",
		"type": "RNAV",
		"updated": "10/31/2017"
	},
	{
		"name": "HUBEM",
		"latitude": "29-49-16.95 N",
		"longitude": "90-10-25.24 W",
		"state": "LOUISIANA",
		"artcc": "ZHU",
		"type": "RNAV",
		"updated": "03/20/2012"
	},
	{
		"name": "HUBEX",
		"latitude": "29-7-45.45 N",
		"longitude": "95-57-57.48 W",
		"state": "TEXAS",
		"artcc": "ZHU",
		"type": "RNAV",
		"updated": "07/12/2009"
	},
	{
		"name": "HUBNU",
		"latitude": "29-19-14.61 N",
		"longitude": "98-8-37.38 W",
		"state": "TEXAS",
		"artcc": "ZHU",
		"type": "MR",
		"updated": "RND*VORTAC*143.00/14.00"
	},
	{
		"name": "HUBUM",
		"latitude": "29-46-57.39 N",
		"longitude": "91-56-10.76 W",
		"state": "LOUISIANA",
		"artcc": "ZHU",
		"type": "RNAV",
		"updated": "03/21/2017"
	},
	{
		"name": "HUDDD",
		"latitude": "30-17-30 N",
		"longitude": "97-40-33.49 W",
		"state": "TEXAS",
		"artcc": "ZHU",
		"type": "RNAV",
		"updated": "10/27/2017"
	},
	{
		"name": "HUDED",
		"latitude": "27-39-43.1 N",
		"longitude": "97-19-44.41 W",
		"state": "TEXAS",
		"artcc": "ZHU",
		"type": "MW",
		"updated": "07/09/2015"
	},
	{
		"name": "HUDIB",
		"latitude": "29-27-19.45 N",
		"longitude": "98-14-22.7 W",
		"state": "TEXAS",
		"artcc": "ZHU",
		"type": "MR",
		"updated": "RND*VORTAC*142.99/4.50"
	},
	{
		"name": "HUDIP",
		"latitude": "29-11-18.9 N",
		"longitude": "94-47-18.58 W",
		"state": "TEXAS",
		"artcc": "ZHU",
		"type": "RNAV",
		"updated": "11/16/2012"
	},
	{
		"name": "HUDIX",
		"latitude": "28-7-7.68 N",
		"longitude": "97-17-4.34 W",
		"state": "TEXAS",
		"artcc": "ZHU",
		"type": "RNAV",
		"updated": "07/31/2006"
	},
	{
		"name": "HUDLE",
		"latitude": "31-22-17.02 N",
		"longitude": "99-13-36.29 W",
		"state": "TEXAS",
		"artcc": "ZHU",
		"type": "RNAV",
		"updated": "02/09/2018"
	},
	{
		"name": "HUDUL",
		"latitude": "26-14-28.1 N",
		"longitude": "97-39-19.59 W",
		"state": "TEXAS",
		"artcc": "ZHU",
		"type": "RP",
		"updated": "HRL*VOR/DME*340.00/0.74"
	},
	{
		"name": "HUDZY",
		"latitude": "30-6-12.81 N",
		"longitude": "94-48-31.66 W",
		"state": "TEXAS",
		"artcc": "ZHU",
		"type": "RP",
		"updated": "LFK*VORTAC*179.32"
	},
	{
		"name": "HUGAN",
		"latitude": "29-34-12.73 N",
		"longitude": "95-9-47.8 W",
		"state": "TEXAS",
		"artcc": "ZHU",
		"type": "RNAV",
		"updated": "06/11/2012"
	},
	{
		"name": "HUGED",
		"latitude": "29-7-49.14 N",
		"longitude": "100-33-5.53 W",
		"state": "TEXAS",
		"artcc": "ZHU",
		"type": "MR",
		"updated": "DLF*VORTAC*133.00/18.00"
	},
	{
		"name": "HUGOD",
		"latitude": "30-54-11.37 N",
		"longitude": "98-9-26.7 W",
		"state": "TEXAS",
		"artcc": "ZHU",
		"type": "RNAV",
		"updated": "10/20/2009"
	},
	{
		"name": "HUGUE",
		"latitude": "28-16-32.5 N",
		"longitude": "97-29-43.85 W",
		"state": "TEXAS",
		"artcc": "ZHU",
		"type": "RNAV",
		"updated": "02/09/2018"
	},
	{
		"name": "HUGUK",
		"latitude": "29-28-58.95 N",
		"longitude": "98-20-38.13 W",
		"state": "TEXAS",
		"artcc": "ZHU",
		"type": "RNAV",
		"updated": "03/15/2011"
	},
	{
		"name": "HUHIF",
		"latitude": "30-59-32.65 N",
		"longitude": "97-14-58.93 W",
		"state": "TEXAS",
		"artcc": "ZHU",
		"type": "RNAV",
		"updated": "08/18/2010"
	},
	{
		"name": "HUKAX",
		"latitude": "29-37-35.53 N",
		"longitude": "98-25-36.66 W",
		"state": "TEXAS",
		"artcc": "ZHU",
		"type": "RNAV",
		"updated": "10/03/2012"
	},
	{
		"name": "HUKIL",
		"latitude": "30-5-47.07 N",
		"longitude": "93-21-11.79 W",
		"state": "LOUISIANA",
		"artcc": "ZHU",
		"type": "RNAV",
		"updated": "01/03/2009"
	},
	{
		"name": "HUKRA",
		"latitude": "29-27-24.89 N",
		"longitude": "98-32-24.04 W",
		"state": "TEXAS",
		"artcc": "ZHU",
		"type": "RNAV",
		"updated": "03/15/2011"
	},
	{
		"name": "HUKUD",
		"latitude": "30-42-0.83 N",
		"longitude": "98-15-5.65 W",
		"state": "TEXAS",
		"artcc": "ZHU",
		"type": "RNAV",
		"updated": "09/30/2009"
	},
	{
		"name": "HUKYU",
		"latitude": "30-48-21.06 N",
		"longitude": "95-34-24.56 W",
		"state": "TEXAS",
		"artcc": "ZHU",
		"type": "CN",
		"updated": "02/06/2012"
	},
	{
		"name": "HULLO",
		"latitude": "29-31-46.02 N",
		"longitude": "95-38-51.98 W",
		"state": "TEXAS",
		"artcc": "ZHU",
		"type": "RP",
		"updated": "HUB*VOR/DME*243.84/20.83"
	},
	{
		"name": "HULNA",
		"latitude": "31-11-43.05 N",
		"longitude": "89-58-26.4 W",
		"state": "MISSISSIPPI",
		"artcc": "ZHU",
		"type": "RNAV",
		"updated": "08/14/2013"
	},
	{
		"name": "HULOK",
		"latitude": "29-27-24.01 N",
		"longitude": "98-32-7.78 W",
		"state": "TEXAS",
		"artcc": "ZHU",
		"type": "RNAV",
		"updated": "03/15/2011"
	},
	{
		"name": "HUNGI",
		"latitude": "31-25-38.77 N",
		"longitude": "89-23-4.12 W",
		"state": "MISSISSIPPI",
		"artcc": "ZHU",
		"type": "RNAV",
		"updated": "11/02/2017"
	},
	{
		"name": "HUNOM",
		"latitude": "28-10-44.08 N",
		"longitude": "99-59-46.86 W",
		"state": "TEXAS",
		"artcc": "ZHU",
		"type": "RNAV",
		"updated": "05/09/2011"
	},
	{
		"name": "HUNOR",
		"latitude": "29-32-27.92 N",
		"longitude": "98-17-56.62 W",
		"state": "TEXAS",
		"artcc": "ZHU",
		"type": "MR",
		"updated": "RND*VORTAC*326.01/1.50"
	},
	{
		"name": "HUNOV",
		"latitude": "30-23-46.18 N",
		"longitude": "96-27-29.17 W",
		"state": "TEXAS",
		"artcc": "ZHU",
		"type": "RNAV",
		"updated": "07/23/2012"
	},
	{
		"name": "HUNUV",
		"latitude": "29-34-59.28 N",
		"longitude": "98-9-18.94 W",
		"state": "TEXAS",
		"artcc": "ZHU",
		"type": "RNAV",
		"updated": "03/15/2011"
	},
	{
		"name": "HUPAK",
		"latitude": "30-30-54.5 N",
		"longitude": "95-15-28.59 W",
		"state": "TEXAS",
		"artcc": "ZHU",
		"type": "RNAV",
		"updated": "08/12/2010"
	},
	{
		"name": "HUPAT",
		"latitude": "29-27-10.27 N",
		"longitude": "98-14-20.65 W",
		"state": "TEXAS",
		"artcc": "ZHU",
		"type": "RNAV",
		"updated": "03/15/2011"
	},
	{
		"name": "HUPIG",
		"latitude": "30-39-21.29 N",
		"longitude": "92-5-54.92 W",
		"state": "LOUISIANA",
		"artcc": "ZHU",
		"type": "RNAV",
		"updated": "03/28/2012"
	},
	{
		"name": "HURAM",
		"latitude": "30-15-6.68 N",
		"longitude": "95-33-49.91 W",
		"state": "TEXAS",
		"artcc": "ZHU",
		"type": "RNAV",
		"updated": "09/05/2017"
	},
	{
		"name": "HURED",
		"latitude": "29-32-38.15 N",
		"longitude": "98-36-27.04 W",
		"state": "TEXAS",
		"artcc": "ZHU",
		"type": "RNAV",
		"updated": "09/29/2014"
	},
	{
		"name": "HURUB",
		"latitude": "30-8-9.06 N",
		"longitude": "93-15-33.12 W",
		"state": "LOUISIANA",
		"artcc": "ZHU",
		"type": "RP",
		"updated": "LCH*VORTAC*260.61/8.00"
	},
	{
		"name": "HURUT",
		"latitude": "31-7-37.83 N",
		"longitude": "89-46-5.03 W",
		"state": "MISSISSIPPI",
		"artcc": "ZHU",
		"type": "RNAV",
		"updated": "11/02/2017"
	},
	{
		"name": "HURWU",
		"latitude": "27-8-24.81 N",
		"longitude": "98-7-2.94 W",
		"state": "TEXAS",
		"artcc": "ZHU",
		"type": "CN",
		"updated": "02/06/2012"
	},
	{
		"name": "HUSAM",
		"latitude": "28-52-54.46 N",
		"longitude": "96-57-23.37 W",
		"state": "TEXAS",
		"artcc": "ZHU",
		"type": "RP",
		"updated": "VCT*LD*308.45/3.40"
	},
	{
		"name": "HUSPO",
		"latitude": "30-47-28.38 N",
		"longitude": "94-2-12.24 W",
		"state": "TEXAS",
		"artcc": "ZHU",
		"type": "RNAV",
		"updated": "07/07/2009"
	},
	{
		"name": "HUSUN",
		"latitude": "31-14-43.01 N",
		"longitude": "94-42-31.58 W",
		"state": "TEXAS",
		"artcc": "ZHU",
		"type": "RNAV",
		"updated": "10/27/2017"
	},
	{
		"name": "HUTAV",
		"latitude": "28-36-49.22 N",
		"longitude": "98-19-30.18 W",
		"state": "TEXAS",
		"artcc": "ZHU",
		"type": "RNAV",
		"updated": "08/12/2011"
	},
	{
		"name": "HUTES",
		"latitude": "26-16-15.42 N",
		"longitude": "97-42-17.83 W",
		"state": "TEXAS",
		"artcc": "ZHU",
		"type": "RNAV",
		"updated": "08/09/2012"
	},
	{
		"name": "HUTIP",
		"latitude": "30-41-21.21 N",
		"longitude": "88-8-12.94 W",
		"state": "ALABAMA",
		"artcc": "ZHU",
		"type": "RNAV",
		"updated": "09/17/2014"
	},
	{
		"name": "HUTIT",
		"latitude": "30-39-18.78 N",
		"longitude": "88-6-22.8 W",
		"state": "ALABAMA",
		"artcc": "ZHU",
		"type": "RNAV",
		"updated": "02/03/2011"
	},
	{
		"name": "HUVDA",
		"latitude": "28-4-45.69 N",
		"longitude": "98-55-46.86 W",
		"state": "TEXAS",
		"artcc": "ZHU",
		"type": "RNAV",
		"updated": "04/10/2012"
	},
	{
		"name": "HUWLA",
		"latitude": "27-25-15.11 N",
		"longitude": "99-14-12.01 W",
		"state": "TEXAS",
		"artcc": "ZHU",
		"type": "RNAV",
		"updated": "06/23/2013"
	},
	{
		"name": "HUXFY",
		"latitude": "29-38-56.36 N",
		"longitude": "94-59-48.2 W",
		"state": "TEXAS",
		"artcc": "ZHU",
		"type": "CN",
		"updated": "02/06/2012"
	},
	{
		"name": "HUXIN",
		"latitude": "27-51-35.68 N",
		"longitude": "97-24-27.25 W",
		"state": "TEXAS",
		"artcc": "ZHU",
		"type": "MR",
		"updated": "NGP*VORTAC*324.00/12.00"
	},
	{
		"name": "HWKII",
		"latitude": "30-10-49.64 N",
		"longitude": "95-39-48.24 W",
		"state": "TEXAS",
		"artcc": "ZHU",
		"type": "RNAV",
		"updated": "03/11/2014"
	},
	{
		"name": "HYDEE",
		"latitude": "29-40-22.08 N",
		"longitude": "94-59-25.31 W",
		"state": "TEXAS",
		"artcc": "ZHU",
		"type": "RP",
		"updated": "HUB*VOR/DME*081.00/15.00"
	},
	{
		"name": "HYDRL",
		"latitude": "29-3-12.94 N",
		"longitude": "96-24-11.27 W",
		"state": "TEXAS",
		"artcc": "ZHU",
		"type": "RP",
		"updated": "PSX*VORTAC*335.59/18.04"
	},
	{
		"name": "HYNES",
		"latitude": "28-23-8.6 N",
		"longitude": "96-48-39.91 W",
		"state": "TEXAS",
		"artcc": "ZHU",
		"type": "RP",
		"updated": "PSX*VORTAC*221.77/35.00"
	},
	{
		"name": "HYPPS",
		"latitude": "30-44-49.56 N",
		"longitude": "93-20-12.25 W",
		"state": "LOUISIANA",
		"artcc": "ZHU",
		"type": "RNAV",
		"updated": "03/19/2009"
	},
	{
		"name": "HYWAY",
		"latitude": "29-58-38.86 N",
		"longitude": "95-26-46.23 W",
		"state": "TEXAS",
		"artcc": "ZHU",
		"type": "RP",
		"updated": "HUB*VOR/DME*330.37"
	}
]
