[
	{
		"name": "JAAES",
		"latitude": "30-25-33.49 N",
		"longitude": "96-33-20.79 W",
		"state": "TEXAS",
		"artcc": "ZHU",
		"type": "RP",
		"updated": "TNV*VOR/DME*279.79/27.11"
	},
	{
		"name": "JAAYE",
		"latitude": "29-51-44 N",
		"longitude": "94-19-18 W",
		"state": "TEXAS",
		"artcc": "ZHU",
		"type": "RNAV",
		"updated": "01/19/2009"
	},
	{
		"name": "JABAK",
		"latitude": "30-36-50.34 N",
		"longitude": "88-10-49.34 W",
		"state": "ALABAMA",
		"artcc": "ZHU",
		"type": "RP",
		"updated": "BFM*VORTAC*266.70"
	},
	{
		"name": "JABBS",
		"latitude": "29-48-21.19 N",
		"longitude": "95-28-11.92 W",
		"state": "TEXAS",
		"artcc": "ZHU",
		"type": "RP",
		"updated": "IAH*VORTAC*210.67"
	},
	{
		"name": "JABLO",
		"latitude": "29-10-43.9 N",
		"longitude": "98-17-58 W",
		"state": "TEXAS",
		"artcc": "ZHU",
		"type": "RNAV",
		"updated": "12/26/2007"
	},
	{
		"name": "JABUX",
		"latitude": "29-13-35.15 N",
		"longitude": "89-21-50.37 W",
		"state": "LOUISIANA",
		"artcc": "ZHU",
		"type": "RNAV",
		"updated": "04/26/2018"
	},
	{
		"name": "JACEN",
		"latitude": "30-0-25.24 N",
		"longitude": "95-28-13.04 W",
		"state": "TEXAS",
		"artcc": "ZHU",
		"type": "RP",
		"updated": "BZU*LD*266.94/5.63"
	},
	{
		"name": "JACHR",
		"latitude": "30-44-13.09 N",
		"longitude": "100-33-21.91 W",
		"state": "TEXAS",
		"artcc": "ZHU",
		"type": "RNAV",
		"updated": "10/07/2014"
	},
	{
		"name": "JADUL",
		"latitude": "29-32-11.59 N",
		"longitude": "90-15-35.98 W",
		"state": "LOUISIANA",
		"artcc": "ZHU",
		"type": "RNAV",
		"updated": "09/30/2014"
	},
	{
		"name": "JADUS",
		"latitude": "27-51-53.13 N",
		"longitude": "98-38-19.1 W",
		"state": "TEXAS",
		"artcc": "ZHU",
		"type": "RNAV",
		"updated": "04/10/2012"
	},
	{
		"name": "JAFEE",
		"latitude": "30-36-59.79 N",
		"longitude": "98-21-24.36 W",
		"state": "TEXAS",
		"artcc": "ZHU",
		"type": "RNAV",
		"updated": "01/29/2009"
	},
	{
		"name": "JAGRU",
		"latitude": "27-54-31.46 N",
		"longitude": "97-39-27.48 W",
		"state": "TEXAS",
		"artcc": "ZHU",
		"type": "RP",
		"updated": "CRP*VORTAC*262.56"
	},
	{
		"name": "JAGTO",
		"latitude": "27-51-40.48 N",
		"longitude": "97-24-53.95 W",
		"state": "TEXAS",
		"artcc": "ZHU",
		"type": "MR",
		"updated": "CRP*VORTAC*139.00/3.00"
	},
	{
		"name": "JAINN",
		"latitude": "29-56-19.06 N",
		"longitude": "89-50-25.1 W",
		"state": "LOUISIANA",
		"artcc": "ZHU",
		"type": "MR",
		"updated": "HRV*VORTAC*056.00/10.00"
	},
	{
		"name": "JAKPO",
		"latitude": "30-4-24.52 N",
		"longitude": "95-24-50 W",
		"state": "TEXAS",
		"artcc": "ZHU",
		"type": "RP",
		"updated": "IAH*VORTAC*/7.83"
	},
	{
		"name": "JAKRI",
		"latitude": "30-13-26.08 N",
		"longitude": "89-1-24.99 W",
		"state": "MISSISSIPPI",
		"artcc": "ZHU",
		"type": "MR",
		"updated": "BIX*TACAN*203.00/12.00"
	},
	{
		"name": "JAKRO",
		"latitude": "31-21-50.14 N",
		"longitude": "89-28-21.19 W",
		"state": "MISSISSIPPI",
		"artcc": "ZHU",
		"type": "RNAV",
		"updated": "11/02/2017"
	},
	{
		"name": "JAMER",
		"latitude": "29-38-45.18 N",
		"longitude": "98-20-32.87 W",
		"state": "TEXAS",
		"artcc": "ZHU",
		"type": "MR",
		"updated": "DHK*TACAN*324.10/7.60"
	},
	{
		"name": "JAMIT",
		"latitude": "29-27-7.22 N",
		"longitude": "100-53-0.31 W",
		"state": "TEXAS",
		"artcc": "ZHU",
		"type": "MR",
		"updated": "DLF*VORTAC*306.00/8.00"
	},
	{
		"name": "JAMOL",
		"latitude": "29-52-6.72 N",
		"longitude": "90-9-15.11 W",
		"state": "LOUISIANA",
		"artcc": "ZHU",
		"type": "RNAV",
		"updated": "03/20/2012"
	},
	{
		"name": "JAMPI",
		"latitude": "29-46-59.09 N",
		"longitude": "98-58-38.13 W",
		"state": "TEXAS",
		"artcc": "ZHU",
		"type": "RNAV",
		"updated": "09/22/2005"
	},
	{
		"name": "JAMWU",
		"latitude": "27-56-19.34 N",
		"longitude": "96-55-56.2 W",
		"state": "TEXAS",
		"artcc": "ZHU",
		"type": "RNAV",
		"updated": "03/28/2010"
	},
	{
		"name": "JANOS",
		"latitude": "29-28-29.5 N",
		"longitude": "98-37-31.55 W",
		"state": "TEXAS",
		"artcc": "ZHU",
		"type": "MR",
		"updated": "KSY*TACAN*331.00/5.50"
	},
	{
		"name": "JANOT",
		"latitude": "29-31-12.68 N",
		"longitude": "95-41-48.45 W",
		"state": "TEXAS",
		"artcc": "ZHU",
		"type": "RNAV",
		"updated": "08/29/2001"
	},
	{
		"name": "JAPVO",
		"latitude": "27-51-30.03 N",
		"longitude": "97-9-45.26 W",
		"state": "TEXAS",
		"artcc": "ZHU",
		"type": "RNAV",
		"updated": "04/05/2006"
	},
	{
		"name": "JARVI",
		"latitude": "26-13-11.84 N",
		"longitude": "97-38-47.2 W",
		"state": "TEXAS",
		"artcc": "ZHU",
		"type": "RP",
		"updated": "HRL*VOR/DME*145.48/0.64"
	},
	{
		"name": "JASAS",
		"latitude": "30-54-16.54 N",
		"longitude": "91-21-55 W",
		"state": "LOUISIANA",
		"artcc": "ZHU",
		"type": "RNAV",
		"updated": "04/01/2008"
	},
	{
		"name": "JASMO",
		"latitude": "30-43-41.88 N",
		"longitude": "97-47-36.87 W",
		"state": "TEXAS",
		"artcc": "ZHU",
		"type": "RP",
		"updated": "CWK*VORTAC*320.94/25.00"
	},
	{
		"name": "JASPO",
		"latitude": "30-6-5.98 N",
		"longitude": "90-12-50.77 W",
		"state": "LOUISIANA",
		"artcc": "ZHU",
		"type": "RP",
		"updated": "HRV*VORTAC*321.89"
	},
	{
		"name": "JATAN",
		"latitude": "29-47-0.87 N",
		"longitude": "100-15-28.43 W",
		"state": "TEXAS",
		"artcc": "ZHU",
		"type": "MR",
		"updated": "RSG*VORTAC*161.00/14.00"
	},
	{
		"name": "JATAX",
		"latitude": "29-44-21.84 N",
		"longitude": "98-35-42.79 W",
		"state": "TEXAS",
		"artcc": "ZHU",
		"type": "RNAV",
		"updated": "06/02/2016"
	},
	{
		"name": "JATIM",
		"latitude": "27-49-19.02 N",
		"longitude": "97-56-43.75 W",
		"state": "TEXAS",
		"artcc": "ZHU",
		"type": "RNAV",
		"updated": "06/28/2016"
	},
	{
		"name": "JATOV",
		"latitude": "31-30-51.23 N",
		"longitude": "93-22-38.78 W",
		"state": "LOUISIANA",
		"artcc": "ZHU",
		"type": "RNAV",
		"updated": "08/07/2009"
	},
	{
		"name": "JAVIG",
		"latitude": "29-54-37.45 N",
		"longitude": "95-3-40.36 W",
		"state": "TEXAS",
		"artcc": "ZHU",
		"type": "RNAV",
		"updated": "06/01/2010"
	},
	{
		"name": "JAXAP",
		"latitude": "29-42-32.17 N",
		"longitude": "98-23-8.7 W",
		"state": "TEXAS",
		"artcc": "ZHU",
		"type": "MR",
		"updated": "SAT*VORTAC*037.45/5.54"
	},
	{
		"name": "JAYJO",
		"latitude": "30-20-13.74 N",
		"longitude": "96-48-54.05 W",
		"state": "TEXAS",
		"artcc": "ZHU",
		"type": "RP",
		"updated": "IDU*VORTAC*322.10/26.33"
	},
	{
		"name": "JAYLO",
		"latitude": "29-53-7.08 N",
		"longitude": "95-25-49.48 W",
		"state": "TEXAS",
		"artcc": "ZHU",
		"type": "RNAV",
		"updated": "03/26/2014"
	},
	{
		"name": "JAYNO",
		"latitude": "28-24-6.33 N",
		"longitude": "97-34-43.01 W",
		"state": "TEXAS",
		"artcc": "ZHU",
		"type": "MW",
		"updated": "12/27/2017"
	},
	{
		"name": "JBULL",
		"latitude": "31-18-54.97 N",
		"longitude": "91-18-52.31 W",
		"state": "MISSISSIPPI",
		"artcc": "ZHU",
		"type": "RNAV",
		"updated": "04/07/2014"
	},
	{
		"name": "JCNTO",
		"latitude": "29-42-48.36 N",
		"longitude": "95-2-15.45 W",
		"state": "TEXAS",
		"artcc": "ZHU",
		"type": "RNAV",
		"updated": "04/03/2014"
	},
	{
		"name": "JEBNA",
		"latitude": "27-26-58.51 N",
		"longitude": "97-48-48.32 W",
		"state": "TEXAS",
		"artcc": "ZHU",
		"type": "MR",
		"updated": "NQI*TACAN*184.00/3.00"
	},
	{
		"name": "JEBOX",
		"latitude": "29-44-25.3 N",
		"longitude": "95-5-50.35 W",
		"state": "TEXAS",
		"artcc": "ZHU",
		"type": "RP",
		"updated": "IAH*VORTAC*129.94/18.33"
	},
	{
		"name": "JEBTA",
		"latitude": "31-8-40.62 N",
		"longitude": "92-14-4.36 W",
		"state": "LOUISIANA",
		"artcc": "ZHU",
		"type": "RNAV",
		"updated": "02/20/2009"
	},
	{
		"name": "JEDAN",
		"latitude": "30-9-9.41 N",
		"longitude": "93-29-23.33 W",
		"state": "LOUISIANA",
		"artcc": "ZHU",
		"type": "RP",
		"updated": "LCH*VORTAC*265.00/20.00"
	},
	{
		"name": "JEDOL",
		"latitude": "29-29-11.9 N",
		"longitude": "98-54-28.96 W",
		"state": "TEXAS",
		"artcc": "ZHU",
		"type": "RNAV",
		"updated": "08/30/2015"
	},
	{
		"name": "JEDYE",
		"latitude": "30-22-57.52 N",
		"longitude": "97-38-24.19 W",
		"state": "TEXAS",
		"artcc": "ZHU",
		"type": "RNAV",
		"updated": "10/27/2017"
	},
	{
		"name": "JEDZE",
		"latitude": "31-15-31.85 N",
		"longitude": "94-38-55.16 W",
		"state": "TEXAS",
		"artcc": "ZHU",
		"type": "RNAV",
		"updated": "10/27/2017"
	},
	{
		"name": "JEFSW",
		"latitude": "30-29-15.83 N",
		"longitude": "100-23-27.06 W",
		"state": "TEXAS",
		"artcc": "ZHU",
		"type": "RNAV",
		"updated": "10/07/2014"
	},
	{
		"name": "JEGBO",
		"latitude": "29-28-14.37 N",
		"longitude": "98-31-17.7 W",
		"state": "TEXAS",
		"artcc": "ZHU",
		"type": "RNAV",
		"updated": "03/16/2011"
	},
	{
		"name": "JEGEM",
		"latitude": "30-29-52.75 N",
		"longitude": "90-23-23.9 W",
		"state": "LOUISIANA",
		"artcc": "ZHU",
		"type": "RNAV",
		"updated": "05/14/2010"
	},
	{
		"name": "JEGIL",
		"latitude": "30-39-3.02 N",
		"longitude": "92-28-38.6 W",
		"state": "LOUISIANA",
		"artcc": "ZHU",
		"type": "RNAV",
		"updated": "09/03/2003"
	},
	{
		"name": "JEGUM",
		"latitude": "29-46-57 N",
		"longitude": "98-42-6.05 W",
		"state": "TEXAS",
		"artcc": "ZHU",
		"type": "RNAV",
		"updated": "12/08/2006"
	},
	{
		"name": "JEKAB",
		"latitude": "31-0-20.04 N",
		"longitude": "101-25-49.02 W",
		"state": "TEXAS",
		"artcc": "ZHU",
		"type": "RNAV",
		"updated": "09/21/2006"
	},
	{
		"name": "JEKIN",
		"latitude": "29-47-55.99 N",
		"longitude": "95-43-17.24 W",
		"state": "TEXAS",
		"artcc": "ZHU",
		"type": "RNAV",
		"updated": "01/24/2018"
	},
	{
		"name": "JEKSU",
		"latitude": "29-46-7.82 N",
		"longitude": "95-6-4.57 W",
		"state": "TEXAS",
		"artcc": "ZHU",
		"type": "RNAV",
		"updated": "09/06/2017"
	},
	{
		"name": "JELBA",
		"latitude": "30-24-32.96 N",
		"longitude": "96-36-10.01 W",
		"state": "TEXAS",
		"artcc": "ZHU",
		"type": "RNAV",
		"updated": "06/04/2012"
	},
	{
		"name": "JELBI",
		"latitude": "31-8-24.24 N",
		"longitude": "92-23-48.98 W",
		"state": "LOUISIANA",
		"artcc": "ZHU",
		"type": "RP",
		"updated": "AEX*VORTAC*139.50/8.80"
	},
	{
		"name": "JELES",
		"latitude": "27-39-10.4 N",
		"longitude": "97-58-40.75 W",
		"state": "TEXAS",
		"artcc": "ZHU",
		"type": "MR",
		"updated": "NQI*TACAN*311.05/13.00"
	},
	{
		"name": "JELLI",
		"latitude": "29-59-33.75 N",
		"longitude": "95-41-0.03 W",
		"state": "TEXAS",
		"artcc": "ZHU",
		"type": "RP",
		"updated": "HUB*VOR/DME*308.65"
	},
	{
		"name": "JELON",
		"latitude": "29-24-7.54 N",
		"longitude": "90-15-41.68 W",
		"state": "LOUISIANA",
		"artcc": "ZHU",
		"type": "RP",
		"updated": "GAO*LD*178.59/3.02"
	},
	{
		"name": "JELRA",
		"latitude": "29-52-30.98 N",
		"longitude": "95-40-50.82 W",
		"state": "TEXAS",
		"artcc": "ZHU",
		"type": "RNAV",
		"updated": "05/08/2018"
	},
	{
		"name": "JEMON",
		"latitude": "30-37-45.92 N",
		"longitude": "96-22-13.13 W",
		"state": "TEXAS",
		"artcc": "ZHU",
		"type": "RNAV",
		"updated": "06/21/2011"
	},
	{
		"name": "JEMPA",
		"latitude": "30-36-33.07 N",
		"longitude": "89-39-19.13 W",
		"state": "MISSISSIPPI",
		"artcc": "ZHU",
		"type": "RNAV",
		"updated": "11/02/2017"
	},
	{
		"name": "JENDE",
		"latitude": "29-33-10.68 N",
		"longitude": "99-10-19.67 W",
		"state": "TEXAS",
		"artcc": "ZHU",
		"type": "RNAV",
		"updated": "12/06/2010"
	},
	{
		"name": "JENEV",
		"latitude": "30-59-4.5 N",
		"longitude": "99-19-30.66 W",
		"state": "TEXAS",
		"artcc": "ZHU",
		"type": "RNAV",
		"updated": "12/28/2007"
	},
	{
		"name": "JENOB",
		"latitude": "28-6-41.49 N",
		"longitude": "97-37-55.66 W",
		"state": "TEXAS",
		"artcc": "ZHU",
		"type": "RNAV",
		"updated": "07/12/2016"
	},
	{
		"name": "JEPEG",
		"latitude": "29-27-23.91 N",
		"longitude": "92-27-28.1 W",
		"state": "LOUISIANA",
		"artcc": "ZHU",
		"type": "RP",
		"updated": "HRV*VORTAC*258.21/130.48"
	},
	{
		"name": "JEPGA",
		"latitude": "29-32-58.22 N",
		"longitude": "98-16-49.46 W",
		"state": "TEXAS",
		"artcc": "ZHU",
		"type": "MR",
		"updated": "DHK*TACAN*313.76/1.00"
	},
	{
		"name": "JEPNI",
		"latitude": "29-59-36.45 N",
		"longitude": "95-12-49.21 W",
		"state": "TEXAS",
		"artcc": "ZHU",
		"type": "RP",
		"updated": "HUB*VOR/DME*004.21"
	},
	{
		"name": "JEPOS",
		"latitude": "27-39-56.87 N",
		"longitude": "97-17-18.47 W",
		"state": "TEXAS",
		"artcc": "ZHU",
		"type": "MW",
		"updated": "07/09/2015"
	},
	{
		"name": "JERAN",
		"latitude": "29-46-10.86 N",
		"longitude": "90-5-50.65 W",
		"state": "LOUISIANA",
		"artcc": "ZHU",
		"type": "RNAV",
		"updated": "02/10/2016"
	},
	{
		"name": "JERBA",
		"latitude": "30-22-22 N",
		"longitude": "96-18-43.6 W",
		"state": "TEXAS",
		"artcc": "ZHU",
		"type": "RP",
		"updated": "CLL*LD*165.88/13.86"
	},
	{
		"name": "JEREM",
		"latitude": "29-13-27.95 N",
		"longitude": "94-49-21.38 W",
		"state": "TEXAS",
		"artcc": "ZHU",
		"type": "RNAV",
		"updated": "11/16/2012"
	},
	{
		"name": "JERIL",
		"latitude": "30-1-31.07 N",
		"longitude": "93-10-18.23 W",
		"state": "LOUISIANA",
		"artcc": "ZHU",
		"type": "RNAV",
		"updated": "05/30/2012"
	},
	{
		"name": "JERIR",
		"latitude": "27-37-24.18 N",
		"longitude": "97-40-48.17 W",
		"state": "TEXAS",
		"artcc": "ZHU",
		"type": "MR",
		"updated": "NQI*TACAN*038.00/10.00"
	},
	{
		"name": "JERNY",
		"latitude": "30-41-36.21 N",
		"longitude": "93-45-49.24 W",
		"state": "TEXAS",
		"artcc": "ZHU",
		"type": "RNAV",
		"updated": "03/11/2014"
	},
	{
		"name": "JERUL",
		"latitude": "29-33-24.11 N",
		"longitude": "101-6-3.47 W",
		"state": "TEXAS",
		"artcc": "ZHU",
		"type": "RNAV",
		"updated": "03/04/2010"
	},
	{
		"name": "JERYS",
		"latitude": "30-18-29.08 N",
		"longitude": "88-5-0.55 W",
		"state": "ALABAMA",
		"artcc": "ZHU",
		"type": "RP",
		"updated": "SJI*VORTAC*145.19/28.81"
	},
	{
		"name": "JESRO",
		"latitude": "30-34-3.12 N",
		"longitude": "97-56-24.99 W",
		"state": "TEXAS",
		"artcc": "ZHU",
		"type": "RNAV",
		"updated": "11/29/2012"
	},
	{
		"name": "JETKA",
		"latitude": "29-21-38.66 N",
		"longitude": "98-34-20.94 W",
		"state": "TEXAS",
		"artcc": "ZHU",
		"type": "MR",
		"updated": "KSY*TACAN*162.33/1.90"
	},
	{
		"name": "JETTY",
		"latitude": "27-29-47.92 N",
		"longitude": "97-33-2.19 W",
		"state": "TEXAS",
		"artcc": "ZHU",
		"type": "RP",
		"updated": "ALI*VOR*114.00"
	},
	{
		"name": "JEVDO",
		"latitude": "27-35-27.91 N",
		"longitude": "97-22-15.98 W",
		"state": "TEXAS",
		"artcc": "ZHU",
		"type": "MR",
		"updated": "NGP*VORTAC*209.56/7.00"
	},
	{
		"name": "JEVIB",
		"latitude": "30-15-38.21 N",
		"longitude": "95-26-59.05 W",
		"state": "TEXAS",
		"artcc": "ZHU",
		"type": "RNAV",
		"updated": "08/12/2010"
	},
	{
		"name": "JEVOB",
		"latitude": "31-23-49.56 N",
		"longitude": "92-31-37.18 W",
		"state": "LOUISIANA",
		"artcc": "ZHU",
		"type": "RNAV",
		"updated": "10/22/2012"
	},
	{
		"name": "JEVOV",
		"latitude": "30-13-4.64 N",
		"longitude": "91-45-1.4 W",
		"state": "LOUISIANA",
		"artcc": "ZHU",
		"type": "RNAV",
		"updated": "01/19/2007"
	},
	{
		"name": "JEVRU",
		"latitude": "31-14-17.37 N",
		"longitude": "92-33-44.83 W",
		"state": "LOUISIANA",
		"artcc": "ZHU",
		"type": "RNAV",
		"updated": "06/22/2007"
	},
	{
		"name": "JIBAJ",
		"latitude": "30-59-8.59 N",
		"longitude": "98-9-20.56 W",
		"state": "TEXAS",
		"artcc": "ZHU",
		"type": "RNAV",
		"updated": "09/30/2009"
	},
	{
		"name": "JIBGA",
		"latitude": "29-13-19.2 N",
		"longitude": "96-8-1.86 W",
		"state": "TEXAS",
		"artcc": "ZHU",
		"type": "RNAV",
		"updated": "07/12/2009"
	},
	{
		"name": "JIBIK",
		"latitude": "31-14-46.68 N",
		"longitude": "87-50-16.44 W",
		"state": "ALABAMA",
		"artcc": "ZHU",
		"type": "RNAV",
		"updated": "04/17/2010"
	},
	{
		"name": "JIDKI",
		"latitude": "30-25-40.57 N",
		"longitude": "97-36-18.99 W",
		"state": "TEXAS",
		"artcc": "ZHU",
		"type": "RNAV",
		"updated": "07/15/2010"
	},
	{
		"name": "JIDUK",
		"latitude": "29-51-40.8 N",
		"longitude": "95-37-13.88 W",
		"state": "TEXAS",
		"artcc": "ZHU",
		"type": "RNAV",
		"updated": "04/02/2007"
	},
	{
		"name": "JIGGL",
		"latitude": "27-43-46.92 N",
		"longitude": "97-38-7.86 W",
		"state": "TEXAS",
		"artcc": "ZHU",
		"type": "RNAV",
		"updated": "05/03/2017"
	},
	{
		"name": "JIHRU",
		"latitude": "29-42-36.83 N",
		"longitude": "96-52-42.45 W",
		"state": "TEXAS",
		"artcc": "ZHU",
		"type": "RNAV",
		"updated": "03/24/2008"
	},
	{
		"name": "JIKEG",
		"latitude": "27-27-35.23 N",
		"longitude": "98-37-23.75 W",
		"state": "TEXAS",
		"artcc": "ZHU",
		"type": "RNAV",
		"updated": "09/24/2014"
	},
	{
		"name": "JIKLO",
		"latitude": "30-50-51.78 N",
		"longitude": "92-41-15.31 W",
		"state": "LOUISIANA",
		"artcc": "ZHU",
		"type": "RNAV",
		"updated": "06/23/2009"
	},
	{
		"name": "JILAX",
		"latitude": "31-3-18.54 N",
		"longitude": "94-39-46.1 W",
		"state": "TEXAS",
		"artcc": "ZHU",
		"type": "RP",
		"updated": "LFK*VORTAC*151.56/7.00"
	},
	{
		"name": "JILEV",
		"latitude": "30-17-25.89 N",
		"longitude": "91-54-22.26 W",
		"state": "LOUISIANA",
		"artcc": "ZHU",
		"type": "RNAV",
		"updated": "03/22/2013"
	},
	{
		"name": "JILIL",
		"latitude": "29-28-40.01 N",
		"longitude": "98-24-7.11 W",
		"state": "TEXAS",
		"artcc": "ZHU",
		"type": "RNAV",
		"updated": "03/16/2011"
	},
	{
		"name": "JILUX",
		"latitude": "27-34-30.08 N",
		"longitude": "97-30-38.76 W",
		"state": "TEXAS",
		"artcc": "ZHU",
		"type": "RNAV",
		"updated": "06/28/2016"
	},
	{
		"name": "JIMIE",
		"latitude": "26-44-49.66 N",
		"longitude": "97-44-34.89 W",
		"state": "TEXAS",
		"artcc": "ZHU",
		"type": "RP",
		"updated": "HRL*VOR/DME*346.06/31.37"
	},
	{
		"name": "JIMUX",
		"latitude": "28-42-46.24 N",
		"longitude": "98-24-19.36 W",
		"state": "TEXAS",
		"artcc": "ZHU",
		"type": "RNAV",
		"updated": "08/12/2011"
	},
	{
		"name": "JINAB",
		"latitude": "26-0-38.09 N",
		"longitude": "97-25-29.57 W",
		"state": "TEXAS",
		"artcc": "ZHU",
		"type": "RNAV",
		"updated": "08/10/2016"
	},
	{
		"name": "JINGA",
		"latitude": "29-59-27.69 N",
		"longitude": "96-20-3.64 W",
		"state": "TEXAS",
		"artcc": "ZHU",
		"type": "RNAV",
		"updated": "06/04/2012"
	},
	{
		"name": "JINIP",
		"latitude": "29-54-34.75 N",
		"longitude": "95-18-48.98 W",
		"state": "TEXAS",
		"artcc": "ZHU",
		"type": "RNAV",
		"updated": "03/13/2014"
	},
	{
		"name": "JINNI",
		"latitude": "29-41-15.61 N",
		"longitude": "95-10-46.36 W",
		"state": "TEXAS",
		"artcc": "ZHU",
		"type": "MR",
		"updated": "EFD*TACAN*343.00/5.00"
	},
	{
		"name": "JINOV",
		"latitude": "28-47-38.34 N",
		"longitude": "100-26-30.52 W",
		"state": "TEXAS",
		"artcc": "ZHU",
		"type": "RNAV",
		"updated": "07/28/2008"
	},
	{
		"name": "JINOX",
		"latitude": "31-11-29.56 N",
		"longitude": "89-40-43.44 W",
		"state": "MISSISSIPPI",
		"artcc": "ZHU",
		"type": "RNAV",
		"updated": "11/02/2017"
	},
	{
		"name": "JINSA",
		"latitude": "27-38-51.74 N",
		"longitude": "99-27-28.23 W",
		"state": "TEXAS",
		"artcc": "ZHU",
		"type": "RP",
		"updated": "LRD*LD*357.56/7.00"
	},
	{
		"name": "JIRAD",
		"latitude": "29-23-51.22 N",
		"longitude": "98-27-5.87 W",
		"state": "TEXAS",
		"artcc": "ZHU",
		"type": "RNAV",
		"updated": "10/28/2008"
	},
	{
		"name": "JIREK",
		"latitude": "29-23-40.01 N",
		"longitude": "98-31-17.03 W",
		"state": "TEXAS",
		"artcc": "ZHU",
		"type": "RNAV",
		"updated": "03/16/2011"
	},
	{
		"name": "JISDA",
		"latitude": "29-34-12.44 N",
		"longitude": "98-20-51.49 W",
		"state": "TEXAS",
		"artcc": "ZHU",
		"type": "RNAV",
		"updated": "03/20/2011"
	},
	{
		"name": "JISGO",
		"latitude": "29-58-12.66 N",
		"longitude": "97-57-37.95 W",
		"state": "TEXAS",
		"artcc": "ZHU",
		"type": "RNAV",
		"updated": "01/18/2013"
	},
	{
		"name": "JISPA",
		"latitude": "29-43-42.07 N",
		"longitude": "91-18-22.08 W",
		"state": "LOUISIANA",
		"artcc": "ZHU",
		"type": "RP",
		"updated": "PTN*LD*058.11/2.57"
	},
	{
		"name": "JISPU",
		"latitude": "30-51-7.01 N",
		"longitude": "96-13-19.47 W",
		"state": "TEXAS",
		"artcc": "ZHU",
		"type": "RP",
		"updated": "CLL*VORTAC*026.74/18.00"
	},
	{
		"name": "JISUT",
		"latitude": "28-54-55.83 N",
		"longitude": "97-53-5.96 W",
		"state": "TEXAS",
		"artcc": "ZHU",
		"type": "RNAV",
		"updated": "10/13/2011"
	},
	{
		"name": "JITRO",
		"latitude": "27-50-51.72 N",
		"longitude": "97-14-45.89 W",
		"state": "TEXAS",
		"artcc": "ZHU",
		"type": "MR",
		"updated": "NGP*VORTAC*009.00/10.00"
	},
	{
		"name": "JIVEP",
		"latitude": "29-3-49.73 N",
		"longitude": "98-55-55.39 W",
		"state": "TEXAS",
		"artcc": "ZHU",
		"type": "RNAV",
		"updated": "04/20/2009"
	},
	{
		"name": "JIVIX",
		"latitude": "29-30-49.5 N",
		"longitude": "95-35-44.18 W",
		"state": "TEXAS",
		"artcc": "ZHU",
		"type": "RNAV",
		"updated": "04/02/2007"
	},
	{
		"name": "JIVTU",
		"latitude": "31-6-56.22 N",
		"longitude": "97-23-52.76 W",
		"state": "TEXAS",
		"artcc": "ZHU",
		"type": "RP",
		"updated": "TPL*VOR/DME*157.09/5.78"
	},
	{
		"name": "JIXET",
		"latitude": "30-19-0.74 N",
		"longitude": "96-6-37.29 W",
		"state": "TEXAS",
		"artcc": "ZHU",
		"type": "RNAV",
		"updated": "01/20/2013"
	},
	{
		"name": "JJACK",
		"latitude": "30-30-32.46 N",
		"longitude": "96-16-7.1 W",
		"state": "TEXAS",
		"artcc": "ZHU",
		"type": "RNAV",
		"updated": "03/11/2014"
	},
	{
		"name": "JLBAR",
		"latitude": "30-38-53.59 N",
		"longitude": "100-29-49.66 W",
		"state": "TEXAS",
		"artcc": "ZHU",
		"type": "RNAV",
		"updated": "10/07/2014"
	},
	{
		"name": "JMIKE",
		"latitude": "30-47-0 N",
		"longitude": "93-48-56.45 W",
		"state": "TEXAS",
		"artcc": "ZHU",
		"type": "RNAV",
		"updated": "03/25/2014"
	},
	{
		"name": "JNSON",
		"latitude": "31-10-6 N",
		"longitude": "98-1-20 W",
		"state": "TEXAS",
		"artcc": "ZHU",
		"type": "RNAV",
		"updated": "11/03/2014"
	},
	{
		"name": "JOBIX",
		"latitude": "27-26-5.91 N",
		"longitude": "99-28-6.56 W",
		"state": "TEXAS",
		"artcc": "ZHU",
		"type": "RNAV",
		"updated": "12/22/2017"
	},
	{
		"name": "JOBMO",
		"latitude": "30-10-0.16 N",
		"longitude": "94-5-32.45 W",
		"state": "TEXAS",
		"artcc": "ZHU",
		"type": "RNAV",
		"updated": "06/14/2012"
	},
	{
		"name": "JOBUP",
		"latitude": "29-37-24.04 N",
		"longitude": "90-45-5.09 W",
		"state": "LOUISIANA",
		"artcc": "ZHU",
		"type": "RNAV",
		"updated": "05/04/2009"
	},
	{
		"name": "JOCIE",
		"latitude": "30-10-49.69 N",
		"longitude": "90-11-20.23 W",
		"state": "LOUISIANA",
		"artcc": "ZHU",
		"type": "RP",
		"updated": "RQR*VOR/DME*072.92"
	},
	{
		"name": "JODEB",
		"latitude": "30-54-59.63 N",
		"longitude": "98-3-42.5 W",
		"state": "TEXAS",
		"artcc": "ZHU",
		"type": "RNAV",
		"updated": "10/20/2009"
	},
	{
		"name": "JODOT",
		"latitude": "30-2-24.71 N",
		"longitude": "100-21-54.9 W",
		"state": "TEXAS",
		"artcc": "ZHU",
		"type": "RNAV",
		"updated": "05/12/2003"
	},
	{
		"name": "JODUK",
		"latitude": "28-41-12.53 N",
		"longitude": "96-42-28.42 W",
		"state": "TEXAS",
		"artcc": "ZHU",
		"type": "RNAV",
		"updated": "10/22/2014"
	},
	{
		"name": "JOGAT",
		"latitude": "27-41-26.47 N",
		"longitude": "97-25-8.99 W",
		"state": "TEXAS",
		"artcc": "ZHU",
		"type": "RNAV",
		"updated": "08/18/2010"
	},
	{
		"name": "JOHON",
		"latitude": "31-16-32.64 N",
		"longitude": "91-48-17.87 W",
		"state": "LOUISIANA",
		"artcc": "ZHU",
		"type": "RP",
		"updated": "LSU*VORTAC*325.00"
	},
	{
		"name": "JOKBA",
		"latitude": "29-29-8.37 N",
		"longitude": "98-23-9.67 W",
		"state": "TEXAS",
		"artcc": "ZHU",
		"type": "RNAV",
		"updated": "03/16/2011"
	},
	{
		"name": "JOLOP",
		"latitude": "30-19-21.99 N",
		"longitude": "98-17-28.71 W",
		"state": "TEXAS",
		"artcc": "ZHU",
		"type": "RNAV",
		"updated": "12/23/2014"
	},
	{
		"name": "JOLTE",
		"latitude": "29-53-27.26 N",
		"longitude": "95-17-54.89 W",
		"state": "TEXAS",
		"artcc": "ZHU",
		"type": "RP",
		"updated": "IAH*VORTAC*/4.65"
	},
	{
		"name": "JOMBU",
		"latitude": "30-21-50.68 N",
		"longitude": "96-54-20.71 W",
		"state": "TEXAS",
		"artcc": "ZHU",
		"type": "RNAV",
		"updated": "06/11/2010"
	},
	{
		"name": "JOMIK",
		"latitude": "28-22-20.95 N",
		"longitude": "100-8-35.48 W",
		"state": "TEXAS",
		"artcc": "ZHU",
		"type": "RNAV",
		"updated": "05/09/2011"
	},
	{
		"name": "JONBY",
		"latitude": "26-15-25.65 N",
		"longitude": "97-20-35.57 W",
		"state": "TEXAS",
		"artcc": "ZHU",
		"type": "RP",
		"updated": "BRO*VORTAC*355.96/20.00"
	},
	{
		"name": "JONSR",
		"latitude": "28-48-43.43 N",
		"longitude": "97-46-40.79 W",
		"state": "TEXAS",
		"artcc": "ZHU",
		"type": "MW",
		"updated": "12/22/2017"
	},
	{
		"name": "JOPGU",
		"latitude": "28-44-1.01 N",
		"longitude": "97-50-45.59 W",
		"state": "TEXAS",
		"artcc": "ZHU",
		"type": "RNAV",
		"updated": "10/13/2011"
	},
	{
		"name": "JOPOP",
		"latitude": "27-46-51.15 N",
		"longitude": "97-20-43.51 W",
		"state": "TEXAS",
		"artcc": "ZHU",
		"type": "RNAV",
		"updated": "07/12/2016"
	},
	{
		"name": "JOPPA",
		"latitude": "28-27-0.8 N",
		"longitude": "99-18-25.77 W",
		"state": "TEXAS",
		"artcc": "ZHU",
		"type": "MR",
		"updated": "COT*VORTAC*257.00/10.00"
	},
	{
		"name": "JOREN",
		"latitude": "29-49-5.21 N",
		"longitude": "97-40-25.22 W",
		"state": "TEXAS",
		"artcc": "ZHU",
		"type": "RNAV",
		"updated": "06/22/2011"
	},
	{
		"name": "JORKI",
		"latitude": "29-5-19.15 N",
		"longitude": "98-28-22.03 W",
		"state": "TEXAS",
		"artcc": "ZHU",
		"type": "MR",
		"updated": "KSY*TACAN*158.57/19.00"
	},
	{
		"name": "JOROM",
		"latitude": "31-12-3.15 N",
		"longitude": "94-44-18.23 W",
		"state": "TEXAS",
		"artcc": "ZHU",
		"type": "RNAV",
		"updated": "10/26/2017"
	},
	{
		"name": "JORSI",
		"latitude": "30-45-29.3 N",
		"longitude": "96-40-35.71 W",
		"state": "TEXAS",
		"artcc": "ZHU",
		"type": "RNAV",
		"updated": "07/23/2012"
	},
	{
		"name": "JORUM",
		"latitude": "29-2-10.74 N",
		"longitude": "95-56-20.09 W",
		"state": "TEXAS",
		"artcc": "ZHU",
		"type": "RNAV",
		"updated": "12/01/2011"
	},
	{
		"name": "JOSEY",
		"latitude": "30-0-18.17 N",
		"longitude": "95-46-27.09 W",
		"state": "TEXAS",
		"artcc": "ZHU",
		"type": "RNAV",
		"updated": "07/18/2012"
	},
	{
		"name": "JOSIG",
		"latitude": "30-31-6.47 N",
		"longitude": "88-32-42.73 W",
		"state": "MISSISSIPPI",
		"artcc": "ZHU",
		"type": "RNAV",
		"updated": "07/18/2011"
	},
	{
		"name": "JOSUK",
		"latitude": "28-13-58.03 N",
		"longitude": "97-37-23.68 W",
		"state": "TEXAS",
		"artcc": "ZHU",
		"type": "RNAV",
		"updated": "05/09/2007"
	},
	{
		"name": "JOTAD",
		"latitude": "30-22-42.9 N",
		"longitude": "96-18-48.29 W",
		"state": "TEXAS",
		"artcc": "ZHU",
		"type": "RNAV",
		"updated": "06/21/2011"
	},
	{
		"name": "JOTAX",
		"latitude": "30-18-37.49 N",
		"longitude": "93-19-7.49 W",
		"state": "LOUISIANA",
		"artcc": "ZHU",
		"type": "RP",
		"updated": "LCH*VORTAC*305.43/15.00"
	},
	{
		"name": "JOTCO",
		"latitude": "31-1-11.97 N",
		"longitude": "97-42-34.51 W",
		"state": "TEXAS",
		"artcc": "ZHU",
		"type": "RNAV",
		"updated": "07/05/2016"
	},
	{
		"name": "JOTEN",
		"latitude": "30-38-43.96 N",
		"longitude": "88-12-23.95 W",
		"state": "ALABAMA",
		"artcc": "ZHU",
		"type": "RNAV",
		"updated": "06/20/2012"
	},
	{
		"name": "JOTIX",
		"latitude": "31-15-30.58 N",
		"longitude": "90-30-50.61 W",
		"state": "MISSISSIPPI",
		"artcc": "ZHU",
		"type": "RNAV",
		"updated": "06/27/2011"
	},
	{
		"name": "JOVAN",
		"latitude": "30-4-15.23 N",
		"longitude": "95-57-41.86 W",
		"state": "TEXAS",
		"artcc": "ZHU",
		"type": "RP",
		"updated": "TNV*VOR/DME*150.87/14.00"
	},
	{
		"name": "JOVPA",
		"latitude": "30-27-52.01 N",
		"longitude": "96-7-4.8 W",
		"state": "TEXAS",
		"artcc": "ZHU",
		"type": "RNAV",
		"updated": "01/20/2013"
	},
	{
		"name": "JOVSA",
		"latitude": "30-5-47.84 N",
		"longitude": "97-40-34.56 W",
		"state": "TEXAS",
		"artcc": "ZHU",
		"type": "RP",
		"updated": "BSM*LD*174.69/4.82"
	},
	{
		"name": "JOXAG",
		"latitude": "29-20-43.99 N",
		"longitude": "90-15-44.07 W",
		"state": "LOUISIANA",
		"artcc": "ZHU",
		"type": "RP",
		"updated": "LEV*VORTAC*318.87"
	},
	{
		"name": "JOXAP",
		"latitude": "27-31-19.95 N",
		"longitude": "97-48-38.19 W",
		"state": "TEXAS",
		"artcc": "ZHU",
		"type": "MR",
		"updated": "NQI*TACAN*345.00/1.40"
	},
	{
		"name": "JOYRY",
		"latitude": "27-36-35.79 N",
		"longitude": "98-5-11.64 W",
		"state": "TEXAS",
		"artcc": "ZHU",
		"type": "RNAV",
		"updated": "05/10/2010"
	},
	{
		"name": "JRDNN",
		"latitude": "30-20-8.79 N",
		"longitude": "98-21-46.77 W",
		"state": "TEXAS",
		"artcc": "ZHU",
		"type": "RNAV",
		"updated": "01/29/2009"
	},
	{
		"name": "JUBAK",
		"latitude": "27-2-5.91 N",
		"longitude": "97-10-2.54 W",
		"state": "TEXAS",
		"artcc": "ZHU",
		"type": "MR",
		"updated": "NQI*TACAN*125.00/44.00"
	},
	{
		"name": "JUBSU",
		"latitude": "27-28-24.28 N",
		"longitude": "99-11-22.38 W",
		"state": "TEXAS",
		"artcc": "ZHU",
		"type": "RNAV",
		"updated": "06/23/2013"
	},
	{
		"name": "JUDDY",
		"latitude": "30-31-27.05 N",
		"longitude": "96-8-47.88 W",
		"state": "TEXAS",
		"artcc": "ZHU",
		"type": "RP",
		"updated": "TNV*VOR/DME*334.01"
	},
	{
		"name": "JUGBO",
		"latitude": "30-46-9.94 N",
		"longitude": "92-5-53.59 W",
		"state": "LOUISIANA",
		"artcc": "ZHU",
		"type": "RNAV",
		"updated": "03/28/2012"
	},
	{
		"name": "JUGDA",
		"latitude": "29-24-7.3 N",
		"longitude": "95-25-30.6 W",
		"state": "TEXAS",
		"artcc": "ZHU",
		"type": "RNAV",
		"updated": "08/31/2007"
	},
	{
		"name": "JUGHD",
		"latitude": "29-18-8.41 N",
		"longitude": "100-23-46.56 W",
		"state": "TEXAS",
		"artcc": "ZHU",
		"type": "MR",
		"updated": "DLF*VORTAC*093.00/20.00"
	},
	{
		"name": "JUGTA",
		"latitude": "29-23-47.18 N",
		"longitude": "89-32-5.45 W",
		"state": "LOUISIANA",
		"artcc": "ZHU",
		"type": "RNAV",
		"updated": "01/31/2008"
	},
	{
		"name": "JULEK",
		"latitude": "29-36-51.19 N",
		"longitude": "95-28-37.75 W",
		"state": "TEXAS",
		"artcc": "ZHU",
		"type": "RNAV",
		"updated": "10/31/2017"
	},
	{
		"name": "JULIR",
		"latitude": "30-34-41.85 N",
		"longitude": "96-19-40.91 W",
		"state": "TEXAS",
		"artcc": "ZHU",
		"type": "RNAV",
		"updated": "06/21/2011"
	},
	{
		"name": "JULSU",
		"latitude": "29-21-41.73 N",
		"longitude": "98-9-24.27 W",
		"state": "TEXAS",
		"artcc": "ZHU",
		"type": "MR",
		"updated": "KSY*TACAN*089.51/22.31"
	},
	{
		"name": "JUMDI",
		"latitude": "29-44-41.78 N",
		"longitude": "98-38-0.28 W",
		"state": "TEXAS",
		"artcc": "ZHU",
		"type": "RNAV",
		"updated": "03/16/2011"
	},
	{
		"name": "JUMEV",
		"latitude": "29-56-2.62 N",
		"longitude": "95-32-20.37 W",
		"state": "TEXAS",
		"artcc": "ZHU",
		"type": "RNAV",
		"updated": "10/31/2017"
	},
	{
		"name": "JUNAB",
		"latitude": "29-30-59.36 N",
		"longitude": "98-15-17.41 W",
		"state": "TEXAS",
		"artcc": "ZHU",
		"type": "MR",
		"updated": "DHK*TACAN*145.98/1.40"
	},
	{
		"name": "JUPAG",
		"latitude": "29-33-47.22 N",
		"longitude": "98-30-42.43 W",
		"state": "TEXAS",
		"artcc": "ZHU",
		"type": "RP",
		"updated": "ANT*LD*307.60/3.40"
	},
	{
		"name": "JUPAX",
		"latitude": "31-4-24.52 N",
		"longitude": "96-36-55.9 W",
		"state": "TEXAS",
		"artcc": "ZHU",
		"type": "RNAV",
		"updated": "07/27/2011"
	},
	{
		"name": "JUSIS",
		"latitude": "29-28-8.76 N",
		"longitude": "100-54-8.54 W",
		"state": "TEXAS",
		"artcc": "ZHU",
		"type": "MW",
		"updated": "09/22/2011"
	},
	{
		"name": "JUSTO",
		"latitude": "27-42-12.99 N",
		"longitude": "97-25-59.75 W",
		"state": "TEXAS",
		"artcc": "ZHU",
		"type": "RP",
		"updated": "CRP*VORTAC*168.04/11.99"
	},
	{
		"name": "JUTGU",
		"latitude": "30-38-42.64 N",
		"longitude": "99-11-10.04 W",
		"state": "TEXAS",
		"artcc": "ZHU",
		"type": "RNAV",
		"updated": "09/27/2012"
	},
	{
		"name": "JUVUM",
		"latitude": "29-33-54.68 N",
		"longitude": "95-9-47.38 W",
		"state": "TEXAS",
		"artcc": "ZHU",
		"type": "RP",
		"updated": "EFD*TACAN*/2.45"
	},
	{
		"name": "JWKGD",
		"latitude": "29-25-46.58 N",
		"longitude": "95-38-18.11 W",
		"state": "TEXAS",
		"artcc": "ZHU",
		"type": "CN",
		"updated": "12/15/2011"
	}
]
