[
	{
		"name": "KAANE",
		"latitude": "29-35-0.61 N",
		"longitude": "94-39-0.51 W",
		"state": "TEXAS",
		"artcc": "ZHU",
		"type": "RNAV",
		"updated": "11/13/2014"
	},
	{
		"name": "KABBA",
		"latitude": "30-31-34.01 N",
		"longitude": "96-48-46.28 W",
		"state": "TEXAS",
		"artcc": "ZHU",
		"type": "RP",
		"updated": "IDU*VORTAC*331.17/36.52"
	},
	{
		"name": "KABBY",
		"latitude": "30-0-22.19 N",
		"longitude": "95-45-53.21 W",
		"state": "TEXAS",
		"artcc": "ZHU",
		"type": "RP",
		"updated": "TNV*VOR/DME*129.84"
	},
	{
		"name": "KACEN",
		"latitude": "27-37-24.83 N",
		"longitude": "97-31-29.48 W",
		"state": "TEXAS",
		"artcc": "ZHU",
		"type": "RNAV",
		"updated": "06/28/2016"
	},
	{
		"name": "KAFDO",
		"latitude": "29-48-1 N",
		"longitude": "95-6-25.28 W",
		"state": "TEXAS",
		"artcc": "ZHU",
		"type": "RP",
		"updated": "IAH*VORTAC*121.92"
	},
	{
		"name": "KAHAN",
		"latitude": "27-46-27.24 N",
		"longitude": "99-19-42.15 W",
		"state": "TEXAS",
		"artcc": "ZHU",
		"type": "RP",
		"updated": "ALI*VOR*266.00"
	},
	{
		"name": "KAHFU",
		"latitude": "29-45-46.03 N",
		"longitude": "93-53-0.22 W",
		"state": "LOUISIANA",
		"artcc": "ZHU",
		"type": "RNAV",
		"updated": "10/27/2009"
	},
	{
		"name": "KAHNS",
		"latitude": "26-14-16.13 N",
		"longitude": "97-44-54.62 W",
		"state": "TEXAS",
		"artcc": "ZHU",
		"type": "RNAV",
		"updated": "08/09/2012"
	},
	{
		"name": "KAKKE",
		"latitude": "30-39-12.97 N",
		"longitude": "92-41-21.81 W",
		"state": "LOUISIANA",
		"artcc": "ZHU",
		"type": "RNAV",
		"updated": "06/23/2009"
	},
	{
		"name": "KAKME",
		"latitude": "30-41-55.91 N",
		"longitude": "89-28-24.55 W",
		"state": "MISSISSIPPI",
		"artcc": "ZHU",
		"type": "RNAV",
		"updated": "11/02/2015"
	},
	{
		"name": "KALBE",
		"latitude": "31-17-5.8 N",
		"longitude": "89-35-36.9 W",
		"state": "MISSISSIPPI",
		"artcc": "ZHU",
		"type": "RNAV",
		"updated": "09/01/2005"
	},
	{
		"name": "KALLA",
		"latitude": "30-43-15.88 N",
		"longitude": "98-4-38.46 W",
		"state": "TEXAS",
		"artcc": "ZHU",
		"type": "RP",
		"updated": "CWK*VORTAC*300.00/35.00"
	},
	{
		"name": "KANNA",
		"latitude": "26-0-1.28 N",
		"longitude": "97-0-0.87 W",
		"state": "TEXAS",
		"artcc": "ZHU",
		"type": "RP",
		"updated": "PSX*VORTAC*184.80/169.48"
	},
	{
		"name": "KAPAA",
		"latitude": "29-50-28.68 N",
		"longitude": "94-28-5.25 W",
		"state": "TEXAS",
		"artcc": "ZHU",
		"type": "RP",
		"updated": "DAS*VORTAC*151.12/22.80"
	},
	{
		"name": "KAPKY",
		"latitude": "26-59-33.18 N",
		"longitude": "98-23-28.94 W",
		"state": "TEXAS",
		"artcc": "ZHU",
		"type": "RNAV",
		"updated": "07/26/2012"
	},
	{
		"name": "KAPLN",
		"latitude": "29-56-25.15 N",
		"longitude": "92-20-3.54 W",
		"state": "LOUISIANA",
		"artcc": "ZHU",
		"type": "RP",
		"updated": "LFT*VORTAC*226.65/23.38"
	},
	{
		"name": "KARRR",
		"latitude": "29-22-42.43 N",
		"longitude": "95-22-31.47 W",
		"state": "TEXAS",
		"artcc": "ZHU",
		"type": "RNAV",
		"updated": "04/04/2014"
	},
	{
		"name": "KASHE",
		"latitude": "30-48-32.66 N",
		"longitude": "95-38-58.94 W",
		"state": "TEXAS",
		"artcc": "ZHU",
		"type": "RP",
		"updated": "LOA*VORTAC*130.87/25.00"
	},
	{
		"name": "KATHY",
		"latitude": "27-16-8.32 N",
		"longitude": "98-38-39.45 W",
		"state": "TEXAS",
		"artcc": "ZHU",
		"type": "RNAV",
		"updated": "05/16/2010"
	},
	{
		"name": "KATLE",
		"latitude": "28-7-54.92 N",
		"longitude": "97-43-20.19 W",
		"state": "TEXAS",
		"artcc": "ZHU",
		"type": "RNAV",
		"updated": "04/10/2018"
	},
	{
		"name": "KATYY",
		"latitude": "29-35-8.7 N",
		"longitude": "97-0-32.35 W",
		"state": "TEXAS",
		"artcc": "ZHU",
		"type": "RNAV",
		"updated": "03/14/2014"
	},
	{
		"name": "KAVCY",
		"latitude": "29-17-51.36 N",
		"longitude": "95-27-44.49 W",
		"state": "TEXAS",
		"artcc": "ZHU",
		"type": "RNAV",
		"updated": "04/04/2014"
	},
	{
		"name": "KAYBO",
		"latitude": "29-17-21.95 N",
		"longitude": "90-2-10.41 W",
		"state": "LOUISIANA",
		"artcc": "ZHU",
		"type": "WP",
		"updated": "08/10/1998"
	},
	{
		"name": "KAZOO",
		"latitude": "29-59-55.41 N",
		"longitude": "94-6-39.7 W",
		"state": "TEXAS",
		"artcc": "ZHU",
		"type": "RP",
		"updated": "BPT*VOR/DME*295.57/5.86"
	},
	{
		"name": "KBOOS",
		"latitude": "30-16-38.3 N",
		"longitude": "90-36-46.3 W",
		"state": "LOUISIANA",
		"artcc": "ZHU",
		"type": "RNAV",
		"updated": "09/09/2015"
	},
	{
		"name": "KCEEE",
		"latitude": "29-14-34.78 N",
		"longitude": "92-28-1.46 W",
		"state": "OFFSHORE GULF",
		"artcc": "ZHU",
		"type": "RP",
		"updated": "LCH*VORTAC*141.02"
	},
	{
		"name": "KEANI",
		"latitude": "30-26-9.8 N",
		"longitude": "87-59-49.38 W",
		"state": "ALABAMA",
		"artcc": "ZHU",
		"type": "RP",
		"updated": "BFM*VORTAC*160.00/11.00"
	},
	{
		"name": "KEBCE",
		"latitude": "29-32-51.7 N",
		"longitude": "90-37-45.19 W",
		"state": "LOUISIANA",
		"artcc": "ZHU",
		"type": "RNAV",
		"updated": "05/04/2009"
	},
	{
		"name": "KEBVE",
		"latitude": "30-31-30.35 N",
		"longitude": "91-53-11.17 W",
		"state": "LOUISIANA",
		"artcc": "ZHU",
		"type": "RNAV",
		"updated": "03/22/2013"
	},
	{
		"name": "KECET",
		"latitude": "28-49-43.64 N",
		"longitude": "96-53-26.45 W",
		"state": "TEXAS",
		"artcc": "ZHU",
		"type": "RNAV",
		"updated": "04/06/2012"
	},
	{
		"name": "KEDCE",
		"latitude": "29-53-17.9 N",
		"longitude": "97-58-58.08 W",
		"state": "TEXAS",
		"artcc": "ZHU",
		"type": "RNAV",
		"updated": "04/18/2013"
	},
	{
		"name": "KEDKY",
		"latitude": "30-0-19.84 N",
		"longitude": "93-52-1.75 W",
		"state": "TEXAS",
		"artcc": "ZHU",
		"type": "RNAV",
		"updated": "08/31/2009"
	},
	{
		"name": "KEEDS",
		"latitude": "29-21-59.49 N",
		"longitude": "95-36-48.98 W",
		"state": "TEXAS",
		"artcc": "ZHU",
		"type": "RP",
		"updated": "ELA*VOR/DME*107.51"
	},
	{
		"name": "KEHLI",
		"latitude": "24-29-10 N",
		"longitude": "89-50-25 W",
		"state": "OFFSHORE GULF",
		"artcc": "ZHU",
		"type": "RP",
		"updated": "07/19/2012"
	},
	{
		"name": "KEHRO",
		"latitude": "29-34-57.87 N",
		"longitude": "95-9-46.49 W",
		"state": "TEXAS",
		"artcc": "ZHU",
		"type": "MR",
		"updated": "EFD*TACAN*182.00/1.40"
	},
	{
		"name": "KELLA",
		"latitude": "27-35-56.28 N",
		"longitude": "97-49-2.52 W",
		"state": "TEXAS",
		"artcc": "ZHU",
		"type": "MR",
		"updated": "NQI*TACAN*350.00/6.00"
	},
	{
		"name": "KELPP",
		"latitude": "27-10-32.13 N",
		"longitude": "91-56-57.34 W",
		"state": "OFFSHORE GULF",
		"artcc": "ZHU",
		"type": "RP",
		"updated": "LEV*VORTAC*217.71/154.56"
	},
	{
		"name": "KEMAH",
		"latitude": "29-31-13.98 N",
		"longitude": "94-48-2.85 W",
		"state": "TEXAS",
		"artcc": "ZHU",
		"type": "RNAV",
		"updated": "04/03/2014"
	},
	{
		"name": "KEMPL",
		"latitude": "30-43-13.24 N",
		"longitude": "100-49-54.48 W",
		"state": "TEXAS",
		"artcc": "ZHU",
		"type": "RP",
		"updated": "SJT*VORTAC*196.47"
	},
	{
		"name": "KEMPP",
		"latitude": "30-27-26.05 N",
		"longitude": "98-1-2.3 W",
		"state": "TEXAS",
		"artcc": "ZHU",
		"type": "RNAV",
		"updated": "11/29/2012"
	},
	{
		"name": "KENCY",
		"latitude": "31-31-41.23 N",
		"longitude": "93-26-1.85 W",
		"state": "LOUISIANA",
		"artcc": "ZHU",
		"type": "RNAV",
		"updated": "08/07/2009"
	},
	{
		"name": "KENEH",
		"latitude": "29-38-50.86 N",
		"longitude": "97-40-49.15 W",
		"state": "TEXAS",
		"artcc": "ZHU",
		"type": "RNAV",
		"updated": "06/22/2011"
	},
	{
		"name": "KENGS",
		"latitude": "28-6-15.58 N",
		"longitude": "92-42-25.9 W",
		"state": "OFFSHORE GULF",
		"artcc": "ZHU",
		"type": "RNAV",
		"updated": "06/20/2016"
	},
	{
		"name": "KENIT",
		"latitude": "29-38-40.32 N",
		"longitude": "94-56-6.53 W",
		"state": "TEXAS",
		"artcc": "ZHU",
		"type": "RP",
		"updated": "IAH*VORTAC*123.00"
	},
	{
		"name": "KENLE",
		"latitude": "29-58-59.47 N",
		"longitude": "90-13-33.62 W",
		"state": "LOUISIANA",
		"artcc": "ZHU",
		"type": "RP",
		"updated": "HOX*LD*106.49/1.22"
	},
	{
		"name": "KENNN",
		"latitude": "30-17-10.8 N",
		"longitude": "94-51-11.19 W",
		"state": "TEXAS",
		"artcc": "ZHU",
		"type": "RNAV",
		"updated": "05/10/2015"
	},
	{
		"name": "KERMY",
		"latitude": "29-46-18.84 N",
		"longitude": "90-6-9.4 W",
		"state": "LOUISIANA",
		"artcc": "ZHU",
		"type": "MR",
		"updated": "HRV*VORTAC*226.00/7.00"
	},
	{
		"name": "KERNS",
		"latitude": "29-59-36.3 N",
		"longitude": "95-8-7.44 W",
		"state": "TEXAS",
		"artcc": "ZHU",
		"type": "RP",
		"updated": "HUB*VOR/DME*014.99"
	},
	{
		"name": "KETVE",
		"latitude": "29-17-6.86 N",
		"longitude": "89-19-25.93 W",
		"state": "LOUISIANA",
		"artcc": "ZHU",
		"type": "RNAV",
		"updated": "04/26/2018"
	},
	{
		"name": "KH03A",
		"latitude": "30-30-0 N",
		"longitude": "100-0-0 W",
		"state": "TEXAS",
		"artcc": "ZHU",
		"type": "NRS",
		"updated": "03/05/2005"
	},
	{
		"name": "KH03C",
		"latitude": "30-30-0 N",
		"longitude": "98-0-0 W",
		"state": "TEXAS",
		"artcc": "ZHU",
		"type": "NRS",
		"updated": "03/05/2005"
	},
	{
		"name": "KH03E",
		"latitude": "30-30-0 N",
		"longitude": "96-0-0 W",
		"state": "TEXAS",
		"artcc": "ZHU",
		"type": "NRS",
		"updated": "03/05/2005"
	},
	{
		"name": "KH03G",
		"latitude": "30-30-0 N",
		"longitude": "94-0-0 W",
		"state": "TEXAS",
		"artcc": "ZHU",
		"type": "NRS",
		"updated": "03/05/2005"
	},
	{
		"name": "KH03I",
		"latitude": "30-30-0 N",
		"longitude": "92-0-0 W",
		"state": "LOUISIANA",
		"artcc": "ZHU",
		"type": "NRS",
		"updated": "03/05/2005"
	},
	{
		"name": "KH03K",
		"latitude": "30-30-0 N",
		"longitude": "90-0-0 W",
		"state": "LOUISIANA",
		"artcc": "ZHU",
		"type": "NRS",
		"updated": "03/05/2005"
	},
	{
		"name": "KH03M",
		"latitude": "30-30-0 N",
		"longitude": "88-0-0 W",
		"state": "ALABAMA",
		"artcc": "ZHU",
		"type": "NRS",
		"updated": "03/05/2005"
	},
	{
		"name": "KH03Y",
		"latitude": "30-30-0 N",
		"longitude": "102-0-0 W",
		"state": "TEXAS",
		"artcc": "ZHU",
		"type": "NRS",
		"updated": "03/05/2005"
	},
	{
		"name": "KH06A",
		"latitude": "31-0-0 N",
		"longitude": "100-0-0 W",
		"state": "TEXAS",
		"artcc": "ZHU",
		"type": "NRS",
		"updated": "03/05/2005"
	},
	{
		"name": "KH06C",
		"latitude": "31-0-0 N",
		"longitude": "98-0-0 W",
		"state": "TEXAS",
		"artcc": "ZHU",
		"type": "NRS",
		"updated": "03/05/2005"
	},
	{
		"name": "KH06E",
		"latitude": "31-0-0 N",
		"longitude": "96-0-0 W",
		"state": "TEXAS",
		"artcc": "ZHU",
		"type": "NRS",
		"updated": "03/05/2005"
	},
	{
		"name": "KH06G",
		"latitude": "31-0-0 N",
		"longitude": "94-0-0 W",
		"state": "TEXAS",
		"artcc": "ZHU",
		"type": "NRS",
		"updated": "03/05/2005"
	},
	{
		"name": "KH06I",
		"latitude": "31-0-0 N",
		"longitude": "92-0-0 W",
		"state": "LOUISIANA",
		"artcc": "ZHU",
		"type": "NRS",
		"updated": "03/05/2005"
	},
	{
		"name": "KH06K",
		"latitude": "31-0-0 N",
		"longitude": "90-0-0 W",
		"state": "LOUISIANA",
		"artcc": "ZHU",
		"type": "NRS",
		"updated": "03/05/2005"
	},
	{
		"name": "KH06M",
		"latitude": "31-0-0 N",
		"longitude": "88-0-0 W",
		"state": "ALABAMA",
		"artcc": "ZHU",
		"type": "NRS",
		"updated": "03/05/2005"
	},
	{
		"name": "KH06Y",
		"latitude": "31-0-0 N",
		"longitude": "102-0-0 W",
		"state": "TEXAS",
		"artcc": "ZHU",
		"type": "NRS",
		"updated": "03/05/2005"
	},
	{
		"name": "KH09G",
		"latitude": "31-30-0 N",
		"longitude": "94-0-0 W",
		"state": "TEXAS",
		"artcc": "ZHU",
		"type": "NRS",
		"updated": "03/05/2005"
	},
	{
		"name": "KH09I",
		"latitude": "31-30-0 N",
		"longitude": "92-0-0 W",
		"state": "LOUISIANA",
		"artcc": "ZHU",
		"type": "NRS",
		"updated": "03/05/2005"
	},
	{
		"name": "KH09K",
		"latitude": "31-30-0 N",
		"longitude": "90-0-0 W",
		"state": "MISSISSIPPI",
		"artcc": "ZHU",
		"type": "NRS",
		"updated": "03/05/2005"
	},
	{
		"name": "KH09M",
		"latitude": "31-30-0 N",
		"longitude": "88-0-0 W",
		"state": "ALABAMA",
		"artcc": "ZHU",
		"type": "NRS",
		"updated": "03/05/2005"
	},
	{
		"name": "KH12I",
		"latitude": "32-0-0 N",
		"longitude": "92-0-0 W",
		"state": "LOUISIANA",
		"artcc": "ZHU",
		"type": "NRS",
		"updated": "03/05/2005"
	},
	{
		"name": "KH69C",
		"latitude": "26-30-0 N",
		"longitude": "98-0-0 W",
		"state": "TEXAS",
		"artcc": "ZHU",
		"type": "NRS",
		"updated": "03/05/2005"
	},
	{
		"name": "KH72C",
		"latitude": "27-0-0 N",
		"longitude": "98-0-0 W",
		"state": "TEXAS",
		"artcc": "ZHU",
		"type": "NRS",
		"updated": "03/05/2005"
	},
	{
		"name": "KH72E",
		"latitude": "27-0-0 N",
		"longitude": "96-0-0 W",
		"state": "OFFSHORE GULF",
		"artcc": "ZHU",
		"type": "NRS",
		"updated": "03/05/2005"
	},
	{
		"name": "KH75C",
		"latitude": "27-30-0 N",
		"longitude": "98-0-0 W",
		"state": "TEXAS",
		"artcc": "ZHU",
		"type": "NRS",
		"updated": "03/05/2005"
	},
	{
		"name": "KH75E",
		"latitude": "27-30-0 N",
		"longitude": "96-0-0 W",
		"state": "OFFSHORE GULF",
		"artcc": "ZHU",
		"type": "NRS",
		"updated": "03/05/2005"
	},
	{
		"name": "KH78C",
		"latitude": "28-0-0 N",
		"longitude": "98-0-0 W",
		"state": "TEXAS",
		"artcc": "ZHU",
		"type": "NRS",
		"updated": "03/05/2005"
	},
	{
		"name": "KH78E",
		"latitude": "28-0-0 N",
		"longitude": "96-0-0 W",
		"state": "OFFSHORE GULF",
		"artcc": "ZHU",
		"type": "NRS",
		"updated": "03/05/2005"
	},
	{
		"name": "KH81A",
		"latitude": "28-30-0 N",
		"longitude": "100-0-0 W",
		"state": "TEXAS",
		"artcc": "ZHU",
		"type": "NRS",
		"updated": "03/05/2005"
	},
	{
		"name": "KH81C",
		"latitude": "28-30-0 N",
		"longitude": "98-0-0 W",
		"state": "TEXAS",
		"artcc": "ZHU",
		"type": "NRS",
		"updated": "03/05/2005"
	},
	{
		"name": "KH81E",
		"latitude": "28-30-0 N",
		"longitude": "96-0-0 W",
		"state": "TEXAS",
		"artcc": "ZHU",
		"type": "NRS",
		"updated": "03/05/2005"
	},
	{
		"name": "KH84A",
		"latitude": "29-0-0 N",
		"longitude": "100-0-0 W",
		"state": "TEXAS",
		"artcc": "ZHU",
		"type": "NRS",
		"updated": "03/05/2005"
	},
	{
		"name": "KH84C",
		"latitude": "29-0-0 N",
		"longitude": "98-0-0 W",
		"state": "TEXAS",
		"artcc": "ZHU",
		"type": "NRS",
		"updated": "03/05/2005"
	},
	{
		"name": "KH84E",
		"latitude": "29-0-0 N",
		"longitude": "96-0-0 W",
		"state": "TEXAS",
		"artcc": "ZHU",
		"type": "NRS",
		"updated": "03/05/2005"
	},
	{
		"name": "KH84G",
		"latitude": "29-0-0 N",
		"longitude": "94-0-0 W",
		"state": "OFFSHORE GULF",
		"artcc": "ZHU",
		"type": "NRS",
		"updated": "03/05/2005"
	},
	{
		"name": "KH84I",
		"latitude": "29-0-0 N",
		"longitude": "92-0-0 W",
		"state": "OFFSHORE GULF",
		"artcc": "ZHU",
		"type": "NRS",
		"updated": "03/05/2005"
	},
	{
		"name": "KH84K",
		"latitude": "29-0-0 N",
		"longitude": "90-0-0 W",
		"state": "LOUISIANA",
		"artcc": "ZHU",
		"type": "NRS",
		"updated": "03/05/2005"
	},
	{
		"name": "KH87A",
		"latitude": "29-30-0 N",
		"longitude": "100-0-0 W",
		"state": "TEXAS",
		"artcc": "ZHU",
		"type": "NRS",
		"updated": "03/05/2005"
	},
	{
		"name": "KH87C",
		"latitude": "29-30-0 N",
		"longitude": "98-0-0 W",
		"state": "TEXAS",
		"artcc": "ZHU",
		"type": "NRS",
		"updated": "03/05/2005"
	},
	{
		"name": "KH87E",
		"latitude": "29-30-0 N",
		"longitude": "96-0-0 W",
		"state": "TEXAS",
		"artcc": "ZHU",
		"type": "NRS",
		"updated": "03/05/2005"
	},
	{
		"name": "KH87G",
		"latitude": "29-30-0 N",
		"longitude": "94-0-0 W",
		"state": "TEXAS",
		"artcc": "ZHU",
		"type": "NRS",
		"updated": "03/05/2005"
	},
	{
		"name": "KH87I",
		"latitude": "29-30-0 N",
		"longitude": "92-0-0 W",
		"state": "LOUISIANA",
		"artcc": "ZHU",
		"type": "NRS",
		"updated": "03/05/2005"
	},
	{
		"name": "KH87K",
		"latitude": "29-30-0 N",
		"longitude": "90-0-0 W",
		"state": "LOUISIANA",
		"artcc": "ZHU",
		"type": "NRS",
		"updated": "03/05/2005"
	},
	{
		"name": "KH90A",
		"latitude": "30-0-0 N",
		"longitude": "100-0-0 W",
		"state": "TEXAS",
		"artcc": "ZHU",
		"type": "NRS",
		"updated": "03/05/2005"
	},
	{
		"name": "KH90C",
		"latitude": "30-0-0 N",
		"longitude": "98-0-0 W",
		"state": "TEXAS",
		"artcc": "ZHU",
		"type": "NRS",
		"updated": "03/05/2005"
	},
	{
		"name": "KH90E",
		"latitude": "30-0-0 N",
		"longitude": "96-0-0 W",
		"state": "TEXAS",
		"artcc": "ZHU",
		"type": "NRS",
		"updated": "03/05/2005"
	},
	{
		"name": "KH90G",
		"latitude": "30-0-0 N",
		"longitude": "94-0-0 W",
		"state": "TEXAS",
		"artcc": "ZHU",
		"type": "NRS",
		"updated": "03/05/2005"
	},
	{
		"name": "KH90I",
		"latitude": "30-0-0 N",
		"longitude": "92-0-0 W",
		"state": "LOUISIANA",
		"artcc": "ZHU",
		"type": "NRS",
		"updated": "03/05/2005"
	},
	{
		"name": "KH90K",
		"latitude": "30-0-0 N",
		"longitude": "90-0-0 W",
		"state": "LOUISIANA",
		"artcc": "ZHU",
		"type": "NRS",
		"updated": "03/05/2005"
	},
	{
		"name": "KH90Y",
		"latitude": "30-0-0 N",
		"longitude": "102-0-0 W",
		"state": "TEXAS",
		"artcc": "ZHU",
		"type": "NRS",
		"updated": "03/05/2005"
	},
	{
		"name": "KHTEE",
		"latitude": "30-34-54.04 N",
		"longitude": "88-47-0.66 W",
		"state": "MISSISSIPPI",
		"artcc": "ZHU",
		"type": "RNAV",
		"updated": "08/16/2017"
	},
	{
		"name": "KICED",
		"latitude": "29-38-38.17 N",
		"longitude": "99-0-9.55 W",
		"state": "TEXAS",
		"artcc": "ZHU",
		"type": "RP",
		"updated": "CSI*VORTAC*138.37/20.00"
	},
	{
		"name": "KICET",
		"latitude": "28-59-30.33 N",
		"longitude": "94-50-56.99 W",
		"state": "TEXAS",
		"artcc": "ZHU",
		"type": "RNAV",
		"updated": "11/16/2012"
	},
	{
		"name": "KICKM",
		"latitude": "30-0-23.27 N",
		"longitude": "95-41-0.25 W",
		"state": "TEXAS",
		"artcc": "ZHU",
		"type": "RP",
		"updated": "HUB*VOR/DME*309.79"
	},
	{
		"name": "KIDDZ",
		"latitude": "30-13-24.96 N",
		"longitude": "96-12-56.78 W",
		"state": "TEXAS",
		"artcc": "ZHU",
		"type": "RP",
		"updated": "TNV*VOR/DME*236.64"
	},
	{
		"name": "KIELL",
		"latitude": "30-10-41.36 N",
		"longitude": "94-13-3.52 W",
		"state": "TEXAS",
		"artcc": "ZHU",
		"type": "RP",
		"updated": "DAS*VORTAC*086.68/22.23"
	},
	{
		"name": "KIKRE",
		"latitude": "27-40-52.57 N",
		"longitude": "97-34-51.67 W",
		"state": "TEXAS",
		"artcc": "ZHU",
		"type": "RNAV",
		"updated": "05/03/2017"
	},
	{
		"name": "KILSE",
		"latitude": "30-0-57.65 N",
		"longitude": "96-8-40.39 W",
		"state": "TEXAS",
		"artcc": "ZHU",
		"type": "RNAV",
		"updated": "06/04/2012"
	},
	{
		"name": "KIMBE",
		"latitude": "31-13-57.3 N",
		"longitude": "88-43-12.73 W",
		"state": "MISSISSIPPI",
		"artcc": "ZHU",
		"type": "RNAV",
		"updated": "08/08/2005"
	},
	{
		"name": "KINEY",
		"latitude": "28-43-52.3 N",
		"longitude": "99-17-56 W",
		"state": "TEXAS",
		"artcc": "ZHU",
		"type": "RNAV",
		"updated": "08/04/2005"
	},
	{
		"name": "KIRLN",
		"latitude": "30-29-4.39 N",
		"longitude": "88-37-35.4 W",
		"state": "MISSISSIPPI",
		"artcc": "ZHU",
		"type": "RNAV",
		"updated": "08/16/2017"
	},
	{
		"name": "KIRNY",
		"latitude": "29-44-33.02 N",
		"longitude": "94-57-58.43 W",
		"state": "TEXAS",
		"artcc": "ZHU",
		"type": "MR",
		"updated": "EFD*TACAN*046.00/13.00"
	},
	{
		"name": "KITJU",
		"latitude": "27-41-44.34 N",
		"longitude": "97-51-8.24 W",
		"state": "TEXAS",
		"artcc": "ZHU",
		"type": "RP",
		"updated": "CRP*VORTAC*231.22/25.00"
	},
	{
		"name": "KIYER",
		"latitude": "31-10-9.57 N",
		"longitude": "94-34-51.92 W",
		"state": "TEXAS",
		"artcc": "ZHU",
		"type": "RP",
		"updated": "LFK*VORTAC*081.59/7.00"
	},
	{
		"name": "KLAMS",
		"latitude": "28-15-0 N",
		"longitude": "92-49-39.4 W",
		"state": "OFFSHORE GULF",
		"artcc": "ZHU",
		"type": "RP",
		"updated": "SBI*VOR/DME*136.17/107.01"
	},
	{
		"name": "KLJOY",
		"latitude": "30-38-41.12 N",
		"longitude": "95-20-55.79 W",
		"state": "TEXAS",
		"artcc": "ZHU",
		"type": "RNAV",
		"updated": "03/31/2014"
	},
	{
		"name": "KLNGR",
		"latitude": "31-13-24.79 N",
		"longitude": "98-2-19.85 W",
		"state": "TEXAS",
		"artcc": "ZHU",
		"type": "RNAV",
		"updated": "01/10/2015"
	},
	{
		"name": "KMMBR",
		"latitude": "29-21-58.62 N",
		"longitude": "96-30-22.19 W",
		"state": "TEXAS",
		"artcc": "ZHU",
		"type": "RNAV",
		"updated": "03/25/2014"
	},
	{
		"name": "KNAGA",
		"latitude": "30-1-0.65 N",
		"longitude": "99-32-27.17 W",
		"state": "TEXAS",
		"artcc": "ZHU",
		"type": "RP",
		"updated": "CSI*VORTAC*280.48"
	},
	{
		"name": "KNAPP",
		"latitude": "30-36-53.58 N",
		"longitude": "91-29-39.9 W",
		"state": "LOUISIANA",
		"artcc": "ZHU",
		"type": "RP",
		"updated": "LFT*VORTAC*042.60"
	},
	{
		"name": "KNGWD",
		"latitude": "30-7-35.81 N",
		"longitude": "95-4-26.99 W",
		"state": "TEXAS",
		"artcc": "ZHU",
		"type": "RNAV",
		"updated": "03/07/2014"
	},
	{
		"name": "KNTKY",
		"latitude": "30-5-9.08 N",
		"longitude": "95-15-38.96 W",
		"state": "TEXAS",
		"artcc": "ZHU",
		"type": "RNAV",
		"updated": "03/06/2015"
	},
	{
		"name": "KOBLE",
		"latitude": "29-52-22.2 N",
		"longitude": "101-26-20 W",
		"state": "TEXAS",
		"artcc": "ZHU",
		"type": "RNAV",
		"updated": "08/30/2005"
	},
	{
		"name": "KOCEL",
		"latitude": "29-51-29.67 N",
		"longitude": "89-44-8.91 W",
		"state": "LOUISIANA",
		"artcc": "ZHU",
		"type": "MW",
		"updated": "06/23/2009"
	},
	{
		"name": "KOCUS",
		"latitude": "27-34-28.71 N",
		"longitude": "97-53-16.77 W",
		"state": "TEXAS",
		"artcc": "ZHU",
		"type": "MR",
		"updated": "NQI*TACAN*311.77/6.30"
	},
	{
		"name": "KOFPY",
		"latitude": "30-43-34.23 N",
		"longitude": "98-39-40 W",
		"state": "TEXAS",
		"artcc": "ZHU",
		"type": "RNAV",
		"updated": "10/14/2009"
	},
	{
		"name": "KOHRY",
		"latitude": "29-52-18.77 N",
		"longitude": "95-31-31.6 W",
		"state": "TEXAS",
		"artcc": "ZHU",
		"type": "RNAV",
		"updated": "04/02/2007"
	},
	{
		"name": "KOJCY",
		"latitude": "30-34-50.65 N",
		"longitude": "97-29-21.9 W",
		"state": "TEXAS",
		"artcc": "ZHU",
		"type": "RNAV",
		"updated": "10/16/2009"
	},
	{
		"name": "KOKEC",
		"latitude": "30-20-3.6 N",
		"longitude": "96-35-41.08 W",
		"state": "TEXAS",
		"artcc": "ZHU",
		"type": "RNAV",
		"updated": "07/23/2012"
	},
	{
		"name": "KOMDY",
		"latitude": "29-59-25.46 N",
		"longitude": "94-2-4.81 W",
		"state": "TEXAS",
		"artcc": "ZHU",
		"type": "RNAV",
		"updated": "10/27/2009"
	},
	{
		"name": "KONLE",
		"latitude": "29-25-37.84 N",
		"longitude": "98-30-17.1 W",
		"state": "TEXAS",
		"artcc": "ZHU",
		"type": "RNAV",
		"updated": "12/26/2007"
	},
	{
		"name": "KONZZ",
		"latitude": "29-42-45.57 N",
		"longitude": "94-43-28.19 W",
		"state": "TEXAS",
		"artcc": "ZHU",
		"type": "RNAV",
		"updated": "03/11/2014"
	},
	{
		"name": "KOREJ",
		"latitude": "29-18-18.78 N",
		"longitude": "95-9-25.78 W",
		"state": "TEXAS",
		"artcc": "ZHU",
		"type": "MR",
		"updated": "EFD*TACAN*/18.00"
	},
	{
		"name": "KOSTE",
		"latitude": "30-59-23.9 N",
		"longitude": "97-27-50 W",
		"state": "TEXAS",
		"artcc": "ZHU",
		"type": "RNAV",
		"updated": "08/04/2005"
	},
	{
		"name": "KOTTI",
		"latitude": "29-26-33.68 N",
		"longitude": "100-59-32.22 W",
		"state": "TEXAS",
		"artcc": "ZHU",
		"type": "RP",
		"updated": "DRT*LD*312.23/6.03"
	},
	{
		"name": "KOVLE",
		"latitude": "27-46-7.46 N",
		"longitude": "98-3-38.52 W",
		"state": "TEXAS",
		"artcc": "ZHU",
		"type": "RNAV",
		"updated": "06/04/2012"
	},
	{
		"name": "KOZVO",
		"latitude": "29-24-26.97 N",
		"longitude": "95-3-31.52 W",
		"state": "TEXAS",
		"artcc": "ZHU",
		"type": "MR",
		"updated": "EFD*TACAN*151.00/13.00"
	},
	{
		"name": "KREEC",
		"latitude": "30-4-27.51 N",
		"longitude": "95-41-17.02 W",
		"state": "TEXAS",
		"artcc": "ZHU",
		"type": "RNAV",
		"updated": "12/27/2012"
	},
	{
		"name": "KUBEC",
		"latitude": "30-31-48.18 N",
		"longitude": "88-3-57.05 W",
		"state": "ALABAMA",
		"artcc": "ZHU",
		"type": "RNAV",
		"updated": "09/17/2014"
	},
	{
		"name": "KUBGE",
		"latitude": "29-37-52.98 N",
		"longitude": "98-14-31.76 W",
		"state": "TEXAS",
		"artcc": "ZHU",
		"type": "RNAV",
		"updated": "03/16/2011"
	},
	{
		"name": "KUGEC",
		"latitude": "28-56-5.2 N",
		"longitude": "100-34-1.44 W",
		"state": "TEXAS",
		"artcc": "ZHU",
		"type": "RNAV",
		"updated": "08/19/2009"
	},
	{
		"name": "KUGLE",
		"latitude": "29-31-2.87 N",
		"longitude": "93-53-35.22 W",
		"state": "OFFSHORE GULF",
		"artcc": "ZHU",
		"type": "RP",
		"updated": "MHF*VOR/DME*085.00/44.75"
	},
	{
		"name": "KULKE",
		"latitude": "26-24-47.78 N",
		"longitude": "97-36-16.97 W",
		"state": "TEXAS",
		"artcc": "ZHU",
		"type": "RP",
		"updated": "HRL*VOR/DME*008.00/11.30"
	},
	{
		"name": "KULLE",
		"latitude": "29-12-42.82 N",
		"longitude": "94-51-36.45 W",
		"state": "TEXAS",
		"artcc": "ZHU",
		"type": "RNAV",
		"updated": "11/16/2012"
	},
	{
		"name": "KUNIW",
		"latitude": "30-44-54.45 N",
		"longitude": "96-21-6.56 W",
		"state": "TEXAS",
		"artcc": "ZHU",
		"type": "RNAV",
		"updated": "09/02/2012"
	},
	{
		"name": "KUREC",
		"latitude": "30-41-2.48 N",
		"longitude": "90-58-56.51 W",
		"state": "LOUISIANA",
		"artcc": "ZHU",
		"type": "RNAV",
		"updated": "07/13/2015"
	},
	{
		"name": "KUSTE",
		"latitude": "30-1-25.48 N",
		"longitude": "90-23-40.3 W",
		"state": "LOUISIANA",
		"artcc": "ZHU",
		"type": "RNAV",
		"updated": "09/09/2015"
	},
	{
		"name": "KUUPR",
		"latitude": "30-10-25.61 N",
		"longitude": "94-4-6.19 W",
		"state": "TEXAS",
		"artcc": "ZHU",
		"type": "RP",
		"updated": "DAS*VORTAC*086.68/30.00"
	},
	{
		"name": "KUXUJ",
		"latitude": "29-9-50.43 N",
		"longitude": "99-4-36.17 W",
		"state": "TEXAS",
		"artcc": "ZHU",
		"type": "RNAV",
		"updated": "12/06/2010"
	},
	{
		"name": "KUXZE",
		"latitude": "29-57-24.34 N",
		"longitude": "97-51-36.37 W",
		"state": "TEXAS",
		"artcc": "ZHU",
		"type": "RNAV",
		"updated": "04/18/2013"
	},
	{
		"name": "KYANN",
		"latitude": "30-15-31.53 N",
		"longitude": "95-13-57.82 W",
		"state": "TEXAS",
		"artcc": "ZHU",
		"type": "RP",
		"updated": "DAS*VORTAC*272.85/30.83"
	},
	{
		"name": "KYLND",
		"latitude": "28-7-24.3 N",
		"longitude": "97-1-56.09 W",
		"state": "TEXAS",
		"artcc": "ZHU",
		"type": "RNAV",
		"updated": "03/28/2010"
	}
]
