[
	{
		"name": "MAAAX",
		"latitude": "28-50-0.48 N",
		"longitude": "97-30-38.71 W",
		"state": "TEXAS",
		"artcc": "ZHU",
		"type": "MW",
		"updated": "12/22/2017"
	},
	{
		"name": "MAAHH",
		"latitude": "29-36-17.42 N",
		"longitude": "95-8-56.16 W",
		"state": "TEXAS",
		"artcc": "ZHU",
		"type": "RNAV",
		"updated": "03/25/2014"
	},
	{
		"name": "MAAKO",
		"latitude": "30-0-20.69 N",
		"longitude": "95-51-38.03 W",
		"state": "TEXAS",
		"artcc": "ZHU",
		"type": "RP",
		"updated": "TNV*VOR/DME*140.67"
	},
	{
		"name": "MAANN",
		"latitude": "30-34-53.12 N",
		"longitude": "96-10-5.01 W",
		"state": "TEXAS",
		"artcc": "ZHU",
		"type": "RNAV",
		"updated": "03/11/2014"
	},
	{
		"name": "MABHO",
		"latitude": "29-58-15.45 N",
		"longitude": "92-5-10.01 W",
		"state": "LOUISIANA",
		"artcc": "ZHU",
		"type": "CN",
		"updated": "11/01/1999"
	},
	{
		"name": "MABTY",
		"latitude": "28-49-22.86 N",
		"longitude": "97-52-5.07 W",
		"state": "TEXAS",
		"artcc": "ZHU",
		"type": "RP",
		"updated": "THX*VORTAC*030.00/24.17"
	},
	{
		"name": "MABUS",
		"latitude": "26-3-28 N",
		"longitude": "97-42-42 W",
		"state": "TEXAS",
		"artcc": "ZHU",
		"type": "RNAV",
		"updated": "08/22/2003"
	},
	{
		"name": "MACAN",
		"latitude": "29-56-48.49 N",
		"longitude": "91-49-56.74 W",
		"state": "LOUISIANA",
		"artcc": "ZHU",
		"type": "RP",
		"updated": "LFT*VORTAC*147.54/16.97"
	},
	{
		"name": "MACAW",
		"latitude": "27-41-55.29 N",
		"longitude": "97-49-44.95 W",
		"state": "TEXAS",
		"artcc": "ZHU",
		"type": "MR",
		"updated": "NQI*TACAN*350.00/12.00"
	},
	{
		"name": "MACAY",
		"latitude": "27-23-59.77 N",
		"longitude": "97-49-16.45 W",
		"state": "TEXAS",
		"artcc": "ZHU",
		"type": "MR",
		"updated": "NQI*TACAN*184.00/6.00"
	},
	{
		"name": "MACDY",
		"latitude": "28-4-53.04 N",
		"longitude": "97-3-1.74 W",
		"state": "TEXAS",
		"artcc": "ZHU",
		"type": "CN",
		"updated": "02/06/2012"
	},
	{
		"name": "MACGE",
		"latitude": "30-14-20.98 N",
		"longitude": "92-50-23.64 W",
		"state": "LOUISIANA",
		"artcc": "ZHU",
		"type": "CN",
		"updated": "11/01/1999"
	},
	{
		"name": "MACKK",
		"latitude": "27-31-21.08 N",
		"longitude": "96-53-1.42 W",
		"state": "TEXAS",
		"artcc": "ZHU",
		"type": "MR",
		"updated": "NGP*VORTAC*108.00/24.00"
	},
	{
		"name": "MACKV",
		"latitude": "29-54-2.52 N",
		"longitude": "89-57-3.35 W",
		"state": "LOUISIANA",
		"artcc": "ZHU",
		"type": "MW",
		"updated": "02/10/2016"
	},
	{
		"name": "MACSE",
		"latitude": "26-10-22.8 N",
		"longitude": "97-20-59.56 W",
		"state": "TEXAS",
		"artcc": "ZHU",
		"type": "WP",
		"updated": "11/02/1998"
	},
	{
		"name": "MADPY",
		"latitude": "29-57-21.33 N",
		"longitude": "94-1-44.25 W",
		"state": "TEXAS",
		"artcc": "ZHU",
		"type": "CN",
		"updated": "02/06/2012"
	},
	{
		"name": "MADRE",
		"latitude": "26-23-21.8 N",
		"longitude": "97-34-56.98 W",
		"state": "TEXAS",
		"artcc": "ZHU",
		"type": "RP",
		"updated": "HRL*VOR/DME*016.42/10.29"
	},
	{
		"name": "MADSK",
		"latitude": "31-18-8.34 N",
		"longitude": "89-48-25.38 W",
		"state": "MISSISSIPPI",
		"artcc": "ZHU",
		"type": "CN",
		"updated": "09/12/2002"
	},
	{
		"name": "MADUH",
		"latitude": "30-30-19.76 N",
		"longitude": "97-58-47.98 W",
		"state": "TEXAS",
		"artcc": "ZHU",
		"type": "CN",
		"updated": "02/06/2012"
	},
	{
		"name": "MAFAL",
		"latitude": "30-10-33.28 N",
		"longitude": "90-56-39.24 W",
		"state": "LOUISIANA",
		"artcc": "ZHU",
		"type": "RP",
		"updated": "LSU*VORTAC*129.45/25.93"
	},
	{
		"name": "MAFAP",
		"latitude": "30-45-1.53 N",
		"longitude": "95-35-26.74 W",
		"state": "TEXAS",
		"artcc": "ZHU",
		"type": "RP",
		"updated": "LOA*VORTAC*130.87/29.65"
	},
	{
		"name": "MAFDY",
		"latitude": "30-57-33.63 N",
		"longitude": "92-14-11.13 W",
		"state": "LOUISIANA",
		"artcc": "ZHU",
		"type": "RP",
		"updated": "AEX*VORTAC*139.50/22.42"
	},
	{
		"name": "MAFEF",
		"latitude": "30-24-51.3 N",
		"longitude": "89-5-0.08 W",
		"state": "MISSISSIPPI",
		"artcc": "ZHU",
		"type": "RP",
		"updated": "GPT*VORTAC*320.45/0.56"
	},
	{
		"name": "MAFEL",
		"latitude": "28-5-54.21 N",
		"longitude": "97-3-27.13 W",
		"state": "TEXAS",
		"artcc": "ZHU",
		"type": "CN",
		"updated": "02/06/2012"
	},
	{
		"name": "MAFGE",
		"latitude": "30-30-44.85 N",
		"longitude": "99-45-54.01 W",
		"state": "TEXAS",
		"artcc": "ZHU",
		"type": "CN",
		"updated": "02/06/2012"
	},
	{
		"name": "MAFIB",
		"latitude": "30-31-22.12 N",
		"longitude": "89-42-25.05 W",
		"state": "MISSISSIPPI",
		"artcc": "ZHU",
		"type": "CN",
		"updated": "11/01/1999"
	},
	{
		"name": "MAFIE",
		"latitude": "31-21-44.88 N",
		"longitude": "94-43-47.37 W",
		"state": "TEXAS",
		"artcc": "ZHU",
		"type": "RP",
		"updated": "OCH*LD*S CRS/13.46"
	},
	{
		"name": "MAFIY",
		"latitude": "29-16-5.09 N",
		"longitude": "96-9-35.51 W",
		"state": "TEXAS",
		"artcc": "ZHU",
		"type": "RP",
		"updated": "ELA*VOR/DME*152.72/25.00"
	},
	{
		"name": "MAFOM",
		"latitude": "27-47-4.03 N",
		"longitude": "97-29-39.61 W",
		"state": "TEXAS",
		"artcc": "ZHU",
		"type": "CN",
		"updated": "02/06/2012"
	},
	{
		"name": "MAGHY",
		"latitude": "31-6-36.1 N",
		"longitude": "98-11-35.81 W",
		"state": "TEXAS",
		"artcc": "ZHU",
		"type": "RP",
		"updated": "AGJ*VORTAC*205.38/5.24"
	},
	{
		"name": "MAGJI",
		"latitude": "30-43-4.52 N",
		"longitude": "96-19-48.1 W",
		"state": "TEXAS",
		"artcc": "ZHU",
		"type": "RP",
		"updated": "CLL*VORTAC*026.74/8.23"
	},
	{
		"name": "MAGNT",
		"latitude": "31-5-51.28 N",
		"longitude": "90-25-45.55 W",
		"state": "MISSISSIPPI",
		"artcc": "ZHU",
		"type": "RNAV",
		"updated": "04/18/2018"
	},
	{
		"name": "MAGON",
		"latitude": "29-33-49.35 N",
		"longitude": "91-11-54.61 W",
		"state": "LOUISIANA",
		"artcc": "ZHU",
		"type": "WP",
		"updated": "08/10/1998"
	},
	{
		"name": "MAGUS",
		"latitude": "29-2-32.08 N",
		"longitude": "95-59-17.27 W",
		"state": "TEXAS",
		"artcc": "ZHU",
		"type": "RP",
		"updated": "ELA*VOR/DME*146.99"
	},
	{
		"name": "MAHCE",
		"latitude": "31-10-49.85 N",
		"longitude": "90-28-17.83 W",
		"state": "MISSISSIPPI",
		"artcc": "ZHU",
		"type": "RP",
		"updated": "MCB*VORTAC*233.00/13.25"
	},
	{
		"name": "MAHDU",
		"latitude": "29-49-2.57 N",
		"longitude": "95-40-22.46 W",
		"state": "TEXAS",
		"artcc": "ZHU",
		"type": "CN",
		"updated": "02/06/2012"
	},
	{
		"name": "MAHEZ",
		"latitude": "25-54-41.51 N",
		"longitude": "97-24-56.53 W",
		"state": "TEXAS",
		"artcc": "ZHU",
		"type": "CN",
		"updated": "02/06/2012"
	},
	{
		"name": "MAHFI",
		"latitude": "30-31-11.55 N",
		"longitude": "96-42-18.16 W",
		"state": "TEXAS",
		"artcc": "ZHU",
		"type": "RP",
		"updated": "CLL*VORTAC*242.99/15.59"
	},
	{
		"name": "MAHIR",
		"latitude": "30-43-57.5 N",
		"longitude": "99-10-52.18 W",
		"state": "TEXAS",
		"artcc": "ZHU",
		"type": "RP",
		"updated": "LLO*VORTAC*251.49/20.71"
	},
	{
		"name": "MAHLA",
		"latitude": "28-27-30.68 N",
		"longitude": "99-12-46.82 W",
		"state": "TEXAS",
		"artcc": "ZHU",
		"type": "RP",
		"updated": "COT*VORTAC*258.63/5.00"
	},
	{
		"name": "MAHLY",
		"latitude": "29-40-0.48 N",
		"longitude": "95-3-35.18 W",
		"state": "TEXAS",
		"artcc": "ZHU",
		"type": "CN",
		"updated": "02/06/2012"
	},
	{
		"name": "MAHUW",
		"latitude": "30-14-35.16 N",
		"longitude": "98-54-12.53 W",
		"state": "TEXAS",
		"artcc": "ZHU",
		"type": "RP",
		"updated": "STV*VORTAC*274.00/10.51"
	},
	{
		"name": "MAHWI",
		"latitude": "30-35-12.12 N",
		"longitude": "96-21-23.05 W",
		"state": "TEXAS",
		"artcc": "ZHU",
		"type": "CN",
		"updated": "02/06/2012"
	},
	{
		"name": "MAJJA",
		"latitude": "31-23-14.84 N",
		"longitude": "92-17-16.07 W",
		"state": "LOUISIANA",
		"artcc": "ZHU",
		"type": "CN",
		"updated": "11/01/1999"
	},
	{
		"name": "MAJLO",
		"latitude": "30-21-43.15 N",
		"longitude": "96-6-33.52 W",
		"state": "TEXAS",
		"artcc": "ZHU",
		"type": "RP",
		"updated": "TNV*VOR/DME*320.92/5.13"
	},
	{
		"name": "MAJON",
		"latitude": "31-36-15.07 N",
		"longitude": "90-24-24.86 W",
		"state": "MISSISSIPPI",
		"artcc": "ZHU",
		"type": "RP",
		"updated": "MCB*VORTAC*334.00/19.50"
	},
	{
		"name": "MAJVO",
		"latitude": "28-48-45.88 N",
		"longitude": "99-6-41.79 W",
		"state": "TEXAS",
		"artcc": "ZHU",
		"type": "CN",
		"updated": "02/06/2012"
	},
	{
		"name": "MAKBR",
		"latitude": "29-44-52.11 N",
		"longitude": "90-49-56.76 W",
		"state": "LOUISIANA",
		"artcc": "ZHU",
		"type": "CN",
		"updated": "09/12/2002"
	},
	{
		"name": "MALEA",
		"latitude": "28-47-18.86 N",
		"longitude": "97-48-22.15 W",
		"state": "TEXAS",
		"artcc": "ZHU",
		"type": "MW",
		"updated": "12/22/2017"
	},
	{
		"name": "MALER",
		"latitude": "29-36-40.16 N",
		"longitude": "91-10-48.06 W",
		"state": "LOUISIANA",
		"artcc": "ZHU",
		"type": "WP",
		"updated": "08/10/1998"
	},
	{
		"name": "MALMS",
		"latitude": "30-15-38.67 N",
		"longitude": "92-34-23.94 W",
		"state": "LOUISIANA",
		"artcc": "ZHU",
		"type": "RNAV",
		"updated": "07/28/2014"
	},
	{
		"name": "MAMRY",
		"latitude": "31-5-27.4 N",
		"longitude": "92-4-24 W",
		"state": "LOUISIANA",
		"artcc": "ZHU",
		"type": "WP",
		"updated": "11/02/1998"
	},
	{
		"name": "MANLY",
		"latitude": "28-43-45.13 N",
		"longitude": "99-6-47.75 W",
		"state": "TEXAS",
		"artcc": "ZHU",
		"type": "RP",
		"updated": "COT*VORTAC*352.00/16.00"
	},
	{
		"name": "MANNU",
		"latitude": "29-13-43.58 N",
		"longitude": "98-32-17.51 W",
		"state": "TEXAS",
		"artcc": "ZHU",
		"type": "MR",
		"updated": "KSY*TACAN*163.00/10.00"
	},
	{
		"name": "MANNY",
		"latitude": "26-36-32.98 N",
		"longitude": "97-23-56.65 W",
		"state": "TEXAS",
		"artcc": "ZHU",
		"type": "RP",
		"updated": "BRO*VORTAC*349.21"
	},
	{
		"name": "MAPGP",
		"latitude": "29-36-10.68 N",
		"longitude": "96-19-27.55 W",
		"state": "TEXAS",
		"artcc": "ZHU",
		"type": "CN",
		"updated": "05/21/2003"
	},
	{
		"name": "MARCS",
		"latitude": "29-53-52.04 N",
		"longitude": "97-51-40.7 W",
		"state": "TEXAS",
		"artcc": "ZHU",
		"type": "RP",
		"updated": "IDU*VORTAC*259.38"
	},
	{
		"name": "MAREA",
		"latitude": "29-46-54.55 N",
		"longitude": "91-9-58.24 W",
		"state": "LOUISIANA",
		"artcc": "ZHU",
		"type": "RP",
		"updated": "12/02/1994"
	},
	{
		"name": "MARLL",
		"latitude": "30-25-0.72 N",
		"longitude": "88-43-48.11 W",
		"state": "MISSISSIPPI",
		"artcc": "ZHU",
		"type": "MR",
		"updated": "GPT*VORTAC*086.00/18.00"
	},
	{
		"name": "MARNE",
		"latitude": "29-51-6.22 N",
		"longitude": "98-12-10.39 W",
		"state": "TEXAS",
		"artcc": "ZHU",
		"type": "RNAV",
		"updated": "12/27/2007"
	},
	{
		"name": "MARSA",
		"latitude": "29-49-9.73 N",
		"longitude": "93-46-5.93 W",
		"state": "LOUISIANA",
		"artcc": "ZHU",
		"type": "RP",
		"updated": "BPT*VOR/DME*113.33/14.99"
	},
	{
		"name": "MARVE",
		"latitude": "31-32-8.5 N",
		"longitude": "90-23-42.3 W",
		"state": "MISSISSIPPI",
		"artcc": "ZHU",
		"type": "RNAV",
		"updated": "09/01/2005"
	},
	{
		"name": "MARVY",
		"latitude": "28-53-50.88 N",
		"longitude": "96-1-16.14 W",
		"state": "TEXAS",
		"artcc": "ZHU",
		"type": "RP",
		"updated": "PSX*VORTAC*054.00/17.00"
	},
	{
		"name": "MARZY",
		"latitude": "29-29-15.74 N",
		"longitude": "95-9-40.93 W",
		"state": "TEXAS",
		"artcc": "ZHU",
		"type": "RP",
		"updated": "EFD*TACAN*/7.08"
	},
	{
		"name": "MATIL",
		"latitude": "29-44-57.37 N",
		"longitude": "91-7-33.6 W",
		"state": "LOUISIANA",
		"artcc": "ZHU",
		"type": "WP",
		"updated": "08/10/1998"
	},
	{
		"name": "MATON",
		"latitude": "29-59-35.76 N",
		"longitude": "95-27-59.31 W",
		"state": "TEXAS",
		"artcc": "ZHU",
		"type": "RP",
		"updated": "HUB*VOR/DME*328.94"
	},
	{
		"name": "MATSS",
		"latitude": "27-48-14.97 N",
		"longitude": "97-43-9.99 W",
		"state": "TEXAS",
		"artcc": "ZHU",
		"type": "RNAV",
		"updated": "05/03/2017"
	},
	{
		"name": "MATTE",
		"latitude": "27-16-21.73 N",
		"longitude": "99-4-35.53 W",
		"state": "TEXAS",
		"artcc": "ZHU",
		"type": "MR",
		"updated": "LRD*VORTAC*115.00/22.00"
	},
	{
		"name": "MAVHI",
		"latitude": "27-44-1.53 N",
		"longitude": "98-1-14.38 W",
		"state": "TEXAS",
		"artcc": "ZHU",
		"type": "WP",
		"updated": "11/02/1998"
	},
	{
		"name": "MAVRK",
		"latitude": "29-17-51.3 N",
		"longitude": "100-42-34.12 W",
		"state": "TEXAS",
		"artcc": "ZHU",
		"type": "MR",
		"updated": "DLF*VORTAC*132.25/5.00"
	},
	{
		"name": "MAXJO",
		"latitude": "29-58-39.29 N",
		"longitude": "95-20-53.91 W",
		"state": "TEXAS",
		"artcc": "ZHU",
		"type": "RNAV",
		"updated": "02/09/2018"
	},
	{
		"name": "MAXON",
		"latitude": "30-23-59.23 N",
		"longitude": "92-29-31.18 W",
		"state": "LOUISIANA",
		"artcc": "ZHU",
		"type": "RP",
		"updated": "LFT*VORTAC*292.55"
	},
	{
		"name": "MAYHL",
		"latitude": "30-17-20.72 N",
		"longitude": "97-41-24.41 W",
		"state": "TEXAS",
		"artcc": "ZHU",
		"type": "RNAV",
		"updated": "10/24/2017"
	},
	{
		"name": "MCBRD",
		"latitude": "28-39-4.66 N",
		"longitude": "97-43-15.48 W",
		"state": "TEXAS",
		"artcc": "ZHU",
		"type": "MW",
		"updated": "12/22/2017"
	},
	{
		"name": "MCCAL",
		"latitude": "31-2-0.01 N",
		"longitude": "95-22-27.24 W",
		"state": "TEXAS",
		"artcc": "ZHU",
		"type": "RNAV",
		"updated": "10/28/2011"
	},
	{
		"name": "MCOOL",
		"latitude": "29-15-41.86 N",
		"longitude": "93-40-31.13 W",
		"state": "OFFSHORE GULF",
		"artcc": "ZHU",
		"type": "RNAV",
		"updated": "01/01/2009"
	},
	{
		"name": "MEDIC",
		"latitude": "29-58-36.71 N",
		"longitude": "95-40-59.77 W",
		"state": "TEXAS",
		"artcc": "ZHU",
		"type": "RP",
		"updated": "HUB*VOR/DME*307.27"
	},
	{
		"name": "MEDIN",
		"latitude": "29-48-24.91 N",
		"longitude": "98-54-1.09 W",
		"state": "TEXAS",
		"artcc": "ZHU",
		"type": "RP",
		"updated": "SAT*VORTAC*285.14/24.92"
	},
	{
		"name": "MEJVE",
		"latitude": "31-10-15.31 N",
		"longitude": "92-25-4.87 W",
		"state": "LOUISIANA",
		"artcc": "ZHU",
		"type": "RNAV",
		"updated": "03/28/2005"
	},
	{
		"name": "MEKVE",
		"latitude": "26-20-42.98 N",
		"longitude": "98-5-33.46 W",
		"state": "TEXAS",
		"artcc": "ZHU",
		"type": "RP",
		"updated": "MFE*VOR/DME*028.90/13.00"
	},
	{
		"name": "MELOT",
		"latitude": "28-55-29.32 N",
		"longitude": "95-22-0.75 W",
		"state": "TEXAS",
		"artcc": "ZHU",
		"type": "RNAV",
		"updated": "06/29/2005"
	},
	{
		"name": "MELOY",
		"latitude": "27-27-18.87 N",
		"longitude": "97-42-16.44 W",
		"state": "TEXAS",
		"artcc": "ZHU",
		"type": "MR",
		"updated": "NQI*TACAN*112.00/6.00"
	},
	{
		"name": "MENTC",
		"latitude": "29-55-29.7 N",
		"longitude": "89-48-59.98 W",
		"state": "LOUISIANA",
		"artcc": "ZHU",
		"type": "RP",
		"updated": "HRV*VORTAC*063.24/10.70"
	},
	{
		"name": "MERCR",
		"latitude": "29-37-21.59 N",
		"longitude": "96-0-53.66 W",
		"state": "TEXAS",
		"artcc": "ZHU",
		"type": "RNAV",
		"updated": "08/21/2015"
	},
	{
		"name": "MERRY",
		"latitude": "28-50-27.95 N",
		"longitude": "96-28-32.18 W",
		"state": "TEXAS",
		"artcc": "ZHU",
		"type": "RNAV",
		"updated": "11/05/2015"
	},
	{
		"name": "MESYU",
		"latitude": "28-47-50.44 N",
		"longitude": "100-28-36.54 W",
		"state": "TEXAS",
		"artcc": "ZHU",
		"type": "RNAV",
		"updated": "08/19/2009"
	},
	{
		"name": "METON",
		"latitude": "29-42-6.65 N",
		"longitude": "91-8-40.55 W",
		"state": "LOUISIANA",
		"artcc": "ZHU",
		"type": "WP",
		"updated": "08/10/1998"
	},
	{
		"name": "METTO",
		"latitude": "30-41-31.07 N",
		"longitude": "92-2-24.91 W",
		"state": "LOUISIANA",
		"artcc": "ZHU",
		"type": "RP",
		"updated": "LFT*VORTAC*352.27/29.92"
	},
	{
		"name": "METZY",
		"latitude": "29-15-42.47 N",
		"longitude": "93-41-2.25 W",
		"state": "OFFSHORE GULF",
		"artcc": "ZHU",
		"type": "RP",
		"updated": "LCH*VORTAC*203.00/60.71"
	},
	{
		"name": "MEYGI",
		"latitude": "29-55-42.84 N",
		"longitude": "93-58-35.84 W",
		"state": "TEXAS",
		"artcc": "ZHU",
		"type": "RP",
		"updated": "BPT*LD*115.96/1.86"
	},
	{
		"name": "MGNOL",
		"latitude": "30-10-53.48 N",
		"longitude": "95-47-13.96 W",
		"state": "TEXAS",
		"artcc": "ZHU",
		"type": "RNAV",
		"updated": "10/06/2006"
	},
	{
		"name": "MGTEC",
		"latitude": "30-26-14.29 N",
		"longitude": "97-34-34.34 W",
		"state": "TEXAS",
		"artcc": "ZHU",
		"type": "RNAV",
		"updated": "10/19/2017"
	},
	{
		"name": "MIBER",
		"latitude": "31-17-3.29 N",
		"longitude": "94-32-8.59 W",
		"state": "TEXAS",
		"artcc": "ZHU",
		"type": "RNAV",
		"updated": "10/24/2017"
	},
	{
		"name": "MICRO",
		"latitude": "30-10-49.05 N",
		"longitude": "92-18-2 W",
		"state": "LOUISIANA",
		"artcc": "ZHU",
		"type": "RP",
		"updated": "LFT*VORTAC*264.18/16.04"
	},
	{
		"name": "MIFFI",
		"latitude": "29-52-31.11 N",
		"longitude": "95-32-46.18 W",
		"state": "TEXAS",
		"artcc": "ZHU",
		"type": "RP",
		"updated": "IAH*VORTAC*240.00"
	},
	{
		"name": "MIKLE",
		"latitude": "30-58-58.34 N",
		"longitude": "92-4-5.77 W",
		"state": "LOUISIANA",
		"artcc": "ZHU",
		"type": "RP",
		"updated": "LFT*VORTAC*352.28"
	},
	{
		"name": "MILET",
		"latitude": "28-43-49.68 N",
		"longitude": "98-47-52.53 W",
		"state": "TEXAS",
		"artcc": "ZHU",
		"type": "RP",
		"updated": "THX*VORTAC*283.69"
	},
	{
		"name": "MINDO",
		"latitude": "30-37-57.3 N",
		"longitude": "89-9-5.95 W",
		"state": "MISSISSIPPI",
		"artcc": "ZHU",
		"type": "RP",
		"updated": "PCU*VOR/DME*076.74/30.28"
	},
	{
		"name": "MINDS",
		"latitude": "29-38-23.47 N",
		"longitude": "91-11-46.06 W",
		"state": "LOUISIANA",
		"artcc": "ZHU",
		"type": "RNAV",
		"updated": "04/11/2012"
	},
	{
		"name": "MINNI",
		"latitude": "30-11-30.89 N",
		"longitude": "89-8-35.08 W",
		"state": "MISSISSIPPI",
		"artcc": "ZHU",
		"type": "RP",
		"updated": "HRV*VORTAC*063.24/49.24"
	},
	{
		"name": "MINNM",
		"latitude": "29-12-29.99 N",
		"longitude": "100-44-20.06 W",
		"state": "TEXAS",
		"artcc": "ZHU",
		"type": "MW",
		"updated": "07/14/2009"
	},
	{
		"name": "MINNU",
		"latitude": "29-37-11.99 N",
		"longitude": "91-5-3.88 W",
		"state": "LOUISIANA",
		"artcc": "ZHU",
		"type": "WP",
		"updated": "08/10/1998"
	},
	{
		"name": "MINUE",
		"latitude": "26-9-56.67 N",
		"longitude": "97-44-58.27 W",
		"state": "TEXAS",
		"artcc": "ZHU",
		"type": "RNAV",
		"updated": "08/09/2012"
	},
	{
		"name": "MIRIN",
		"latitude": "29-39-6.92 N",
		"longitude": "97-49-59.72 W",
		"state": "TEXAS",
		"artcc": "ZHU",
		"type": "RNAV",
		"updated": "06/29/2011"
	},
	{
		"name": "MISSB",
		"latitude": "29-41-47.51 N",
		"longitude": "90-10-44.16 W",
		"state": "LOUISIANA",
		"artcc": "ZHU",
		"type": "MR",
		"updated": "HRV*VORTAC*223.01/13.00"
	},
	{
		"name": "MISSI",
		"latitude": "26-15-12.84 N",
		"longitude": "98-18-38.74 W",
		"state": "TEXAS",
		"artcc": "ZHU",
		"type": "RP",
		"updated": "MFE*VOR/DME*312.63/6.08"
	},
	{
		"name": "MIXER",
		"latitude": "30-40-16.25 N",
		"longitude": "92-23-1.25 W",
		"state": "LOUISIANA",
		"artcc": "ZHU",
		"type": "RNAV",
		"updated": "09/03/2003"
	},
	{
		"name": "MIXUN",
		"latitude": "21-10-25 N",
		"longitude": "87-11-55 W",
		"state": "OFFSHORE ATLANTIC",
		"artcc": "ZHU",
		"type": "RP",
		"updated": "03/05/2013"
	},
	{
		"name": "MIYER",
		"latitude": "27-28-18.14 N",
		"longitude": "99-0-19.83 W",
		"state": "TEXAS",
		"artcc": "ZHU",
		"type": "MR",
		"updated": "LRD*VORTAC*082.00/22.00"
	},
	{
		"name": "MKAYE",
		"latitude": "29-59-34.98 N",
		"longitude": "94-54-55.07 W",
		"state": "TEXAS",
		"artcc": "ZHU",
		"type": "RP",
		"updated": "DAS*VORTAC*225.15"
	},
	{
		"name": "MLRRR",
		"latitude": "30-12-17.91 N",
		"longitude": "95-36-11.24 W",
		"state": "TEXAS",
		"artcc": "ZHU",
		"type": "RP",
		"updated": "TNV*VOR/DME*093.82"
	},
	{
		"name": "MMALT",
		"latitude": "29-52-12.75 N",
		"longitude": "94-47-1.01 W",
		"state": "TEXAS",
		"artcc": "ZHU",
		"type": "RNAV",
		"updated": "03/27/2014"
	},
	{
		"name": "MMARE",
		"latitude": "30-16-49.85 N",
		"longitude": "97-34-8.49 W",
		"state": "TEXAS",
		"artcc": "ZHU",
		"type": "RNAV",
		"updated": "12/15/2014"
	},
	{
		"name": "MMAXX",
		"latitude": "30-53-35.01 N",
		"longitude": "96-32-47.15 W",
		"state": "TEXAS",
		"artcc": "ZHU",
		"type": "RNAV",
		"updated": "03/25/2014"
	},
	{
		"name": "MMOOW",
		"latitude": "29-25-45.3 N",
		"longitude": "94-52-24.19 W",
		"state": "TEXAS",
		"artcc": "ZHU",
		"type": "RNAV",
		"updated": "03/09/2014"
	},
	{
		"name": "MMUGS",
		"latitude": "29-49-3.54 N",
		"longitude": "94-59-1.64 W",
		"state": "TEXAS",
		"artcc": "ZHU",
		"type": "RNAV",
		"updated": "03/27/2014"
	},
	{
		"name": "MNNKE",
		"latitude": "29-46-2.38 N",
		"longitude": "95-52-41.21 W",
		"state": "TEXAS",
		"artcc": "ZHU",
		"type": "RNAV",
		"updated": "03/07/2014"
	},
	{
		"name": "MNURE",
		"latitude": "29-59-34.88 N",
		"longitude": "96-33-57.84 W",
		"state": "TEXAS",
		"artcc": "ZHU",
		"type": "RNAV",
		"updated": "10/19/2017"
	},
	{
		"name": "MOCKS",
		"latitude": "29-50-24.41 N",
		"longitude": "94-28-58.98 W",
		"state": "TEXAS",
		"artcc": "ZHU",
		"type": "RP",
		"updated": "DAS*VORTAC*153.00"
	},
	{
		"name": "MOCXE",
		"latitude": "29-53-59.75 N",
		"longitude": "90-0-36.4 W",
		"state": "LOUISIANA",
		"artcc": "ZHU",
		"type": "RP",
		"updated": "HRV*VORTAC*350.88/3.00"
	},
	{
		"name": "MODUE",
		"latitude": "31-22-22.01 N",
		"longitude": "91-27-4.59 W",
		"state": "MISSISSIPPI",
		"artcc": "ZHU",
		"type": "RNAV",
		"updated": "11/04/2015"
	},
	{
		"name": "MOFCO",
		"latitude": "31-32-12.79 N",
		"longitude": "93-28-10.19 W",
		"state": "LOUISIANA",
		"artcc": "ZHU",
		"type": "RNAV",
		"updated": "08/07/2009"
	},
	{
		"name": "MOGAN",
		"latitude": "30-44-5.42 N",
		"longitude": "91-40-50.31 W",
		"state": "LOUISIANA",
		"artcc": "ZHU",
		"type": "RP",
		"updated": "LFT*VORTAC*023.46"
	},
	{
		"name": "MOGWI",
		"latitude": "30-40-50.41 N",
		"longitude": "98-26-3.97 W",
		"state": "TEXAS",
		"artcc": "ZHU",
		"type": "RP",
		"updated": "LLO*VORTAC*102.69/19.52"
	},
	{
		"name": "MOJOE",
		"latitude": "30-18-53.61 N",
		"longitude": "94-55-1.2 W",
		"state": "TEXAS",
		"artcc": "ZHU",
		"type": "RP",
		"updated": "DAS*VORTAC*293.00/16.00"
	},
	{
		"name": "MOJOS",
		"latitude": "31-43-15.33 N",
		"longitude": "91-38-35.51 W",
		"state": "LOUISIANA",
		"artcc": "ZHU",
		"type": "RNAV",
		"updated": "11/04/2015"
	},
	{
		"name": "MOKLE",
		"latitude": "30-38-38.88 N",
		"longitude": "93-14-20.13 W",
		"state": "LOUISIANA",
		"artcc": "ZHU",
		"type": "RNAV",
		"updated": "03/19/2009"
	},
	{
		"name": "MOKXO",
		"latitude": "29-50-44.24 N",
		"longitude": "97-51-19.3 W",
		"state": "TEXAS",
		"artcc": "ZHU",
		"type": "RNAV",
		"updated": "04/18/2013"
	},
	{
		"name": "MOMMO",
		"latitude": "30-34-59.27 N",
		"longitude": "97-37-49.09 W",
		"state": "TEXAS",
		"artcc": "ZHU",
		"type": "WP",
		"updated": "11/02/1998"
	},
	{
		"name": "MONNT",
		"latitude": "30-28-38.94 N",
		"longitude": "95-18-42.06 W",
		"state": "TEXAS",
		"artcc": "ZHU",
		"type": "RP",
		"updated": "DAS*VORTAC*291.62"
	},
	{
		"name": "MONST",
		"latitude": "29-33-35.82 N",
		"longitude": "98-38-45.01 W",
		"state": "TEXAS",
		"artcc": "ZHU",
		"type": "MW",
		"updated": "12/27/2012"
	},
	{
		"name": "MOOKI",
		"latitude": "29-52-6.07 N",
		"longitude": "94-36-41.19 W",
		"state": "TEXAS",
		"artcc": "ZHU",
		"type": "RNAV",
		"updated": "04/04/2014"
	},
	{
		"name": "MOORI",
		"latitude": "29-38-7.79 N",
		"longitude": "91-8-20.29 W",
		"state": "LOUISIANA",
		"artcc": "ZHU",
		"type": "RNAV",
		"updated": "04/11/2012"
	},
	{
		"name": "MORLE",
		"latitude": "29-58-58.38 N",
		"longitude": "89-52-58.02 W",
		"state": "LOUISIANA",
		"artcc": "ZHU",
		"type": "RNAV",
		"updated": "02/14/2008"
	},
	{
		"name": "MOSSY",
		"latitude": "30-18-24.03 N",
		"longitude": "93-11-46.26 W",
		"state": "LOUISIANA",
		"artcc": "ZHU",
		"type": "RP",
		"updated": "LCH*VORTAC*327.55/10.95"
	},
	{
		"name": "MOULD",
		"latitude": "28-57-37.92 N",
		"longitude": "96-21-12.84 W",
		"state": "TEXAS",
		"artcc": "ZHU",
		"type": "MR",
		"updated": "PSX*VORTAC*340.00/12.00"
	},
	{
		"name": "MOUZE",
		"latitude": "30-7-22.72 N",
		"longitude": "96-56-29.68 W",
		"state": "TEXAS",
		"artcc": "ZHU",
		"type": "RP",
		"updated": "TNV*VOR/DME*250.00/46.97"
	},
	{
		"name": "MOVBE",
		"latitude": "26-18-59.11 N",
		"longitude": "97-40-40.17 W",
		"state": "TEXAS",
		"artcc": "ZHU",
		"type": "RP",
		"updated": "HRL*VOR/DME*340.00/5.40"
	},
	{
		"name": "MOWHI",
		"latitude": "30-58-42.3 N",
		"longitude": "94-1-59.41 W",
		"state": "TEXAS",
		"artcc": "ZHU",
		"type": "RNAV",
		"updated": "07/07/2009"
	},
	{
		"name": "MOWLI",
		"latitude": "31-33-39.7 N",
		"longitude": "89-20-13.82 W",
		"state": "MISSISSIPPI",
		"artcc": "ZHU",
		"type": "RNAV",
		"updated": "02/05/2010"
	},
	{
		"name": "MPORT",
		"latitude": "30-29-31.68 N",
		"longitude": "95-52-17.22 W",
		"state": "TEXAS",
		"artcc": "ZHU",
		"type": "RNAV",
		"updated": "03/14/2014"
	},
	{
		"name": "MSCOT",
		"latitude": "30-15-36.43 N",
		"longitude": "95-49-43 W",
		"state": "TEXAS",
		"artcc": "ZHU",
		"type": "RNAV",
		"updated": "03/11/2014"
	},
	{
		"name": "MSTLO",
		"latitude": "30-55-26.61 N",
		"longitude": "97-19-8.43 W",
		"state": "TEXAS",
		"artcc": "ZHU",
		"type": "RNAV",
		"updated": "12/15/2014"
	},
	{
		"name": "MTHOL",
		"latitude": "29-49-7.99 N",
		"longitude": "90-2-34.26 W",
		"state": "LOUISIANA",
		"artcc": "ZHU",
		"type": "MR",
		"updated": "HRV*VORTAC*226.00/2.80"
	},
	{
		"name": "MUCKY",
		"latitude": "30-25-7.02 N",
		"longitude": "98-51-54.77 W",
		"state": "TEXAS",
		"artcc": "ZHU",
		"type": "RNAV",
		"updated": "01/10/2015"
	},
	{
		"name": "MUDBG",
		"latitude": "30-1-32.38 N",
		"longitude": "90-24-9.05 W",
		"state": "LOUISIANA",
		"artcc": "ZHU",
		"type": "RP",
		"updated": "MSY*LD*286.47/8.32"
	},
	{
		"name": "MUDDA",
		"latitude": "30-19-41.97 N",
		"longitude": "89-17-22.25 W",
		"state": "MISSISSIPPI",
		"artcc": "ZHU",
		"type": "RP",
		"updated": "PCU*VOR/DME*116.25"
	},
	{
		"name": "MUGVE",
		"latitude": "27-36-21.07 N",
		"longitude": "97-17-18.39 W",
		"state": "TEXAS",
		"artcc": "ZHU",
		"type": "MW",
		"updated": "07/09/2015"
	},
	{
		"name": "MULAT",
		"latitude": "27-41-3.12 N",
		"longitude": "97-0-6.04 W",
		"state": "TEXAS",
		"artcc": "ZHU",
		"type": "RP",
		"updated": "CRP*VORTAC*110.00/27.00"
	},
	{
		"name": "MULFE",
		"latitude": "29-53-8.13 N",
		"longitude": "89-56-16.61 W",
		"state": "LOUISIANA",
		"artcc": "ZHU",
		"type": "MR",
		"updated": "HRV*VORTAC*056.00/4.00"
	},
	{
		"name": "MULLT",
		"latitude": "29-2-13.6 N",
		"longitude": "93-46-49.14 W",
		"state": "OFFSHORE GULF",
		"artcc": "ZHU",
		"type": "RNAV",
		"updated": "03/24/2014"
	},
	{
		"name": "MUMMS",
		"latitude": "27-44-14.53 N",
		"longitude": "97-46-15.35 W",
		"state": "TEXAS",
		"artcc": "ZHU",
		"type": "RP",
		"updated": "CRP*VORTAC*231.22/20.00"
	},
	{
		"name": "MUMMY",
		"latitude": "30-24-39.65 N",
		"longitude": "96-48-25.42 W",
		"state": "TEXAS",
		"artcc": "ZHU",
		"type": "RP",
		"updated": "IDU*VORTAC*327.00"
	},
	{
		"name": "MUNCH",
		"latitude": "30-34-35.02 N",
		"longitude": "97-17-40.61 W",
		"state": "TEXAS",
		"artcc": "ZHU",
		"type": "RP",
		"updated": "IDU*VORTAC*306.48/53.17"
	},
	{
		"name": "MUNJO",
		"latitude": "29-9-50.39 N",
		"longitude": "99-10-18.83 W",
		"state": "TEXAS",
		"artcc": "ZHU",
		"type": "RNAV",
		"updated": "12/06/2010"
	},
	{
		"name": "MURFF",
		"latitude": "30-49-10.97 N",
		"longitude": "94-17-58.94 W",
		"state": "TEXAS",
		"artcc": "ZHU",
		"type": "RNAV",
		"updated": "05/10/2015"
	},
	{
		"name": "MUSEC",
		"latitude": "30-5-55.81 N",
		"longitude": "97-19-29.66 W",
		"state": "TEXAS",
		"artcc": "ZHU",
		"type": "RNAV",
		"updated": "10/19/2017"
	},
	{
		"name": "MUSHE",
		"latitude": "31-9-11.43 N",
		"longitude": "92-9-18.09 W",
		"state": "LOUISIANA",
		"artcc": "ZHU",
		"type": "RP",
		"updated": "LFT*VORTAC*348.71/58.04"
	},
	{
		"name": "MUSIQ",
		"latitude": "30-33-10.04 N",
		"longitude": "94-53-31.94 W",
		"state": "TEXAS",
		"artcc": "ZHU",
		"type": "RP",
		"updated": "DAS*VORTAC*324.50"
	},
	{
		"name": "MUSPE",
		"latitude": "29-45-9.04 N",
		"longitude": "98-15-59.29 W",
		"state": "TEXAS",
		"artcc": "ZHU",
		"type": "MR",
		"updated": "RND*VORTAC*359.00/14.00"
	},
	{
		"name": "MUSYL",
		"latitude": "28-10-13.55 N",
		"longitude": "94-7-45.14 W",
		"state": "OFFSHORE GULF",
		"artcc": "ZHU",
		"type": "RP",
		"updated": "VUH*VOR/DME*143.18/76.44"
	},
	{
		"name": "MUURY",
		"latitude": "30-45-55.2 N",
		"longitude": "87-44-31.46 W",
		"state": "ALABAMA",
		"artcc": "ZHU",
		"type": "RP",
		"updated": "GCV*VORTAC*112.22"
	},
	{
		"name": "MUXUE",
		"latitude": "28-59-48.81 N",
		"longitude": "98-32-5.07 W",
		"state": "TEXAS",
		"artcc": "ZHU",
		"type": "RNAV",
		"updated": "09/19/2008"
	},
	{
		"name": "MYDIA",
		"latitude": "24-2-26.39 N",
		"longitude": "86-9-29.67 W",
		"state": "OFFSHORE GULF",
		"artcc": "ZHU",
		"type": "RNAV",
		"updated": "10/25/2016"
	},
	{
		"name": "MYLLO",
		"latitude": "29-18-35.34 N",
		"longitude": "100-20-34.87 W",
		"state": "TEXAS",
		"artcc": "ZHU",
		"type": "WP",
		"updated": "DLF*VORTAC*088.00/22.70"
	},
	{
		"name": "MYOPE",
		"latitude": "30-5-3.37 N",
		"longitude": "97-36-27.27 W",
		"state": "TEXAS",
		"artcc": "ZHU",
		"type": "RNAV",
		"updated": "10/24/2017"
	},
	{
		"name": "MYRIC",
		"latitude": "30-9-12.81 N",
		"longitude": "91-26-12.68 W",
		"state": "LOUISIANA",
		"artcc": "ZHU",
		"type": "RP",
		"updated": "LFT*VORTAC*091.63/29.00"
	},
	{
		"name": "MYYKE",
		"latitude": "29-35-55.44 N",
		"longitude": "95-9-34.89 W",
		"state": "TEXAS",
		"artcc": "ZHU",
		"type": "RNAV",
		"updated": "01/01/2009"
	}
]
