[
	{
		"name": "NABCI",
		"latitude": "31-10-6.83 N",
		"longitude": "97-52-41.23 W",
		"state": "TEXAS",
		"artcc": "ZHU",
		"type": "RP",
		"updated": "AGJ*VORTAC*089.20"
	},
	{
		"name": "NACHO",
		"latitude": "29-24-26.7 N",
		"longitude": "100-49-59.48 W",
		"state": "TEXAS",
		"artcc": "ZHU",
		"type": "MR",
		"updated": "DLF*VORTAC*303.98/4.25"
	},
	{
		"name": "NACIV",
		"latitude": "29-40-52.7 N",
		"longitude": "90-50-43.04 W",
		"state": "LOUISIANA",
		"artcc": "ZHU",
		"type": "RNAV",
		"updated": "05/04/2009"
	},
	{
		"name": "NADBE",
		"latitude": "29-27-26.51 N",
		"longitude": "98-32-5.32 W",
		"state": "TEXAS",
		"artcc": "ZHU",
		"type": "RP",
		"updated": "SSF*VOR*329.25"
	},
	{
		"name": "NADKE",
		"latitude": "29-24-42.65 N",
		"longitude": "90-18-36.23 W",
		"state": "LOUISIANA",
		"artcc": "ZHU",
		"type": "RNAV",
		"updated": "02/27/2015"
	},
	{
		"name": "NADOS",
		"latitude": "31-29-7.61 N",
		"longitude": "94-43-6.93 W",
		"state": "TEXAS",
		"artcc": "ZHU",
		"type": "RP",
		"updated": "OCH*LD*000.00/6.07"
	},
	{
		"name": "NAFGU",
		"latitude": "29-4-17.68 N",
		"longitude": "98-56-35.67 W",
		"state": "TEXAS",
		"artcc": "ZHU",
		"type": "CN",
		"updated": "06/30/2003"
	},
	{
		"name": "NAITE",
		"latitude": "28-42-38.49 N",
		"longitude": "88-5-0 W",
		"state": "OFFSHORE GULF",
		"artcc": "ZHU",
		"type": "RNAV",
		"updated": "04/06/2014"
	},
	{
		"name": "NAKDE",
		"latitude": "31-29-55.47 N",
		"longitude": "91-27-7.96 W",
		"state": "MISSISSIPPI",
		"artcc": "ZHU",
		"type": "RNAV",
		"updated": "11/04/2015"
	},
	{
		"name": "NAKIC",
		"latitude": "29-53-42.38 N",
		"longitude": "97-46-29.97 W",
		"state": "TEXAS",
		"artcc": "ZHU",
		"type": "RNAV",
		"updated": "04/18/2013"
	},
	{
		"name": "NALIC",
		"latitude": "30-7-33.03 N",
		"longitude": "92-3-30.24 W",
		"state": "LOUISIANA",
		"artcc": "ZHU",
		"type": "RP",
		"updated": "TYN*LD*215.75/5.28"
	},
	{
		"name": "NALIE",
		"latitude": "30-4-19.4 N",
		"longitude": "95-24-33.89 W",
		"state": "TEXAS",
		"artcc": "ZHU",
		"type": "RNAV",
		"updated": "08/29/2001"
	},
	{
		"name": "NALSY",
		"latitude": "30-59-35.93 N",
		"longitude": "95-56-7.34 W",
		"state": "TEXAS",
		"artcc": "ZHU",
		"type": "RNAV",
		"updated": "12/13/2001"
	},
	{
		"name": "NAMIL",
		"latitude": "30-44-38.52 N",
		"longitude": "95-59-12.38 W",
		"state": "TEXAS",
		"artcc": "ZHU",
		"type": "RNAV",
		"updated": "12/13/2001"
	},
	{
		"name": "NANAS",
		"latitude": "29-47-55.48 N",
		"longitude": "91-6-9.82 W",
		"state": "LOUISIANA",
		"artcc": "ZHU",
		"type": "RP",
		"updated": "12/02/1994"
	},
	{
		"name": "NANNU",
		"latitude": "29-28-36.44 N",
		"longitude": "90-46-21.2 W",
		"state": "LOUISIANA",
		"artcc": "ZHU",
		"type": "WP",
		"updated": "08/10/1998"
	},
	{
		"name": "NAPPE",
		"latitude": "29-48-44.98 N",
		"longitude": "91-6-4.24 W",
		"state": "LOUISIANA",
		"artcc": "ZHU",
		"type": "WP",
		"updated": "08/10/1998"
	},
	{
		"name": "NAPSY",
		"latitude": "29-32-13.4 N",
		"longitude": "95-16-56.01 W",
		"state": "TEXAS",
		"artcc": "ZHU",
		"type": "RNAV",
		"updated": "02/09/2018"
	},
	{
		"name": "NAPTE",
		"latitude": "28-53-12.53 N",
		"longitude": "96-26-0.96 W",
		"state": "TEXAS",
		"artcc": "ZHU",
		"type": "RNAV",
		"updated": "12/10/2012"
	},
	{
		"name": "NARRW",
		"latitude": "27-42-57.13 N",
		"longitude": "97-37-11.81 W",
		"state": "TEXAS",
		"artcc": "ZHU",
		"type": "RNAV",
		"updated": "05/03/2017"
	},
	{
		"name": "NATVE",
		"latitude": "31-20-15.61 N",
		"longitude": "89-44-53.51 W",
		"state": "MISSISSIPPI",
		"artcc": "ZHU",
		"type": "RNAV",
		"updated": "08/14/2013"
	},
	{
		"name": "NEBLE",
		"latitude": "29-59-48.37 N",
		"longitude": "90-16-54.02 W",
		"state": "LOUISIANA",
		"artcc": "ZHU",
		"type": "RP",
		"updated": "RQR*VOR/DME*106.72/16.88"
	},
	{
		"name": "NEEHI",
		"latitude": "29-28-48.92 N",
		"longitude": "100-35-41.41 W",
		"state": "TEXAS",
		"artcc": "ZHU",
		"type": "WP",
		"updated": "DLF*VORTAC*042.00/11.70"
	},
	{
		"name": "NEEHO",
		"latitude": "27-58-47.68 N",
		"longitude": "97-29-49.54 W",
		"state": "TEXAS",
		"artcc": "ZHU",
		"type": "RNAV",
		"updated": "02/09/2018"
	},
	{
		"name": "NEEKO",
		"latitude": "29-59-35.96 N",
		"longitude": "95-10-9.29 W",
		"state": "TEXAS",
		"artcc": "ZHU",
		"type": "RNAV",
		"updated": "03/21/2014"
	},
	{
		"name": "NEELI",
		"latitude": "31-10-49.65 N",
		"longitude": "88-34-56.78 W",
		"state": "MISSISSIPPI",
		"artcc": "ZHU",
		"type": "RP",
		"updated": "GCV*VORTAC*310.00/7.00"
	},
	{
		"name": "NEEMS",
		"latitude": "30-17-37.84 N",
		"longitude": "97-38-11.73 W",
		"state": "TEXAS",
		"artcc": "ZHU",
		"type": "RNAV",
		"updated": "10/24/2017"
	},
	{
		"name": "NEGIC",
		"latitude": "27-51-2.1 N",
		"longitude": "97-9-7.19 W",
		"state": "TEXAS",
		"artcc": "ZHU",
		"type": "RNAV",
		"updated": "07/31/2006"
	},
	{
		"name": "NEGIY",
		"latitude": "30-14-32.26 N",
		"longitude": "95-40-35.5 W",
		"state": "TEXAS",
		"artcc": "ZHU",
		"type": "RNAV",
		"updated": "04/02/2007"
	},
	{
		"name": "NEHOW",
		"latitude": "28-19-24.28 N",
		"longitude": "97-26-3.86 W",
		"state": "TEXAS",
		"artcc": "ZHU",
		"type": "RNAV",
		"updated": "03/14/2014"
	},
	{
		"name": "NELEE",
		"latitude": "27-8-50.66 N",
		"longitude": "99-6-55.48 W",
		"state": "TEXAS",
		"artcc": "ZHU",
		"type": "RP",
		"updated": "ALI*VOR*233.00"
	},
	{
		"name": "NEMBE",
		"latitude": "30-6-57.67 N",
		"longitude": "93-13-34.48 W",
		"state": "LOUISIANA",
		"artcc": "ZHU",
		"type": "RP",
		"updated": "LCH*VORTAC*249.37/6.46"
	},
	{
		"name": "NEMCI",
		"latitude": "31-22-49.25 N",
		"longitude": "90-7-48.2 W",
		"state": "MISSISSIPPI",
		"artcc": "ZHU",
		"type": "RP",
		"updated": "MCB*VORTAC*052.36/8.00"
	},
	{
		"name": "NEMRY",
		"latitude": "31-14-55.72 N",
		"longitude": "90-23-58.77 W",
		"state": "MISSISSIPPI",
		"artcc": "ZHU",
		"type": "RP",
		"updated": "MCB*VORTAC*242.43/8.00"
	},
	{
		"name": "NENDE",
		"latitude": "27-54-36.36 N",
		"longitude": "97-4-35.91 W",
		"state": "TEXAS",
		"artcc": "ZHU",
		"type": "RNAV",
		"updated": "03/28/2010"
	},
	{
		"name": "NERAE",
		"latitude": "31-23-50.1 N",
		"longitude": "89-39-11.89 W",
		"state": "MISSISSIPPI",
		"artcc": "ZHU",
		"type": "RNAV",
		"updated": "08/14/2013"
	},
	{
		"name": "NESBE",
		"latitude": "28-23-27.2 N",
		"longitude": "99-8-33.86 W",
		"state": "TEXAS",
		"artcc": "ZHU",
		"type": "RNAV",
		"updated": "07/21/2014"
	},
	{
		"name": "NESFE",
		"latitude": "30-29-56.03 N",
		"longitude": "88-52-16.43 W",
		"state": "MISSISSIPPI",
		"artcc": "ZHU",
		"type": "RP",
		"updated": "GPT*VORTAC*060.61/12.00"
	},
	{
		"name": "NESKY",
		"latitude": "30-20-29.17 N",
		"longitude": "89-15-14.72 W",
		"state": "MISSISSIPPI",
		"artcc": "ZHU",
		"type": "CN",
		"updated": "11/05/1999"
	},
	{
		"name": "NETTI",
		"latitude": "31-17-57.51 N",
		"longitude": "89-17-56.3 W",
		"state": "MISSISSIPPI",
		"artcc": "ZHU",
		"type": "RNAV",
		"updated": "03/27/2007"
	},
	{
		"name": "NEWLY",
		"latitude": "30-0-24.42 N",
		"longitude": "94-54-56.63 W",
		"state": "TEXAS",
		"artcc": "ZHU",
		"type": "RP",
		"updated": "DAS*VORTAC*227.22"
	},
	{
		"name": "NEYIB",
		"latitude": "28-29-26.72 N",
		"longitude": "97-57-33.15 W",
		"state": "TEXAS",
		"artcc": "ZHU",
		"type": "RNAV",
		"updated": "05/09/2007"
	},
	{
		"name": "NEYID",
		"latitude": "30-21-26.49 N",
		"longitude": "91-38-46.53 W",
		"state": "LOUISIANA",
		"artcc": "ZHU",
		"type": "RNAV",
		"updated": "03/22/2013"
	},
	{
		"name": "NEYIR",
		"latitude": "29-3-26.93 N",
		"longitude": "100-17-43.1 W",
		"state": "TEXAS",
		"artcc": "ZHU",
		"type": "RNAV",
		"updated": "07/28/2008"
	},
	{
		"name": "NEZTI",
		"latitude": "29-32-50.7 N",
		"longitude": "91-24-50.53 W",
		"state": "LOUISIANA",
		"artcc": "ZHU",
		"type": "RNAV",
		"updated": "04/11/2012"
	},
	{
		"name": "NIFAD",
		"latitude": "30-14-38.36 N",
		"longitude": "94-16-40.6 W",
		"state": "TEXAS",
		"artcc": "ZHU",
		"type": "RNAV",
		"updated": "04/11/2018"
	},
	{
		"name": "NIFSO",
		"latitude": "31-44-52.48 N",
		"longitude": "91-8-11.99 W",
		"state": "MISSISSIPPI",
		"artcc": "ZHU",
		"type": "RP",
		"updated": "HEZ*VOR/DME*044.01/11.40"
	},
	{
		"name": "NIFTE",
		"latitude": "31-33-21.46 N",
		"longitude": "91-30-35.55 W",
		"state": "LOUISIANA",
		"artcc": "ZHU",
		"type": "RP",
		"updated": "HEZ*VOR/DME*247.98/11.40"
	},
	{
		"name": "NIGBE",
		"latitude": "27-43-1.16 N",
		"longitude": "97-27-52.87 W",
		"state": "TEXAS",
		"artcc": "ZHU",
		"type": "RNAV",
		"updated": "04/19/2016"
	},
	{
		"name": "NIIKI",
		"latitude": "30-43-6.59 N",
		"longitude": "98-21-16.2 W",
		"state": "TEXAS",
		"artcc": "ZHU",
		"type": "RNAV",
		"updated": "01/29/2009"
	},
	{
		"name": "NILEE",
		"latitude": "29-5-22.82 N",
		"longitude": "98-21-31.76 W",
		"state": "TEXAS",
		"artcc": "ZHU",
		"type": "RNAV",
		"updated": "10/20/2017"
	},
	{
		"name": "NIMBE",
		"latitude": "29-25-3.75 N",
		"longitude": "98-30-14.59 W",
		"state": "TEXAS",
		"artcc": "ZHU",
		"type": "RNAV",
		"updated": "03/13/2017"
	},
	{
		"name": "NINCI",
		"latitude": "30-52-3.52 N",
		"longitude": "87-52-6.8 W",
		"state": "ALABAMA",
		"artcc": "ZHU",
		"type": "RNAV",
		"updated": "02/07/2007"
	},
	{
		"name": "NIYIN",
		"latitude": "29-51-41.76 N",
		"longitude": "96-55-59.53 W",
		"state": "TEXAS",
		"artcc": "ZHU",
		"type": "RNAV",
		"updated": "06/11/2010"
	},
	{
		"name": "NNCEE",
		"latitude": "29-37-2.76 N",
		"longitude": "94-30-7.35 W",
		"state": "TEXAS",
		"artcc": "ZHU",
		"type": "RNAV",
		"updated": "02/17/2015"
	},
	{
		"name": "NNEAL",
		"latitude": "31-11-47.66 N",
		"longitude": "96-40-46.91 W",
		"state": "TEXAS",
		"artcc": "ZHU",
		"type": "RNAV",
		"updated": "03/25/2014"
	},
	{
		"name": "NOAAH",
		"latitude": "31-18-50.57 N",
		"longitude": "94-47-8.65 W",
		"state": "TEXAS",
		"artcc": "ZHU",
		"type": "RNAV",
		"updated": "10/24/2017"
	},
	{
		"name": "NOBLE",
		"latitude": "30-43-23.63 N",
		"longitude": "100-56-14.76 W",
		"state": "TEXAS",
		"artcc": "ZHU",
		"type": "MR",
		"updated": "SJT*VORTAC*202.00"
	},
	{
		"name": "NOCIT",
		"latitude": "31-20-19.04 N",
		"longitude": "89-17-20.39 W",
		"state": "MISSISSIPPI",
		"artcc": "ZHU",
		"type": "RNAV",
		"updated": "08/08/2005"
	},
	{
		"name": "NODVE",
		"latitude": "29-19-2.46 N",
		"longitude": "98-9-0.32 W",
		"state": "TEXAS",
		"artcc": "ZHU",
		"type": "MR",
		"updated": "RND*VORTAC*144.60/14.00"
	},
	{
		"name": "NOKSY",
		"latitude": "31-30-31.16 N",
		"longitude": "93-24-52.94 W",
		"state": "LOUISIANA",
		"artcc": "ZHU",
		"type": "RNAV",
		"updated": "08/07/2009"
	},
	{
		"name": "NOMEW",
		"latitude": "29-22-28.11 N",
		"longitude": "89-29-0.24 W",
		"state": "LOUISIANA",
		"artcc": "ZHU",
		"type": "RNAV",
		"updated": "01/31/2008"
	},
	{
		"name": "NOPAE",
		"latitude": "26-11-15.19 N",
		"longitude": "97-37-34 W",
		"state": "TEXAS",
		"artcc": "ZHU",
		"type": "RP",
		"updated": "HRL*VOR/DME*145.48/2.86"
	},
	{
		"name": "NOPNE",
		"latitude": "30-49-57.74 N",
		"longitude": "101-13-36.47 W",
		"state": "TEXAS",
		"artcc": "ZHU",
		"type": "RNAV",
		"updated": "05/21/2003"
	},
	{
		"name": "NORLE",
		"latitude": "30-16-18.61 N",
		"longitude": "95-20-54.41 W",
		"state": "TEXAS",
		"artcc": "ZHU",
		"type": "RNAV",
		"updated": "01/27/2015"
	},
	{
		"name": "NORTE",
		"latitude": "29-51-30.14 N",
		"longitude": "100-50-30.48 W",
		"state": "TEXAS",
		"artcc": "ZHU",
		"type": "MR",
		"updated": "DLF*VORTAC*346.00/30.00"
	},
	{
		"name": "NORWO",
		"latitude": "28-55-28.58 N",
		"longitude": "95-33-24.49 W",
		"state": "TEXAS",
		"artcc": "ZHU",
		"type": "RNAV",
		"updated": "06/29/2005"
	},
	{
		"name": "NOSUE",
		"latitude": "30-30-20.56 N",
		"longitude": "94-25-23.85 W",
		"state": "TEXAS",
		"artcc": "ZHU",
		"type": "RNAV",
		"updated": "06/14/2012"
	},
	{
		"name": "NOTAW",
		"latitude": "30-53-22.86 N",
		"longitude": "98-15-10.81 W",
		"state": "TEXAS",
		"artcc": "ZHU",
		"type": "RNAV",
		"updated": "10/20/2009"
	},
	{
		"name": "NOTNE",
		"latitude": "30-46-37.46 N",
		"longitude": "88-13-34.59 W",
		"state": "ALABAMA",
		"artcc": "ZHU",
		"type": "RNAV",
		"updated": "09/17/2014"
	},
	{
		"name": "NOTOE",
		"latitude": "30-50-17.47 N",
		"longitude": "96-37-23.89 W",
		"state": "TEXAS",
		"artcc": "ZHU",
		"type": "RNAV",
		"updated": "08/15/2011"
	},
	{
		"name": "NOTTA",
		"latitude": "29-52-47.7 N",
		"longitude": "92-7-27.15 W",
		"state": "LOUISIANA",
		"artcc": "ZHU",
		"type": "RP",
		"updated": "LFT*VORTAC*197.08/20.00"
	},
	{
		"name": "NOVRE",
		"latitude": "30-40-13.17 N",
		"longitude": "89-40-55.31 W",
		"state": "MISSISSIPPI",
		"artcc": "ZHU",
		"type": "CN",
		"updated": "11/01/1999"
	},
	{
		"name": "NOXRE",
		"latitude": "30-33-17.91 N",
		"longitude": "89-51-55.61 W",
		"state": "LOUISIANA",
		"artcc": "ZHU",
		"type": "CN",
		"updated": "11/01/1999"
	},
	{
		"name": "NUBOY",
		"latitude": "31-30-40.32 N",
		"longitude": "92-58-59.68 W",
		"state": "LOUISIANA",
		"artcc": "ZHU",
		"type": "RP",
		"updated": "AEX*VORTAC*298.72/29.08"
	},
	{
		"name": "NUCCI",
		"latitude": "29-15-37.77 N",
		"longitude": "100-34-25.33 W",
		"state": "TEXAS",
		"artcc": "ZHU",
		"type": "MR",
		"updated": "DLF*VORTAC*113.00/12.00"
	},
	{
		"name": "NUCIB",
		"latitude": "30-52-44.61 N",
		"longitude": "96-26-0.85 W",
		"state": "TEXAS",
		"artcc": "ZHU",
		"type": "RNAV",
		"updated": "09/02/2012"
	},
	{
		"name": "NUDLE",
		"latitude": "30-7-2.21 N",
		"longitude": "90-35-15.11 W",
		"state": "LOUISIANA",
		"artcc": "ZHU",
		"type": "RNAV",
		"updated": "09/22/2015"
	},
	{
		"name": "NUEAR",
		"latitude": "28-9-1.17 N",
		"longitude": "97-5-47.05 W",
		"state": "TEXAS",
		"artcc": "ZHU",
		"type": "RNAV",
		"updated": "03/28/2010"
	},
	{
		"name": "NUGTE",
		"latitude": "30-22-50.24 N",
		"longitude": "88-30-20.47 W",
		"state": "MISSISSIPPI",
		"artcc": "ZHU",
		"type": "RNAV",
		"updated": "11/04/2015"
	},
	{
		"name": "NUHDA",
		"latitude": "30-28-15.89 N",
		"longitude": "91-4-33.9 W",
		"state": "LOUISIANA",
		"artcc": "ZHU",
		"type": "RNAV",
		"updated": "07/15/2015"
	},
	{
		"name": "NUHOS",
		"latitude": "29-53-23.46 N",
		"longitude": "97-56-11.32 W",
		"state": "TEXAS",
		"artcc": "ZHU",
		"type": "RNAV",
		"updated": "04/18/2013"
	},
	{
		"name": "NUMIC",
		"latitude": "30-31-27.83 N",
		"longitude": "98-3-53.69 W",
		"state": "TEXAS",
		"artcc": "ZHU",
		"type": "RP",
		"updated": "CWK*VORTAC*281.60/29.09"
	},
	{
		"name": "NUMMO",
		"latitude": "29-34-34.04 N",
		"longitude": "97-53-42.01 W",
		"state": "TEXAS",
		"artcc": "ZHU",
		"type": "RNAV",
		"updated": "12/27/2007"
	},
	{
		"name": "NUNBE",
		"latitude": "29-21-6.7 N",
		"longitude": "89-25-41.19 W",
		"state": "LOUISIANA",
		"artcc": "ZHU",
		"type": "RNAV",
		"updated": "04/26/2018"
	},
	{
		"name": "NUPGY",
		"latitude": "29-35-31.25 N",
		"longitude": "98-40-9.34 W",
		"state": "TEXAS",
		"artcc": "ZHU",
		"type": "RNAV",
		"updated": "03/16/2011"
	},
	{
		"name": "NUPSY",
		"latitude": "30-41-45.92 N",
		"longitude": "96-48-48.95 W",
		"state": "TEXAS",
		"artcc": "ZHU",
		"type": "RNAV",
		"updated": "07/23/2012"
	},
	{
		"name": "NUTIE",
		"latitude": "27-46-45.68 N",
		"longitude": "97-17-18.63 W",
		"state": "TEXAS",
		"artcc": "ZHU",
		"type": "MW",
		"updated": "07/09/2015"
	},
	{
		"name": "NUTKE",
		"latitude": "29-33-27.81 N",
		"longitude": "100-17-12.37 W",
		"state": "TEXAS",
		"artcc": "ZHU",
		"type": "MR",
		"updated": "DLF*VORTAC*058.00/28.00"
	},
	{
		"name": "NUTUE",
		"latitude": "30-30-59.79 N",
		"longitude": "91-35-34.53 W",
		"state": "LOUISIANA",
		"artcc": "ZHU",
		"type": "RNAV",
		"updated": "04/01/2008"
	},
	{
		"name": "NUWRY",
		"latitude": "30-0-33.46 N",
		"longitude": "94-2-24.37 W",
		"state": "TEXAS",
		"artcc": "ZHU",
		"type": "RNAV",
		"updated": "10/27/2009"
	},
	{
		"name": "NUXLY",
		"latitude": "30-2-34.96 N",
		"longitude": "94-10-20.92 W",
		"state": "TEXAS",
		"artcc": "ZHU",
		"type": "RP",
		"updated": "BPT*VOR/DME*298.53/10.00"
	},
	{
		"name": "NUYER",
		"latitude": "27-47-18.9 N",
		"longitude": "97-13-51.48 W",
		"state": "TEXAS",
		"artcc": "ZHU",
		"type": "MR",
		"updated": "NGP*VORTAC*023.00/7.00"
	},
	{
		"name": "NUYVO",
		"latitude": "29-25-0.35 N",
		"longitude": "98-34-29.13 W",
		"state": "TEXAS",
		"artcc": "ZHU",
		"type": "RNAV",
		"updated": "03/17/2011"
	}
]
