[
	{
		"name": "OATEN",
		"latitude": "30-47-49.9 N",
		"longitude": "92-31-55.79 W",
		"state": "LOUISIANA",
		"artcc": "ZHU",
		"type": "RP",
		"updated": "LFT*VORTAC*319.38"
	},
	{
		"name": "OBGIY",
		"latitude": "28-16-38.45 N",
		"longitude": "100-10-11.95 W",
		"state": "TEXAS",
		"artcc": "ZHU",
		"type": "RNAV",
		"updated": "05/10/2000"
	},
	{
		"name": "OBOES",
		"latitude": "30-41-9.42 N",
		"longitude": "88-42-15.04 W",
		"state": "MISSISSIPPI",
		"artcc": "ZHU",
		"type": "RP",
		"updated": "GCV*VORTAC*199.59"
	},
	{
		"name": "OBUCO",
		"latitude": "30-6-37.99 N",
		"longitude": "99-16-10.96 W",
		"state": "TEXAS",
		"artcc": "ZHU",
		"type": "RNAV",
		"updated": "02/24/2012"
	},
	{
		"name": "OBVIE",
		"latitude": "29-21-41.12 N",
		"longitude": "95-27-44.81 W",
		"state": "TEXAS",
		"artcc": "ZHU",
		"type": "RP",
		"updated": "HUB*VOR/DME*203.96"
	},
	{
		"name": "OCADO",
		"latitude": "29-57-56.74 N",
		"longitude": "96-31-26.55 W",
		"state": "TEXAS",
		"artcc": "ZHU",
		"type": "RNAV",
		"updated": "06/04/2012"
	},
	{
		"name": "OCALI",
		"latitude": "30-11-25 N",
		"longitude": "93-8-20.4 W",
		"state": "LOUISIANA",
		"artcc": "ZHU",
		"type": "RNAV",
		"updated": "03/10/2003"
	},
	{
		"name": "OCILU",
		"latitude": "28-50-2.47 N",
		"longitude": "100-29-14.12 W",
		"state": "TEXAS",
		"artcc": "ZHU",
		"type": "RNAV",
		"updated": "07/28/2008"
	},
	{
		"name": "OCIPI",
		"latitude": "30-2-23.79 N",
		"longitude": "94-2-56.09 W",
		"state": "TEXAS",
		"artcc": "ZHU",
		"type": "RNAV",
		"updated": "10/27/2009"
	},
	{
		"name": "OCKPO",
		"latitude": "27-28-30.76 N",
		"longitude": "99-12-8 W",
		"state": "TEXAS",
		"artcc": "ZHU",
		"type": "MR",
		"updated": "LRD*VORTAC*082.00/11.50"
	},
	{
		"name": "OCORA",
		"latitude": "26-8-4.87 N",
		"longitude": "97-38-42.95 W",
		"state": "TEXAS",
		"artcc": "ZHU",
		"type": "RNAV",
		"updated": "08/09/2012"
	},
	{
		"name": "OCWOY",
		"latitude": "29-45-41.91 N",
		"longitude": "94-55-52.92 W",
		"state": "TEXAS",
		"artcc": "ZHU",
		"type": "RNAV",
		"updated": "06/01/2010"
	},
	{
		"name": "ODEDY",
		"latitude": "28-39-18.73 N",
		"longitude": "98-21-31.2 W",
		"state": "TEXAS",
		"artcc": "ZHU",
		"type": "RNAV",
		"updated": "08/12/2011"
	},
	{
		"name": "ODINE",
		"latitude": "30-5-45.52 N",
		"longitude": "97-39-47.83 W",
		"state": "TEXAS",
		"artcc": "ZHU",
		"type": "RNAV",
		"updated": "10/23/2017"
	},
	{
		"name": "ODISS",
		"latitude": "30-2-53 N",
		"longitude": "94-43-51.92 W",
		"state": "TEXAS",
		"artcc": "ZHU",
		"type": "RNAV",
		"updated": "03/11/2014"
	},
	{
		"name": "ODUYU",
		"latitude": "29-35-45.63 N",
		"longitude": "98-44-18 W",
		"state": "TEXAS",
		"artcc": "ZHU",
		"type": "MW",
		"updated": "09/05/2013"
	},
	{
		"name": "ODXUR",
		"latitude": "29-24-20.86 N",
		"longitude": "98-26-17.33 W",
		"state": "TEXAS",
		"artcc": "ZHU",
		"type": "RNAV",
		"updated": "03/17/2011"
	},
	{
		"name": "OFERS",
		"latitude": "30-9-38.15 N",
		"longitude": "93-38-57.49 W",
		"state": "LOUISIANA",
		"artcc": "ZHU",
		"type": "RP",
		"updated": "LCH*VORTAC*265.45/28.31"
	},
	{
		"name": "OFLOG",
		"latitude": "29-22-29.32 N",
		"longitude": "90-26-52.72 W",
		"state": "LOUISIANA",
		"artcc": "ZHU",
		"type": "RNAV",
		"updated": "01/16/2004"
	},
	{
		"name": "OGAVE",
		"latitude": "29-45-53.44 N",
		"longitude": "95-25-15.73 W",
		"state": "TEXAS",
		"artcc": "ZHU",
		"type": "RNAV",
		"updated": "02/09/2018"
	},
	{
		"name": "OGERE",
		"latitude": "28-16-59.42 N",
		"longitude": "97-5-6.76 W",
		"state": "TEXAS",
		"artcc": "ZHU",
		"type": "RNAV",
		"updated": "03/28/2010"
	},
	{
		"name": "OGEWE",
		"latitude": "30-11-20.49 N",
		"longitude": "95-34-32.82 W",
		"state": "TEXAS",
		"artcc": "ZHU",
		"type": "RNAV",
		"updated": "08/12/2010"
	},
	{
		"name": "OGLUW",
		"latitude": "28-47-45.06 N",
		"longitude": "98-2-51.82 W",
		"state": "TEXAS",
		"artcc": "ZHU",
		"type": "RNAV",
		"updated": "08/08/2012"
	},
	{
		"name": "OGOGE",
		"latitude": "29-57-50.35 N",
		"longitude": "93-16-0.7 W",
		"state": "LOUISIANA",
		"artcc": "ZHU",
		"type": "RNAV",
		"updated": "01/03/2009"
	},
	{
		"name": "OGUHO",
		"latitude": "27-46-43.11 N",
		"longitude": "96-52-37.36 W",
		"state": "TEXAS",
		"artcc": "ZHU",
		"type": "RNAV",
		"updated": "07/26/2012"
	},
	{
		"name": "OHGOK",
		"latitude": "29-27-12.41 N",
		"longitude": "95-16-49.66 W",
		"state": "TEXAS",
		"artcc": "ZHU",
		"type": "RNAV",
		"updated": "02/09/2018"
	},
	{
		"name": "OHIIO",
		"latitude": "30-8-17.61 N",
		"longitude": "95-5-2.55 W",
		"state": "TEXAS",
		"artcc": "ZHU",
		"type": "RP",
		"updated": "IAH*VORTAC*046.40/17.42"
	},
	{
		"name": "OHTAB",
		"latitude": "29-52-30.38 N",
		"longitude": "90-7-44.86 W",
		"state": "LOUISIANA",
		"artcc": "ZHU",
		"type": "RNAV",
		"updated": "04/27/2018"
	},
	{
		"name": "OILER",
		"latitude": "30-15-10.33 N",
		"longitude": "95-34-51.92 W",
		"state": "TEXAS",
		"artcc": "ZHU",
		"type": "RNAV",
		"updated": "04/02/2007"
	},
	{
		"name": "OILLL",
		"latitude": "31-0-11.08 N",
		"longitude": "96-11-57.14 W",
		"state": "TEXAS",
		"artcc": "ZHU",
		"type": "RNAV",
		"updated": "03/14/2014"
	},
	{
		"name": "OJMEM",
		"latitude": "30-34-13.55 N",
		"longitude": "88-3-57.14 W",
		"state": "ALABAMA",
		"artcc": "ZHU",
		"type": "RNAV",
		"updated": "09/17/2014"
	},
	{
		"name": "OKAZI",
		"latitude": "29-25-30.24 N",
		"longitude": "91-26-21.6 W",
		"state": "LOUISIANA",
		"artcc": "ZHU",
		"type": "RP",
		"updated": "TBD*VOR/DME*244.00/35.00"
	},
	{
		"name": "OKEST",
		"latitude": "31-15-47.96 N",
		"longitude": "97-55-27.22 W",
		"state": "TEXAS",
		"artcc": "ZHU",
		"type": "RP",
		"updated": "AGJ*VORTAC*062.35/12.13"
	},
	{
		"name": "OKFEL",
		"latitude": "29-59-49.52 N",
		"longitude": "96-58-56.45 W",
		"state": "TEXAS",
		"artcc": "ZHU",
		"type": "RNAV",
		"updated": "06/04/2012"
	},
	{
		"name": "OKIGE",
		"latitude": "30-37-51.21 N",
		"longitude": "96-30-45 W",
		"state": "TEXAS",
		"artcc": "ZHU",
		"type": "RP",
		"updated": "CLL*VORTAC*280.08/5.00"
	},
	{
		"name": "OKUME",
		"latitude": "29-6-16.99 N",
		"longitude": "95-9-9.19 W",
		"state": "TEXAS",
		"artcc": "ZHU",
		"type": "MR",
		"updated": "EFD*TACAN*/30.00"
	},
	{
		"name": "OKUNE",
		"latitude": "27-45-21.51 N",
		"longitude": "97-13-23.71 W",
		"state": "TEXAS",
		"artcc": "ZHU",
		"type": "MW",
		"updated": "07/23/2015"
	},
	{
		"name": "OLEDD",
		"latitude": "29-44-39.2 N",
		"longitude": "90-28-37.79 W",
		"state": "LOUISIANA",
		"artcc": "ZHU",
		"type": "RP",
		"updated": "TBD*VOR/DME*073.34/19.00"
	},
	{
		"name": "OLEZO",
		"latitude": "29-53-5.16 N",
		"longitude": "89-43-5.51 W",
		"state": "LOUISIANA",
		"artcc": "ZHU",
		"type": "MR",
		"updated": "HRV*VORTAC*080.00/15.00"
	},
	{
		"name": "OLGEC",
		"latitude": "27-34-43.99 N",
		"longitude": "99-22-17.27 W",
		"state": "TEXAS",
		"artcc": "ZHU",
		"type": "RNAV",
		"updated": "06/28/2016"
	},
	{
		"name": "OLIRE",
		"latitude": "28-3-53.07 N",
		"longitude": "97-21-22.99 W",
		"state": "TEXAS",
		"artcc": "ZHU",
		"type": "RNAV",
		"updated": "07/31/2006"
	},
	{
		"name": "OLNAJ",
		"latitude": "30-24-56.62 N",
		"longitude": "96-6-55.71 W",
		"state": "TEXAS",
		"artcc": "ZHU",
		"type": "RNAV",
		"updated": "01/20/2013"
	},
	{
		"name": "OLSKI",
		"latitude": "28-25-26.53 N",
		"longitude": "97-25-53.18 W",
		"state": "TEXAS",
		"artcc": "ZHU",
		"type": "MW",
		"updated": "12/22/2017"
	},
	{
		"name": "OLUSE",
		"latitude": "28-9-38.19 N",
		"longitude": "97-1-28.16 W",
		"state": "TEXAS",
		"artcc": "ZHU",
		"type": "RNAV",
		"updated": "03/28/2010"
	},
	{
		"name": "OMEHU",
		"latitude": "29-28-56.41 N",
		"longitude": "94-51-19.75 W",
		"state": "TEXAS",
		"artcc": "ZHU",
		"type": "RNAV",
		"updated": "11/16/2012"
	},
	{
		"name": "ONICE",
		"latitude": "30-33-4.31 N",
		"longitude": "92-41-25.23 W",
		"state": "LOUISIANA",
		"artcc": "ZHU",
		"type": "RNAV",
		"updated": "09/15/2006"
	},
	{
		"name": "ONLIE",
		"latitude": "30-25-15.06 N",
		"longitude": "89-5-20.86 W",
		"state": "MISSISSIPPI",
		"artcc": "ZHU",
		"type": "MR",
		"updated": "GPT*VORTAC*320.64/1.06"
	},
	{
		"name": "ONUME",
		"latitude": "27-45-21.74 N",
		"longitude": "97-22-33.24 W",
		"state": "TEXAS",
		"artcc": "ZHU",
		"type": "RNAV",
		"updated": "07/12/2016"
	},
	{
		"name": "OPELS",
		"latitude": "30-24-44.72 N",
		"longitude": "92-11-13.43 W",
		"state": "LOUISIANA",
		"artcc": "ZHU",
		"type": "RP",
		"updated": "LFT*VORTAC*319.38/16.53"
	},
	{
		"name": "OPMEE",
		"latitude": "30-56-58.06 N",
		"longitude": "92-41-11.9 W",
		"state": "LOUISIANA",
		"artcc": "ZHU",
		"type": "RNAV",
		"updated": "06/23/2009"
	},
	{
		"name": "OPTOC",
		"latitude": "29-41-30.45 N",
		"longitude": "94-48-35.47 W",
		"state": "TEXAS",
		"artcc": "ZHU",
		"type": "RNAV",
		"updated": "06/11/2012"
	},
	{
		"name": "OPULL",
		"latitude": "26-49-34.6 N",
		"longitude": "97-24-24.1 W",
		"state": "TEXAS",
		"artcc": "ZHU",
		"type": "RP",
		"updated": "BRO*VORTAC*349.21/54.00"
	},
	{
		"name": "OPYAB",
		"latitude": "28-43-13.53 N",
		"longitude": "95-48-34.13 W",
		"state": "TEXAS",
		"artcc": "ZHU",
		"type": "RNAV",
		"updated": "12/15/2011"
	},
	{
		"name": "ORALE",
		"latitude": "30-3-6.94 N",
		"longitude": "98-3-42.98 W",
		"state": "TEXAS",
		"artcc": "ZHU",
		"type": "RNAV",
		"updated": "04/18/2013"
	},
	{
		"name": "OREAN",
		"latitude": "27-26-30.81 N",
		"longitude": "97-55-42.7 W",
		"state": "TEXAS",
		"artcc": "ZHU",
		"type": "RNAV",
		"updated": "05/28/2010"
	},
	{
		"name": "OREKY",
		"latitude": "29-25-35.91 N",
		"longitude": "90-43-4.83 W",
		"state": "LOUISIANA",
		"artcc": "ZHU",
		"type": "RNAV",
		"updated": "12/08/2017"
	},
	{
		"name": "ORENT",
		"latitude": "29-53-46.84 N",
		"longitude": "95-42-54.15 W",
		"state": "TEXAS",
		"artcc": "ZHU",
		"type": "RNAV",
		"updated": "07/18/2012"
	},
	{
		"name": "OREYI",
		"latitude": "27-36-13.51 N",
		"longitude": "98-41-41.06 W",
		"state": "TEXAS",
		"artcc": "ZHU",
		"type": "RNAV",
		"updated": "09/24/2014"
	},
	{
		"name": "ORFEN",
		"latitude": "26-22-18.9 N",
		"longitude": "97-40-21.4 W",
		"state": "TEXAS",
		"artcc": "ZHU",
		"type": "RNAV",
		"updated": "08/09/2012"
	},
	{
		"name": "ORICH",
		"latitude": "29-39-57.66 N",
		"longitude": "91-35-55.42 W",
		"state": "LOUISIANA",
		"artcc": "ZHU",
		"type": "RP",
		"updated": "TBD*VOR/DME*268.33/40.23"
	},
	{
		"name": "ORIET",
		"latitude": "27-28-20.62 N",
		"longitude": "99-2-34.72 W",
		"state": "TEXAS",
		"artcc": "ZHU",
		"type": "MR",
		"updated": "LRD*VORTAC*082.00/20.00"
	},
	{
		"name": "ORINT",
		"latitude": "29-56-14.23 N",
		"longitude": "98-13-36.74 W",
		"state": "TEXAS",
		"artcc": "ZHU",
		"type": "RNAV",
		"updated": "10/20/2017"
	},
	{
		"name": "OROCE",
		"latitude": "30-40-10.86 N",
		"longitude": "96-18-9.48 W",
		"state": "TEXAS",
		"artcc": "ZHU",
		"type": "RNAV",
		"updated": "05/09/2007"
	},
	{
		"name": "OROXE",
		"latitude": "31-7-40.46 N",
		"longitude": "89-4-10.58 W",
		"state": "MISSISSIPPI",
		"artcc": "ZHU",
		"type": "RNAV",
		"updated": "05/13/2004"
	},
	{
		"name": "ORUDE",
		"latitude": "30-26-16.67 N",
		"longitude": "96-39-26.08 W",
		"state": "TEXAS",
		"artcc": "ZHU",
		"type": "RNAV",
		"updated": "07/23/2012"
	},
	{
		"name": "ORULE",
		"latitude": "26-11-38.9 N",
		"longitude": "97-32-22.26 W",
		"state": "TEXAS",
		"artcc": "ZHU",
		"type": "RNAV",
		"updated": "08/09/2012"
	},
	{
		"name": "ORUNY",
		"latitude": "29-27-5.61 N",
		"longitude": "99-10-19.45 W",
		"state": "TEXAS",
		"artcc": "ZHU",
		"type": "RNAV",
		"updated": "12/06/2010"
	},
	{
		"name": "ORYAC",
		"latitude": "27-46-40.09 N",
		"longitude": "97-20-40.48 W",
		"state": "TEXAS",
		"artcc": "ZHU",
		"type": "RNAV",
		"updated": "07/12/2016"
	},
	{
		"name": "OSCER",
		"latitude": "30-47-32.34 N",
		"longitude": "95-51-28.11 W",
		"state": "TEXAS",
		"artcc": "ZHU",
		"type": "RP",
		"updated": "TNV*VOR/DME*010.95/31.90"
	},
	{
		"name": "OSLOW",
		"latitude": "30-45-50.56 N",
		"longitude": "89-23-42.33 W",
		"state": "MISSISSIPPI",
		"artcc": "ZHU",
		"type": "MR",
		"updated": "GPT*VORTAC*320.45/27.00"
	},
	{
		"name": "OSOLA",
		"latitude": "30-4-31.27 N",
		"longitude": "93-18-27.55 W",
		"state": "LOUISIANA",
		"artcc": "ZHU",
		"type": "RNAV",
		"updated": "10/19/2017"
	},
	{
		"name": "OSRAW",
		"latitude": "30-26-37.76 N",
		"longitude": "95-23-4 W",
		"state": "TEXAS",
		"artcc": "ZHU",
		"type": "RNAV",
		"updated": "08/12/2010"
	},
	{
		"name": "OSSOE",
		"latitude": "27-39-52.12 N",
		"longitude": "97-29-39.53 W",
		"state": "TEXAS",
		"artcc": "ZHU",
		"type": "RP",
		"updated": "NGP*VORTAC*257.05"
	},
	{
		"name": "OSTOE",
		"latitude": "31-0-5.19 N",
		"longitude": "89-51-16.16 W",
		"state": "LOUISIANA",
		"artcc": "ZHU",
		"type": "RNAV",
		"updated": "09/05/2012"
	},
	{
		"name": "OSUGY",
		"latitude": "30-39-16.89 N",
		"longitude": "97-26-43.57 W",
		"state": "TEXAS",
		"artcc": "ZHU",
		"type": "RNAV",
		"updated": "02/03/2014"
	},
	{
		"name": "OSUME",
		"latitude": "30-32-54.29 N",
		"longitude": "96-42-10.1 W",
		"state": "TEXAS",
		"artcc": "ZHU",
		"type": "RP",
		"updated": "CLL*VORTAC*249.02/15.00"
	},
	{
		"name": "OSWOD",
		"latitude": "29-35-21.02 N",
		"longitude": "98-32-43.39 W",
		"state": "TEXAS",
		"artcc": "ZHU",
		"type": "RNAV",
		"updated": "03/17/2011"
	},
	{
		"name": "OTCAV",
		"latitude": "27-43-47.34 N",
		"longitude": "98-43-52.4 W",
		"state": "TEXAS",
		"artcc": "ZHU",
		"type": "RNAV",
		"updated": "04/10/2012"
	},
	{
		"name": "OTERR",
		"latitude": "28-53-15.86 N",
		"longitude": "96-29-8.52 W",
		"state": "TEXAS",
		"artcc": "ZHU",
		"type": "MR",
		"updated": "PSX*VORTAC*300.00/12.00"
	},
	{
		"name": "OTIME",
		"latitude": "30-31-10.03 N",
		"longitude": "88-32-43.78 W",
		"state": "MISSISSIPPI",
		"artcc": "ZHU",
		"type": "RP",
		"updated": "PQL*LD*348.05/4.20"
	},
	{
		"name": "OTMEE",
		"latitude": "30-49-59.59 N",
		"longitude": "88-3-57.73 W",
		"state": "ALABAMA",
		"artcc": "ZHU",
		"type": "RNAV",
		"updated": "11/09/2004"
	},
	{
		"name": "OTQAB",
		"latitude": "31-13-11.6 N",
		"longitude": "92-20-21.69 W",
		"state": "LOUISIANA",
		"artcc": "ZHU",
		"type": "RNAV",
		"updated": "03/28/2005"
	},
	{
		"name": "OTULE",
		"latitude": "29-4-41.59 N",
		"longitude": "100-39-16.65 W",
		"state": "TEXAS",
		"artcc": "ZHU",
		"type": "MW",
		"updated": "07/14/2009"
	},
	{
		"name": "OTUSE",
		"latitude": "29-25-5.02 N",
		"longitude": "100-50-25.62 W",
		"state": "TEXAS",
		"artcc": "ZHU",
		"type": "MR",
		"updated": "DLF*VORTAC*306.54/4.97"
	},
	{
		"name": "OTUWI",
		"latitude": "30-24-44.34 N",
		"longitude": "88-26-59.44 W",
		"state": "MISSISSIPPI",
		"artcc": "ZHU",
		"type": "RNAV",
		"updated": "12/22/2008"
	},
	{
		"name": "OTVIW",
		"latitude": "28-43-43.85 N",
		"longitude": "98-18-58.16 W",
		"state": "TEXAS",
		"artcc": "ZHU",
		"type": "RP",
		"updated": "THX*VORTAC*318.89/16.00"
	},
	{
		"name": "OTWED",
		"latitude": "28-21-34.79 N",
		"longitude": "98-6-24.09 W",
		"state": "TEXAS",
		"artcc": "ZHU",
		"type": "RP",
		"updated": "THX*VORTAC*157.08/9.00"
	},
	{
		"name": "OTZOT",
		"latitude": "30-51-46.58 N",
		"longitude": "87-56-3.82 W",
		"state": "ALABAMA",
		"artcc": "ZHU",
		"type": "RNAV",
		"updated": "02/16/2011"
	},
	{
		"name": "OVACU",
		"latitude": "31-15-16.16 N",
		"longitude": "99-19-27.9 W",
		"state": "TEXAS",
		"artcc": "ZHU",
		"type": "RNAV",
		"updated": "10/14/2008"
	},
	{
		"name": "OVBAE",
		"latitude": "30-30-37.42 N",
		"longitude": "91-29-48.19 W",
		"state": "LOUISIANA",
		"artcc": "ZHU",
		"type": "RNAV",
		"updated": "04/01/2008"
	},
	{
		"name": "OVINE",
		"latitude": "29-24-12.63 N",
		"longitude": "89-36-7.55 W",
		"state": "LOUISIANA",
		"artcc": "ZHU",
		"type": "RNAV",
		"updated": "04/26/2018"
	},
	{
		"name": "OVOSE",
		"latitude": "27-44-42.55 N",
		"longitude": "99-27-10.58 W",
		"state": "TEXAS",
		"artcc": "ZHU",
		"type": "RNAV",
		"updated": "04/12/2006"
	},
	{
		"name": "OVUKE",
		"latitude": "30-18-2.05 N",
		"longitude": "97-37-15.65 W",
		"state": "TEXAS",
		"artcc": "ZHU",
		"type": "RNAV",
		"updated": "10/24/2017"
	},
	{
		"name": "OVUZO",
		"latitude": "26-10-28.74 N",
		"longitude": "97-23-6.73 W",
		"state": "TEXAS",
		"artcc": "ZHU",
		"type": "CN",
		"updated": "02/06/2012"
	},
	{
		"name": "OVXAP",
		"latitude": "26-0-19.12 N",
		"longitude": "97-28-7.16 W",
		"state": "TEXAS",
		"artcc": "ZHU",
		"type": "CN",
		"updated": "02/06/2012"
	},
	{
		"name": "OVZUR",
		"latitude": "29-52-37.84 N",
		"longitude": "94-48-56.35 W",
		"state": "TEXAS",
		"artcc": "ZHU",
		"type": "RNAV",
		"updated": "08/28/2000"
	},
	{
		"name": "OWANY",
		"latitude": "30-23-29.99 N",
		"longitude": "96-10-33.47 W",
		"state": "TEXAS",
		"artcc": "ZHU",
		"type": "RP",
		"updated": "CLL*VORTAC*127.13/18.00"
	},
	{
		"name": "OWDIM",
		"latitude": "30-47-8.32 N",
		"longitude": "96-41-55.5 W",
		"state": "TEXAS",
		"artcc": "ZHU",
		"type": "RP",
		"updated": "CLL*VORTAC*299.00/18.00"
	},
	{
		"name": "OWEEE",
		"latitude": "30-33-50.96 N",
		"longitude": "97-3-53.31 W",
		"state": "TEXAS",
		"artcc": "ZHU",
		"type": "RP",
		"updated": "TNV*VOR/DME*279.79/54.76"
	},
	{
		"name": "OWEJA",
		"latitude": "30-48-17.93 N",
		"longitude": "96-14-45.25 W",
		"state": "TEXAS",
		"artcc": "ZHU",
		"type": "CN",
		"updated": "02/06/2012"
	},
	{
		"name": "OWEKY",
		"latitude": "29-33-0.57 N",
		"longitude": "98-40-25.76 W",
		"state": "TEXAS",
		"artcc": "ZHU",
		"type": "RNAV",
		"updated": "04/06/2012"
	},
	{
		"name": "OWELL",
		"latitude": "30-0-25.93 N",
		"longitude": "95-13-8.77 W",
		"state": "TEXAS",
		"artcc": "ZHU",
		"type": "RP",
		"updated": "OND*LD*086.96/7.46"
	},
	{
		"name": "OWFOB",
		"latitude": "30-23-8.64 N",
		"longitude": "96-16-49.7 W",
		"state": "TEXAS",
		"artcc": "ZHU",
		"type": "CN",
		"updated": "02/06/2012"
	},
	{
		"name": "OWNOL",
		"latitude": "29-26-44.97 N",
		"longitude": "98-17-14.65 W",
		"state": "TEXAS",
		"artcc": "ZHU",
		"type": "RNAV",
		"updated": "03/17/2011"
	},
	{
		"name": "OWURE",
		"latitude": "31-19-19.9 N",
		"longitude": "94-47-42.25 W",
		"state": "TEXAS",
		"artcc": "ZHU",
		"type": "RP",
		"updated": "LFK*VORTAC*332.20/10.38"
	},
	{
		"name": "OWZUT",
		"latitude": "30-59-26.56 N",
		"longitude": "95-57-25.49 W",
		"state": "TEXAS",
		"artcc": "ZHU",
		"type": "RP",
		"updated": "LOA*VORTAC*167.98/8.00"
	},
	{
		"name": "OXANY",
		"latitude": "31-19-13.42 N",
		"longitude": "94-42-52.43 W",
		"state": "TEXAS",
		"artcc": "ZHU",
		"type": "WP",
		"updated": "11/02/1998"
	},
	{
		"name": "OXEMY",
		"latitude": "29-24-47.51 N",
		"longitude": "96-5-45.97 W",
		"state": "TEXAS",
		"artcc": "ZHU",
		"type": "RNAV",
		"updated": "06/04/2012"
	},
	{
		"name": "OXIDE",
		"latitude": "31-29-10.6 N",
		"longitude": "93-15-51.64 W",
		"state": "LOUISIANA",
		"artcc": "ZHU",
		"type": "RNAV",
		"updated": "08/07/2009"
	},
	{
		"name": "OXITY",
		"latitude": "30-48-28.85 N",
		"longitude": "96-0-8.23 W",
		"state": "TEXAS",
		"artcc": "ZHU",
		"type": "RP",
		"updated": "LOA*VORTAC*177.36/19.00"
	},
	{
		"name": "OXUKE",
		"latitude": "28-34-32.79 N",
		"longitude": "98-58-48.4 W",
		"state": "TEXAS",
		"artcc": "ZHU",
		"type": "CN",
		"updated": "02/06/2012"
	},
	{
		"name": "OXUSY",
		"latitude": "28-58-12.64 N",
		"longitude": "95-51-52.58 W",
		"state": "TEXAS",
		"artcc": "ZHU",
		"type": "RP",
		"updated": "PSX*VORTAC*054.00/26.32"
	},
	{
		"name": "OYABI",
		"latitude": "29-38-16.23 N",
		"longitude": "90-22-38.58 W",
		"state": "LOUISIANA",
		"artcc": "ZHU",
		"type": "RNAV",
		"updated": "10/02/2014"
	},
	{
		"name": "OYALE",
		"latitude": "29-2-53.39 N",
		"longitude": "94-51-46.51 W",
		"state": "TEXAS",
		"artcc": "ZHU",
		"type": "RNAV",
		"updated": "11/16/2012"
	},
	{
		"name": "OYICU",
		"latitude": "26-9-3.63 N",
		"longitude": "98-13-2.11 W",
		"state": "TEXAS",
		"artcc": "ZHU",
		"type": "RP",
		"updated": "LLM*LD*136.58/1.16"
	},
	{
		"name": "OYSTY",
		"latitude": "30-28-15.21 N",
		"longitude": "90-11-49.14 W",
		"state": "LOUISIANA",
		"artcc": "ZHU",
		"type": "RP",
		"updated": "PCU*VOR/DME*252.52"
	},
	{
		"name": "OYUBA",
		"latitude": "31-8-15.17 N",
		"longitude": "92-34-51.31 W",
		"state": "LOUISIANA",
		"artcc": "ZHU",
		"type": "RNAV",
		"updated": "06/22/2007"
	},
	{
		"name": "OZEFA",
		"latitude": "30-12-42.25 N",
		"longitude": "92-0-35.62 W",
		"state": "LOUISIANA",
		"artcc": "ZHU",
		"type": "RP",
		"updated": "LFT*VORTAC*317.00/1.40"
	},
	{
		"name": "OZEFY",
		"latitude": "29-49-3.67 N",
		"longitude": "95-40-19.99 W",
		"state": "TEXAS",
		"artcc": "ZHU",
		"type": "RP",
		"updated": "IAH*VORTAC*239.01/18.96"
	},
	{
		"name": "OZEYI",
		"latitude": "30-46-56.69 N",
		"longitude": "99-10-59.67 W",
		"state": "TEXAS",
		"artcc": "ZHU",
		"type": "RNAV",
		"updated": "09/27/2012"
	},
	{
		"name": "OZINU",
		"latitude": "31-39-36.08 N",
		"longitude": "91-17-41.15 W",
		"state": "MISSISSIPPI",
		"artcc": "ZHU",
		"type": "RNAV",
		"updated": "06/25/2013"
	},
	{
		"name": "OZKUJ",
		"latitude": "28-51-0.35 N",
		"longitude": "98-31-0.67 W",
		"state": "TEXAS",
		"artcc": "ZHU",
		"type": "RNAV",
		"updated": "08/12/2011"
	},
	{
		"name": "OZMOS",
		"latitude": "30-47-40.31 N",
		"longitude": "101-28-58.28 W",
		"state": "TEXAS",
		"artcc": "ZHU",
		"type": "RP",
		"updated": "JCT*VORTAC*270.20/86.95"
	}
]
