[
	{
		"name": "RABOD",
		"latitude": "26-5-54.11 N",
		"longitude": "98-9-15.17 W",
		"state": "TEXAS",
		"artcc": "ZHU",
		"type": "RP",
		"updated": "MFE*VOR/DME*125.00/6.50"
	},
	{
		"name": "RACEL",
		"latitude": "29-46-18.88 N",
		"longitude": "90-39-32.23 W",
		"state": "LOUISIANA",
		"artcc": "ZHU",
		"type": "RP",
		"updated": "TBD*VOR/DME*052.04/10.98"
	},
	{
		"name": "RADOY",
		"latitude": "28-43-1.88 N",
		"longitude": "96-45-13.97 W",
		"state": "TEXAS",
		"artcc": "ZHU",
		"type": "RP",
		"updated": "VCT*VOR/DME*126.68/16.15"
	},
	{
		"name": "RAECN",
		"latitude": "30-5-4.52 N",
		"longitude": "95-14-56.78 W",
		"state": "TEXAS",
		"artcc": "ZHU",
		"type": "RP",
		"updated": "DAS*VORTAC*253.83"
	},
	{
		"name": "RAFTO",
		"latitude": "31-11-44.69 N",
		"longitude": "94-1-43.09 W",
		"state": "TEXAS",
		"artcc": "ZHU",
		"type": "RP",
		"updated": "LFK*VORTAC*081.59/35.48"
	},
	{
		"name": "RAGAE",
		"latitude": "31-38-0.66 N",
		"longitude": "91-34-4.53 W",
		"state": "LOUISIANA",
		"artcc": "ZHU",
		"type": "RNAV",
		"updated": "11/04/2015"
	},
	{
		"name": "RAIDS",
		"latitude": "30-0-25.07 N",
		"longitude": "94-59-48.35 W",
		"state": "TEXAS",
		"artcc": "ZHU",
		"type": "RP",
		"updated": "HUB*VOR/DME*029.71"
	},
	{
		"name": "RAIME",
		"latitude": "29-39-2.31 N",
		"longitude": "98-37-29.39 W",
		"state": "TEXAS",
		"artcc": "ZHU",
		"type": "RP",
		"updated": "SAT*VORTAC*264.69"
	},
	{
		"name": "RAJRY",
		"latitude": "29-53-1 N",
		"longitude": "98-7-14.65 W",
		"state": "TEXAS",
		"artcc": "ZHU",
		"type": "RNAV",
		"updated": "04/18/2013"
	},
	{
		"name": "RAKEE",
		"latitude": "31-28-50.52 N",
		"longitude": "91-27-54.5 W",
		"state": "MISSISSIPPI",
		"artcc": "ZHU",
		"type": "RNAV",
		"updated": "11/04/2015"
	},
	{
		"name": "RAKES",
		"latitude": "30-32-20.5 N",
		"longitude": "101-29-4.3 W",
		"state": "TEXAS",
		"artcc": "ZHU",
		"type": "RNAV",
		"updated": "08/22/2005"
	},
	{
		"name": "RAKIE",
		"latitude": "30-4-46.82 N",
		"longitude": "90-55-28.37 W",
		"state": "LOUISIANA",
		"artcc": "ZHU",
		"type": "RNAV",
		"updated": "06/28/2017"
	},
	{
		"name": "RAMMI",
		"latitude": "30-37-37.69 N",
		"longitude": "88-40-33.51 W",
		"state": "MISSISSIPPI",
		"artcc": "ZHU",
		"type": "RNAV",
		"updated": "07/17/2007"
	},
	{
		"name": "RAMOS",
		"latitude": "29-58-50.78 N",
		"longitude": "96-57-29.85 W",
		"state": "TEXAS",
		"artcc": "ZHU",
		"type": "RNAV",
		"updated": "06/11/2010"
	},
	{
		"name": "RANDY",
		"latitude": "29-15-9.72 N",
		"longitude": "97-34-37.51 W",
		"state": "TEXAS",
		"artcc": "ZHU",
		"type": "MR",
		"updated": "DHK*TACAN*110.00/40.00"
	},
	{
		"name": "RANEE",
		"latitude": "30-47-0.2 N",
		"longitude": "96-16-38.46 W",
		"state": "TEXAS",
		"artcc": "ZHU",
		"type": "RP",
		"updated": "CLL*VORTAC*026.74/13.00"
	},
	{
		"name": "RAREE",
		"latitude": "28-47-35.17 N",
		"longitude": "98-21-55.17 W",
		"state": "TEXAS",
		"artcc": "ZHU",
		"type": "RNAV",
		"updated": "09/19/2008"
	},
	{
		"name": "RASOY",
		"latitude": "26-35-53.96 N",
		"longitude": "98-14-58.05 W",
		"state": "TEXAS",
		"artcc": "ZHU",
		"type": "RNAV",
		"updated": "07/27/2006"
	},
	{
		"name": "RATTT",
		"latitude": "30-16-34.46 N",
		"longitude": "97-46-18.78 W",
		"state": "TEXAS",
		"artcc": "ZHU",
		"type": "RNAV",
		"updated": "10/20/2017"
	},
	{
		"name": "RAWUF",
		"latitude": "29-21-55.28 N",
		"longitude": "94-51-26.98 W",
		"state": "TEXAS",
		"artcc": "ZHU",
		"type": "RNAV",
		"updated": "11/16/2012"
	},
	{
		"name": "RAYBN",
		"latitude": "29-7-12.38 N",
		"longitude": "98-39-4.71 W",
		"state": "TEXAS",
		"artcc": "ZHU",
		"type": "RNAV",
		"updated": "07/14/2010"
	},
	{
		"name": "RAYCI",
		"latitude": "29-49-53.66 N",
		"longitude": "95-4-19.69 W",
		"state": "TEXAS",
		"artcc": "ZHU",
		"type": "RP",
		"updated": "HUB*VOR/DME*040.35/15.00"
	},
	{
		"name": "RAYED",
		"latitude": "29-45-10.92 N",
		"longitude": "92-43-9.7 W",
		"state": "LOUISIANA",
		"artcc": "ZHU",
		"type": "RNAV",
		"updated": "02/28/2017"
	},
	{
		"name": "RAYMO",
		"latitude": "26-29-29.33 N",
		"longitude": "97-37-41.5 W",
		"state": "TEXAS",
		"artcc": "ZHU",
		"type": "RP",
		"updated": "BRO*VORTAC*329.15/36.59"
	},
	{
		"name": "RAYNE",
		"latitude": "30-14-38.16 N",
		"longitude": "92-17-29.45 W",
		"state": "LOUISIANA",
		"artcc": "ZHU",
		"type": "RP",
		"updated": "LFT*VORTAC*278.00/15.83"
	},
	{
		"name": "RAYOP",
		"latitude": "30-12-49.47 N",
		"longitude": "90-10-41.91 W",
		"state": "LOUISIANA",
		"artcc": "ZHU",
		"type": "RP",
		"updated": "RQR*VOR/DME*068.40"
	},
	{
		"name": "RAYTH",
		"latitude": "27-35-25.56 N",
		"longitude": "99-25-34.4 W",
		"state": "TEXAS",
		"artcc": "ZHU",
		"type": "RNAV",
		"updated": "06/28/2016"
	},
	{
		"name": "RAZOJ",
		"latitude": "30-36-21.45 N",
		"longitude": "91-14-25.8 W",
		"state": "LOUISIANA",
		"artcc": "ZHU",
		"type": "RP",
		"updated": "LSU*VORTAC*014.98"
	},
	{
		"name": "RAZVY",
		"latitude": "29-46-33.1 N",
		"longitude": "98-2-33.63 W",
		"state": "TEXAS",
		"artcc": "ZHU",
		"type": "RNAV",
		"updated": "12/27/2007"
	},
	{
		"name": "RDFSH",
		"latitude": "29-49-39.87 N",
		"longitude": "94-42-54.98 W",
		"state": "TEXAS",
		"artcc": "ZHU",
		"type": "RNAV",
		"updated": "03/14/2014"
	},
	{
		"name": "REAPR",
		"latitude": "29-56-34.37 N",
		"longitude": "95-18-28.99 W",
		"state": "TEXAS",
		"artcc": "ZHU",
		"type": "RNAV",
		"updated": "03/07/2014"
	},
	{
		"name": "RECOL",
		"latitude": "26-9-17.37 N",
		"longitude": "97-35-19.49 W",
		"state": "TEXAS",
		"artcc": "ZHU",
		"type": "RP",
		"updated": "BRO*VORTAC*311.16/17.99"
	},
	{
		"name": "RECYO",
		"latitude": "29-30-39.4 N",
		"longitude": "90-34-11.98 W",
		"state": "LOUISIANA",
		"artcc": "ZHU",
		"type": "RNAV",
		"updated": "05/04/2009"
	},
	{
		"name": "REDDA",
		"latitude": "30-54-27.53 N",
		"longitude": "97-25-23.49 W",
		"state": "TEXAS",
		"artcc": "ZHU",
		"type": "RP",
		"updated": "CWK*VORTAC*003.86/32.15"
	},
	{
		"name": "REDFN",
		"latitude": "28-52-58.69 N",
		"longitude": "88-42-6.41 W",
		"state": "OFFSHORE GULF",
		"artcc": "ZHU",
		"type": "RNAV",
		"updated": "08/31/2005"
	},
	{
		"name": "REDNK",
		"latitude": "29-50-22.06 N",
		"longitude": "97-0-3.77 W",
		"state": "TEXAS",
		"artcc": "ZHU",
		"type": "RNAV",
		"updated": "06/02/2016"
	},
	{
		"name": "REDOC",
		"latitude": "29-58-39.45 N",
		"longitude": "95-13-14.03 W",
		"state": "TEXAS",
		"artcc": "ZHU",
		"type": "RP",
		"updated": "HUB*VOR/DME*003.62"
	},
	{
		"name": "REEMS",
		"latitude": "26-22-36 N",
		"longitude": "98-21-9 W",
		"state": "TEXAS",
		"artcc": "ZHU",
		"type": "RNAV",
		"updated": "08/22/2003"
	},
	{
		"name": "REFNY",
		"latitude": "29-40-28.33 N",
		"longitude": "95-4-44.23 W",
		"state": "TEXAS",
		"artcc": "ZHU",
		"type": "RP",
		"updated": "IAH*VORTAC*135.45"
	},
	{
		"name": "REFYN",
		"latitude": "31-16-1.85 N",
		"longitude": "96-21-35.24 W",
		"state": "TEXAS",
		"artcc": "ZHU",
		"type": "RNAV",
		"updated": "03/14/2014"
	},
	{
		"name": "REHAB",
		"latitude": "29-59-35.4 N",
		"longitude": "95-14-15.18 W",
		"state": "TEXAS",
		"artcc": "ZHU",
		"type": "RP",
		"updated": "IAH*VORTAC*063.92/6.04"
	},
	{
		"name": "REIGN",
		"latitude": "29-59-34.56 N",
		"longitude": "95-36-39.71 W",
		"state": "TEXAS",
		"artcc": "ZHU",
		"type": "RP",
		"updated": "HUB*VOR/DME*314.24"
	},
	{
		"name": "REKKO",
		"latitude": "30-16-32.84 N",
		"longitude": "89-49-12.37 W",
		"state": "LOUISIANA",
		"artcc": "ZHU",
		"type": "RNAV",
		"updated": "02/28/2005"
	},
	{
		"name": "RELAX",
		"latitude": "26-15-29.69 N",
		"longitude": "97-23-12.66 W",
		"state": "TEXAS",
		"artcc": "ZHU",
		"type": "RP",
		"updated": "HRL*VOR/DME*078.03"
	},
	{
		"name": "RELAY",
		"latitude": "30-39-1.44 N",
		"longitude": "91-17-41.39 W",
		"state": "LOUISIANA",
		"artcc": "ZHU",
		"type": "RP",
		"updated": "LSU*VORTAC*353.77/9.89"
	},
	{
		"name": "RENEE",
		"latitude": "29-37-15.67 N",
		"longitude": "89-53-12.39 W",
		"state": "LOUISIANA",
		"artcc": "ZHU",
		"type": "MR",
		"updated": "HRV*VORTAC*154.10/15.00"
	},
	{
		"name": "RENNK",
		"latitude": "30-17-28.75 N",
		"longitude": "95-13-21.1 W",
		"state": "TEXAS",
		"artcc": "ZHU",
		"type": "RNAV",
		"updated": "03/31/2014"
	},
	{
		"name": "RESOC",
		"latitude": "29-25-3.15 N",
		"longitude": "98-34-26.39 W",
		"state": "TEXAS",
		"artcc": "ZHU",
		"type": "RP",
		"updated": "SSF*VOR*315.43"
	},
	{
		"name": "RESRT",
		"latitude": "30-43-0.69 N",
		"longitude": "98-15-28.24 W",
		"state": "TEXAS",
		"artcc": "ZHU",
		"type": "RNAV",
		"updated": "01/29/2009"
	},
	{
		"name": "RETYR",
		"latitude": "29-43-23.15 N",
		"longitude": "95-47-36.87 W",
		"state": "TEXAS",
		"artcc": "ZHU",
		"type": "RNAV",
		"updated": "03/07/2014"
	},
	{
		"name": "REUBE",
		"latitude": "29-45-17.74 N",
		"longitude": "98-45-35.67 W",
		"state": "TEXAS",
		"artcc": "ZHU",
		"type": "RP",
		"updated": "STV*VORTAC*177.97"
	},
	{
		"name": "REVVS",
		"latitude": "30-5-48.09 N",
		"longitude": "97-22-3.76 W",
		"state": "TEXAS",
		"artcc": "ZHU",
		"type": "RNAV",
		"updated": "12/15/2014"
	},
	{
		"name": "REWYO",
		"latitude": "31-16-13.66 N",
		"longitude": "89-20-12.55 W",
		"state": "MISSISSIPPI",
		"artcc": "ZHU",
		"type": "RNAV",
		"updated": "02/05/2010"
	},
	{
		"name": "REYOS",
		"latitude": "30-10-5.82 N",
		"longitude": "98-51-9.39 W",
		"state": "TEXAS",
		"artcc": "ZHU",
		"type": "RNAV",
		"updated": "07/16/2012"
	},
	{
		"name": "RFNEK",
		"latitude": "28-41-3.1 N",
		"longitude": "97-49-42.09 W",
		"state": "TEXAS",
		"artcc": "ZHU",
		"type": "MW",
		"updated": "12/22/2017"
	},
	{
		"name": "RFRCE",
		"latitude": "30-5-2.59 N",
		"longitude": "97-43-19.54 W",
		"state": "TEXAS",
		"artcc": "ZHU",
		"type": "RNAV",
		"updated": "10/27/2017"
	},
	{
		"name": "RGGLS",
		"latitude": "30-15-35.71 N",
		"longitude": "97-34-6.39 W",
		"state": "TEXAS",
		"artcc": "ZHU",
		"type": "RNAV",
		"updated": "10/27/2017"
	},
	{
		"name": "RIBDE",
		"latitude": "30-19-51.84 N",
		"longitude": "89-27-17.03 W",
		"state": "MISSISSIPPI",
		"artcc": "ZHU",
		"type": "RNAV",
		"updated": "03/31/2016"
	},
	{
		"name": "RICCK",
		"latitude": "29-27-7.07 N",
		"longitude": "94-51-34.37 W",
		"state": "TEXAS",
		"artcc": "ZHU",
		"type": "RNAV",
		"updated": "01/02/2009"
	},
	{
		"name": "RICES",
		"latitude": "27-29-3.64 N",
		"longitude": "97-48-28.61 W",
		"state": "TEXAS",
		"artcc": "ZHU",
		"type": "MR",
		"updated": "NQI*TACAN*184.00/0.90"
	},
	{
		"name": "RICEY",
		"latitude": "29-18-55.76 N",
		"longitude": "91-14-25.87 W",
		"state": "LOUISIANA",
		"artcc": "ZHU",
		"type": "RP",
		"updated": "TBD*VOR/DME*224.00/30.00"
	},
	{
		"name": "RICTO",
		"latitude": "27-16-46.75 N",
		"longitude": "98-5-16.6 W",
		"state": "TEXAS",
		"artcc": "ZHU",
		"type": "MR",
		"updated": "NQI*TACAN*225.00/20.00"
	},
	{
		"name": "RIDLR",
		"latitude": "29-46-49.23 N",
		"longitude": "95-42-16.22 W",
		"state": "TEXAS",
		"artcc": "ZHU",
		"type": "RNAV",
		"updated": "05/03/2016"
	},
	{
		"name": "RIFFY",
		"latitude": "30-50-51.28 N",
		"longitude": "96-47-40.52 W",
		"state": "TEXAS",
		"artcc": "ZHU",
		"type": "RP",
		"updated": "LOA*VORTAC*241.00"
	},
	{
		"name": "RIGES",
		"latitude": "27-40-39.39 N",
		"longitude": "97-57-23.41 W",
		"state": "TEXAS",
		"artcc": "ZHU",
		"type": "RP",
		"updated": "ALI*VOR*131.13"
	},
	{
		"name": "RIGTY",
		"latitude": "29-35-8.71 N",
		"longitude": "95-16-59.71 W",
		"state": "TEXAS",
		"artcc": "ZHU",
		"type": "RNAV",
		"updated": "02/12/2001"
	},
	{
		"name": "RIHDU",
		"latitude": "27-29-52.68 N",
		"longitude": "97-57-4.38 W",
		"state": "TEXAS",
		"artcc": "ZHU",
		"type": "RNAV",
		"updated": "06/28/2016"
	},
	{
		"name": "RIICE",
		"latitude": "30-27-9.06 N",
		"longitude": "95-51-42.54 W",
		"state": "TEXAS",
		"artcc": "ZHU",
		"type": "RP",
		"updated": "TNV*VOR/DME*038.03"
	},
	{
		"name": "RIIGG",
		"latitude": "28-54-8.68 N",
		"longitude": "95-37-1.36 W",
		"state": "TEXAS",
		"artcc": "ZHU",
		"type": "RNAV",
		"updated": "01/10/2015"
	},
	{
		"name": "RIJIP",
		"latitude": "30-6-57.82 N",
		"longitude": "94-11-22.94 W",
		"state": "TEXAS",
		"artcc": "ZHU",
		"type": "RNAV",
		"updated": "10/27/2009"
	},
	{
		"name": "RIKYO",
		"latitude": "26-43-38.11 N",
		"longitude": "98-12-14.42 W",
		"state": "TEXAS",
		"artcc": "ZHU",
		"type": "RNAV",
		"updated": "08/08/2005"
	},
	{
		"name": "RILAY",
		"latitude": "30-11-6.25 N",
		"longitude": "95-16-47.44 W",
		"state": "TEXAS",
		"artcc": "ZHU",
		"type": "RNAV",
		"updated": "01/27/2015"
	},
	{
		"name": "RINKY",
		"latitude": "29-55-16.85 N",
		"longitude": "90-6-24.96 W",
		"state": "LOUISIANA",
		"artcc": "ZHU",
		"type": "RNAV",
		"updated": "04/27/2018"
	},
	{
		"name": "RIRLY",
		"latitude": "31-16-13.21 N",
		"longitude": "89-26-2.59 W",
		"state": "MISSISSIPPI",
		"artcc": "ZHU",
		"type": "RNAV",
		"updated": "02/05/2010"
	},
	{
		"name": "RISNE",
		"latitude": "30-37-8.34 N",
		"longitude": "89-26-42.93 W",
		"state": "MISSISSIPPI",
		"artcc": "ZHU",
		"type": "RNAV",
		"updated": "11/02/2015"
	},
	{
		"name": "RISOE",
		"latitude": "29-21-35.39 N",
		"longitude": "89-26-56.8 W",
		"state": "LOUISIANA",
		"artcc": "ZHU",
		"type": "RNAV",
		"updated": "01/31/2008"
	},
	{
		"name": "RISYO",
		"latitude": "31-16-13.84 N",
		"longitude": "89-14-22.51 W",
		"state": "MISSISSIPPI",
		"artcc": "ZHU",
		"type": "RNAV",
		"updated": "02/05/2010"
	},
	{
		"name": "RITAA",
		"latitude": "29-35-29.29 N",
		"longitude": "95-13-55.55 W",
		"state": "TEXAS",
		"artcc": "ZHU",
		"type": "RNAV",
		"updated": "03/27/2014"
	},
	{
		"name": "RITRE",
		"latitude": "29-54-42.49 N",
		"longitude": "99-0-8.53 W",
		"state": "TEXAS",
		"artcc": "ZHU",
		"type": "RNAV",
		"updated": "09/22/2005"
	},
	{
		"name": "RIXMU",
		"latitude": "27-46-29.58 N",
		"longitude": "97-29-59.66 W",
		"state": "TEXAS",
		"artcc": "ZHU",
		"type": "RNAV",
		"updated": "04/19/2016"
	},
	{
		"name": "RIYOL",
		"latitude": "30-0-18.66 N",
		"longitude": "93-11-0.18 W",
		"state": "LOUISIANA",
		"artcc": "ZHU",
		"type": "RNAV",
		"updated": "01/03/2009"
	},
	{
		"name": "RJAAY",
		"latitude": "29-33-49.45 N",
		"longitude": "95-18-25.27 W",
		"state": "TEXAS",
		"artcc": "ZHU",
		"type": "RNAV",
		"updated": "03/25/2014"
	},
	{
		"name": "RNGER",
		"latitude": "31-5-9 N",
		"longitude": "97-41-46.25 W",
		"state": "TEXAS",
		"artcc": "ZHU",
		"type": "MW",
		"updated": "10/01/2009"
	},
	{
		"name": "ROAMM",
		"latitude": "27-46-8.73 N",
		"longitude": "97-21-1.06 W",
		"state": "TEXAS",
		"artcc": "ZHU",
		"type": "MR",
		"updated": "CRP*VORTAC*139.00/9.50"
	},
	{
		"name": "ROCOG",
		"latitude": "30-38-2.02 N",
		"longitude": "96-57-1.56 W",
		"state": "TEXAS",
		"artcc": "ZHU",
		"type": "RNAV",
		"updated": "07/23/2012"
	},
	{
		"name": "RODIO",
		"latitude": "29-52-11.9 N",
		"longitude": "97-26-25.75 W",
		"state": "TEXAS",
		"artcc": "ZHU",
		"type": "RNAV",
		"updated": "06/02/2016"
	},
	{
		"name": "RODKL",
		"latitude": "29-51-15.44 N",
		"longitude": "95-29-31.32 W",
		"state": "TEXAS",
		"artcc": "ZHU",
		"type": "RNAV",
		"updated": "03/27/2014"
	},
	{
		"name": "RODNT",
		"latitude": "30-17-13.94 N",
		"longitude": "97-40-21.89 W",
		"state": "TEXAS",
		"artcc": "ZHU",
		"type": "RNAV",
		"updated": "10/27/2017"
	},
	{
		"name": "ROKIT",
		"latitude": "30-29-50.07 N",
		"longitude": "94-30-49.52 W",
		"state": "TEXAS",
		"artcc": "ZHU",
		"type": "RNAV",
		"updated": "04/02/2014"
	},
	{
		"name": "ROKKI",
		"latitude": "28-2-0.93 N",
		"longitude": "97-19-34.87 W",
		"state": "TEXAS",
		"artcc": "ZHU",
		"type": "RP",
		"updated": "CRP*VORTAC*030.00/10.00"
	},
	{
		"name": "ROLAC",
		"latitude": "31-12-13.65 N",
		"longitude": "97-21-46.84 W",
		"state": "TEXAS",
		"artcc": "ZHU",
		"type": "RP",
		"updated": "ACT*VORTAC*180.99/27.87"
	},
	{
		"name": "ROMER",
		"latitude": "30-44-47.33 N",
		"longitude": "94-23-33.01 W",
		"state": "TEXAS",
		"artcc": "ZHU",
		"type": "RP",
		"updated": "LFK*VORTAC*141.00/30.00"
	},
	{
		"name": "ROMMY",
		"latitude": "30-19-24.52 N",
		"longitude": "88-48-23.4 W",
		"state": "MISSISSIPPI",
		"artcc": "ZHU",
		"type": "RP",
		"updated": "GPT*VORTAC*107.51"
	},
	{
		"name": "RONAS",
		"latitude": "26-4-25.28 N",
		"longitude": "97-21-29.13 W",
		"state": "TEXAS",
		"artcc": "ZHU",
		"type": "RP",
		"updated": "HRL*VOR/DME*115.33/18.39"
	},
	{
		"name": "RONDA",
		"latitude": "30-31-49.49 N",
		"longitude": "91-29-41.94 W",
		"state": "LOUISIANA",
		"artcc": "ZHU",
		"type": "RP",
		"updated": "LSU*VORTAC*278.64"
	},
	{
		"name": "RONSE",
		"latitude": "29-38-40.54 N",
		"longitude": "95-36-27.85 W",
		"state": "TEXAS",
		"artcc": "ZHU",
		"type": "RNAV",
		"updated": "12/05/2017"
	},
	{
		"name": "ROPAE",
		"latitude": "29-47-38.92 N",
		"longitude": "95-33-15.77 W",
		"state": "TEXAS",
		"artcc": "ZHU",
		"type": "RNAV",
		"updated": "01/24/2018"
	},
	{
		"name": "RORKY",
		"latitude": "29-26-45.11 N",
		"longitude": "100-59-43.09 W",
		"state": "TEXAS",
		"artcc": "ZHU",
		"type": "RNAV",
		"updated": "03/04/2010"
	},
	{
		"name": "ROSEN",
		"latitude": "29-30-6.46 N",
		"longitude": "95-42-56.22 W",
		"state": "TEXAS",
		"artcc": "ZHU",
		"type": "RP",
		"updated": "ELA*VOR/DME*098.84/32.91"
	},
	{
		"name": "ROSEY",
		"latitude": "30-19-1.74 N",
		"longitude": "91-41-54.34 W",
		"state": "LOUISIANA",
		"artcc": "ZHU",
		"type": "RP",
		"updated": "TBD*VOR/DME*309.00"
	},
	{
		"name": "ROSPE",
		"latitude": "29-33-29.77 N",
		"longitude": "100-35-42.87 W",
		"state": "TEXAS",
		"artcc": "ZHU",
		"type": "MR",
		"updated": "DLF*VORTAC*031.00/15.00"
	},
	{
		"name": "ROTTH",
		"latitude": "29-56-19.52 N",
		"longitude": "95-35-10.74 W",
		"state": "TEXAS",
		"artcc": "ZHU",
		"type": "RNAV",
		"updated": "04/17/2014"
	},
	{
		"name": "ROTTS",
		"latitude": "29-22-56.39 N",
		"longitude": "98-16-46.01 W",
		"state": "TEXAS",
		"artcc": "ZHU",
		"type": "RP",
		"updated": "SSF*VOR*040.19"
	},
	{
		"name": "ROVEZ",
		"latitude": "29-54-7.58 N",
		"longitude": "93-55-33.76 W",
		"state": "TEXAS",
		"artcc": "ZHU",
		"type": "RP",
		"updated": "BPT*VOR/DME*112.20"
	},
	{
		"name": "ROWDY",
		"latitude": "30-29-36.57 N",
		"longitude": "96-20-21.98 W",
		"state": "TEXAS",
		"artcc": "ZHU",
		"type": "RP",
		"updated": "CLL*LD*165.88/6.50"
	},
	{
		"name": "ROYCE",
		"latitude": "29-43-1.63 N",
		"longitude": "95-21-51.11 W",
		"state": "TEXAS",
		"artcc": "ZHU",
		"type": "RP",
		"updated": "PRQ*LD*310.95/7.14"
	},
	{
		"name": "ROYEL",
		"latitude": "30-19-35.05 N",
		"longitude": "91-6-1.12 W",
		"state": "LOUISIANA",
		"artcc": "ZHU",
		"type": "WP",
		"updated": "07/14/1995"
	},
	{
		"name": "ROYOB",
		"latitude": "30-51-11.96 N",
		"longitude": "97-49-49.25 W",
		"state": "TEXAS",
		"artcc": "ZHU",
		"type": "RNAV",
		"updated": "11/20/2006"
	},
	{
		"name": "ROYOT",
		"latitude": "27-59-13.43 N",
		"longitude": "97-16-55.66 W",
		"state": "TEXAS",
		"artcc": "ZHU",
		"type": "RNAV",
		"updated": "07/31/2006"
	},
	{
		"name": "ROYUL",
		"latitude": "29-46-49.48 N",
		"longitude": "90-18-58.28 W",
		"state": "LOUISIANA",
		"artcc": "ZHU",
		"type": "RP",
		"updated": "HRV*VORTAC*253.75"
	},
	{
		"name": "RRICK",
		"latitude": "29-24-41.45 N",
		"longitude": "89-43-31.58 W",
		"state": "LOUISIANA",
		"artcc": "ZHU",
		"type": "RP",
		"updated": "HRV*VORTAC*149.00/30.00"
	},
	{
		"name": "RRTOO",
		"latitude": "30-18-34.39 N",
		"longitude": "97-39-38.36 W",
		"state": "TEXAS",
		"artcc": "ZHU",
		"type": "RP",
		"updated": "CWK*VORTAC*232.73"
	},
	{
		"name": "RSDMG",
		"latitude": "27-54-8.89 N",
		"longitude": "96-57-27.48 W",
		"state": "TEXAS",
		"artcc": "ZHU",
		"type": "RNAV",
		"updated": "07/26/2012"
	},
	{
		"name": "RTAMA",
		"latitude": "29-41-59.84 N",
		"longitude": "98-19-47.59 W",
		"state": "TEXAS",
		"artcc": "ZHU",
		"type": "RNAV",
		"updated": "06/02/2016"
	},
	{
		"name": "RTWNG",
		"latitude": "29-38-6.48 N",
		"longitude": "95-13-32.39 W",
		"state": "TEXAS",
		"artcc": "ZHU",
		"type": "RNAV",
		"updated": "03/25/2014"
	},
	{
		"name": "RUBUF",
		"latitude": "30-58-47.11 N",
		"longitude": "97-47-11.6 W",
		"state": "TEXAS",
		"artcc": "ZHU",
		"type": "RP",
		"updated": "BTJ*LD*153.35/6.69"
	},
	{
		"name": "RUBZZ",
		"latitude": "30-12-34.79 N",
		"longitude": "97-46-12.48 W",
		"state": "TEXAS",
		"artcc": "ZHU",
		"type": "RNAV",
		"updated": "10/27/2017"
	},
	{
		"name": "RUCBO",
		"latitude": "31-25-19.12 N",
		"longitude": "90-38-39.62 W",
		"state": "MISSISSIPPI",
		"artcc": "ZHU",
		"type": "RP",
		"updated": "MCB*VORTAC*286.63/21.05"
	},
	{
		"name": "RUCEE",
		"latitude": "26-10-12.67 N",
		"longitude": "97-34-22.13 W",
		"state": "TEXAS",
		"artcc": "ZHU",
		"type": "RNAV",
		"updated": "08/09/2012"
	},
	{
		"name": "RUDAW",
		"latitude": "30-12-7.55 N",
		"longitude": "89-3-56.17 W",
		"state": "MISSISSIPPI",
		"artcc": "ZHU",
		"type": "RNAV",
		"updated": "12/14/2004"
	},
	{
		"name": "RUDLF",
		"latitude": "30-13-25.56 N",
		"longitude": "88-56-40.1 W",
		"state": "MISSISSIPPI",
		"artcc": "ZHU",
		"type": "MR",
		"updated": "BIX*TACAN*183.00/11.00"
	},
	{
		"name": "RUGLE",
		"latitude": "30-30-14.8 N",
		"longitude": "91-24-1.89 W",
		"state": "LOUISIANA",
		"artcc": "ZHU",
		"type": "RNAV",
		"updated": "04/01/2008"
	},
	{
		"name": "RULKE",
		"latitude": "27-45-5.41 N",
		"longitude": "97-21-19.56 W",
		"state": "TEXAS",
		"artcc": "ZHU",
		"type": "MW",
		"updated": "07/09/2015"
	},
	{
		"name": "RUMMM",
		"latitude": "27-29-56.62 N",
		"longitude": "93-7-31.37 W",
		"state": "OFFSHORE GULF",
		"artcc": "ZHU",
		"type": "RNAV",
		"updated": "10/31/2012"
	},
	{
		"name": "RUNDI",
		"latitude": "30-34-56.42 N",
		"longitude": "91-12-41.96 W",
		"state": "LOUISIANA",
		"artcc": "ZHU",
		"type": "RP",
		"updated": "LSU*VORTAC*030.30"
	},
	{
		"name": "RUPOC",
		"latitude": "31-4-6.89 N",
		"longitude": "96-25-17.58 W",
		"state": "TEXAS",
		"artcc": "ZHU",
		"type": "RNAV",
		"updated": "07/27/2011"
	},
	{
		"name": "RUPRE",
		"latitude": "29-30-35.73 N",
		"longitude": "95-32-8.67 W",
		"state": "TEXAS",
		"artcc": "ZHU",
		"type": "RNAV",
		"updated": "04/02/2007"
	},
	{
		"name": "RURKE",
		"latitude": "29-20-19.48 N",
		"longitude": "100-29-12.39 W",
		"state": "TEXAS",
		"artcc": "ZHU",
		"type": "MR",
		"updated": "DLF*VORTAC*088.00/15.00"
	},
	{
		"name": "RUVVU",
		"latitude": "27-43-30.93 N",
		"longitude": "97-24-21.88 W",
		"state": "TEXAS",
		"artcc": "ZHU",
		"type": "RNAV",
		"updated": "12/26/2013"
	},
	{
		"name": "RUYOK",
		"latitude": "29-50-15.9 N",
		"longitude": "97-47-48.51 W",
		"state": "TEXAS",
		"artcc": "ZHU",
		"type": "RNAV",
		"updated": "04/18/2013"
	},
	{
		"name": "RVEEE",
		"latitude": "29-49-37.57 N",
		"longitude": "95-59-42.17 W",
		"state": "TEXAS",
		"artcc": "ZHU",
		"type": "RNAV",
		"updated": "03/25/2014"
	},
	{
		"name": "RVERA",
		"latitude": "26-59-10.08 N",
		"longitude": "97-53-9.93 W",
		"state": "TEXAS",
		"artcc": "ZHU",
		"type": "MR",
		"updated": "NQI*TACAN*184.00/31.00"
	},
	{
		"name": "RYINN",
		"latitude": "28-27-38.89 N",
		"longitude": "100-3-6.12 W",
		"state": "TEXAS",
		"artcc": "ZHU",
		"type": "RNAV",
		"updated": "12/23/2002"
	},
	{
		"name": "RYNOL",
		"latitude": "27-48-23.17 N",
		"longitude": "97-9-51.06 W",
		"state": "TEXAS",
		"artcc": "ZHU",
		"type": "MR",
		"updated": "NGP*VORTAC*038.00/10.00"
	},
	{
		"name": "RYTHM",
		"latitude": "30-32-24.79 N",
		"longitude": "90-12-7.53 W",
		"state": "LOUISIANA",
		"artcc": "ZHU",
		"type": "RP",
		"updated": "PCU*VOR/DME*262.18/24.46"
	},
	{
		"name": "RYYAN",
		"latitude": "29-25-2.32 N",
		"longitude": "100-50-38.48 W",
		"state": "TEXAS",
		"artcc": "ZHU",
		"type": "MR",
		"updated": "DLF*VORTAC*304.72/5.08"
	}
]
