	{
		"name": "SAALT",
		"latitude": "29-29-49.81 N",
		"longitude": "95-11-52.37 W",
		"state": "TEXAS",
		"artcc": "ZHU",
		"type": "RNAV",
		"updated": "03/07/2014",
	},
	{
		"name": "SABVE",
		"latitude": "31-34-0.55 N",
		"longitude": "93-3-3.13 W",
		"state": "LOUISIANA",
		"artcc": "ZHU",
		"type": "RNAV",
		"updated": "04/20/2012",
	},
	{
		"name": "SAFES",
		"latitude": "29-49-3.3 N",
		"longitude": "90-8-59.4 W",
		"state": "LOUISIANA",
		"artcc": "ZHU",
		"type": "RP",
		"updated": "HRV*VORTAC*253.75",
	},
	{
		"name": "SAHAJ",
		"latitude": "30-9-59.26 N",
		"longitude": "93-34-10.54 W",
		"state": "LOUISIANA",
		"artcc": "ZHU",
		"type": "RNAV",
		"updated": "08/31/2009",
	},
	{
		"name": "SAINT",
		"latitude": "30-33-2.87 N",
		"longitude": "88-13-3.38 W",
		"state": "ALABAMA",
		"artcc": "ZHU",
		"type": "RP",
		"updated": "BFM*VORTAC*242.22/9.18",
	},
	{
		"name": "SAKCO",
		"latitude": "29-59-36.11 N",
		"longitude": "95-24-10.61 W",
		"state": "TEXAS",
		"artcc": "ZHU",
		"type": "RP",
		"updated": "IAH*LD*266.94/2.31",
	},
	{
		"name": "SALTE",
		"latitude": "27-37-43.77 N",
		"longitude": "97-13-14.88 W",
		"state": "TEXAS",
		"artcc": "ZHU",
		"type": "MW",
		"updated": "07/09/2015",
	},
	{
		"name": "SALUM",
		"latitude": "27-23-47.26 N",
		"longitude": "98-7-13.6 W",
		"state": "TEXAS",
		"artcc": "ZHU",
		"type": "RNAV",
		"updated": "03/31/2009",
	},
	{
		"name": "SALUQ",
		"latitude": "30-55-54.06 N",
		"longitude": "94-2-2.62 W",
		"state": "TEXAS",
		"artcc": "ZHU",
		"type": "RNAV",
		"updated": "07/07/2009",
	},
	{
		"name": "SALVO",
		"latitude": "30-26-53.76 N",
		"longitude": "91-41-32.35 W",
		"state": "LOUISIANA",
		"artcc": "ZHU",
		"type": "RP",
		"updated": "LFT*VORTAC*042.60",
	},
	{
		"name": "SANCA",
		"latitude": "26-18-42.02 N",
		"longitude": "98-7-18.24 W",
		"state": "TEXAS",
		"artcc": "ZHU",
		"type": "RP",
		"updated": "HRL*VOR/DME*276.13",
	},
	{
		"name": "SANUE",
		"latitude": "25-58-52.01 N",
		"longitude": "97-30-21.1 W",
		"state": "TEXAS",
		"artcc": "ZHU",
		"type": "RNAV",
		"updated": "03/08/2018",
	},
	{
		"name": "SAPVE",
		"latitude": "29-24-41.53 N",
		"longitude": "98-12-42.95 W",
		"state": "TEXAS",
		"artcc": "ZHU",
		"type": "MW",
		"updated": "09/05/2013",
	},
	{
		"name": "SAROY",
		"latitude": "27-43-19.82 N",
		"longitude": "99-34-55.62 W",
		"state": "TEXAS",
		"artcc": "ZHU",
		"type": "RP",
		"updated": "LRD*VORTAC*320.00/17.00",
	},
	{
		"name": "SASCY",
		"latitude": "29-42-24.92 N",
		"longitude": "95-21-7.43 W",
		"state": "TEXAS",
		"artcc": "ZHU",
		"type": "RNAV",
		"updated": "02/09/2018",
	},
	{
		"name": "SATCH",
		"latitude": "31-32-34.99 N",
		"longitude": "93-2-38.26 W",
		"state": "LOUISIANA",
		"artcc": "ZHU",
		"type": "RP",
		"updated": "AEX*VORTAC*298.72/32.73",
	},
	{
		"name": "SATOC",
		"latitude": "27-55-5.54 N",
		"longitude": "99-17-32.45 W",
		"state": "TEXAS",
		"artcc": "ZHU",
		"type": "RNAV",
		"updated": "04/10/2012",
	},
	{
		"name": "SAYBR",
		"latitude": "30-58-24.29 N",
		"longitude": "97-2-48.27 W",
		"state": "TEXAS",
		"artcc": "ZHU",
		"type": "RNAV",
		"updated": "01/10/2015",
	},
	{
		"name": "SAYNO",
		"latitude": "29-58-38.21 N",
		"longitude": "95-32-8.87 W",
		"state": "TEXAS",
		"artcc": "ZHU",
		"type": "RP",
		"updated": "HUB*VOR/DME*319.97",
	},
	{
		"name": "SAYSO",
		"latitude": "29-43-0.83 N",
		"longitude": "95-39-54.8 W",
		"state": "TEXAS",
		"artcc": "ZHU",
		"type": "WP",
		"updated": "IAH*VORTAC*221.30/22.00",
	},
	{
		"name": "SAZUK",
		"latitude": "26-8-5.92 N",
		"longitude": "97-40-28.06 W",
		"state": "TEXAS",
		"artcc": "ZHU",
		"type": "RNAV",
		"updated": "08/09/2012",
	},
	{
		"name": "SBICC",
		"latitude": "29-20-0 N",
		"longitude": "94-0-0 W",
		"state": "OFFSHORE GULF",
		"artcc": "ZHU",
		"type": "WP",
		"updated": "08/12/1998",
	},
	{
		"name": "SBICD",
		"latitude": "29-0-0 N",
		"longitude": "94-0-0 W",
		"state": "OFFSHORE GULF",
		"artcc": "ZHU",
		"type": "WP",
		"updated": "07/08/1998",
	},
	{
		"name": "SBICE",
		"latitude": "28-40-0 N",
		"longitude": "94-0-0 W",
		"state": "OFFSHORE GULF",
		"artcc": "ZHU",
		"type": "WP",
		"updated": "07/08/1998",
	},
	{
		"name": "SBICF",
		"latitude": "28-20-0 N",
		"longitude": "94-0-0 W",
		"state": "OFFSHORE GULF",
		"artcc": "ZHU",
		"type": "WP",
		"updated": "07/08/1998",
	},
	{
		"name": "SBICG",
		"latitude": "28-0-0 N",
		"longitude": "94-0-0 W",
		"state": "OFFSHORE GULF",
		"artcc": "ZHU",
		"type": "WP",
		"updated": "07/08/1998",
	},
	{
		"name": "SBICH",
		"latitude": "27-40-0 N",
		"longitude": "94-0-0 W",
		"state": "OFFSHORE GULF",
		"artcc": "ZHU",
		"type": "WP",
		"updated": "07/08/1998",
	},
	{
		"name": "SBICI",
		"latitude": "27-20-0 N",
		"longitude": "94-0-0 W",
		"state": "OFFSHORE GULF",
		"artcc": "ZHU",
		"type": "WP",
		"updated": "07/08/1998",
	},
	{
		"name": "SBICJ",
		"latitude": "27-0-0 N",
		"longitude": "94-0-0 W",
		"state": "OFFSHORE GULF",
		"artcc": "ZHU",
		"type": "WP",
		"updated": "07/08/1998",
	},
	{
		"name": "SBICK",
		"latitude": "26-40-0 N",
		"longitude": "94-0-0 W",
		"state": "OFFSHORE GULF",
		"artcc": "ZHU",
		"type": "WP",
		"updated": "07/08/1998",
	},
	{
		"name": "SBICL",
		"latitude": "26-20-0 N",
		"longitude": "94-0-0 W",
		"state": "OFFSHORE GULF",
		"artcc": "ZHU",
		"type": "WP",
		"updated": "07/08/1998",
	},
	{
		"name": "SBICM",
		"latitude": "26-0-0 N",
		"longitude": "94-0-0 W",
		"state": "OFFSHORE GULF",
		"artcc": "ZHU",
		"type": "WP",
		"updated": "07/08/1998",
	},
	{
		"name": "SBICN",
		"latitude": "25-40-0 N",
		"longitude": "94-0-0 W",
		"state": "OFFSHORE GULF",
		"artcc": "ZHU",
		"type": "WP",
		"updated": "07/08/1998",
	},
	{
		"name": "SBICO",
		"latitude": "25-20-0 N",
		"longitude": "94-0-0 W",
		"state": "OFFSHORE GULF",
		"artcc": "ZHU",
		"type": "WP",
		"updated": "07/08/1998",
	},
	{
		"name": "SBILC",
		"latitude": "29-20-0 N",
		"longitude": "94-20-0 W",
		"state": "OFFSHORE GULF",
		"artcc": "ZHU",
		"type": "WP",
		"updated": "08/12/1998",
	},
	{
		"name": "SBILD",
		"latitude": "29-0-0 N",
		"longitude": "94-20-0 W",
		"state": "OFFSHORE GULF",
		"artcc": "ZHU",
		"type": "WP",
		"updated": "07/08/1998",
	},
	{
		"name": "SBILE",
		"latitude": "28-40-0 N",
		"longitude": "94-20-0 W",
		"state": "OFFSHORE GULF",
		"artcc": "ZHU",
		"type": "WP",
		"updated": "07/08/1998",
	},
	{
		"name": "SBILF",
		"latitude": "28-20-0 N",
		"longitude": "94-20-0 W",
		"state": "OFFSHORE GULF",
		"artcc": "ZHU",
		"type": "WP",
		"updated": "07/08/1998",
	},
	{
		"name": "SBILG",
		"latitude": "28-0-0 N",
		"longitude": "94-20-0 W",
		"state": "OFFSHORE GULF",
		"artcc": "ZHU",
		"type": "WP",
		"updated": "07/08/1998",
	},
	{
		"name": "SBILH",
		"latitude": "27-40-0 N",
		"longitude": "94-20-0 W",
		"state": "OFFSHORE GULF",
		"artcc": "ZHU",
		"type": "WP",
		"updated": "07/08/1998",
	},
	{
		"name": "SBILI",
		"latitude": "27-20-0 N",
		"longitude": "94-20-0 W",
		"state": "OFFSHORE GULF",
		"artcc": "ZHU",
		"type": "WP",
		"updated": "07/08/1998",
	},
	{
		"name": "SBILJ",
		"latitude": "27-0-0 N",
		"longitude": "94-20-0 W",
		"state": "OFFSHORE GULF",
		"artcc": "ZHU",
		"type": "WP",
		"updated": "07/08/1998",
	},
	{
		"name": "SBILK",
		"latitude": "26-40-0 N",
		"longitude": "94-20-0 W",
		"state": "OFFSHORE GULF",
		"artcc": "ZHU",
		"type": "WP",
		"updated": "07/08/1998",
	},
	{
		"name": "SBILL",
		"latitude": "26-20-0 N",
		"longitude": "94-20-0 W",
		"state": "OFFSHORE GULF",
		"artcc": "ZHU",
		"type": "WP",
		"updated": "07/08/1998",
	},
	{
		"name": "SBILM",
		"latitude": "26-0-0 N",
		"longitude": "94-20-0 W",
		"state": "OFFSHORE GULF",
		"artcc": "ZHU",
		"type": "WP",
		"updated": "07/08/1998",
	},
	{
		"name": "SBILN",
		"latitude": "25-40-0 N",
		"longitude": "94-20-0 W",
		"state": "OFFSHORE GULF",
		"artcc": "ZHU",
		"type": "WP",
		"updated": "07/08/1998",
	},
	{
		"name": "SBILO",
		"latitude": "25-20-0 N",
		"longitude": "94-20-0 W",
		"state": "OFFSHORE GULF",
		"artcc": "ZHU",
		"type": "WP",
		"updated": "07/08/1998",
	},
	{
		"name": "SBIRC",
		"latitude": "29-20-0 N",
		"longitude": "93-40-0 W",
		"state": "OFFSHORE GULF",
		"artcc": "ZHU",
		"type": "WP",
		"updated": "08/12/1998",
	},
	{
		"name": "SBIRD",
		"latitude": "29-0-0 N",
		"longitude": "93-40-0 W",
		"state": "OFFSHORE GULF",
		"artcc": "ZHU",
		"type": "WP",
		"updated": "08/19/2010",
	},
	{
		"name": "SBIRE",
		"latitude": "28-40-0 N",
		"longitude": "93-40-0 W",
		"state": "OFFSHORE GULF",
		"artcc": "ZHU",
		"type": "WP",
		"updated": "07/08/1998",
	},
	{
		"name": "SBIRF",
		"latitude": "28-20-0 N",
		"longitude": "93-40-0 W",
		"state": "OFFSHORE GULF",
		"artcc": "ZHU",
		"type": "WP",
		"updated": "07/08/1998",
	},
	{
		"name": "SBIRG",
		"latitude": "28-0-0 N",
		"longitude": "93-40-0 W",
		"state": "OFFSHORE GULF",
		"artcc": "ZHU",
		"type": "WP",
		"updated": "07/08/1998",
	},
	{
		"name": "SBIRH",
		"latitude": "27-40-0 N",
		"longitude": "93-40-0 W",
		"state": "OFFSHORE GULF",
		"artcc": "ZHU",
		"type": "WP",
		"updated": "07/08/1998",
	},
	{
		"name": "SBIRI",
		"latitude": "27-20-0 N",
		"longitude": "93-40-0 W",
		"state": "OFFSHORE GULF",
		"artcc": "ZHU",
		"type": "WP",
		"updated": "07/08/1998",
	},
	{
		"name": "SBIRJ",
		"latitude": "27-0-0 N",
		"longitude": "93-40-0 W",
		"state": "OFFSHORE GULF",
		"artcc": "ZHU",
		"type": "WP",
		"updated": "07/08/1998",
	},
	{
		"name": "SBIRK",
		"latitude": "26-40-0 N",
		"longitude": "93-40-0 W",
		"state": "OFFSHORE GULF",
		"artcc": "ZHU",
		"type": "WP",
		"updated": "07/08/1998",
	},
	{
		"name": "SBIRL",
		"latitude": "26-20-0 N",
		"longitude": "93-40-0 W",
		"state": "OFFSHORE GULF",
		"artcc": "ZHU",
		"type": "WP",
		"updated": "07/08/1998",
	},
	{
		"name": "SBIRM",
		"latitude": "26-0-0 N",
		"longitude": "93-40-0 W",
		"state": "OFFSHORE GULF",
		"artcc": "ZHU",
		"type": "WP",
		"updated": "07/08/1998",
	},
	{
		"name": "SBIRN",
		"latitude": "25-40-0 N",
		"longitude": "93-40-0 W",
		"state": "OFFSHORE GULF",
		"artcc": "ZHU",
		"type": "WP",
		"updated": "07/08/1998",
	},
	{
		"name": "SBIRO",
		"latitude": "25-20-0 N",
		"longitude": "93-40-0 W",
		"state": "OFFSHORE GULF",
		"artcc": "ZHU",
		"type": "WP",
		"updated": "07/08/1998",
	},
	{
		"name": "SBIRP",
		"latitude": "25-0-0 N",
		"longitude": "93-40-0 W",
		"state": "OFFSHORE GULF",
		"artcc": "ZHU",
		"type": "WP",
		"updated": "07/08/1998",
	},
	{
		"name": "SCALI",
		"latitude": "30-23-9.09 N",
		"longitude": "97-39-45.55 W",
		"state": "TEXAS",
		"artcc": "ZHU",
		"type": "RP",
		"updated": "CWK*VORTAC*267.67",
	},
	{
		"name": "SCALY",
		"latitude": "30-39-43.4 N",
		"longitude": "88-54-22.63 W",
		"state": "MISSISSIPPI",
		"artcc": "ZHU",
		"type": "RP",
		"updated": "GPT*VORTAC*028.00/17.65",
	},
	{
		"name": "SCAMM",
		"latitude": "29-57-22.8 N",
		"longitude": "95-29-54.61 W",
		"state": "TEXAS",
		"artcc": "ZHU",
		"type": "RNAV",
		"updated": "03/27/2014",
	},
	{
		"name": "SCHEX",
		"latitude": "30-39-59.73 N",
		"longitude": "94-8-55.5 W",
		"state": "TEXAS",
		"artcc": "ZHU",
		"type": "RNAV",
		"updated": "05/13/2015",
	},
	{
		"name": "SCIFI",
		"latitude": "29-21-24.72 N",
		"longitude": "100-51-33.59 W",
		"state": "TEXAS",
		"artcc": "ZHU",
		"type": "MW",
		"updated": "08/09/2012",
	},
	{
		"name": "SCOLL",
		"latitude": "30-26-42.56 N",
		"longitude": "97-12-31.47 W",
		"state": "TEXAS",
		"artcc": "ZHU",
		"type": "RP",
		"updated": "IDU*VORTAC*303.21/44.58",
	},
	{
		"name": "SCULL",
		"latitude": "31-15-41.89 N",
		"longitude": "97-55-3.27 W",
		"state": "TEXAS",
		"artcc": "ZHU",
		"type": "MR",
		"updated": "GRK*VOR/DME*331.71/14.70",
	},
	{
		"name": "SCUTE",
		"latitude": "30-0-44.07 N",
		"longitude": "97-33-44.12 W",
		"state": "TEXAS",
		"artcc": "ZHU",
		"type": "RNAV",
		"updated": "12/15/2014",
	},
	{
		"name": "SCUZY",
		"latitude": "26-31-1 N",
		"longitude": "98-40-51 W",
		"state": "TEXAS",
		"artcc": "ZHU",
		"type": "RNAV",
		"updated": "09/08/2003",
	},
	{
		"name": "SEAGL",
		"latitude": "26-32-49.18 N",
		"longitude": "93-46-18.37 W",
		"state": "OFFSHORE GULF",
		"artcc": "ZHU",
		"type": "RNAV",
		"updated": "03/25/2014",
	},
	{
		"name": "SEALY",
		"latitude": "29-51-15.54 N",
		"longitude": "95-56-36.33 W",
		"state": "TEXAS",
		"artcc": "ZHU",
		"type": "RP",
		"updated": "TNV*VOR/DME*159.02",
	},
	{
		"name": "SEBAS",
		"latitude": "26-18-18.59 N",
		"longitude": "97-39-26.5 W",
		"state": "TEXAS",
		"artcc": "ZHU",
		"type": "RP",
		"updated": "HRL*LD*N CRS/5.47",
	},
	{
		"name": "SEEDS",
		"latitude": "29-39-31.94 N",
		"longitude": "97-14-58.66 W",
		"state": "TEXAS",
		"artcc": "ZHU",
		"type": "RP",
		"updated": "ELA*VOR/DME*261.98/48.75",
	},
	{
		"name": "SEEMY",
		"latitude": "28-3-53.26 N",
		"longitude": "97-3-58.48 W",
		"state": "TEXAS",
		"artcc": "ZHU",
		"type": "WP",
		"updated": "CRP*VORTAC*234.00/22.00",
	},
	{
		"name": "SELIE",
		"latitude": "28-29-12.79 N",
		"longitude": "98-15-11.19 W",
		"state": "TEXAS",
		"artcc": "ZHU",
		"type": "RNAV",
		"updated": "11/05/2002",
	},
	{
		"name": "SEPOY",
		"latitude": "29-19-7 N",
		"longitude": "94-51-29.87 W",
		"state": "TEXAS",
		"artcc": "ZHU",
		"type": "RNAV",
		"updated": "11/16/2012",
	},
	{
		"name": "SETTA",
		"latitude": "31-17-25.52 N",
		"longitude": "91-8-4.98 W",
		"state": "MISSISSIPPI",
		"artcc": "ZHU",
		"type": "RP",
		"updated": "MCB*VORTAC*266.16/45.07",
	},
	{
		"name": "SETZR",
		"latitude": "29-42-45.63 N",
		"longitude": "97-49-51.1 W",
		"state": "TEXAS",
		"artcc": "ZHU",
		"type": "RNAV",
		"updated": "08/21/2015",
	},
	{
		"name": "SEUSS",
		"latitude": "29-39-44.2 N",
		"longitude": "95-34-23.61 W",
		"state": "TEXAS",
		"artcc": "ZHU",
		"type": "RNAV",
		"updated": "03/25/2014",
	},
	{
		"name": "SEVSY",
		"latitude": "29-45-36.66 N",
		"longitude": "94-59-4.21 W",
		"state": "TEXAS",
		"artcc": "ZHU",
		"type": "RP",
		"updated": "IAH*VORTAC*116.91",
	},
	{
		"name": "SEWZY",
		"latitude": "30-48-47.77 N",
		"longitude": "97-21-44.51 W",
		"state": "TEXAS",
		"artcc": "ZHU",
		"type": "RP",
		"updated": "CWK*VORTAC*012.39/27.43",
	},
	{
		"name": "SEYOG",
		"latitude": "28-42-59.62 N",
		"longitude": "96-45-6.08 W",
		"state": "TEXAS",
		"artcc": "ZHU",
		"type": "RNAV",
		"updated": "04/06/2012",
	},
	{
		"name": "SEYVO",
		"latitude": "29-35-27.09 N",
		"longitude": "90-42-4.63 W",
		"state": "LOUISIANA",
		"artcc": "ZHU",
		"type": "RP",
		"updated": "TBD*VOR/DME*121.31/8.00",
	},
	{
		"name": "SHAAK",
		"latitude": "29-58-3.64 N",
		"longitude": "95-34-23.99 W",
		"state": "TEXAS",
		"artcc": "ZHU",
		"type": "RNAV",
		"updated": "04/24/2014",
	},
	{
		"name": "SHARP",
		"latitude": "30-31-11.42 N",
		"longitude": "87-56-40.03 W",
		"state": "ALABAMA",
		"artcc": "ZHU",
		"type": "RP",
		"updated": "BFM*VORTAC*130.00/8.00",
	},
	{
		"name": "SHAVE",
		"latitude": "29-4-22.38 N",
		"longitude": "96-37-47.63 W",
		"state": "TEXAS",
		"artcc": "ZHU",
		"type": "RNAV",
		"updated": "11/05/2015",
	},
	{
		"name": "SHAWL",
		"latitude": "29-50-47.12 N",
		"longitude": "92-53-17.01 W",
		"state": "LOUISIANA",
		"artcc": "ZHU",
		"type": "RNAV",
		"updated": "02/28/2017",
	},
	{
		"name": "SHENN",
		"latitude": "29-56-9.5 N",
		"longitude": "97-40-8.63 W",
		"state": "TEXAS",
		"artcc": "ZHU",
		"type": "RNAV",
		"updated": "06/22/2011",
	},
	{
		"name": "SHEOL",
		"latitude": "29-9-24.87 N",
		"longitude": "98-46-42.13 W",
		"state": "TEXAS",
		"artcc": "ZHU",
		"type": "RNAV",
		"updated": "08/30/2015",
	},
	{
		"name": "SHEPE",
		"latitude": "29-51-2.19 N",
		"longitude": "98-12-5.65 W",
		"state": "TEXAS",
		"artcc": "ZHU",
		"type": "RP",
		"updated": "SAT*VORTAC*039.59/18.36",
	},
	{
		"name": "SHINA",
		"latitude": "29-56-58.58 N",
		"longitude": "94-18-36.27 W",
		"state": "TEXAS",
		"artcc": "ZHU",
		"type": "RP",
		"updated": "BPT*VOR/DME*263.87/15.32",
	},
	{
		"name": "SHIVR",
		"latitude": "29-46-52.32 N",
		"longitude": "93-53-33.41 W",
		"state": "LOUISIANA",
		"artcc": "ZHU",
		"type": "WP",
		"updated": "08/13/1998",
	},
	{
		"name": "SHIVV",
		"latitude": "29-53-31.44 N",
		"longitude": "95-22-21.9 W",
		"state": "TEXAS",
		"artcc": "ZHU",
		"type": "RNAV",
		"updated": "03/11/2014",
	},
	{
		"name": "SHLLL",
		"latitude": "29-3-13.14 N",
		"longitude": "94-0-20.14 W",
		"state": "OFFSHORE GULF",
		"artcc": "ZHU",
		"type": "RNAV",
		"updated": "03/25/2014",
	},
	{
		"name": "SHOEE",
		"latitude": "30-55-41.1 N",
		"longitude": "95-28-6.58 W",
		"state": "TEXAS",
		"artcc": "ZHU",
		"type": "RNAV",
		"updated": "01/29/2009",
	},
	{
		"name": "SHORE",
		"latitude": "30-2-16.94 N",
		"longitude": "90-14-3.75 W",
		"state": "LOUISIANA",
		"artcc": "ZHU",
		"type": "RP",
		"updated": "ONW*LE*016.48/2.00",
	},
	{
		"name": "SHOVL",
		"latitude": "29-58-39.06 N",
		"longitude": "95-24-3.16 W",
		"state": "TEXAS",
		"artcc": "ZHU",
		"type": "RNAV",
		"updated": "08/07/2006",
	},
	{
		"name": "SHREQ",
		"latitude": "30-25-16.56 N",
		"longitude": "89-23-15.24 W",
		"state": "MISSISSIPPI",
		"artcc": "ZHU",
		"type": "RNAV",
		"updated": "03/26/2014",
	},
	{
		"name": "SHRLE",
		"latitude": "29-26-40.89 N",
		"longitude": "98-12-57.44 W",
		"state": "TEXAS",
		"artcc": "ZHU",
		"type": "RNAV",
		"updated": "01/24/2017",
	},
	{
		"name": "SHRRY",
		"latitude": "29-34-15.63 N",
		"longitude": "101-1-3.41 W",
		"state": "TEXAS",
		"artcc": "ZHU",
		"type": "MR",
		"updated": "DLF*VORTAC*307.38/18.00",
	},
	{
		"name": "SHUCK",
		"latitude": "30-30-26.5 N",
		"longitude": "101-17-34.37 W",
		"state": "TEXAS",
		"artcc": "ZHU",
		"type": "RP",
		"updated": "SJT*VORTAC*210.00",
	},
	{
		"name": "SHUDL",
		"latitude": "29-22-8.95 N",
		"longitude": "94-14-28.73 W",
		"state": "OFFSHORE GULF",
		"artcc": "ZHU",
		"type": "RNAV",
		"updated": "03/25/2014",
	},
	{
		"name": "SHUUG",
		"latitude": "29-33-49.4 N",
		"longitude": "95-14-30.28 W",
		"state": "TEXAS",
		"artcc": "ZHU",
		"type": "RNAV",
		"updated": "03/25/2014",
	},
	{
		"name": "SHYNR",
		"latitude": "29-55-38.29 N",
		"longitude": "96-2-25.78 W",
		"state": "TEXAS",
		"artcc": "ZHU",
		"type": "RP",
		"updated": "TNV*VOR/DME*169.55",
	},
	{
		"name": "SIBKE",
		"latitude": "29-35-32.67 N",
		"longitude": "98-19-52.09 W",
		"state": "TEXAS",
		"artcc": "ZHU",
		"type": "MR",
		"updated": "RND*VORTAC*326.26/5.00",
	},
	{
		"name": "SIIZE",
		"latitude": "28-42-44.27 N",
		"longitude": "97-38-20.94 W",
		"state": "TEXAS",
		"artcc": "ZHU",
		"type": "MW",
		"updated": "12/26/2017",
	},
	{
		"name": "SILBE",
		"latitude": "30-10-31.38 N",
		"longitude": "94-7-24.11 W",
		"state": "TEXAS",
		"artcc": "ZHU",
		"type": "RP",
		"updated": "DAS*VORTAC*086.68/27.14",
	},
	{
		"name": "SILIW",
		"latitude": "30-53-7.07 N",
		"longitude": "97-39-49.01 W",
		"state": "TEXAS",
		"artcc": "ZHU",
		"type": "RNAV",
		"updated": "11/05/2015",
	},
	{
		"name": "SILLS",
		"latitude": "29-58-37.01 N",
		"longitude": "94-49-8.17 W",
		"state": "TEXAS",
		"artcc": "ZHU",
		"type": "RP",
		"updated": "DAS*VORTAC*210.46",
	},
	{
		"name": "SIMBY",
		"latitude": "30-6-4.95 N",
		"longitude": "90-45-38.8 W",
		"state": "LOUISIANA",
		"artcc": "ZHU",
		"type": "RP",
		"updated": "TBD*VOR/DME*005.74",
	},
	{
		"name": "SINAR",
		"latitude": "29-38-34.17 N",
		"longitude": "97-31-38.63 W",
		"state": "TEXAS",
		"artcc": "ZHU",
		"type": "RNAV",
		"updated": "06/22/2011",
	},
	{
		"name": "SINDY",
		"latitude": "30-12-19.32 N",
		"longitude": "88-49-10.16 W",
		"state": "MISSISSIPPI",
		"artcc": "ZHU",
		"type": "MR",
		"updated": "GPT*VORTAC*130.00/18.00",
	},
	{
		"name": "SINRE",
		"latitude": "39-22-19.56 N",
		"longitude": "84-4-32.28 W",
		"state": "OHIO",
		"artcc": "ZID",
		"type": "RNAV",
		"updated": "04/26/2007",
	},
	{
		"name": "SINTO",
		"latitude": "28-5-22.27 N",
		"longitude": "97-39-41.67 W",
		"state": "TEXAS",
		"artcc": "ZHU",
		"type": "RP",
		"updated": "ALI*VOR*036.34",
	},
	{
		"name": "SIROY",
		"latitude": "26-47-58.62 N",
		"longitude": "97-57-7.2 W",
		"state": "TEXAS",
		"artcc": "ZHU",
		"type": "RNAV",
		"updated": "07/26/2012",
	},
	{
		"name": "SIRTE",
		"latitude": "31-11-35.03 N",
		"longitude": "94-56-20.25 W",
		"state": "TEXAS",
		"artcc": "ZHU",
		"type": "RNAV",
		"updated": "10/27/2017",
	},
	{
		"name": "SIRYO",
		"latitude": "31-7-40.35 N",
		"longitude": "93-20-33.09 W",
		"state": "LOUISIANA",
		"artcc": "ZHU",
		"type": "RNAV",
		"updated": "08/22/2011",
	},
	{
		"name": "SISBE",
		"latitude": "27-48-9.55 N",
		"longitude": "98-0-41.61 W",
		"state": "TEXAS",
		"artcc": "ZHU",
		"type": "RNAV",
		"updated": "06/28/2016",
	},
	{
		"name": "SIVIE",
		"latitude": "26-1-29.75 N",
		"longitude": "97-27-58.33 W",
		"state": "TEXAS",
		"artcc": "ZHU",
		"type": "RNAV",
		"updated": "09/14/2012",
	},
	{
		"name": "SIWOC",
		"latitude": "27-41-29.73 N",
		"longitude": "97-32-14.71 W",
		"state": "TEXAS",
		"artcc": "ZHU",
		"type": "RNAV",
		"updated": "04/19/2016",
	},
	{
		"name": "SKALE",
		"latitude": "29-18-28.51 N",
		"longitude": "94-3-48.3 W",
		"state": "OFFSHORE GULF",
		"artcc": "ZHU",
		"type": "RNAV",
		"updated": "03/24/2014",
	},
	{
		"name": "SKAYA",
		"latitude": "27-35-58.8 N",
		"longitude": "99-28-12.12 W",
		"state": "TEXAS",
		"artcc": "ZHU",
		"type": "RNAV",
		"updated": "06/28/2016",
	},
	{
		"name": "SKEWT",
		"latitude": "29-25-49.84 N",
		"longitude": "98-21-16.28 W",
		"state": "TEXAS",
		"artcc": "ZHU",
		"type": "RNAV",
		"updated": "10/20/2017",
	},
	{
		"name": "SKIDS",
		"latitude": "28-12-19.57 N",
		"longitude": "97-47-50.58 W",
		"state": "TEXAS",
		"artcc": "ZHU",
		"type": "RP",
		"updated": "ALI*VOR*017.07",
	},
	{
		"name": "SKIIS",
		"latitude": "30-22-21.55 N",
		"longitude": "88-51-49.15 W",
		"state": "MISSISSIPPI",
		"artcc": "ZHU",
		"type": "MR",
		"updated": "BIX*TACAN*120.00/4.00",
	},
	{
		"name": "SKKIP",
		"latitude": "31-14-54.86 N",
		"longitude": "94-39-27 W",
		"state": "TEXAS",
		"artcc": "ZHU",
		"type": "RP",
		"updated": "LFK*VORTAC*025.64/5.99",
	},
	{
		"name": "SKLER",
		"latitude": "30-5-33.56 N",
		"longitude": "95-13-37.25 W",
		"state": "TEXAS",
		"artcc": "ZHU",
		"type": "RNAV",
		"updated": "07/21/2014",
	},
	{
		"name": "SKNRD",
		"latitude": "30-16-58.22 N",
		"longitude": "94-41-31.29 W",
		"state": "TEXAS",
		"artcc": "ZHU",
		"type": "RNAV",
		"updated": "03/07/2014",
	},
	{
		"name": "SKOSH",
		"latitude": "27-28-26.67 N",
		"longitude": "99-8-11.94 W",
		"state": "TEXAS",
		"artcc": "ZHU",
		"type": "MR",
		"updated": "LRD*VORTAC*082.00/15.00",
	},
	{
		"name": "SKUBA",
		"latitude": "29-11-43.09 N",
		"longitude": "95-47-28.37 W",
		"state": "TEXAS",
		"artcc": "ZHU",
		"type": "RP",
		"updated": "ELA*VOR/DME*127.29",
	},
	{
		"name": "SLIDD",
		"latitude": "30-9-46.08 N",
		"longitude": "89-44-2.18 W",
		"state": "LOUISIANA",
		"artcc": "ZHU",
		"type": "RP",
		"updated": "PCU*VOR/DME*175.43",
	},
	{
		"name": "SLIMM",
		"latitude": "30-48-35.87 N",
		"longitude": "98-13-14.07 W",
		"state": "TEXAS",
		"artcc": "ZHU",
		"type": "RP",
		"updated": "AGJ*VORTAC*185.25/22.85",
	},
	{
		"name": "SLOCM",
		"latitude": "27-11-33.86 N",
		"longitude": "99-9-32.05 W",
		"state": "TEXAS",
		"artcc": "ZHU",
		"type": "MR",
		"updated": "LRD*VORTAC*132.00/22.00",
	},
	{
		"name": "SLYCE",
		"latitude": "29-17-4.22 N",
		"longitude": "93-0-53.89 W",
		"state": "OFFSHORE GULF",
		"artcc": "ZHU",
		"type": "RNAV",
		"updated": "03/25/2014",
	},
	{
		"name": "SMAKR",
		"latitude": "29-41-37.12 N",
		"longitude": "97-23-51.83 W",
		"state": "TEXAS",
		"artcc": "ZHU",
		"type": "RNAV",
		"updated": "09/10/2015",
	},
	{
		"name": "SMILN",
		"latitude": "30-12-20.06 N",
		"longitude": "98-4-17.43 W",
		"state": "TEXAS",
		"artcc": "ZHU",
		"type": "RNAV",
		"updated": "10/20/2017",
	},
	{
		"name": "SMOCR",
		"latitude": "29-53-30.49 N",
		"longitude": "95-17-1.42 W",
		"state": "TEXAS",
		"artcc": "ZHU",
		"type": "RNAV",
		"updated": "03/11/2014",
	},
	{
		"name": "SMRFF",
		"latitude": "30-11-33.05 N",
		"longitude": "97-34-0.26 W",
		"state": "TEXAS",
		"artcc": "ZHU",
		"type": "RNAV",
		"updated": "12/15/2014",
	},
	{
		"name": "SNAKI",
		"latitude": "30-8-58.52 N",
		"longitude": "89-53-19.49 W",
		"state": "LOUISIANA",
		"artcc": "ZHU",
		"type": "RP",
		"updated": "HRV*VORTAC*016.34/18.88",
	},
	{
		"name": "SNAKR",
		"latitude": "25-20-29 N",
		"longitude": "85-20-41.67 W",
		"state": "OFFSHORE GULF",
		"artcc": "ZHU",
		"type": "RNAV",
		"updated": "10/31/2012",
	},
	{
		"name": "SNDAY",
		"latitude": "29-56-25.14 N",
		"longitude": "96-9-41.07 W",
		"state": "TEXAS",
		"artcc": "ZHU",
		"type": "RP",
		"updated": "HUB*VOR/DME*285.47",
	},
	{
		"name": "SNIFY",
		"latitude": "30-9-27.64 N",
		"longitude": "96-10-50.4 W",
		"state": "TEXAS",
		"artcc": "ZHU",
		"type": "RNAV",
		"updated": "03/25/2014",
	},
	{
		"name": "SNOTT",
		"latitude": "30-13-26.44 N",
		"longitude": "97-46-13.77 W",
		"state": "TEXAS",
		"artcc": "ZHU",
		"type": "RNAV",
		"updated": "10/20/2017",
	},
	{
		"name": "SNYDE",
		"latitude": "30-25-0.9 N",
		"longitude": "89-15-21.91 W",
		"state": "MISSISSIPPI",
		"artcc": "ZHU",
		"type": "RP",
		"updated": "LBY*VORTAC*170.97",
	},
	{
		"name": "SOBLE",
		"latitude": "30-18-16.54 N",
		"longitude": "88-45-39.64 W",
		"state": "MISSISSIPPI",
		"artcc": "ZHU",
		"type": "RNAV",
		"updated": "08/08/2005",
	},
	{
		"name": "SODEE",
		"latitude": "29-39-40.09 N",
		"longitude": "98-41-0.4 W",
		"state": "TEXAS",
		"artcc": "ZHU",
		"type": "MW",
		"updated": "09/05/2013",
	},
	{
		"name": "SOFFT",
		"latitude": "30-4-5.16 N",
		"longitude": "94-36-53.99 W",
		"state": "TEXAS",
		"artcc": "ZHU",
		"type": "RNAV",
		"updated": "03/11/2014",
	},
	{
		"name": "SOHJU",
		"latitude": "28-51-24.42 N",
		"longitude": "98-29-10.92 W",
		"state": "TEXAS",
		"artcc": "ZHU",
		"type": "RNAV",
		"updated": "09/19/2008",
	},
	{
		"name": "SOKLE",
		"latitude": "29-9-6.06 N",
		"longitude": "95-45-43 W",
		"state": "TEXAS",
		"artcc": "ZHU",
		"type": "RNAV",
		"updated": "10/31/2017",
	},
	{
		"name": "SOLON",
		"latitude": "27-26-9.77 N",
		"longitude": "97-25-41.57 W",
		"state": "TEXAS",
		"artcc": "ZHU",
		"type": "RP",
		"updated": "ALI*VOR*113.75",
	},
	{
		"name": "SOMER",
		"latitude": "29-9-44.75 N",
		"longitude": "98-38-22.47 W",
		"state": "TEXAS",
		"artcc": "ZHU",
		"type": "RP",
		"updated": "THX*VORTAC*318.89/47.03",
	},
	{
		"name": "SONAR",
		"latitude": "29-39-30.64 N",
		"longitude": "95-5-7.16 W",
		"state": "TEXAS",
		"artcc": "ZHU",
		"type": "RP",
		"updated": "EFD*TACAN*046.00/5.00",
	},
	{
		"name": "SONGS",
		"latitude": "29-52-44.62 N",
		"longitude": "95-3-18.85 W",
		"state": "TEXAS",
		"artcc": "ZHU",
		"type": "RNAV",
		"updated": "09/06/2017",
	},
	{
		"name": "SONNI",
		"latitude": "30-46-51.86 N",
		"longitude": "98-52-57.02 W",
		"state": "TEXAS",
		"artcc": "ZHU",
		"type": "RP",
		"updated": "LLO*VORTAC*251.49/5.00",
	},
	{
		"name": "SOOPR",
		"latitude": "30-0-25.43 N",
		"longitude": "95-10-9.31 W",
		"state": "TEXAS",
		"artcc": "ZHU",
		"type": "RNAV",
		"updated": "03/21/2014",
	},
	{
		"name": "SOROY",
		"latitude": "29-59-36.45 N",
		"longitude": "95-16-52.04 W",
		"state": "TEXAS",
		"artcc": "ZHU",
		"type": "RP",
		"updated": "JYV*LD*086.96/4.04",
	},
	{
		"name": "SORRD",
		"latitude": "28-27-17.89 N",
		"longitude": "99-13-54.18 W",
		"state": "TEXAS",
		"artcc": "ZHU",
		"type": "MR",
		"updated": "COT*VORTAC*257.00/6.00",
	},
	{
		"name": "SOSOC",
		"latitude": "27-19-14.7 N",
		"longitude": "99-28-27.2 W",
		"state": "TEXAS",
		"artcc": "ZHU",
		"type": "RNAV",
		"updated": "06/23/2013",
	},
	{
		"name": "SOTLE",
		"latitude": "29-56-4.73 N",
		"longitude": "93-7-21.29 W",
		"state": "LOUISIANA",
		"artcc": "ZHU",
		"type": "RNAV",
		"updated": "05/31/2012",
	},
	{
		"name": "SOTME",
		"latitude": "29-16-0.72 N",
		"longitude": "98-6-59.12 W",
		"state": "TEXAS",
		"artcc": "ZHU",
		"type": "MR",
		"updated": "RND*VORTAC*144.60/17.50",
	},
	{
		"name": "SOULL",
		"latitude": "29-30-45.1 N",
		"longitude": "94-34-47.09 W",
		"state": "TEXAS",
		"artcc": "ZHU",
		"type": "RNAV",
		"updated": "11/19/2014",
	},
	{
		"name": "SOWLS",
		"latitude": "28-40-16.68 N",
		"longitude": "97-19-56.6 W",
		"state": "TEXAS",
		"artcc": "ZHU",
		"type": "MW",
		"updated": "12/26/2017",
	},
	{
		"name": "SOYTO",
		"latitude": "30-41-31.59 N",
		"longitude": "88-3-57.41 W",
		"state": "ALABAMA",
		"artcc": "ZHU",
		"type": "RNAV",
		"updated": "09/17/2014",
	},
	{
		"name": "SPARS",
		"latitude": "27-54-40.06 N",
		"longitude": "98-3-23.49 W",
		"state": "TEXAS",
		"artcc": "ZHU",
		"type": "MR",
		"updated": "NOG*TACAN*317.00/1.20",
	},
	{
		"name": "SPICR",
		"latitude": "30-16-31.64 N",
		"longitude": "95-30-18.1 W",
		"state": "TEXAS",
		"artcc": "ZHU",
		"type": "RNAV",
		"updated": "03/31/2014",
	},
	{
		"name": "SPILL",
		"latitude": "30-8-22.29 N",
		"longitude": "91-47-0.51 W",
		"state": "LOUISIANA",
		"artcc": "ZHU",
		"type": "RNAV",
		"updated": "01/19/2007",
	},
	{
		"name": "SPINY",
		"latitude": "29-51-13.29 N",
		"longitude": "94-2-40.8 W",
		"state": "TEXAS",
		"artcc": "ZHU",
		"type": "RNAV",
		"updated": "01/19/2009",
	},
	{
		"name": "SPURS",
		"latitude": "30-24-19.05 N",
		"longitude": "98-20-58.57 W",
		"state": "TEXAS",
		"artcc": "ZHU",
		"type": "RP",
		"updated": "CWK*VORTAC*266.36",
	},
	{
		"name": "SQRLL",
		"latitude": "29-26-10.79 N",
		"longitude": "94-41-52.12 W",
		"state": "TEXAS",
		"artcc": "ZHU",
		"type": "RNAV",
		"updated": "04/03/2014",
	},
	{
		"name": "SQWCH",
		"latitude": "30-7-28.69 N",
		"longitude": "97-33-54.19 W",
		"state": "TEXAS",
		"artcc": "ZHU",
		"type": "RNAV",
		"updated": "10/27/2017",
	},
	{
		"name": "SQWID",
		"latitude": "30-40-22.08 N",
		"longitude": "88-28-47.32 W",
		"state": "MISSISSIPPI",
		"artcc": "ZHU",
		"type": "RP",
		"updated": "GCV*VORTAC*174.26",
	},
	{
		"name": "SSAMI",
		"latitude": "30-39-3.13 N",
		"longitude": "96-42-34.59 W",
		"state": "TEXAS",
		"artcc": "ZHU",
		"type": "RNAV",
		"updated": "03/11/2014",
	},
	{
		"name": "SSERA",
		"latitude": "29-38-36.79 N",
		"longitude": "94-29-32.54 W",
		"state": "TEXAS",
		"artcc": "ZHU",
		"type": "RNAV",
		"updated": "11/13/2014",
	},
	{
		"name": "SSHOE",
		"latitude": "30-4-20.55 N",
		"longitude": "97-39-16.05 W",
		"state": "TEXAS",
		"artcc": "ZHU",
		"type": "RP",
		"updated": "HCE*LD*174.70/6.27",
	},
	{
		"name": "SSTAX",
		"latitude": "30-42-41.12 N",
		"longitude": "96-0-41.85 W",
		"state": "TEXAS",
		"artcc": "ZHU",
		"type": "RNAV",
		"updated": "03/14/2014",
	},
	{
		"name": "SSURF",
		"latitude": "30-18-12.07 N",
		"longitude": "97-34-20.43 W",
		"state": "TEXAS",
		"artcc": "ZHU",
		"type": "RNAV",
		"updated": "10/20/2017",
	},
	{
		"name": "STARN",
		"latitude": "31-10-4.76 N",
		"longitude": "97-52-40.14 W",
		"state": "TEXAS",
		"artcc": "ZHU",
		"type": "RP",
		"updated": "GRK*VOR/DME*/8.73",
	},
	{
		"name": "STELL",
		"latitude": "30-50-24.5 N",
		"longitude": "95-32-38.96 W",
		"state": "TEXAS",
		"artcc": "ZHU",
		"type": "RP",
		"updated": "LFK*VORTAC*240.88/46.82",
	},
	{
		"name": "STENN",
		"latitude": "30-35-44.26 N",
		"longitude": "89-27-13.96 W",
		"state": "MISSISSIPPI",
		"artcc": "ZHU",
		"type": "RP",
		"updated": "PCU*VOR/DME*076.74/14.47",
	},
	{
		"name": "STETS",
		"latitude": "30-59-48.22 N",
		"longitude": "87-44-20.79 W",
		"state": "ALABAMA",
		"artcc": "ZHU",
		"type": "RP",
		"updated": "NUN*VOR*325.52",
	},
	{
		"name": "STGRY",
		"latitude": "28-32-48.65 N",
		"longitude": "97-36-24.68 W",
		"state": "TEXAS",
		"artcc": "ZHU",
		"type": "MW",
		"updated": "04/10/2013",
	},
	{
		"name": "STNSN",
		"latitude": "30-5-59.65 N",
		"longitude": "97-46-1.91 W",
		"state": "TEXAS",
		"artcc": "ZHU",
		"type": "RNAV",
		"updated": "10/20/2017",
	},
	{
		"name": "STOCK",
		"latitude": "30-52-32.02 N",
		"longitude": "97-55-39.24 W",
		"state": "TEXAS",
		"artcc": "ZHU",
		"type": "RNAV",
		"updated": "03/14/2014",
	},
	{
		"name": "STOWS",
		"latitude": "27-38-58.34 N",
		"longitude": "97-12-7.77 W",
		"state": "TEXAS",
		"artcc": "ZHU",
		"type": "MR",
		"updated": "NGP*VORTAC*108.00/5.40",
	},
	{
		"name": "STRUT",
		"latitude": "30-9-19.77 N",
		"longitude": "93-29-50.34 W",
		"state": "LOUISIANA",
		"artcc": "ZHU",
		"type": "RP",
		"updated": "LCH*VORTAC*265.45/20.40",
	},
	{
		"name": "STRYA",
		"latitude": "31-18-21.13 N",
		"longitude": "93-50-37.43 W",
		"state": "TEXAS",
		"artcc": "ZHU",
		"type": "RNAV",
		"updated": "03/31/2014",
	},
	{
		"name": "STUFN",
		"latitude": "27-42-23.25 N",
		"longitude": "97-18-28.97 W",
		"state": "TEXAS",
		"artcc": "ZHU",
		"type": "MR",
		"updated": "NGP*VORTAC*323.60/1.40",
	},
	{
		"name": "STURT",
		"latitude": "27-48-37.88 N",
		"longitude": "97-25-19 W",
		"state": "TEXAS",
		"artcc": "ZHU",
		"type": "MW",
		"updated": "07/09/2015",
	},
	{
		"name": "STYCK",
		"latitude": "31-7-26.45 N",
		"longitude": "95-58-4.65 W",
		"state": "TEXAS",
		"artcc": "ZHU",
		"type": "RNAV",
		"updated": "03/31/2014",
	},
	{
		"name": "SUBIE",
		"latitude": "30-34-16.91 N",
		"longitude": "98-17-40.74 W",
		"state": "TEXAS",
		"artcc": "ZHU",
		"type": "RNAV",
		"updated": "09/30/2009",
	},
	{
		"name": "SUCAF",
		"latitude": "27-5-47.68 N",
		"longitude": "98-20-1.11 W",
		"state": "TEXAS",
		"artcc": "ZHU",
		"type": "RNAV",
		"updated": "07/26/2012",
	},
	{
		"name": "SUFLE",
		"latitude": "30-6-1.36 N",
		"longitude": "97-32-16.8 W",
		"state": "TEXAS",
		"artcc": "ZHU",
		"type": "RNAV",
		"updated": "06/22/2011",
	},
	{
		"name": "SUGGA",
		"latitude": "30-50-33.72 N",
		"longitude": "93-6-43.42 W",
		"state": "LOUISIANA",
		"artcc": "ZHU",
		"type": "RNAV",
		"updated": "04/26/2011",
	},
	{
		"name": "SUGVE",
		"latitude": "30-37-0.18 N",
		"longitude": "90-25-12.27 W",
		"state": "LOUISIANA",
		"artcc": "ZHU",
		"type": "RNAV",
		"updated": "05/14/2010",
	},
	{
		"name": "SUKEY",
		"latitude": "30-5-40.28 N",
		"longitude": "97-41-29.74 W",
		"state": "TEXAS",
		"artcc": "ZHU",
		"type": "RNAV",
		"updated": "10/27/2017",
	},
	{
		"name": "SULPA",
		"latitude": "29-35-52.5 N",
		"longitude": "89-52-30.34 W",
		"state": "LOUISIANA",
		"artcc": "ZHU",
		"type": "RP",
		"updated": "HRV*VORTAC*154.10/16.51",
	},
	{
		"name": "SUSHI",
		"latitude": "30-35-28.92 N",
		"longitude": "95-4-23.62 W",
		"state": "TEXAS",
		"artcc": "ZHU",
		"type": "RP",
		"updated": "LFK*VORTAC*203.38/38.82",
	},
	{
		"name": "SUTOL",
		"latitude": "26-26-24 N",
		"longitude": "99-17-18 W",
		"state": "",
		"artcc": "ZHU",
		"type": "RP",
		"updated": "07/15/2004",
	},
	{
		"name": "SUUNR",
		"latitude": "30-21-39.27 N",
		"longitude": "96-2-7.34 W",
		"state": "TEXAS",
		"artcc": "ZHU",
		"type": "RNAV",
		"updated": "03/11/2014",
	},
	{
		"name": "SUVDE",
		"latitude": "30-12-50.41 N",
		"longitude": "92-1-5.6 W",
		"state": "LOUISIANA",
		"artcc": "ZHU",
		"type": "RNAV",
		"updated": "01/19/2007",
	},
	{
		"name": "SUVOC",
		"latitude": "30-41-54.61 N",
		"longitude": "88-35-49.2 W",
		"state": "MISSISSIPPI",
		"artcc": "ZHU",
		"type": "RP",
		"updated": "SJI*VORTAC*257.44/12.40",
	},
	{
		"name": "SUXOE",
		"latitude": "30-56-23 N",
		"longitude": "96-18-13.06 W",
		"state": "TEXAS",
		"artcc": "ZHU",
		"type": "RP",
		"updated": "TNV*VOR/DME*334.01/41.00",
	},
	{
		"name": "SUYOG",
		"latitude": "27-41-45.97 N",
		"longitude": "97-50-54.93 W",
		"state": "TEXAS",
		"artcc": "ZHU",
		"type": "MR",
		"updated": "NQI*TACAN*345.00/12.00",
	},
	{
		"name": "SUZEE",
		"latitude": "28-30-9.92 N",
		"longitude": "99-58-11.71 W",
		"state": "TEXAS",
		"artcc": "ZHU",
		"type": "RNAV",
		"updated": "12/23/2002",
	},
	{
		"name": "SVANA",
		"latitude": "28-50-8.21 N",
		"longitude": "100-11-21.7 W",
		"state": "TEXAS",
		"artcc": "ZHU",
		"type": "RNAV",
		"updated": "12/23/2002",
	},
	{
		"name": "SWANE",
		"latitude": "29-20-30.57 N",
		"longitude": "94-56-4.36 W",
		"state": "TEXAS",
		"artcc": "ZHU",
		"type": "RP",
		"updated": "VUH*VOR/DME*/5.58",
	},
	{
		"name": "SWANT",
		"latitude": "29-17-23.04 N",
		"longitude": "100-45-37.18 W",
		"state": "TEXAS",
		"artcc": "ZHU",
		"type": "MW",
		"updated": "07/14/2009",
	},
	{
		"name": "SWEEN",
		"latitude": "28-32-48.29 N",
		"longitude": "97-22-55.05 W",
		"state": "TEXAS",
		"artcc": "ZHU",
		"type": "MW",
		"updated": "12/26/2017",
	},
	{
		"name": "SWIFF",
		"latitude": "30-17-36.62 N",
		"longitude": "92-35-33.88 W",
		"state": "LOUISIANA",
		"artcc": "ZHU",
		"type": "RP",
		"updated": "LFT*VORTAC*278.00/31.77",
	},
	{
		"name": "SWMMP",
		"latitude": "30-18-16.46 N",
		"longitude": "97-43-37.89 W",
		"state": "TEXAS",
		"artcc": "ZHU",
		"type": "RNAV",
		"updated": "10/27/2017",
	},
	{
		"name": "SWWAA",
		"latitude": "30-0-31.45 N",
		"longitude": "95-9-25.36 W",
		"state": "TEXAS",
		"artcc": "ZHU",
		"type": "RP",
		"updated": "IAH*VORTAC*067.44/10.31",
	},
	{
		"name": "SYYKO",
		"latitude": "29-57-36.46 N",
		"longitude": "94-51-41.63 W",
		"state": "TEXAS",
		"artcc": "ZHU",
		"type": "RNAV",
		"updated": "03/08/2014",
	},
	{
		"name": "SZAGI",
		"latitude": "30-45-33.04 N",
		"longitude": "98-25-55.43 W",
		"state": "TEXAS",
		"artcc": "ZHU",
		"type": "RNAV",
		"updated": "12/15/2014",
	},
