[
	{
		"name": "TAAHD",
		"latitude": "29-18-38.26 N",
		"longitude": "98-50-19.38 W",
		"state": "TEXAS",
		"artcc": "ZHU",
		"type": "RNAV",
		"updated": "08/30/2015"
	},
	{
		"name": "TABRR",
		"latitude": "30-13-41.78 N",
		"longitude": "94-41-24.14 W",
		"state": "TEXAS",
		"artcc": "ZHU",
		"type": "RNAV",
		"updated": "03/11/2014"
	},
	{
		"name": "TABUQ",
		"latitude": "29-21-40.32 N",
		"longitude": "90-45-25.31 W",
		"state": "LOUISIANA",
		"artcc": "ZHU",
		"type": "RNAV",
		"updated": "05/04/2009"
	},
	{
		"name": "TACCU",
		"latitude": "30-45-50.84 N",
		"longitude": "88-29-14.19 W",
		"state": "MISSISSIPPI",
		"artcc": "ZHU",
		"type": "RP",
		"updated": "SJI*VORTAC*284.07/7.00"
	},
	{
		"name": "TACOE",
		"latitude": "29-41-4.41 N",
		"longitude": "100-14-23.93 W",
		"state": "TEXAS",
		"artcc": "ZHU",
		"type": "MR",
		"updated": "RSG*VORTAC*161.00/20.00"
	},
	{
		"name": "TAELR",
		"latitude": "30-15-22.7 N",
		"longitude": "100-53-54.11 W",
		"state": "TEXAS",
		"artcc": "ZHU",
		"type": "MR",
		"updated": "DLF*VORTAC*346.00/54.00"
	},
	{
		"name": "TAFCU",
		"latitude": "29-36-4.76 N",
		"longitude": "98-2-42.67 W",
		"state": "TEXAS",
		"artcc": "ZHU",
		"type": "RNAV",
		"updated": "12/27/2007"
	},
	{
		"name": "TAHKO",
		"latitude": "29-25-39.08 N",
		"longitude": "98-12-31.8 W",
		"state": "TEXAS",
		"artcc": "ZHU",
		"type": "RNAV",
		"updated": "06/02/2016"
	},
	{
		"name": "TALLN",
		"latitude": "29-22-0.59 N",
		"longitude": "97-51-10.44 W",
		"state": "TEXAS",
		"artcc": "ZHU",
		"type": "MR",
		"updated": "DHK*TACAN*110.00/24.00"
	},
	{
		"name": "TALOC",
		"latitude": "29-51-14.6 N",
		"longitude": "94-2-53.1 W",
		"state": "TEXAS",
		"artcc": "ZHU",
		"type": "RNAV",
		"updated": "08/30/2005"
	},
	{
		"name": "TANKS",
		"latitude": "29-58-39.42 N",
		"longitude": "95-13-20.5 W",
		"state": "TEXAS",
		"artcc": "ZHU",
		"type": "RP",
		"updated": "HUB*VOR/DME*002.56"
	},
	{
		"name": "TANNA",
		"latitude": "28-37-25.03 N",
		"longitude": "96-35-36.24 W",
		"state": "TEXAS",
		"artcc": "ZHU",
		"type": "RP",
		"updated": "PSX*VORTAC*233.00/17.34"
	},
	{
		"name": "TAPOW",
		"latitude": "29-22-37.03 N",
		"longitude": "95-2-35.76 W",
		"state": "TEXAS",
		"artcc": "ZHU",
		"type": "RP",
		"updated": "EFD*TACAN*151.00/15.00"
	},
	{
		"name": "TARCU",
		"latitude": "29-29-4.94 N",
		"longitude": "95-2-47.15 W",
		"state": "TEXAS",
		"artcc": "ZHU",
		"type": "RNAV",
		"updated": "11/16/2012"
	},
	{
		"name": "TARGE",
		"latitude": "26-18-24.41 N",
		"longitude": "97-44-37.94 W",
		"state": "TEXAS",
		"artcc": "ZHU",
		"type": "RNAV",
		"updated": "08/09/2012"
	},
	{
		"name": "TARRA",
		"latitude": "30-30-5.78 N",
		"longitude": "98-56-17.66 W",
		"state": "TEXAS",
		"artcc": "ZHU",
		"type": "MR",
		"updated": "JCT*VORTAC*089.00/47.00"
	},
	{
		"name": "TASME",
		"latitude": "29-24-56.97 N",
		"longitude": "98-48-30.04 W",
		"state": "TEXAS",
		"artcc": "ZHU",
		"type": "MR",
		"updated": "KSY*TACAN*273.00/12.00"
	},
	{
		"name": "TATAR",
		"latitude": "29-53-13.51 N",
		"longitude": "98-48-8.85 W",
		"state": "TEXAS",
		"artcc": "ZHU",
		"type": "RP",
		"updated": "SAT*VORTAC*301.32/23.00"
	},
	{
		"name": "TATAU",
		"latitude": "30-2-36.06 N",
		"longitude": "97-45-56.51 W",
		"state": "TEXAS",
		"artcc": "ZHU",
		"type": "RNAV",
		"updated": "10/20/2017"
	},
	{
		"name": "TATER",
		"latitude": "30-26-30.98 N",
		"longitude": "91-23-54.56 W",
		"state": "LOUISIANA",
		"artcc": "ZHU",
		"type": "RP",
		"updated": "LSU*VORTAC*238.50/6.00"
	},
	{
		"name": "TAZHA",
		"latitude": "30-50-29.05 N",
		"longitude": "94-2-8.81 W",
		"state": "TEXAS",
		"artcc": "ZHU",
		"type": "RNAV",
		"updated": "07/07/2009"
	},
	{
		"name": "TBDCC",
		"latitude": "29-20-0 N",
		"longitude": "91-0-0 W",
		"state": "OFFSHORE GULF",
		"artcc": "ZHU",
		"type": "RNAV",
		"updated": "12/18/2017"
	},
	{
		"name": "TBDCD",
		"latitude": "29-0-0 N",
		"longitude": "91-0-0 W",
		"state": "OFFSHORE GULF",
		"artcc": "ZHU",
		"type": "WP",
		"updated": "07/15/1998"
	},
	{
		"name": "TBDCE",
		"latitude": "28-40-0 N",
		"longitude": "91-0-0 W",
		"state": "OFFSHORE GULF",
		"artcc": "ZHU",
		"type": "WP",
		"updated": "07/15/1998"
	},
	{
		"name": "TBDCF",
		"latitude": "28-20-0 N",
		"longitude": "91-0-0 W",
		"state": "OFFSHORE GULF",
		"artcc": "ZHU",
		"type": "WP",
		"updated": "07/15/1998"
	},
	{
		"name": "TBDCG",
		"latitude": "28-0-0 N",
		"longitude": "91-0-0 W",
		"state": "OFFSHORE GULF",
		"artcc": "ZHU",
		"type": "WP",
		"updated": "07/15/1998"
	},
	{
		"name": "TBDCH",
		"latitude": "27-40-0 N",
		"longitude": "91-0-0 W",
		"state": "OFFSHORE GULF",
		"artcc": "ZHU",
		"type": "WP",
		"updated": "07/15/1998"
	},
	{
		"name": "TBDCI",
		"latitude": "27-20-0 N",
		"longitude": "91-0-0 W",
		"state": "OFFSHORE GULF",
		"artcc": "ZHU",
		"type": "WP",
		"updated": "07/16/1998"
	},
	{
		"name": "TBDCJ",
		"latitude": "27-0-0 N",
		"longitude": "91-0-0 W",
		"state": "OFFSHORE GULF",
		"artcc": "ZHU",
		"type": "WP",
		"updated": "07/16/1998"
	},
	{
		"name": "TBDCK",
		"latitude": "26-40-0 N",
		"longitude": "91-0-0 W",
		"state": "OFFSHORE GULF",
		"artcc": "ZHU",
		"type": "WP",
		"updated": "07/16/1998"
	},
	{
		"name": "TBDCL",
		"latitude": "26-20-0 N",
		"longitude": "91-0-0 W",
		"state": "OFFSHORE GULF",
		"artcc": "ZHU",
		"type": "WP",
		"updated": "07/16/1998"
	},
	{
		"name": "TBDCM",
		"latitude": "26-0-0 N",
		"longitude": "91-0-0 W",
		"state": "OFFSHORE GULF",
		"artcc": "ZHU",
		"type": "WP",
		"updated": "07/16/1998"
	},
	{
		"name": "TBDCN",
		"latitude": "25-40-0 N",
		"longitude": "91-0-0 W",
		"state": "OFFSHORE GULF",
		"artcc": "ZHU",
		"type": "WP",
		"updated": "07/16/1998"
	},
	{
		"name": "TBDCO",
		"latitude": "25-20-0 N",
		"longitude": "91-0-0 W",
		"state": "OFFSHORE GULF",
		"artcc": "ZHU",
		"type": "WP",
		"updated": "07/16/1998"
	},
	{
		"name": "TBDCP",
		"latitude": "25-0-0 N",
		"longitude": "91-0-0 W",
		"state": "OFFSHORE GULF",
		"artcc": "ZHU",
		"type": "WP",
		"updated": "07/16/1998"
	},
	{
		"name": "TBDCQ",
		"latitude": "24-40-0 N",
		"longitude": "91-0-0 W",
		"state": "OFFSHORE GULF",
		"artcc": "ZHU",
		"type": "WP",
		"updated": "07/16/1998"
	},
	{
		"name": "TBDLC",
		"latitude": "29-20-0 N",
		"longitude": "91-20-0 W",
		"state": "OFFSHORE GULF",
		"artcc": "ZHU",
		"type": "RNAV",
		"updated": "04/11/2012"
	},
	{
		"name": "TBDLD",
		"latitude": "29-0-0 N",
		"longitude": "91-20-0 W",
		"state": "OFFSHORE GULF",
		"artcc": "ZHU",
		"type": "WP",
		"updated": "07/14/1998"
	},
	{
		"name": "TBDLE",
		"latitude": "28-40-0 N",
		"longitude": "91-20-0 W",
		"state": "OFFSHORE GULF",
		"artcc": "ZHU",
		"type": "WP",
		"updated": "07/14/1998"
	},
	{
		"name": "TBDLF",
		"latitude": "28-20-0 N",
		"longitude": "91-20-0 W",
		"state": "OFFSHORE GULF",
		"artcc": "ZHU",
		"type": "WP",
		"updated": "07/14/1998"
	},
	{
		"name": "TBDLG",
		"latitude": "28-0-0 N",
		"longitude": "91-20-0 W",
		"state": "OFFSHORE GULF",
		"artcc": "ZHU",
		"type": "WP",
		"updated": "07/14/1998"
	},
	{
		"name": "TBDLH",
		"latitude": "27-40-0 N",
		"longitude": "91-20-0 W",
		"state": "OFFSHORE GULF",
		"artcc": "ZHU",
		"type": "WP",
		"updated": "07/14/1998"
	},
	{
		"name": "TBDLI",
		"latitude": "27-20-0 N",
		"longitude": "91-20-0 W",
		"state": "OFFSHORE GULF",
		"artcc": "ZHU",
		"type": "WP",
		"updated": "07/14/1998"
	},
	{
		"name": "TBDLJ",
		"latitude": "27-0-0 N",
		"longitude": "91-20-0 W",
		"state": "OFFSHORE GULF",
		"artcc": "ZHU",
		"type": "WP",
		"updated": "07/14/1998"
	},
	{
		"name": "TBDLK",
		"latitude": "26-40-0 N",
		"longitude": "91-20-0 W",
		"state": "OFFSHORE GULF",
		"artcc": "ZHU",
		"type": "WP",
		"updated": "07/14/1998"
	},
	{
		"name": "TBDLL",
		"latitude": "26-20-0 N",
		"longitude": "91-20-0 W",
		"state": "OFFSHORE GULF",
		"artcc": "ZHU",
		"type": "WP",
		"updated": "07/14/1998"
	},
	{
		"name": "TBDLM",
		"latitude": "26-0-0 N",
		"longitude": "91-20-0 W",
		"state": "OFFSHORE GULF",
		"artcc": "ZHU",
		"type": "WP",
		"updated": "07/14/1998"
	},
	{
		"name": "TBDLN",
		"latitude": "25-40-0 N",
		"longitude": "91-20-0 W",
		"state": "OFFSHORE GULF",
		"artcc": "ZHU",
		"type": "WP",
		"updated": "07/15/1998"
	},
	{
		"name": "TBDLO",
		"latitude": "25-20-0 N",
		"longitude": "91-20-0 W",
		"state": "OFFSHORE GULF",
		"artcc": "ZHU",
		"type": "WP",
		"updated": "07/15/1998"
	},
	{
		"name": "TBDLP",
		"latitude": "25-0-0 N",
		"longitude": "91-20-0 W",
		"state": "OFFSHORE GULF",
		"artcc": "ZHU",
		"type": "WP",
		"updated": "07/15/1998"
	},
	{
		"name": "TBDLQ",
		"latitude": "24-40-0 N",
		"longitude": "91-20-0 W",
		"state": "OFFSHORE GULF",
		"artcc": "ZHU",
		"type": "WP",
		"updated": "07/15/1998"
	},
	{
		"name": "TBDRC",
		"latitude": "29-20-0 N",
		"longitude": "90-40-0 W",
		"state": "OFFSHORE GULF",
		"artcc": "ZHU",
		"type": "RNAV",
		"updated": "12/18/2017"
	},
	{
		"name": "TBDRD",
		"latitude": "29-0-0 N",
		"longitude": "90-40-0 W",
		"state": "OFFSHORE GULF",
		"artcc": "ZHU",
		"type": "WP",
		"updated": "07/16/1998"
	},
	{
		"name": "TBDRE",
		"latitude": "28-40-0 N",
		"longitude": "90-40-0 W",
		"state": "OFFSHORE GULF",
		"artcc": "ZHU",
		"type": "WP",
		"updated": "07/16/1998"
	},
	{
		"name": "TBDRF",
		"latitude": "28-20-0 N",
		"longitude": "90-40-0 W",
		"state": "OFFSHORE GULF",
		"artcc": "ZHU",
		"type": "WP",
		"updated": "07/16/1998"
	},
	{
		"name": "TBDRG",
		"latitude": "28-0-0 N",
		"longitude": "90-40-0 W",
		"state": "OFFSHORE GULF",
		"artcc": "ZHU",
		"type": "WP",
		"updated": "07/16/1998"
	},
	{
		"name": "TBDRH",
		"latitude": "27-40-0 N",
		"longitude": "90-40-0 W",
		"state": "OFFSHORE GULF",
		"artcc": "ZHU",
		"type": "WP",
		"updated": "07/16/1998"
	},
	{
		"name": "TBDRI",
		"latitude": "27-20-0 N",
		"longitude": "90-40-0 W",
		"state": "OFFSHORE GULF",
		"artcc": "ZHU",
		"type": "WP",
		"updated": "07/16/1998"
	},
	{
		"name": "TBDRJ",
		"latitude": "27-0-0 N",
		"longitude": "90-40-0 W",
		"state": "OFFSHORE GULF",
		"artcc": "ZHU",
		"type": "WP",
		"updated": "07/16/1998"
	},
	{
		"name": "TBDRK",
		"latitude": "26-40-0 N",
		"longitude": "90-40-0 W",
		"state": "OFFSHORE GULF",
		"artcc": "ZHU",
		"type": "WP",
		"updated": "07/16/1998"
	},
	{
		"name": "TBDRL",
		"latitude": "26-20-0 N",
		"longitude": "90-40-0 W",
		"state": "OFFSHORE GULF",
		"artcc": "ZHU",
		"type": "WP",
		"updated": "07/16/1998"
	},
	{
		"name": "TBDRM",
		"latitude": "26-0-0 N",
		"longitude": "90-40-0 W",
		"state": "OFFSHORE GULF",
		"artcc": "ZHU",
		"type": "WP",
		"updated": "07/16/1998"
	},
	{
		"name": "TBDRN",
		"latitude": "25-40-0 N",
		"longitude": "90-40-0 W",
		"state": "OFFSHORE GULF",
		"artcc": "ZHU",
		"type": "WP",
		"updated": "07/17/1998"
	},
	{
		"name": "TBDRO",
		"latitude": "25-20-0 N",
		"longitude": "90-40-0 W",
		"state": "OFFSHORE GULF",
		"artcc": "ZHU",
		"type": "WP",
		"updated": "07/17/1998"
	},
	{
		"name": "TBDRP",
		"latitude": "25-0-0 N",
		"longitude": "90-40-0 W",
		"state": "OFFSHORE GULF",
		"artcc": "ZHU",
		"type": "WP",
		"updated": "07/17/1998"
	},
	{
		"name": "TBDRQ",
		"latitude": "24-40-0 N",
		"longitude": "90-40-0 W",
		"state": "OFFSHORE GULF",
		"artcc": "ZHU",
		"type": "WP",
		"updated": "07/17/1998"
	},
	{
		"name": "TBEND",
		"latitude": "31-11-55.13 N",
		"longitude": "93-57-58.22 W",
		"state": "TEXAS",
		"artcc": "ZHU",
		"type": "RP",
		"updated": "LFK*VORTAC*081.59/38.70"
	},
	{
		"name": "TBURG",
		"latitude": "31-40-37.19 N",
		"longitude": "91-22-8.13 W",
		"state": "MISSISSIPPI",
		"artcc": "ZHU",
		"type": "RP",
		"updated": "HAH*NDB*255.46"
	},
	{
		"name": "TCHDN",
		"latitude": "29-37-57.92 N",
		"longitude": "95-23-9.38 W",
		"state": "TEXAS",
		"artcc": "ZHU",
		"type": "RP",
		"updated": "IAH*VORTAC*181.19"
	},
	{
		"name": "TEBSE",
		"latitude": "27-23-46.97 N",
		"longitude": "98-16-12.88 W",
		"state": "TEXAS",
		"artcc": "ZHU",
		"type": "RNAV",
		"updated": "07/13/2017"
	},
	{
		"name": "TECUR",
		"latitude": "28-3-59.19 N",
		"longitude": "98-11-36.29 W",
		"state": "TEXAS",
		"artcc": "ZHU",
		"type": "MR",
		"updated": "NQI*TACAN*324.79/39.72"
	},
	{
		"name": "TEGOY",
		"latitude": "29-24-38.77 N",
		"longitude": "95-17-58.22 W",
		"state": "TEXAS",
		"artcc": "ZHU",
		"type": "RNAV",
		"updated": "04/02/2007"
	},
	{
		"name": "TEJAS",
		"latitude": "29-41-12.26 N",
		"longitude": "95-54-10.95 W",
		"state": "TEXAS",
		"artcc": "ZHU",
		"type": "RNAV",
		"updated": "03/07/2014"
	},
	{
		"name": "TELNY",
		"latitude": "30-49-34.57 N",
		"longitude": "95-58-11.44 W",
		"state": "TEXAS",
		"artcc": "ZHU",
		"type": "RNAV",
		"updated": "06/08/2017"
	},
	{
		"name": "TELYO",
		"latitude": "26-17-5.24 N",
		"longitude": "97-59-42.9 W",
		"state": "TEXAS",
		"artcc": "ZHU",
		"type": "RNAV",
		"updated": "07/27/2006"
	},
	{
		"name": "TEMCO",
		"latitude": "29-47-54.77 N",
		"longitude": "93-35-58.11 W",
		"state": "LOUISIANA",
		"artcc": "ZHU",
		"type": "RP",
		"updated": "BPT*VOR/DME*105.00"
	},
	{
		"name": "TEMKN",
		"latitude": "28-24-6.02 N",
		"longitude": "97-26-22.34 W",
		"state": "TEXAS",
		"artcc": "ZHU",
		"type": "MW",
		"updated": "12/26/2017"
	},
	{
		"name": "TENAT",
		"latitude": "31-23-25.54 N",
		"longitude": "98-5-12.41 W",
		"state": "TEXAS",
		"artcc": "ZHU",
		"type": "RP",
		"updated": "ACT*VORTAC*240.00/44.98"
	},
	{
		"name": "TENIA",
		"latitude": "29-50-39.16 N",
		"longitude": "95-31-11.04 W",
		"state": "TEXAS",
		"artcc": "ZHU",
		"type": "RNAV",
		"updated": "01/24/2018"
	},
	{
		"name": "TENSA",
		"latitude": "31-8-11.33 N",
		"longitude": "87-48-59.98 W",
		"state": "ALABAMA",
		"artcc": "ZHU",
		"type": "RP",
		"updated": "GCV*VORTAC*081.00"
	},
	{
		"name": "TENTH",
		"latitude": "29-46-56.66 N",
		"longitude": "92-46-20.42 W",
		"state": "LOUISIANA",
		"artcc": "ZHU",
		"type": "RNAV",
		"updated": "02/28/2017"
	},
	{
		"name": "TENUH",
		"latitude": "27-45-26.6 N",
		"longitude": "97-29-45.37 W",
		"state": "TEXAS",
		"artcc": "ZHU",
		"type": "RP",
		"updated": "OYC*LD*172.11/1.60"
	},
	{
		"name": "TEPNE",
		"latitude": "29-21-30.59 N",
		"longitude": "89-27-1.13 W",
		"state": "LOUISIANA",
		"artcc": "ZHU",
		"type": "RNAV",
		"updated": "04/26/2018"
	},
	{
		"name": "TERCU",
		"latitude": "29-55-21.85 N",
		"longitude": "93-21-0.97 W",
		"state": "LOUISIANA",
		"artcc": "ZHU",
		"type": "RNAV",
		"updated": "01/03/2009"
	},
	{
		"name": "TERHI",
		"latitude": "30-39-55.88 N",
		"longitude": "96-26-8.37 W",
		"state": "TEXAS",
		"artcc": "ZHU",
		"type": "RNAV",
		"updated": "07/27/2011"
	},
	{
		"name": "TETUC",
		"latitude": "27-35-7.22 N",
		"longitude": "99-29-29.92 W",
		"state": "TEXAS",
		"artcc": "ZHU",
		"type": "RP",
		"updated": "LRD*VORTAC*319.28/7.50"
	},
	{
		"name": "TEXXN",
		"latitude": "29-53-33.07 N",
		"longitude": "95-32-9.03 W",
		"state": "TEXAS",
		"artcc": "ZHU",
		"type": "RNAV",
		"updated": "03/21/2014"
	},
	{
		"name": "TEYOC",
		"latitude": "29-18-26.28 N",
		"longitude": "95-12-33.45 W",
		"state": "TEXAS",
		"artcc": "ZHU",
		"type": "RNAV",
		"updated": "03/11/2011"
	},
	{
		"name": "TEYUP",
		"latitude": "30-38-14.23 N",
		"longitude": "96-16-56.75 W",
		"state": "TEXAS",
		"artcc": "ZHU",
		"type": "RNAV",
		"updated": "09/02/2012"
	},
	{
		"name": "TGONE",
		"latitude": "30-18-17.34 N",
		"longitude": "97-42-53.53 W",
		"state": "TEXAS",
		"artcc": "ZHU",
		"type": "RNAV",
		"updated": "10/26/2017"
	},
	{
		"name": "THARP",
		"latitude": "30-35-57.87 N",
		"longitude": "98-0-32.16 W",
		"state": "TEXAS",
		"artcc": "ZHU",
		"type": "RNAV",
		"updated": "11/14/2016"
	},
	{
		"name": "THELM",
		"latitude": "29-26-40.38 N",
		"longitude": "98-24-8.78 W",
		"state": "TEXAS",
		"artcc": "ZHU",
		"type": "RNAV",
		"updated": "10/26/2017"
	},
	{
		"name": "THONY",
		"latitude": "30-40-49.27 N",
		"longitude": "96-32-11.24 W",
		"state": "TEXAS",
		"artcc": "ZHU",
		"type": "RP",
		"updated": "LOA*VORTAC*220.00"
	},
	{
		"name": "THUGS",
		"latitude": "30-23-46.09 N",
		"longitude": "88-50-45.01 W",
		"state": "MISSISSIPPI",
		"artcc": "ZHU",
		"type": "RP",
		"updated": "GPT*VORTAC*091.00/12.00"
	},
	{
		"name": "TIBME",
		"latitude": "29-44-43.76 N",
		"longitude": "95-32-26.07 W",
		"state": "TEXAS",
		"artcc": "ZHU",
		"type": "RNAV",
		"updated": "01/24/2018"
	},
	{
		"name": "TIBTE",
		"latitude": "30-3-40.03 N",
		"longitude": "95-34-49.76 W",
		"state": "TEXAS",
		"artcc": "ZHU",
		"type": "RNAV",
		"updated": "10/31/2017"
	},
	{
		"name": "TIBUY",
		"latitude": "29-18-49.63 N",
		"longitude": "89-25-12.33 W",
		"state": "LOUISIANA",
		"artcc": "ZHU",
		"type": "RNAV",
		"updated": "04/26/2018"
	},
	{
		"name": "TICKS",
		"latitude": "30-31-23.08 N",
		"longitude": "90-33-44.1 W",
		"state": "LOUISIANA",
		"artcc": "ZHU",
		"type": "RP",
		"updated": "RQR*VOR/DME*001.00"
	},
	{
		"name": "TICOY",
		"latitude": "29-42-1.24 N",
		"longitude": "95-35-28.44 W",
		"state": "TEXAS",
		"artcc": "ZHU",
		"type": "RP",
		"updated": "IAH*VORTAC*214.90/20.00"
	},
	{
		"name": "TIDUY",
		"latitude": "29-36-10.26 N",
		"longitude": "95-53-41.46 W",
		"state": "TEXAS",
		"artcc": "ZHU",
		"type": "RNAV",
		"updated": "03/20/2009"
	},
	{
		"name": "TIMRE",
		"latitude": "29-17-47.64 N",
		"longitude": "100-42-29.79 W",
		"state": "TEXAS",
		"artcc": "ZHU",
		"type": "MR",
		"updated": "DLF*VORTAC*132.15/5.09"
	},
	{
		"name": "TINEE",
		"latitude": "29-40-56.39 N",
		"longitude": "90-12-58.58 W",
		"state": "LOUISIANA",
		"artcc": "ZHU",
		"type": "MR",
		"updated": "HRV*VORTAC*226.00/15.00"
	},
	{
		"name": "TINIE",
		"latitude": "28-32-55.97 N",
		"longitude": "98-10-58.37 W",
		"state": "TEXAS",
		"artcc": "ZHU",
		"type": "RP",
		"updated": "THX*VORTAC*318.89/3.14"
	},
	{
		"name": "TIPSE",
		"latitude": "27-40-20.17 N",
		"longitude": "97-32-20.39 W",
		"state": "TEXAS",
		"artcc": "ZHU",
		"type": "RNAV",
		"updated": "06/28/2016"
	},
	{
		"name": "TIRME",
		"latitude": "29-8-59.81 N",
		"longitude": "95-42-17.55 W",
		"state": "TEXAS",
		"artcc": "ZHU",
		"type": "RNAV",
		"updated": "10/31/2017"
	},
	{
		"name": "TISUE",
		"latitude": "30-34-36.41 N",
		"longitude": "88-57-14.41 W",
		"state": "MISSISSIPPI",
		"artcc": "ZHU",
		"type": "RP",
		"updated": "GPT*VORTAC*030.00/12.00"
	},
	{
		"name": "TITAE",
		"latitude": "27-59-2.96 N",
		"longitude": "98-5-34.34 W",
		"state": "TEXAS",
		"artcc": "ZHU",
		"type": "RNAV",
		"updated": "06/04/2012"
	},
	{
		"name": "TITTO",
		"latitude": "27-26-6.39 N",
		"longitude": "99-28-6.54 W",
		"state": "TEXAS",
		"artcc": "ZHU",
		"type": "RP",
		"updated": "LRD*LD*177.55/5.73"
	},
	{
		"name": "TIVYO",
		"latitude": "29-39-10.89 N",
		"longitude": "97-58-50.36 W",
		"state": "TEXAS",
		"artcc": "ZHU",
		"type": "RNAV",
		"updated": "03/06/2015"
	},
	{
		"name": "TIXFO",
		"latitude": "30-53-7.67 N",
		"longitude": "97-44-27.52 W",
		"state": "TEXAS",
		"artcc": "ZHU",
		"type": "RP",
		"updated": "BTJ*LD*153.35/12.80"
	},
	{
		"name": "TKNIQ",
		"latitude": "29-14-21.49 N",
		"longitude": "94-27-58.18 W",
		"state": "OFFSHORE GULF",
		"artcc": "ZHU",
		"type": "RNAV",
		"updated": "03/09/2014"
	},
	{
		"name": "TOAMY",
		"latitude": "30-37-48.35 N",
		"longitude": "97-0-10.34 W",
		"state": "TEXAS",
		"artcc": "ZHU",
		"type": "RP",
		"updated": "CWK*VORTAC*055.00/31.19"
	},
	{
		"name": "TOBOC",
		"latitude": "31-34-57.18 N",
		"longitude": "93-13-54.63 W",
		"state": "LOUISIANA",
		"artcc": "ZHU",
		"type": "RNAV",
		"updated": "08/07/2009"
	},
	{
		"name": "TOCAN",
		"latitude": "29-41-6.74 N",
		"longitude": "95-56-7.54 W",
		"state": "TEXAS",
		"artcc": "ZHU",
		"type": "RP",
		"updated": "ELA*VOR/DME*078.00/20.00"
	},
	{
		"name": "TOCOL",
		"latitude": "31-11-52.48 N",
		"longitude": "89-9-47.24 W",
		"state": "MISSISSIPPI",
		"artcc": "ZHU",
		"type": "RNAV",
		"updated": "05/13/2004"
	},
	{
		"name": "TODDS",
		"latitude": "29-34-24.59 N",
		"longitude": "89-20-29.21 W",
		"state": "LOUISIANA",
		"artcc": "ZHU",
		"type": "RP",
		"updated": "HRV*VORTAC*113.43/38.32"
	},
	{
		"name": "TOGUE",
		"latitude": "30-5-16.33 N",
		"longitude": "100-17-11.01 W",
		"state": "TEXAS",
		"artcc": "ZHU",
		"type": "RNAV",
		"updated": "05/12/2003"
	},
	{
		"name": "TOLUU",
		"latitude": "31-5-28.07 N",
		"longitude": "97-23-27.42 W",
		"state": "TEXAS",
		"artcc": "ZHU",
		"type": "RP",
		"updated": "TPL*VOR/DME*157.09/7.29"
	},
	{
		"name": "TOMZA",
		"latitude": "27-36-10.31 N",
		"longitude": "97-51-38.61 W",
		"state": "TEXAS",
		"artcc": "ZHU",
		"type": "MR",
		"updated": "NOG*TACAN*146.00/20.00"
	},
	{
		"name": "TONNR",
		"latitude": "29-18-35.79 N",
		"longitude": "100-43-23.92 W",
		"state": "TEXAS",
		"artcc": "ZHU",
		"type": "MR",
		"updated": "DLF*VORTAC*133.21/3.97"
	},
	{
		"name": "TONXU",
		"latitude": "29-51-29.25 N",
		"longitude": "97-49-19.04 W",
		"state": "TEXAS",
		"artcc": "ZHU",
		"type": "RNAV",
		"updated": "04/18/2013"
	},
	{
		"name": "TOONE",
		"latitude": "30-5-24.38 N",
		"longitude": "97-29-51.1 W",
		"state": "TEXAS",
		"artcc": "ZHU",
		"type": "RNAV",
		"updated": "10/25/2017"
	},
	{
		"name": "TOOTS",
		"latitude": "30-29-22.81 N",
		"longitude": "88-37-21.07 W",
		"state": "MISSISSIPPI",
		"artcc": "ZHU",
		"type": "RP",
		"updated": "GPT*VORTAC*076.00"
	},
	{
		"name": "TOPEZ",
		"latitude": "29-37-20.54 N",
		"longitude": "91-27-37.86 W",
		"state": "LOUISIANA",
		"artcc": "ZHU",
		"type": "RP",
		"updated": "HRV*VORTAC*258.21/77.35"
	},
	{
		"name": "TOPTY",
		"latitude": "27-42-0.31 N",
		"longitude": "97-4-11.9 W",
		"state": "TEXAS",
		"artcc": "ZHU",
		"type": "MR",
		"updated": "NGP*VORTAC*080.00/12.00"
	},
	{
		"name": "TORKL",
		"latitude": "22-57-4 N",
		"longitude": "159-51-19 W",
		"state": "HAWAII",
		"artcc": "ZHU",
		"type": "RNAV",
		"updated": "01/13/2011"
	},
	{
		"name": "TORRA",
		"latitude": "26-10-50.96 N",
		"longitude": "97-34-22.43 W",
		"state": "TEXAS",
		"artcc": "ZHU",
		"type": "RP",
		"updated": "HRL*VOR/DME*110.00/13.60"
	},
	{
		"name": "TORVY",
		"latitude": "29-34-44.22 N",
		"longitude": "95-21-5.95 W",
		"state": "TEXAS",
		"artcc": "ZHU",
		"type": "RNAV",
		"updated": "02/09/2018"
	},
	{
		"name": "TOTPE",
		"latitude": "29-24-58.37 N",
		"longitude": "95-24-28.14 W",
		"state": "TEXAS",
		"artcc": "ZHU",
		"type": "RNAV",
		"updated": "08/29/2001"
	},
	{
		"name": "TOUSY",
		"latitude": "30-27-40.68 N",
		"longitude": "88-46-50.1 W",
		"state": "MISSISSIPPI",
		"artcc": "ZHU",
		"type": "MW",
		"updated": "01/07/2015"
	},
	{
		"name": "TOVBE",
		"latitude": "26-13-8.49 N",
		"longitude": "97-38-54.02 W",
		"state": "TEXAS",
		"artcc": "ZHU",
		"type": "RP",
		"updated": "BRO*VORTAC*311.16/23.00"
	},
	{
		"name": "TOVEE",
		"latitude": "28-29-16.98 N",
		"longitude": "96-32-49.4 W",
		"state": "TEXAS",
		"artcc": "ZHU",
		"type": "RNAV",
		"updated": "10/22/2014"
	},
	{
		"name": "TOWNZ",
		"latitude": "29-35-7.37 N",
		"longitude": "91-1-15.01 W",
		"state": "LOUISIANA",
		"artcc": "ZHU",
		"type": "WP",
		"updated": "08/10/1998"
	},
	{
		"name": "TOYBO",
		"latitude": "29-53-58.82 N",
		"longitude": "90-1-39.54 W",
		"state": "LOUISIANA",
		"artcc": "ZHU",
		"type": "RNAV",
		"updated": "06/16/2009"
	},
	{
		"name": "TOYUK",
		"latitude": "26-38-51.54 N",
		"longitude": "98-10-27.82 W",
		"state": "TEXAS",
		"artcc": "ZHU",
		"type": "RNAV",
		"updated": "07/27/2006"
	},
	{
		"name": "TRADR",
		"latitude": "30-18-7.71 N",
		"longitude": "88-1-34.14 W",
		"state": "ALABAMA",
		"artcc": "ZHU",
		"type": "RP",
		"updated": "NPA*TACAN*264.00/37.00"
	},
	{
		"name": "TRAEN",
		"latitude": "30-55-7.25 N",
		"longitude": "93-20-19.5 W",
		"state": "LOUISIANA",
		"artcc": "ZHU",
		"type": "RNAV",
		"updated": "03/19/2009"
	},
	{
		"name": "TRAGO",
		"latitude": "29-16-9.73 N",
		"longitude": "98-43-9.61 W",
		"state": "TEXAS",
		"artcc": "ZHU",
		"type": "RP",
		"updated": "CSI*VORTAC*138.34/46.88"
	},
	{
		"name": "TRANN",
		"latitude": "29-58-38.2 N",
		"longitude": "94-54-56.35 W",
		"state": "TEXAS",
		"artcc": "ZHU",
		"type": "RP",
		"updated": "DAS*VORTAC*223.00"
	},
	{
		"name": "TRAPS",
		"latitude": "29-42-11.37 N",
		"longitude": "95-9-58.9 W",
		"state": "TEXAS",
		"artcc": "ZHU",
		"type": "RP",
		"updated": "HUB*VOR/DME*058.70"
	},
	{
		"name": "TREKS",
		"latitude": "30-5-39.64 N",
		"longitude": "97-40-10.29 W",
		"state": "TEXAS",
		"artcc": "ZHU",
		"type": "RNAV",
		"updated": "09/10/2015"
	},
	{
		"name": "TRESR",
		"latitude": "27-17-24.73 N",
		"longitude": "88-17-48.84 W",
		"state": "OFFSHORE GULF",
		"artcc": "ZHU",
		"type": "RNAV",
		"updated": "10/31/2012"
	},
	{
		"name": "TREVA",
		"latitude": "29-46-55.06 N",
		"longitude": "98-39-14.1 W",
		"state": "TEXAS",
		"artcc": "ZHU",
		"type": "RNAV",
		"updated": "07/13/2010"
	},
	{
		"name": "TRICA",
		"latitude": "26-14-53.15 N",
		"longitude": "97-41-49.76 W",
		"state": "TEXAS",
		"artcc": "ZHU",
		"type": "RP",
		"updated": "HRL*VOR/DME*107.43/5.79"
	},
	{
		"name": "TRIOS",
		"latitude": "29-57-11.14 N",
		"longitude": "94-40-41.73 W",
		"state": "TEXAS",
		"artcc": "ZHU",
		"type": "RP",
		"updated": "DAS*VORTAC*181.98"
	},
	{
		"name": "TROOP",
		"latitude": "29-40-50.3 N",
		"longitude": "98-22-31.21 W",
		"state": "TEXAS",
		"artcc": "ZHU",
		"type": "RP",
		"updated": "SAT*VORTAC*055.99/5.00"
	},
	{
		"name": "TRPPN",
		"latitude": "30-9-25.93 N",
		"longitude": "97-46-7.39 W",
		"state": "TEXAS",
		"artcc": "ZHU",
		"type": "RNAV",
		"updated": "10/26/2017"
	},
	{
		"name": "TRVSS",
		"latitude": "30-27-54.11 N",
		"longitude": "97-52-42.66 W",
		"state": "TEXAS",
		"artcc": "ZHU",
		"type": "RNAV",
		"updated": "10/26/2017"
	},
	{
		"name": "TSHRT",
		"latitude": "29-32-11 N",
		"longitude": "95-50-28.46 W",
		"state": "TEXAS",
		"artcc": "ZHU",
		"type": "RP",
		"updated": "ELA*VOR/DME*098.73/26.00"
	},
	{
		"name": "TTAPS",
		"latitude": "29-53-18.83 N",
		"longitude": "95-14-20.51 W",
		"state": "TEXAS",
		"artcc": "ZHU",
		"type": "RNAV",
		"updated": "03/27/2014"
	},
	{
		"name": "TTORO",
		"latitude": "30-8-17.1 N",
		"longitude": "95-57-12.19 W",
		"state": "TEXAS",
		"artcc": "ZHU",
		"type": "RNAV",
		"updated": "03/14/2014"
	},
	{
		"name": "TTXOX",
		"latitude": "26-56-1.1 N",
		"longitude": "99-20-1.1 W",
		"state": "TEXAS",
		"artcc": "ZHU",
		"type": "CN",
		"updated": "04/25/2002"
	},
	{
		"name": "TUALA",
		"latitude": "30-33-31.2 N",
		"longitude": "90-25-10.25 W",
		"state": "LOUISIANA",
		"artcc": "ZHU",
		"type": "RNAV",
		"updated": "05/14/2010"
	},
	{
		"name": "TUCCO",
		"latitude": "30-30-39.3 N",
		"longitude": "89-49-20.74 W",
		"state": "LOUISIANA",
		"artcc": "ZHU",
		"type": "RNAV",
		"updated": "02/28/2005"
	},
	{
		"name": "TUDOL",
		"latitude": "29-18-57.4 N",
		"longitude": "100-46-2.04 W",
		"state": "TEXAS",
		"artcc": "ZHU",
		"type": "MW",
		"updated": "07/14/2009"
	},
	{
		"name": "TUKII",
		"latitude": "30-17-21.17 N",
		"longitude": "95-35-11.11 W",
		"state": "TEXAS",
		"artcc": "ZHU",
		"type": "RP",
		"updated": "IAH*VORTAC*322.86"
	},
	{
		"name": "TULLO",
		"latitude": "31-58-47.77 N",
		"longitude": "91-48-24.56 W",
		"state": "LOUISIANA",
		"artcc": "ZHU",
		"type": "RP",
		"updated": "MLU*VORTAC*157.00/34.20"
	},
	{
		"name": "TUMMI",
		"latitude": "31-21-12.71 N",
		"longitude": "90-33-51.36 W",
		"state": "MISSISSIPPI",
		"artcc": "ZHU",
		"type": "RP",
		"updated": "MCB*VORTAC*277.66/16.00"
	},
	{
		"name": "TURNR",
		"latitude": "30-38-0.16 N",
		"longitude": "94-9-53.12 W",
		"state": "TEXAS",
		"artcc": "ZHU",
		"type": "RNAV",
		"updated": "03/11/2014"
	},
	{
		"name": "TUROC",
		"latitude": "29-53-38.21 N",
		"longitude": "97-48-39.93 W",
		"state": "TEXAS",
		"artcc": "ZHU",
		"type": "RNAV",
		"updated": "04/18/2013"
	},
	{
		"name": "TURTL",
		"latitude": "30-3-18.82 N",
		"longitude": "90-31-34.92 W",
		"state": "LOUISIANA",
		"artcc": "ZHU",
		"type": "RP",
		"updated": "TBD*VOR/DME*031.95"
	},
	{
		"name": "TUTTE",
		"latitude": "29-35-20.83 N",
		"longitude": "95-20-25.67 W",
		"state": "TEXAS",
		"artcc": "ZHU",
		"type": "RP",
		"updated": "HUB*LD*SW CRS/5.57"
	},
	{
		"name": "TUXUW",
		"latitude": "31-22-20.22 N",
		"longitude": "89-20-12.99 W",
		"state": "MISSISSIPPI",
		"artcc": "ZHU",
		"type": "RNAV",
		"updated": "02/05/2010"
	},
	{
		"name": "TUYOD",
		"latitude": "30-16-50.54 N",
		"longitude": "92-27-1.13 W",
		"state": "LOUISIANA",
		"artcc": "ZHU",
		"type": "RNAV",
		"updated": "07/28/2014"
	},
	{
		"name": "TWEET",
		"latitude": "29-12-50.8 N",
		"longitude": "100-36-57.28 W",
		"state": "TEXAS",
		"artcc": "ZHU",
		"type": "MR",
		"updated": "DLF*VORTAC*130.02/12.00"
	},
	{
		"name": "TYLAR",
		"latitude": "30-21-12.41 N",
		"longitude": "98-4-55.24 W",
		"state": "TEXAS",
		"artcc": "ZHU",
		"type": "RP",
		"updated": "CWK*VORTAC*261.14/28.70"
	},
	{
		"name": "TYLLR",
		"latitude": "27-48-30.34 N",
		"longitude": "97-25-22.61 W",
		"state": "TEXAS",
		"artcc": "ZHU",
		"type": "MR",
		"updated": "NGP*VORTAC*310.99/10.00"
	},
	{
		"name": "TYSON",
		"latitude": "27-30-20.07 N",
		"longitude": "97-17-18.25 W",
		"state": "TEXAS",
		"artcc": "ZHU",
		"type": "MW",
		"updated": "07/09/2015"
	}
]
