	{
		"name": "VADRR",
		"latitude": "30-39-48.29 N",
		"longitude": "97-26-52.16 W",
		"state": "TEXAS",
		"artcc": "ZHU",
		"type": "RNAV",
		"updated": "10/26/2017",
	},
	{
		"name": "VAGBY",
		"latitude": "27-0-58.5 N",
		"longitude": "98-7-11.19 W",
		"state": "TEXAS",
		"artcc": "ZHU",
		"type": "RNAV",
		"updated": "04/20/2009",
	},
	{
		"name": "VAGGE",
		"latitude": "29-29-38.67 N",
		"longitude": "95-17-32.35 W",
		"state": "TEXAS",
		"artcc": "ZHU",
		"type": "RNAV",
		"updated": "04/02/2007",
	},
	{
		"name": "VALEN",
		"latitude": "29-34-59.27 N",
		"longitude": "90-25-2.88 W",
		"state": "LOUISIANA",
		"artcc": "ZHU",
		"type": "RP",
		"updated": "TBD*VOR/DME*100.62/22.07",
	},
	{
		"name": "VALMR",
		"latitude": "29-11-58.35 N",
		"longitude": "89-20-35.96 W",
		"state": "LOUISIANA",
		"artcc": "ZHU",
		"type": "WP",
		"updated": "08/11/1998",
	},
	{
		"name": "VANBE",
		"latitude": "29-21-25.92 N",
		"longitude": "95-11-40.27 W",
		"state": "TEXAS",
		"artcc": "ZHU",
		"type": "MR",
		"updated": "EFD*TACAN*182.00/15.00",
	},
	{
		"name": "VANNN",
		"latitude": "29-59-33.99 N",
		"longitude": "94-49-9.6 W",
		"state": "TEXAS",
		"artcc": "ZHU",
		"type": "RP",
		"updated": "DAS*VORTAC*212.64",
	},
	{
		"name": "VAPPR",
		"latitude": "27-37-59.47 N",
		"longitude": "97-31-37.15 W",
		"state": "TEXAS",
		"artcc": "ZHU",
		"type": "RNAV",
		"updated": "05/03/2017",
	},
	{
		"name": "VARYU",
		"latitude": "26-18-50.01 N",
		"longitude": "97-39-10.96 W",
		"state": "TEXAS",
		"artcc": "ZHU",
		"type": "RNAV",
		"updated": "08/09/2012",
	},
	{
		"name": "VATSY",
		"latitude": "27-7-1.35 N",
		"longitude": "98-7-11.82 W",
		"state": "TEXAS",
		"artcc": "ZHU",
		"type": "RNAV",
		"updated": "07/13/2017",
	},
	{
		"name": "VAUHN",
		"latitude": "29-40-33.55 N",
		"longitude": "98-0-52.85 W",
		"state": "TEXAS",
		"artcc": "ZHU",
		"type": "RNAV",
		"updated": "08/21/2015",
	},
	{
		"name": "VEGEJ",
		"latitude": "30-39-30.77 N",
		"longitude": "97-56-45.58 W",
		"state": "TEXAS",
		"artcc": "ZHU",
		"type": "RNAV",
		"updated": "10/16/2009",
	},
	{
		"name": "VEILS",
		"latitude": "30-18-1.7 N",
		"longitude": "90-46-28.58 W",
		"state": "LOUISIANA",
		"artcc": "ZHU",
		"type": "RP",
		"updated": "RQR*VOR/DME*320.86/16.00",
	},
	{
		"name": "VELCO",
		"latitude": "31-10-39.96 N",
		"longitude": "94-24-32.96 W",
		"state": "TEXAS",
		"artcc": "ZHU",
		"type": "RP",
		"updated": "LFK*VORTAC*081.61/15.86",
	},
	{
		"name": "VELEZ",
		"latitude": "29-0-0 N",
		"longitude": "88-1-0 W",
		"state": "FLORIDA",
		"artcc": "ZHU",
		"type": "RP",
		"updated": "10/15/1999",
	},
	{
		"name": "VETTE",
		"latitude": "30-8-44.91 N",
		"longitude": "95-27-29.8 W",
		"state": "TEXAS",
		"artcc": "ZHU",
		"type": "RP",
		"updated": "IAH*VORTAC*/12.74",
	},
	{
		"name": "VEYUR",
		"latitude": "30-59-24.76 N",
		"longitude": "97-30-18.3 W",
		"state": "TEXAS",
		"artcc": "ZHU",
		"type": "RNAV",
		"updated": "07/27/2006",
	},
	{
		"name": "VICCC",
		"latitude": "27-36-36.09 N",
		"longitude": "97-13-44.31 W",
		"state": "TEXAS",
		"artcc": "ZHU",
		"type": "MR",
		"updated": "CRP*VORTAC*137.77/21.00",
	},
	{
		"name": "VICKI",
		"latitude": "30-23-33.53 N",
		"longitude": "88-37-41.96 W",
		"state": "MISSISSIPPI",
		"artcc": "ZHU",
		"type": "RP",
		"updated": "BFM*VORTAC*242.22/32.48",
	},
	{
		"name": "VICKR",
		"latitude": "30-19-34.37 N",
		"longitude": "88-58-47.09 W",
		"state": "MISSISSIPPI",
		"artcc": "ZHU",
		"type": "RP",
		"updated": "GPT*VORTAC*/6.98",
	},
	{
		"name": "VICLO",
		"latitude": "29-14-33.04 N",
		"longitude": "89-22-21.89 W",
		"state": "LOUISIANA",
		"artcc": "ZHU",
		"type": "WP",
		"updated": "08/11/1998",
	},
	{
		"name": "VICRO",
		"latitude": "29-16-11.17 N",
		"longitude": "89-23-28.97 W",
		"state": "LOUISIANA",
		"artcc": "ZHU",
		"type": "WP",
		"updated": "08/11/1998",
	},
	{
		"name": "VICUC",
		"latitude": "29-57-15.72 N",
		"longitude": "96-58-0.61 W",
		"state": "TEXAS",
		"artcc": "ZHU",
		"type": "RNAV",
		"updated": "03/19/2008",
	},
	{
		"name": "VIDAA",
		"latitude": "29-34-22.87 N",
		"longitude": "98-21-9.78 W",
		"state": "TEXAS",
		"artcc": "ZHU",
		"type": "RNAV",
		"updated": "10/26/2017",
	},
	{
		"name": "VIDYU",
		"latitude": "28-49-45.46 N",
		"longitude": "95-41-30.2 W",
		"state": "TEXAS",
		"artcc": "ZHU",
		"type": "RNAV",
		"updated": "12/15/2011",
	},
	{
		"name": "VIKEH",
		"latitude": "29-23-25.32 N",
		"longitude": "95-11-23.57 W",
		"state": "TEXAS",
		"artcc": "ZHU",
		"type": "MR",
		"updated": "EFD*TACAN*182.00/13.00",
	},
	{
		"name": "VILLI",
		"latitude": "29-37-40.49 N",
		"longitude": "95-23-12.28 W",
		"state": "TEXAS",
		"artcc": "ZHU",
		"type": "RNAV",
		"updated": "01/01/2009",
	},
	{
		"name": "VILUY",
		"latitude": "26-14-8.01 N",
		"longitude": "98-4-12.58 W",
		"state": "TEXAS",
		"artcc": "ZHU",
		"type": "RNAV",
		"updated": "07/27/2006",
	},
	{
		"name": "VINXE",
		"latitude": "29-51-35.13 N",
		"longitude": "95-8-14.81 W",
		"state": "TEXAS",
		"artcc": "ZHU",
		"type": "RNAV",
		"updated": "06/01/2010",
	},
	{
		"name": "VIPER",
		"latitude": "28-14-55.37 N",
		"longitude": "88-53-7.83 W",
		"state": "OFFSHORE GULF",
		"artcc": "ZHU",
		"type": "RP",
		"updated": "08/22/1985",
	},
	{
		"name": "VISSA",
		"latitude": "27-37-46.22 N",
		"longitude": "97-13-5.9 W",
		"state": "TEXAS",
		"artcc": "ZHU",
		"type": "MW",
		"updated": "07/09/2015",
	},
	{
		"name": "VIVCU",
		"latitude": "31-15-17.14 N",
		"longitude": "99-32-38.87 W",
		"state": "TEXAS",
		"artcc": "ZHU",
		"type": "RNAV",
		"updated": "10/14/2008",
	},
	{
		"name": "VIYQI",
		"latitude": "27-53-41.69 N",
		"longitude": "96-59-2.94 W",
		"state": "TEXAS",
		"artcc": "ZHU",
		"type": "RNAV",
		"updated": "03/28/2010",
	},
	{
		"name": "VODOY",
		"latitude": "31-1-57.3 N",
		"longitude": "92-8-25.28 W",
		"state": "LOUISIANA",
		"artcc": "ZHU",
		"type": "RNAV",
		"updated": "12/23/2004",
	},
	{
		"name": "VOODO",
		"latitude": "30-5-47.43 N",
		"longitude": "90-41-59.95 W",
		"state": "LOUISIANA",
		"artcc": "ZHU",
		"type": "RP",
		"updated": "TBD*VOR/DME*012.56/26.73",
	},
	{
		"name": "VOTAW",
		"latitude": "30-23-31.8 N",
		"longitude": "94-30-36.29 W",
		"state": "TEXAS",
		"artcc": "ZHU",
		"type": "RP",
		"updated": "DAS*VORTAC*025.00/14.00",
	},
	{
		"name": "VOWKO",
		"latitude": "27-46-30.64 N",
		"longitude": "97-24-55.12 W",
		"state": "TEXAS",
		"artcc": "ZHU",
		"type": "RNAV",
		"updated": "12/26/2013",
	},
	{
		"name": "VOYUB",
		"latitude": "31-41-53.16 N",
		"longitude": "91-17-38.77 W",
		"state": "MISSISSIPPI",
		"artcc": "ZHU",
		"type": "RNAV",
		"updated": "06/20/2013",
	},
	{
		"name": "VPASD",
		"latitude": "30-15-45 N",
		"longitude": "89-41-18 W",
		"state": "LOUISIANA",
		"artcc": "ZHU",
		"type": "VFR",
		"updated": "04/04/2016",
	},
	{
		"name": "VPBWY",
		"latitude": "29-46-14.76 N",
		"longitude": "95-9-14.52 W",
		"state": "TEXAS",
		"artcc": "ZHU",
		"type": "VFR",
		"updated": "11/29/2001",
	},
	{
		"name": "VPDTN",
		"latitude": "29-46-35.58 N",
		"longitude": "95-22-4.5 W",
		"state": "TEXAS",
		"artcc": "ZHU",
		"type": "VFR",
		"updated": "11/29/2001",
	},
	{
		"name": "VPGLA",
		"latitude": "30-8-18.6 N",
		"longitude": "95-6-37.38 W",
		"state": "TEXAS",
		"artcc": "ZHU",
		"type": "VFR",
		"updated": "08/26/2003",
	},
	{
		"name": "VPGLB",
		"latitude": "30-7-47.82 N",
		"longitude": "94-55-41.76 W",
		"state": "TEXAS",
		"artcc": "ZHU",
		"type": "VFR",
		"updated": "08/26/2003",
	},
	{
		"name": "VPGPT",
		"latitude": "30-25-57 N",
		"longitude": "89-5-37 W",
		"state": "MISSISSIPPI",
		"artcc": "ZHU",
		"type": "VFR",
		"updated": "08/30/2001",
	},
	{
		"name": "VPHSA",
		"latitude": "30-18-54 N",
		"longitude": "89-28-51 W",
		"state": "MISSISSIPPI",
		"artcc": "ZHU",
		"type": "VFR",
		"updated": "03/04/2016",
	},
	{
		"name": "VPKTY",
		"latitude": "29-47-2.76 N",
		"longitude": "95-44-55.32 W",
		"state": "TEXAS",
		"artcc": "ZHU",
		"type": "VFR",
		"updated": "08/26/2003",
	},
	{
		"name": "VPMOB",
		"latitude": "30-23-0 N",
		"longitude": "88-31-43 W",
		"state": "MISSISSIPPI",
		"artcc": "ZHU",
		"type": "VFR",
		"updated": "08/28/2001",
	},
	{
		"name": "VPPLN",
		"latitude": "30-8-48 N",
		"longitude": "95-50-25 W",
		"state": "TEXAS",
		"artcc": "ZHU",
		"type": "VFR",
		"updated": "08/26/2003",
	},
	{
		"name": "VPRIV",
		"latitude": "30-54-51 N",
		"longitude": "87-57-49 W",
		"state": "ALABAMA",
		"artcc": "ZHU",
		"type": "VFR",
		"updated": "08/28/2001",
	},
	{
		"name": "VPRSN",
		"latitude": "29-30-0 N",
		"longitude": "95-41-0 W",
		"state": "TEXAS",
		"artcc": "ZHU",
		"type": "VFR",
		"updated": "08/26/2003",
	},
	{
		"name": "VPSAW",
		"latitude": "30-49-39 N",
		"longitude": "89-7-25 W",
		"state": "MISSISSIPPI",
		"artcc": "ZHU",
		"type": "VFR",
		"updated": "08/30/2001",
	},
	{
		"name": "VPSND",
		"latitude": "29-23-7.74 N",
		"longitude": "95-28-51.73 W",
		"state": "TEXAS",
		"artcc": "ZHU",
		"type": "VFR",
		"updated": "08/26/2003",
	},
	{
		"name": "VPSNT",
		"latitude": "29-49-17.22 N",
		"longitude": "94-53-56.58 W",
		"state": "TEXAS",
		"artcc": "ZHU",
		"type": "VFR",
		"updated": "08/26/2003",
	},
	{
		"name": "VPTNE",
		"latitude": "29-47-28.92 N",
		"longitude": "95-3-20.34 W",
		"state": "TEXAS",
		"artcc": "ZHU",
		"type": "VFR",
		"updated": "11/29/2001",
	},
	{
		"name": "VPTNW",
		"latitude": "29-47-3.78 N",
		"longitude": "95-33-48.6 W",
		"state": "TEXAS",
		"artcc": "ZHU",
		"type": "VFR",
		"updated": "11/29/2001",
	},
	{
		"name": "VPTRK",
		"latitude": "29-24-3.48 N",
		"longitude": "95-10-26.28 W",
		"state": "TEXAS",
		"artcc": "ZHU",
		"type": "VFR",
		"updated": "08/26/2003",
	},
	{
		"name": "VROSH",
		"latitude": "28-47-5.92 N",
		"longitude": "96-20-9.81 W",
		"state": "TEXAS",
		"artcc": "ZHU",
		"type": "MR",
		"updated": "PSX*VORTAC*299.99/2.00",
	},
	{
		"name": "VULCE",
		"latitude": "28-49-11.33 N",
		"longitude": "96-48-57.36 W",
		"state": "TEXAS",
		"artcc": "ZHU",
		"type": "RNAV",
		"updated": "10/22/2014",
	},
	{
		"name": "VURGE",
		"latitude": "30-49-22.22 N",
		"longitude": "97-55-10.91 W",
		"state": "TEXAS",
		"artcc": "ZHU",
		"type": "WP",
		"updated": "11/02/1998",
	},
	{
		"name": "VZEEE",
		"latitude": "30-9-5.05 N",
		"longitude": "94-37-26.15 W",
		"state": "TEXAS",
		"artcc": "ZHU",
		"type": "RNAV",
		"updated": "10/25/2017",
	},
