	{
		"name": "YABUB",
		"latitude": "29-34-54 N",
		"longitude": "90-41-7.17 W",
		"state": "LOUISIANA",
		"artcc": "ZHU",
		"type": "RP",
		"updated": "TBD*VOR/DME*121.31/9.00",
	},
	{
		"name": "YABUP",
		"latitude": "29-42-42.52 N",
		"longitude": "94-46-4.27 W",
		"state": "TEXAS",
		"artcc": "ZHU",
		"type": "RNAV",
		"updated": "06/01/2010",
	},
	{
		"name": "YADUK",
		"latitude": "30-0-14.2 N",
		"longitude": "97-51-43.63 W",
		"state": "TEXAS",
		"artcc": "ZHU",
		"type": "RNAV",
		"updated": "04/18/2013",
	},
	{
		"name": "YADUS",
		"latitude": "27-40-2.46 N",
		"longitude": "97-28-13.15 W",
		"state": "TEXAS",
		"artcc": "ZHU",
		"type": "RNAV",
		"updated": "08/18/2010",
	},
	{
		"name": "YAGYA",
		"latitude": "28-11-17.72 N",
		"longitude": "97-14-25.85 W",
		"state": "TEXAS",
		"artcc": "ZHU",
		"type": "RNAV",
		"updated": "03/28/2010",
	},
	{
		"name": "YAJRI",
		"latitude": "28-40-35.25 N",
		"longitude": "98-2-31.81 W",
		"state": "TEXAS",
		"artcc": "ZHU",
		"type": "RNAV",
		"updated": "08/08/2012",
	},
	{
		"name": "YAKBY",
		"latitude": "29-56-4.37 N",
		"longitude": "93-45-53.18 W",
		"state": "LOUISIANA",
		"artcc": "ZHU",
		"type": "RNAV",
		"updated": "10/27/2009",
	},
	{
		"name": "YAKUD",
		"latitude": "29-38-25.94 N",
		"longitude": "95-6-59.01 W",
		"state": "TEXAS",
		"artcc": "ZHU",
		"type": "RNAV",
		"updated": "01/29/2009",
	},
	{
		"name": "YANGU",
		"latitude": "27-30-7.58 N",
		"longitude": "99-27-43.39 W",
		"state": "TEXAS",
		"artcc": "ZHU",
		"type": "RNAV",
		"updated": "04/12/2006",
	},
	{
		"name": "YARBO",
		"latitude": "31-26-30.6 N",
		"longitude": "88-25-3.67 W",
		"state": "ALABAMA",
		"artcc": "ZHU",
		"type": "RP",
		"updated": "LBY*VORTAC*083.08/47.24",
	},
	{
		"name": "YAWNS",
		"latitude": "28-49-23.5 N",
		"longitude": "95-33-57.6 W",
		"state": "TEXAS",
		"artcc": "ZHU",
		"type": "RP",
		"updated": "ELA*VOR/DME*133.68",
	},
	{
		"name": "YAYUR",
		"latitude": "28-1-35.26 N",
		"longitude": "97-3-8.8 W",
		"state": "TEXAS",
		"artcc": "ZHU",
		"type": "RNAV",
		"updated": "03/28/2010",
	},
	{
		"name": "YEBUD",
		"latitude": "27-0-54.01 N",
		"longitude": "98-16-8.62 W",
		"state": "TEXAS",
		"artcc": "ZHU",
		"type": "RNAV",
		"updated": "07/13/2017",
	},
	{
		"name": "YEBUK",
		"latitude": "29-57-39.61 N",
		"longitude": "94-59-5.63 W",
		"state": "TEXAS",
		"artcc": "ZHU",
		"type": "RNAV",
		"updated": "06/01/2010",
	},
	{
		"name": "YEBUP",
		"latitude": "29-36-32.26 N",
		"longitude": "98-34-15.31 W",
		"state": "TEXAS",
		"artcc": "ZHU",
		"type": "RNAV",
		"updated": "08/04/2008",
	},
	{
		"name": "YEEHA",
		"latitude": "28-33-53.07 N",
		"longitude": "97-37-8.05 W",
		"state": "TEXAS",
		"artcc": "ZHU",
		"type": "RNAV",
		"updated": "03/14/2014",
	},
	{
		"name": "YEHEC",
		"latitude": "27-54-0.9 N",
		"longitude": "97-30-1.89 W",
		"state": "TEXAS",
		"artcc": "ZHU",
		"type": "RNAV",
		"updated": "04/19/2016",
	},
	{
		"name": "YEKLU",
		"latitude": "28-1-43.02 N",
		"longitude": "98-54-2.83 W",
		"state": "TEXAS",
		"artcc": "ZHU",
		"type": "RNAV",
		"updated": "04/10/2012",
	},
	{
		"name": "YELUK",
		"latitude": "28-16-45.37 N",
		"longitude": "100-4-20.63 W",
		"state": "TEXAS",
		"artcc": "ZHU",
		"type": "RNAV",
		"updated": "05/09/2011",
	},
	{
		"name": "YENNS",
		"latitude": "29-4-4.59 N",
		"longitude": "98-19-19.14 W",
		"state": "TEXAS",
		"artcc": "ZHU",
		"type": "RP",
		"updated": "SAT*VORTAC*160.00/35.24",
	},
	{
		"name": "YENTA",
		"latitude": "31-8-46.7 N",
		"longitude": "90-27-17.81 W",
		"state": "MISSISSIPPI",
		"artcc": "ZHU",
		"type": "RNAV",
		"updated": "04/18/2018",
	},
	{
		"name": "YEPBU",
		"latitude": "30-17-4.2 N",
		"longitude": "88-28-41.51 W",
		"state": "MISSISSIPPI",
		"artcc": "ZHU",
		"type": "RNAV",
		"updated": "07/17/2007",
	},
	{
		"name": "YERRI",
		"latitude": "29-44-17.92 N",
		"longitude": "97-50-21.05 W",
		"state": "TEXAS",
		"artcc": "ZHU",
		"type": "RP",
		"updated": "SAT*VORTAC*072.00/33.00",
	},
	{
		"name": "YERUB",
		"latitude": "29-57-43.06 N",
		"longitude": "90-15-30.9 W",
		"state": "LOUISIANA",
		"artcc": "ZHU",
		"type": "RP",
		"updated": "JFI*LD*196.48/2.73",
	},
	{
		"name": "YESHI",
		"latitude": "29-42-37.98 N",
		"longitude": "95-11-6.43 W",
		"state": "TEXAS",
		"artcc": "ZHU",
		"type": "MR",
		"updated": "EFD*TACAN*343.00/6.40",
	},
	{
		"name": "YEVUK",
		"latitude": "28-47-57.95 N",
		"longitude": "98-38-11.65 W",
		"state": "TEXAS",
		"artcc": "ZHU",
		"type": "RNAV",
		"updated": "08/12/2011",
	},
	{
		"name": "YEVUP",
		"latitude": "29-33-37.14 N",
		"longitude": "98-33-1.43 W",
		"state": "TEXAS",
		"artcc": "ZHU",
		"type": "RNAV",
		"updated": "03/22/2011",
	},
	{
		"name": "YEYAW",
		"latitude": "30-35-8.1 N",
		"longitude": "98-40-57.29 W",
		"state": "TEXAS",
		"artcc": "ZHU",
		"type": "RNAV",
		"updated": "12/23/2014",
	},
	{
		"name": "YEYUR",
		"latitude": "31-34-30.11 N",
		"longitude": "91-15-18.39 W",
		"state": "MISSISSIPPI",
		"artcc": "ZHU",
		"type": "RNAV",
		"updated": "10/17/2007",
	},
	{
		"name": "YEYUS",
		"latitude": "29-24-14.58 N",
		"longitude": "95-49-29.1 W",
		"state": "TEXAS",
		"artcc": "ZHU",
		"type": "RNAV",
		"updated": "12/15/2011",
	},
	{
		"name": "YIBUB",
		"latitude": "29-15-7.4 N",
		"longitude": "91-7-31.9 W",
		"state": "LOUISIANA",
		"artcc": "ZHU",
		"type": "RNAV",
		"updated": "08/04/2005",
	},
	{
		"name": "YICKS",
		"latitude": "28-26-38.57 N",
		"longitude": "97-59-41.5 W",
		"state": "TEXAS",
		"artcc": "ZHU",
		"type": "RP",
		"updated": "THX*VORTAC*105.87/9.00",
	},
	{
		"name": "YICUC",
		"latitude": "30-8-23.24 N",
		"longitude": "95-23-31.42 W",
		"state": "TEXAS",
		"artcc": "ZHU",
		"type": "RNAV",
		"updated": "08/12/2010",
	},
	{
		"name": "YICUD",
		"latitude": "28-28-58.79 N",
		"longitude": "99-59-33.41 W",
		"state": "TEXAS",
		"artcc": "ZHU",
		"type": "RNAV",
		"updated": "05/09/2011",
	},
	{
		"name": "YIGUK",
		"latitude": "29-47-15.68 N",
		"longitude": "96-32-55.83 W",
		"state": "TEXAS",
		"artcc": "ZHU",
		"type": "RNAV",
		"updated": "06/04/2012",
	},
	{
		"name": "YIKUG",
		"latitude": "30-9-30.48 N",
		"longitude": "95-54-35.08 W",
		"state": "TEXAS",
		"artcc": "ZHU",
		"type": "RNAV",
		"updated": "01/20/2013",
	},
	{
		"name": "YIRUD",
		"latitude": "29-24-15.29 N",
		"longitude": "98-27-56.36 W",
		"state": "TEXAS",
		"artcc": "ZHU",
		"type": "RNAV",
		"updated": "03/17/2011",
	},
	{
		"name": "YISBO",
		"latitude": "28-35-2.11 N",
		"longitude": "99-53-45.86 W",
		"state": "TEXAS",
		"artcc": "ZHU",
		"type": "RNAV",
		"updated": "06/04/2013",
	},
	{
		"name": "YISUS",
		"latitude": "31-39-2.78 N",
		"longitude": "91-20-22.61 W",
		"state": "MISSISSIPPI",
		"artcc": "ZHU",
		"type": "RNAV",
		"updated": "10/17/2007",
	},
	{
		"name": "YOBUR",
		"latitude": "30-44-44.06 N",
		"longitude": "96-38-12.93 W",
		"state": "TEXAS",
		"artcc": "ZHU",
		"type": "RP",
		"updated": "CLL*VORTAC*299.00/14.00",
	},
	{
		"name": "YOCRE",
		"latitude": "26-47-28.11 N",
		"longitude": "98-8-13.87 W",
		"state": "TEXAS",
		"artcc": "ZHU",
		"type": "RNAV",
		"updated": "07/26/2012",
	},
	{
		"name": "YOKEM",
		"latitude": "29-43-15 N",
		"longitude": "94-20-33 W",
		"state": "TEXAS",
		"artcc": "ZHU",
		"type": "RNAV",
		"updated": "06/02/2010",
	},
	{
		"name": "YOKUG",
		"latitude": "30-44-8.67 N",
		"longitude": "99-9-43.78 W",
		"state": "TEXAS",
		"artcc": "ZHU",
		"type": "RP",
		"updated": "LLO*VORTAC*251.49/19.71",
	},
	{
		"name": "YOLUG",
		"latitude": "30-21-6.88 N",
		"longitude": "92-5-58.45 W",
		"state": "LOUISIANA",
		"artcc": "ZHU",
		"type": "RNAV",
		"updated": "03/29/2012",
	},
	{
		"name": "YOMEN",
		"latitude": "27-49-51.53 N",
		"longitude": "97-23-19.46 W",
		"state": "TEXAS",
		"artcc": "ZHU",
		"type": "MR",
		"updated": "NGP*VORTAC*324.00/10.00",
	},
	{
		"name": "YOMOM",
		"latitude": "27-59-15.35 N",
		"longitude": "97-8-55.98 W",
		"state": "TEXAS",
		"artcc": "ZHU",
		"type": "RNAV",
		"updated": "03/07/2014",
	},
	{
		"name": "YONIS",
		"latitude": "25-54-58.88 N",
		"longitude": "97-31-48.25 W",
		"state": "TEXAS",
		"artcc": "ZHU",
		"type": "RP",
		"updated": "BRO*VORTAC*257.54/8.38",
	},
	{
		"name": "YORDU",
		"latitude": "30-57-17.73 N",
		"longitude": "96-37-10.01 W",
		"state": "TEXAS",
		"artcc": "ZHU",
		"type": "RNAV",
		"updated": "07/27/2011",
	},
	{
		"name": "YORUP",
		"latitude": "31-16-1.36 N",
		"longitude": "87-30-52.08 W",
		"state": "ALABAMA",
		"artcc": "ZHU",
		"type": "RP",
		"updated": "MVC*VORTAC*211.70/14.25",
	},
	{
		"name": "YOSLU",
		"latitude": "31-25-49.09 N",
		"longitude": "88-9-6.9 W",
		"state": "ALABAMA",
		"artcc": "ZHU",
		"type": "RNAV",
		"updated": "04/22/2014",
	},
	{
		"name": "YOTLU",
		"latitude": "26-8-38.79 N",
		"longitude": "97-38-59.24 W",
		"state": "TEXAS",
		"artcc": "ZHU",
		"type": "RNAV",
		"updated": "09/14/2012",
	},
	{
		"name": "YOYTU",
		"latitude": "29-56-4.34 N",
		"longitude": "97-54-59.07 W",
		"state": "TEXAS",
		"artcc": "ZHU",
		"type": "RNAV",
		"updated": "04/18/2013",
	},
	{
		"name": "YUBUS",
		"latitude": "29-12-22.9 N",
		"longitude": "93-13-59.7 W",
		"state": "OFFSHORE GULF",
		"artcc": "ZHU",
		"type": "RNAV",
		"updated": "08/04/2005",
	},
	{
		"name": "YUCUN",
		"latitude": "27-42-5.48 N",
		"longitude": "97-24-44.39 W",
		"state": "TEXAS",
		"artcc": "ZHU",
		"type": "RNAV",
		"updated": "08/18/2010",
	},
	{
		"name": "YUCUT",
		"latitude": "29-12-20.75 N",
		"longitude": "94-33-24.9 W",
		"state": "TEXAS",
		"artcc": "ZHU",
		"type": "RNAV",
		"updated": "11/16/2012",
	},
	{
		"name": "YUGUB",
		"latitude": "27-30-32.43 N",
		"longitude": "99-26-15.42 W",
		"state": "TEXAS",
		"artcc": "ZHU",
		"type": "RNAV",
		"updated": "06/23/2013",
	},
