[
	{
		"name": "ZABEX",
		"latitude": "29-46-10.36 N",
		"longitude": "90-5-51.08 W",
		"state": "LOUISIANA",
		"artcc": "ZHU",
		"type": "MR",
		"updated": "HRV*VORTAC*/6.90"
	},
	{
		"name": "ZABIR",
		"latitude": "29-50-28.09 N",
		"longitude": "89-42-56.51 W",
		"state": "LOUISIANA",
		"artcc": "ZHU",
		"type": "MR",
		"updated": "HRV*VORTAC*090.00/15.00"
	},
	{
		"name": "ZABIT",
		"latitude": "26-1-36.79 N",
		"longitude": "97-39-4.37 W",
		"state": "TEXAS",
		"artcc": "ZHU",
		"type": "RNAV",
		"updated": "09/14/2012"
	},
	{
		"name": "ZABOS",
		"latitude": "29-56-34.26 N",
		"longitude": "99-2-38.56 W",
		"state": "TEXAS",
		"artcc": "ZHU",
		"type": "RP",
		"updated": "CSI*VORTAC*074.10"
	},
	{
		"name": "ZABRO",
		"latitude": "29-26-16.87 N",
		"longitude": "95-43-21 W",
		"state": "TEXAS",
		"artcc": "ZHU",
		"type": "RNAV",
		"updated": "04/02/2007"
	},
	{
		"name": "ZADOM",
		"latitude": "29-45-2.13 N",
		"longitude": "100-49-35.61 W",
		"state": "TEXAS",
		"artcc": "ZHU",
		"type": "MR",
		"updated": "DLF*VORTAC*346.00/23.50"
	},
	{
		"name": "ZADUR",
		"latitude": "27-42-4.42 N",
		"longitude": "97-29-41.84 W",
		"state": "TEXAS",
		"artcc": "ZHU",
		"type": "RNAV",
		"updated": "12/26/2013"
	},
	{
		"name": "ZADUV",
		"latitude": "26-12-26.77 N",
		"longitude": "97-59-57.39 W",
		"state": "TEXAS",
		"artcc": "ZHU",
		"type": "RNAV",
		"updated": "01/23/2017"
	},
	{
		"name": "ZAGEX",
		"latitude": "29-42-32.89 N",
		"longitude": "100-49-14.54 W",
		"state": "TEXAS",
		"artcc": "ZHU",
		"type": "MR",
		"updated": "DLF*VORTAC*346.00/21.00"
	},
	{
		"name": "ZAGIL",
		"latitude": "31-41-8.51 N",
		"longitude": "93-5-3.35 W",
		"state": "LOUISIANA",
		"artcc": "ZHU",
		"type": "RNAV",
		"updated": "04/20/2012"
	},
	{
		"name": "ZAGOR",
		"latitude": "29-49-2.84 N",
		"longitude": "90-2-38.56 W",
		"state": "LOUISIANA",
		"artcc": "ZHU",
		"type": "MR",
		"updated": "HRV*VORTAC*/2.90"
	},
	{
		"name": "ZAKBU",
		"latitude": "30-48-1.33 N",
		"longitude": "96-24-33.44 W",
		"state": "TEXAS",
		"artcc": "ZHU",
		"type": "RNAV",
		"updated": "06/21/2011"
	},
	{
		"name": "ZAKNO",
		"latitude": "29-55-59.9 N",
		"longitude": "90-6-51.48 W",
		"state": "LOUISIANA",
		"artcc": "ZHU",
		"type": "RNAV",
		"updated": "03/20/2012"
	},
	{
		"name": "ZAKOV",
		"latitude": "29-53-26.5 N",
		"longitude": "95-35-33.02 W",
		"state": "TEXAS",
		"artcc": "ZHU",
		"type": "RNAV",
		"updated": "10/31/2017"
	},
	{
		"name": "ZALOX",
		"latitude": "28-11-58.53 N",
		"longitude": "99-28-13.79 W",
		"state": "TEXAS",
		"artcc": "ZHU",
		"type": "RNAV",
		"updated": "01/27/2015"
	},
	{
		"name": "ZALYO",
		"latitude": "29-41-7.87 N",
		"longitude": "98-18-34.16 W",
		"state": "TEXAS",
		"artcc": "ZHU",
		"type": "RNAV",
		"updated": "06/02/2016"
	},
	{
		"name": "ZAMGO",
		"latitude": "29-35-18.59 N",
		"longitude": "100-29-31.61 W",
		"state": "TEXAS",
		"artcc": "ZHU",
		"type": "MR",
		"updated": "DLF*VORTAC*040.00/20.00"
	},
	{
		"name": "ZAMGU",
		"latitude": "27-42-29.21 N",
		"longitude": "97-18-27.21 W",
		"state": "TEXAS",
		"artcc": "ZHU",
		"type": "MR",
		"updated": "CRP*VORTAC*139.00/13.80"
	},
	{
		"name": "ZAMLI",
		"latitude": "28-24-36.14 N",
		"longitude": "98-2-17.56 W",
		"state": "TEXAS",
		"artcc": "ZHU",
		"type": "RP",
		"updated": "THX*VORTAC*125.72/8.22"
	},
	{
		"name": "ZAMTA",
		"latitude": "30-47-1.76 N",
		"longitude": "98-39-46.24 W",
		"state": "TEXAS",
		"artcc": "ZHU",
		"type": "RP",
		"updated": "LLO*VORTAC*088.61/6.48"
	},
	{
		"name": "ZANID",
		"latitude": "27-29-52.74 N",
		"longitude": "97-51-27.02 W",
		"state": "TEXAS",
		"artcc": "ZHU",
		"type": "RNAV",
		"updated": "06/28/2016"
	},
	{
		"name": "ZAPAB",
		"latitude": "29-36-34.71 N",
		"longitude": "100-48-24.04 W",
		"state": "TEXAS",
		"artcc": "ZHU",
		"type": "MR",
		"updated": "DLF*VORTAC*346.00/15.00"
	},
	{
		"name": "ZAPPO",
		"latitude": "30-0-23.4 N",
		"longitude": "94-49-8.34 W",
		"state": "TEXAS",
		"artcc": "ZHU",
		"type": "RP",
		"updated": "DAS*VORTAC*214.59"
	},
	{
		"name": "ZAPSI",
		"latitude": "29-38-8.55 N",
		"longitude": "90-8-24.88 W",
		"state": "LOUISIANA",
		"artcc": "ZHU",
		"type": "RNAV",
		"updated": "10/02/2014"
	},
	{
		"name": "ZARAD",
		"latitude": "31-28-51.51 N",
		"longitude": "94-43-8.4 W",
		"state": "TEXAS",
		"artcc": "ZHU",
		"type": "RNAV",
		"updated": "04/04/2012"
	},
	{
		"name": "ZARAL",
		"latitude": "26-19-55.54 N",
		"longitude": "98-6-14.55 W",
		"state": "TEXAS",
		"artcc": "ZHU",
		"type": "RP",
		"updated": "MFE*VOR/DME*028.90/12.00"
	},
	{
		"name": "ZARBA",
		"latitude": "28-16-39.43 N",
		"longitude": "97-5-45.71 W",
		"state": "TEXAS",
		"artcc": "ZHU",
		"type": "RNAV",
		"updated": "03/28/2010"
	},
	{
		"name": "ZARIG",
		"latitude": "30-17-7.1 N",
		"longitude": "98-56-27.55 W",
		"state": "TEXAS",
		"artcc": "ZHU",
		"type": "RNAV",
		"updated": "07/16/2012"
	},
	{
		"name": "ZARPO",
		"latitude": "27-30-53.1 N",
		"longitude": "99-31-44.1 W",
		"state": "TEXAS",
		"artcc": "ZHU",
		"type": "RNAV",
		"updated": "08/30/2005"
	},
	{
		"name": "ZARSA",
		"latitude": "26-16-2.57 N",
		"longitude": "97-38-53.8 W",
		"state": "TEXAS",
		"artcc": "ZHU",
		"type": "RNAV",
		"updated": "09/14/2012"
	},
	{
		"name": "ZASED",
		"latitude": "30-11-7.18 N",
		"longitude": "95-27-9.45 W",
		"state": "TEXAS",
		"artcc": "ZHU",
		"type": "RNAV",
		"updated": "09/05/2017"
	},
	{
		"name": "ZASGI",
		"latitude": "29-51-33.65 N",
		"longitude": "95-41-41.8 W",
		"state": "TEXAS",
		"artcc": "ZHU",
		"type": "RNAV",
		"updated": "07/18/2012"
	},
	{
		"name": "ZATBA",
		"latitude": "29-42-11.12 N",
		"longitude": "95-53-46.87 W",
		"state": "TEXAS",
		"artcc": "ZHU",
		"type": "RNAV",
		"updated": "03/20/2009"
	},
	{
		"name": "ZAVAK",
		"latitude": "30-19-57.2 N",
		"longitude": "94-39-39.53 W",
		"state": "TEXAS",
		"artcc": "ZHU",
		"type": "RNAV",
		"updated": "08/06/2012"
	},
	{
		"name": "ZAVEB",
		"latitude": "28-52-42.93 N",
		"longitude": "97-52-37.43 W",
		"state": "TEXAS",
		"artcc": "ZHU",
		"type": "RNAV",
		"updated": "10/13/2011"
	},
	{
		"name": "ZEBAG",
		"latitude": "29-38-9.79 N",
		"longitude": "98-21-33.65 W",
		"state": "TEXAS",
		"artcc": "ZHU",
		"type": "MR",
		"updated": "RND*VORTAC*326.00/8.00"
	},
	{
		"name": "ZEBBB",
		"latitude": "30-37-17.21 N",
		"longitude": "93-58-0.95 W",
		"state": "TEXAS",
		"artcc": "ZHU",
		"type": "RNAV",
		"updated": "03/25/2014"
	},
	{
		"name": "ZEBGO",
		"latitude": "31-16-0.38 N",
		"longitude": "94-45-57.42 W",
		"state": "TEXAS",
		"artcc": "ZHU",
		"type": "RNAV",
		"updated": "10/30/2017"
	},
	{
		"name": "ZEBNO",
		"latitude": "30-40-37.07 N",
		"longitude": "98-39-37.18 W",
		"state": "TEXAS",
		"artcc": "ZHU",
		"type": "RNAV",
		"updated": "10/14/2009"
	},
	{
		"name": "ZEDBA",
		"latitude": "29-29-35.88 N",
		"longitude": "95-13-10.11 W",
		"state": "TEXAS",
		"artcc": "ZHU",
		"type": "RNAV",
		"updated": "02/03/2014"
	},
	{
		"name": "ZEDEG",
		"latitude": "31-24-19.91 N",
		"longitude": "88-6-9.68 W",
		"state": "ALABAMA",
		"artcc": "ZHU",
		"type": "RNAV",
		"updated": "04/22/2014"
	},
	{
		"name": "ZEDKU",
		"latitude": "30-5-41.26 N",
		"longitude": "97-39-18.17 W",
		"state": "TEXAS",
		"artcc": "ZHU",
		"type": "RP",
		"updated": "HCE*LD*174.70/4.93"
	},
	{
		"name": "ZEDNA",
		"latitude": "29-9-38.88 N",
		"longitude": "96-41-19.06 W",
		"state": "TEXAS",
		"artcc": "ZHU",
		"type": "RNAV",
		"updated": "11/05/2015"
	},
	{
		"name": "ZEEKK",
		"latitude": "30-32-8.86 N",
		"longitude": "94-30-14.89 W",
		"state": "TEXAS",
		"artcc": "ZHU",
		"type": "RP",
		"updated": "LFK*VORTAC*158.62/39.09"
	},
	{
		"name": "ZEGSI",
		"latitude": "29-33-9.98 N",
		"longitude": "100-45-36.81 W",
		"state": "TEXAS",
		"artcc": "ZHU",
		"type": "MR",
		"updated": "DLF*VORTAC*356.00/11.50"
	},
	{
		"name": "ZEGTA",
		"latitude": "30-5-49.6 N",
		"longitude": "92-13-57.11 W",
		"state": "LOUISIANA",
		"artcc": "ZHU",
		"type": "RNAV",
		"updated": "10/03/2012"
	},
	{
		"name": "ZEGUP",
		"latitude": "30-5-7.35 N",
		"longitude": "93-12-15.67 W",
		"state": "LOUISIANA",
		"artcc": "ZHU",
		"type": "RP",
		"updated": "LCH*VORTAC*229.85"
	},
	{
		"name": "ZEGVI",
		"latitude": "29-6-18.89 N",
		"longitude": "98-39-45.13 W",
		"state": "TEXAS",
		"artcc": "ZHU",
		"type": "MW",
		"updated": "12/27/2012"
	},
	{
		"name": "ZELDA",
		"latitude": "29-20-27.62 N",
		"longitude": "94-55-0.35 W",
		"state": "TEXAS",
		"artcc": "ZHU",
		"type": "RP",
		"updated": "VUH*VOR/DME*323.06"
	},
	{
		"name": "ZELIS",
		"latitude": "27-0-58.22 N",
		"longitude": "97-58-13.73 W",
		"state": "TEXAS",
		"artcc": "ZHU",
		"type": "RNAV",
		"updated": "07/12/2017"
	},
	{
		"name": "ZELKU",
		"latitude": "30-29-54.16 N",
		"longitude": "88-51-7.07 W",
		"state": "MISSISSIPPI",
		"artcc": "ZHU",
		"type": "MW",
		"updated": "08/16/2012"
	},
	{
		"name": "ZEMON",
		"latitude": "30-19-15.38 N",
		"longitude": "88-45-52.74 W",
		"state": "MISSISSIPPI",
		"artcc": "ZHU",
		"type": "MR",
		"updated": "BIX*TACAN*120.00/10.00"
	},
	{
		"name": "ZEMOT",
		"latitude": "29-58-37.32 N",
		"longitude": "99-5-27.81 W",
		"state": "TEXAS",
		"artcc": "ZHU",
		"type": "RP",
		"updated": "CSI*VORTAC*055.00/7.22"
	},
	{
		"name": "ZEMUB",
		"latitude": "29-23-12.83 N",
		"longitude": "100-36-9.47 W",
		"state": "TEXAS",
		"artcc": "ZHU",
		"type": "MR",
		"updated": "DLF*VORTAC*073.00/9.00"
	},
	{
		"name": "ZENBO",
		"latitude": "31-16-34.72 N",
		"longitude": "89-16-5.27 W",
		"state": "MISSISSIPPI",
		"artcc": "ZHU",
		"type": "RNAV",
		"updated": "01/07/2011"
	},
	{
		"name": "ZENZI",
		"latitude": "30-17-18.74 N",
		"longitude": "96-3-30.35 W",
		"state": "TEXAS",
		"artcc": "ZHU",
		"type": "RNAV",
		"updated": "10/30/2017"
	},
	{
		"name": "ZEPOD",
		"latitude": "31-13-35.73 N",
		"longitude": "95-26-26.4 W",
		"state": "TEXAS",
		"artcc": "ZHU",
		"type": "RNAV",
		"updated": "10/28/2011"
	},
	{
		"name": "ZEPOP",
		"latitude": "29-58-57.97 N",
		"longitude": "89-45-31.89 W",
		"state": "LOUISIANA",
		"artcc": "ZHU",
		"type": "MR",
		"updated": "HRV*VORTAC*056.00/15.00"
	},
	{
		"name": "ZEPOX",
		"latitude": "25-53-50.9 N",
		"longitude": "97-30-7 W",
		"state": "TEXAS",
		"artcc": "ZHU",
		"type": "RNAV",
		"updated": "08/30/2005"
	},
	{
		"name": "ZEPUT",
		"latitude": "29-28-36.16 N",
		"longitude": "98-30-56.73 W",
		"state": "TEXAS",
		"artcc": "ZHU",
		"type": "RNAV",
		"updated": "03/17/2011"
	},
	{
		"name": "ZERDA",
		"latitude": "30-43-56.86 N",
		"longitude": "88-3-57.49 W",
		"state": "ALABAMA",
		"artcc": "ZHU",
		"type": "RNAV",
		"updated": "09/17/2014"
	},
	{
		"name": "ZERIK",
		"latitude": "27-22-50.22 N",
		"longitude": "99-20-43.34 W",
		"state": "TEXAS",
		"artcc": "ZHU",
		"type": "RNAV",
		"updated": "10/16/2007"
	},
	{
		"name": "ZERON",
		"latitude": "26-13-0.55 N",
		"longitude": "97-39-22.94 W",
		"state": "TEXAS",
		"artcc": "ZHU",
		"type": "RP",
		"updated": "HRL*VOR/DME*193.00/0.78"
	},
	{
		"name": "ZETEL",
		"latitude": "29-15-41.46 N",
		"longitude": "100-40-11 W",
		"state": "TEXAS",
		"artcc": "ZHU",
		"type": "MR",
		"updated": "DLF*VORTAC*131.00/8.00"
	},
	{
		"name": "ZETET",
		"latitude": "29-36-9.95 N",
		"longitude": "98-2-7.01 W",
		"state": "TEXAS",
		"artcc": "ZHU",
		"type": "MR",
		"updated": "RND*VORTAC*064.00/14.00"
	},
	{
		"name": "ZETON",
		"latitude": "29-14-38.87 N",
		"longitude": "90-8-43.09 W",
		"state": "LOUISIANA",
		"artcc": "ZHU",
		"type": "RNAV",
		"updated": "10/02/2014"
	},
	{
		"name": "ZETUN",
		"latitude": "31-15-45.08 N",
		"longitude": "94-45-56.93 W",
		"state": "TEXAS",
		"artcc": "ZHU",
		"type": "RP",
		"updated": "LFK*VORTAC*332.20/6.50"
	},
	{
		"name": "ZEVAX",
		"latitude": "29-19-47.26 N",
		"longitude": "94-58-11.66 W",
		"state": "TEXAS",
		"artcc": "ZHU",
		"type": "RNAV",
		"updated": "06/11/2012"
	},
	{
		"name": "ZEVGA",
		"latitude": "29-59-36.28 N",
		"longitude": "93-26-26.16 W",
		"state": "LOUISIANA",
		"artcc": "ZHU",
		"type": "RNAV",
		"updated": "01/03/2009"
	},
	{
		"name": "ZEVOL",
		"latitude": "29-32-36.6 N",
		"longitude": "94-52-4.81 W",
		"state": "TEXAS",
		"artcc": "ZHU",
		"type": "RNAV",
		"updated": "06/04/2012"
	},
	{
		"name": "ZEVOM",
		"latitude": "27-40-42.95 N",
		"longitude": "97-16-45.3 W",
		"state": "TEXAS",
		"artcc": "ZHU",
		"type": "MR",
		"updated": "CRP*VORTAC*137.77/16.10"
	},
	{
		"name": "ZEVSA",
		"latitude": "30-28-49.44 N",
		"longitude": "93-29-33.32 W",
		"state": "LOUISIANA",
		"artcc": "ZHU",
		"type": "RNAV",
		"updated": "01/09/2015"
	},
	{
		"name": "ZEVUT",
		"latitude": "28-25-43.89 N",
		"longitude": "97-44-9.75 W",
		"state": "TEXAS",
		"artcc": "ZHU",
		"type": "RNAV",
		"updated": "06/23/2017"
	},
	{
		"name": "ZIBAX",
		"latitude": "30-22-49.8 N",
		"longitude": "89-39-4.92 W",
		"state": "MISSISSIPPI",
		"artcc": "ZHU",
		"type": "RNAV",
		"updated": "05/25/2016"
	},
	{
		"name": "ZIBKO",
		"latitude": "27-40-0.07 N",
		"longitude": "97-31-6.22 W",
		"state": "TEXAS",
		"artcc": "ZHU",
		"type": "RNAV",
		"updated": "08/18/2010"
	},
	{
		"name": "ZIBUK",
		"latitude": "29-47-36.34 N",
		"longitude": "95-46-27.19 W",
		"state": "TEXAS",
		"artcc": "ZHU",
		"type": "RNAV",
		"updated": "07/15/2014"
	},
	{
		"name": "ZICMA",
		"latitude": "27-46-46.72 N",
		"longitude": "97-24-9.48 W",
		"state": "TEXAS",
		"artcc": "ZHU",
		"type": "RNAV",
		"updated": "07/12/2016"
	},
	{
		"name": "ZIDMI",
		"latitude": "29-27-7.38 N",
		"longitude": "98-3-36.69 W",
		"state": "TEXAS",
		"artcc": "ZHU",
		"type": "MR",
		"updated": "DHK*TACAN*110.00/12.00"
	},
	{
		"name": "ZIGDA",
		"latitude": "29-34-34.75 N",
		"longitude": "98-25-3.03 W",
		"state": "TEXAS",
		"artcc": "ZHU",
		"type": "RNAV",
		"updated": "10/03/2012"
	},
	{
		"name": "ZIGOK",
		"latitude": "29-38-42.41 N",
		"longitude": "98-20-38.1 W",
		"state": "TEXAS",
		"artcc": "ZHU",
		"type": "MR",
		"updated": "SAT*VORTAC*081.37/6.14"
	},
	{
		"name": "ZIGZE",
		"latitude": "30-28-32.75 N",
		"longitude": "97-52-21.47 W",
		"state": "TEXAS",
		"artcc": "ZHU",
		"type": "RNAV",
		"updated": "01/05/2017"
	},
	{
		"name": "ZIKUD",
		"latitude": "29-43-26.11 N",
		"longitude": "95-24-0.2 W",
		"state": "TEXAS",
		"artcc": "ZHU",
		"type": "RNAV",
		"updated": "11/29/2017"
	},
	{
		"name": "ZILAG",
		"latitude": "31-8-15.23 N",
		"longitude": "99-19-29.1 W",
		"state": "TEXAS",
		"artcc": "ZHU",
		"type": "RNAV",
		"updated": "12/28/2007"
	},
	{
		"name": "ZILDI",
		"latitude": "30-37-59.24 N",
		"longitude": "88-4-47.61 W",
		"state": "ALABAMA",
		"artcc": "ZHU",
		"type": "RP",
		"updated": "BFM*VORTAC*310.04/1.76"
	},
	{
		"name": "ZILEN",
		"latitude": "29-28-50.36 N",
		"longitude": "98-36-59.76 W",
		"state": "TEXAS",
		"artcc": "ZHU",
		"type": "MW",
		"updated": "09/05/2013"
	},
	{
		"name": "ZILOT",
		"latitude": "29-48-35.31 N",
		"longitude": "95-39-55.31 W",
		"state": "TEXAS",
		"artcc": "ZHU",
		"type": "RNAV",
		"updated": "01/24/2018"
	},
	{
		"name": "ZIMGO",
		"latitude": "29-54-34.54 N",
		"longitude": "90-8-13.72 W",
		"state": "LOUISIANA",
		"artcc": "ZHU",
		"type": "RNAV",
		"updated": "03/20/2012"
	},
	{
		"name": "ZINGO",
		"latitude": "29-59-12.18 N",
		"longitude": "98-1-45.91 W",
		"state": "TEXAS",
		"artcc": "ZHU",
		"type": "RP",
		"updated": "CWK*VORTAC*222.05/35.00"
	},
	{
		"name": "ZINON",
		"latitude": "29-30-6.21 N",
		"longitude": "98-29-28.01 W",
		"state": "TEXAS",
		"artcc": "ZHU",
		"type": "RP",
		"updated": "SAT*LD*216.78/3.27"
	},
	{
		"name": "ZIPEL",
		"latitude": "29-34-7.57 N",
		"longitude": "98-25-29.88 W",
		"state": "TEXAS",
		"artcc": "ZHU",
		"type": "RNAV",
		"updated": "10/03/2012"
	},
	{
		"name": "ZIPGU",
		"latitude": "29-30-2.27 N",
		"longitude": "98-34-42.94 W",
		"state": "TEXAS",
		"artcc": "ZHU",
		"type": "RNAV",
		"updated": "03/13/2017"
	},
	{
		"name": "ZIPIV",
		"latitude": "26-24-49.98 N",
		"longitude": "97-39-23.23 W",
		"state": "TEXAS",
		"artcc": "ZHU",
		"type": "RNAV",
		"updated": "08/09/2012"
	},
	{
		"name": "ZIPKO",
		"latitude": "29-42-15.82 N",
		"longitude": "95-31-28.02 W",
		"state": "TEXAS",
		"artcc": "ZHU",
		"type": "RNAV",
		"updated": "01/24/2018"
	},
	{
		"name": "ZIROR",
		"latitude": "30-11-1.51 N",
		"longitude": "92-13-23.03 W",
		"state": "LOUISIANA",
		"artcc": "ZHU",
		"type": "RP",
		"updated": "LFT*VORTAC*264.18/12.00"
	},
	{
		"name": "ZISAT",
		"latitude": "30-28-24.64 N",
		"longitude": "88-52-21.38 W",
		"state": "MISSISSIPPI",
		"artcc": "ZHU",
		"type": "RNAV",
		"updated": "08/16/2017"
	},
	{
		"name": "ZISEN",
		"latitude": "29-28-4.94 N",
		"longitude": "98-36-47.76 W",
		"state": "TEXAS",
		"artcc": "ZHU",
		"type": "RNAV",
		"updated": "03/17/2011"
	},
	{
		"name": "ZISLI",
		"latitude": "29-9-16.33 N",
		"longitude": "100-40-57.56 W",
		"state": "TEXAS",
		"artcc": "ZHU",
		"type": "MW",
		"updated": "02/13/2008"
	},
	{
		"name": "ZITIB",
		"latitude": "29-23-24.53 N",
		"longitude": "95-13-56.74 W",
		"state": "TEXAS",
		"artcc": "ZHU",
		"type": "RNAV",
		"updated": "04/16/2008"
	},
	{
		"name": "ZIVAL",
		"latitude": "28-31-31.1 N",
		"longitude": "98-15-13.08 W",
		"state": "TEXAS",
		"artcc": "ZHU",
		"type": "RNAV",
		"updated": "08/12/2011"
	},
	{
		"name": "ZIVER",
		"latitude": "30-36-10.69 N",
		"longitude": "94-17-26.92 W",
		"state": "TEXAS",
		"artcc": "ZHU",
		"type": "RNAV",
		"updated": "06/14/2012"
	},
	{
		"name": "ZIVIM",
		"latitude": "31-21-33.98 N",
		"longitude": "94-43-48.4 W",
		"state": "TEXAS",
		"artcc": "ZHU",
		"type": "RNAV",
		"updated": "04/04/2012"
	},
	{
		"name": "ZIVIX",
		"latitude": "29-53-27.65 N",
		"longitude": "95-5-57.72 W",
		"state": "TEXAS",
		"artcc": "ZHU",
		"type": "RNAV",
		"updated": "03/11/2014"
	},
	{
		"name": "ZIVNO",
		"latitude": "28-23-58.92 N",
		"longitude": "97-44-24.94 W",
		"state": "TEXAS",
		"artcc": "ZHU",
		"type": "RNAV",
		"updated": "07/12/2016"
	},
	{
		"name": "ZIXAD",
		"latitude": "27-19-52.89 N",
		"longitude": "98-33-34.8 W",
		"state": "TEXAS",
		"artcc": "ZHU",
		"type": "RNAV",
		"updated": "09/24/2014"
	},
	{
		"name": "ZMSKL",
		"latitude": "30-20-41.21 N",
		"longitude": "95-25-52.65 W",
		"state": "TEXAS",
		"artcc": "ZHU",
		"type": "RP",
		"updated": "TNV*VOR/DME*076.00/32.75"
	},
	{
		"name": "ZOBUS",
		"latitude": "29-24-49.03 N",
		"longitude": "101-1-50.63 W",
		"state": "TEXAS",
		"artcc": "ZHU",
		"type": "MR",
		"updated": "DLF*VORTAC*276.15/13.94"
	},
	{
		"name": "ZOCKE",
		"latitude": "26-4-40.44 N",
		"longitude": "97-31-2.84 W",
		"state": "TEXAS",
		"artcc": "ZHU",
		"type": "RP",
		"updated": "BRO*VORTAC*311.16/11.99"
	},
	{
		"name": "ZOEEE",
		"latitude": "30-5-32.56 N",
		"longitude": "95-17-25.16 W",
		"state": "TEXAS",
		"artcc": "ZHU",
		"type": "RNAV",
		"updated": "07/21/2014"
	},
	{
		"name": "ZOGBO",
		"latitude": "30-33-20.5 N",
		"longitude": "88-48-17.67 W",
		"state": "MISSISSIPPI",
		"artcc": "ZHU",
		"type": "MR",
		"updated": "BIX*TACAN*/11.00"
	},
	{
		"name": "ZOGBU",
		"latitude": "29-38-24.23 N",
		"longitude": "98-4-15.87 W",
		"state": "TEXAS",
		"artcc": "ZHU",
		"type": "MR",
		"updated": "DHK*TACAN*054.00/12.00"
	},
	{
		"name": "ZOGER",
		"latitude": "29-37-3.09 N",
		"longitude": "101-8-54.33 W",
		"state": "TEXAS",
		"artcc": "ZHU",
		"type": "MR",
		"updated": "DLF*VORTAC*301.00/25.00"
	},
	{
		"name": "ZOLBU",
		"latitude": "29-34-24.75 N",
		"longitude": "95-40-50.14 W",
		"state": "TEXAS",
		"artcc": "ZHU",
		"type": "RNAV",
		"updated": "12/05/2017"
	},
	{
		"name": "ZOLLY",
		"latitude": "27-31-49.57 N",
		"longitude": "98-1-40.09 W",
		"state": "TEXAS",
		"artcc": "ZHU",
		"type": "MR",
		"updated": "NQI*TACAN*275.00/12.00"
	},
	{
		"name": "ZOLUR",
		"latitude": "29-35-58.76 N",
		"longitude": "98-24-31.67 W",
		"state": "TEXAS",
		"artcc": "ZHU",
		"type": "RNAV",
		"updated": "10/03/2012"
	},
	{
		"name": "ZOLXY",
		"latitude": "30-5-3.77 N",
		"longitude": "91-53-44.77 W",
		"state": "LOUISIANA",
		"artcc": "ZHU",
		"type": "RNAV",
		"updated": "03/22/2017"
	},
	{
		"name": "ZOMSU",
		"latitude": "29-19-21.12 N",
		"longitude": "99-10-19.18 W",
		"state": "TEXAS",
		"artcc": "ZHU",
		"type": "RNAV",
		"updated": "12/06/2010"
	},
	{
		"name": "ZOMVA",
		"latitude": "29-23-16.8 N",
		"longitude": "96-17-5.02 W",
		"state": "TEXAS",
		"artcc": "ZHU",
		"type": "RNAV",
		"updated": "06/04/2012"
	},
	{
		"name": "ZONEN",
		"latitude": "30-50-19.86 N",
		"longitude": "96-25-5.08 W",
		"state": "TEXAS",
		"artcc": "ZHU",
		"type": "RP",
		"updated": "LOA*VORTAC*225.79"
	},
	{
		"name": "ZONEV",
		"latitude": "29-32-39.4 N",
		"longitude": "90-37-19.04 W",
		"state": "LOUISIANA",
		"artcc": "ZHU",
		"type": "RP",
		"updated": "TBD*VOR/DME*121.50/13.00"
	},
	{
		"name": "ZORLU",
		"latitude": "29-49-12.31 N",
		"longitude": "95-10-8.67 W",
		"state": "TEXAS",
		"artcc": "ZHU",
		"type": "RNAV",
		"updated": "02/23/2012"
	},
	{
		"name": "ZOSOG",
		"latitude": "31-15-20.29 N",
		"longitude": "89-52-42.46 W",
		"state": "MISSISSIPPI",
		"artcc": "ZHU",
		"type": "RNAV",
		"updated": "08/14/2013"
	},
	{
		"name": "ZOTAP",
		"latitude": "30-56-41.76 N",
		"longitude": "95-39-40.66 W",
		"state": "TEXAS",
		"artcc": "ZHU",
		"type": "RNAV",
		"updated": "01/29/2009"
	},
	{
		"name": "ZOTEP",
		"latitude": "29-54-1.92 N",
		"longitude": "98-59-14.39 W",
		"state": "TEXAS",
		"artcc": "ZHU",
		"type": "RP",
		"updated": "CSI*VORTAC*088.24"
	},
	{
		"name": "ZOTUG",
		"latitude": "30-17-10.21 N",
		"longitude": "94-52-17.1 W",
		"state": "TEXAS",
		"artcc": "ZHU",
		"type": "RNAV",
		"updated": "08/06/2012"
	},
	{
		"name": "ZOVAK",
		"latitude": "29-8-54.17 N",
		"longitude": "95-39-12.6 W",
		"state": "TEXAS",
		"artcc": "ZHU",
		"type": "RNAV",
		"updated": "10/31/2017"
	},
	{
		"name": "ZOXEB",
		"latitude": "30-35-34.88 N",
		"longitude": "92-5-55.65 W",
		"state": "LOUISIANA",
		"artcc": "ZHU",
		"type": "RNAV",
		"updated": "03/30/2012"
	},
	{
		"name": "ZOXEK",
		"latitude": "27-30-42.97 N",
		"longitude": "98-38-56.87 W",
		"state": "TEXAS",
		"artcc": "ZHU",
		"type": "RNAV",
		"updated": "09/24/2014"
	},
	{
		"name": "ZUBEL",
		"latitude": "29-57-18.68 N",
		"longitude": "90-6-36.91 W",
		"state": "LOUISIANA",
		"artcc": "ZHU",
		"type": "RNAV",
		"updated": "08/17/2010"
	},
	{
		"name": "ZUBIN",
		"latitude": "28-3-14.4 N",
		"longitude": "99-44-41.76 W",
		"state": "TEXAS",
		"artcc": "ZHU",
		"type": "RNAV",
		"updated": "05/09/2011"
	},
	{
		"name": "ZUBOX",
		"latitude": "29-27-42.24 N",
		"longitude": "98-22-52.79 W",
		"state": "TEXAS",
		"artcc": "ZHU",
		"type": "RNAV",
		"updated": "03/17/2011"
	},
	{
		"name": "ZUBUG",
		"latitude": "30-23-40.41 N",
		"longitude": "98-23-52.05 W",
		"state": "TEXAS",
		"artcc": "ZHU",
		"type": "RNAV",
		"updated": "12/23/2014"
	},
	{
		"name": "ZUBUT",
		"latitude": "29-57-7.83 N",
		"longitude": "90-5-31.67 W",
		"state": "LOUISIANA",
		"artcc": "ZHU",
		"type": "RNAV",
		"updated": "04/27/2018"
	},
	{
		"name": "ZUDOP",
		"latitude": "30-23-14.91 N",
		"longitude": "95-26-24.38 W",
		"state": "TEXAS",
		"artcc": "ZHU",
		"type": "RP",
		"updated": "CXO*LD*320.48/3.20"
	},
	{
		"name": "ZUGTI",
		"latitude": "30-44-42.82 N",
		"longitude": "88-3-48.73 W",
		"state": "ALABAMA",
		"artcc": "ZHU",
		"type": "RP",
		"updated": "BFM*VORTAC*353.00/7.94"
	},
	{
		"name": "ZUGUK",
		"latitude": "30-9-4.12 N",
		"longitude": "96-6-6.49 W",
		"state": "TEXAS",
		"artcc": "ZHU",
		"type": "RNAV",
		"updated": "01/20/2013"
	},
	{
		"name": "ZUKAN",
		"latitude": "29-17-3.13 N",
		"longitude": "100-32-3.7 W",
		"state": "TEXAS",
		"artcc": "ZHU",
		"type": "MW",
		"updated": "07/20/2009"
	},
	{
		"name": "ZUKBO",
		"latitude": "27-47-5.24 N",
		"longitude": "97-29-41.62 W",
		"state": "TEXAS",
		"artcc": "ZHU",
		"type": "RP",
		"updated": "CRP*VORTAC*200.50/7.60"
	},
	{
		"name": "ZUKLA",
		"latitude": "30-17-14.31 N",
		"longitude": "93-18-51.67 W",
		"state": "LOUISIANA",
		"artcc": "ZHU",
		"type": "RNAV",
		"updated": "05/31/2012"
	},
	{
		"name": "ZULEX",
		"latitude": "27-37-3.39 N",
		"longitude": "97-20-22.47 W",
		"state": "TEXAS",
		"artcc": "ZHU",
		"type": "RP",
		"updated": "EKI*LE*131.82/11.88"
	},
	{
		"name": "ZULOS",
		"latitude": "26-21-57.05 N",
		"longitude": "98-3-38.86 W",
		"state": "TEXAS",
		"artcc": "ZHU",
		"type": "RNAV",
		"updated": "07/27/2006"
	},
	{
		"name": "ZUMMI",
		"latitude": "30-26-51.49 N",
		"longitude": "90-19-51.22 W",
		"state": "LOUISIANA",
		"artcc": "ZHU",
		"type": "RNAV",
		"updated": "05/14/2010"
	},
	{
		"name": "ZUNEC",
		"latitude": "30-38-31.32 N",
		"longitude": "90-33-34.15 W",
		"state": "LOUISIANA",
		"artcc": "ZHU",
		"type": "WP",
		"updated": "11/02/1998"
	},
	{
		"name": "ZUNER",
		"latitude": "27-47-20.47 N",
		"longitude": "97-38-25.18 W",
		"state": "TEXAS",
		"artcc": "ZHU",
		"type": "RNAV",
		"updated": "04/19/2016"
	},
	{
		"name": "ZUNIK",
		"latitude": "27-34-44.2 N",
		"longitude": "98-3-26.52 W",
		"state": "TEXAS",
		"artcc": "ZHU",
		"type": "RNAV",
		"updated": "05/10/2010"
	},
	{
		"name": "ZUNIN",
		"latitude": "26-20-36.94 N",
		"longitude": "97-39-26.32 W",
		"state": "TEXAS",
		"artcc": "ZHU",
		"type": "RNAV",
		"updated": "08/09/2012"
	},
	{
		"name": "ZUNLA",
		"latitude": "31-34-10.04 N",
		"longitude": "91-17-46.8 W",
		"state": "MISSISSIPPI",
		"artcc": "ZHU",
		"type": "RNAV",
		"updated": "06/20/2013"
	},
	{
		"name": "ZUNOE",
		"latitude": "30-25-37.81 N",
		"longitude": "91-54-51.78 W",
		"state": "LOUISIANA",
		"artcc": "ZHU",
		"type": "RP",
		"updated": "LFT*VORTAC*013.19/14.55"
	},
	{
		"name": "ZUPIL",
		"latitude": "29-39-22.33 N",
		"longitude": "95-30-31.85 W",
		"state": "TEXAS",
		"artcc": "ZHU",
		"type": "RNAV",
		"updated": "11/29/2017"
	},
	{
		"name": "ZURGU",
		"latitude": "30-56-58.29 N",
		"longitude": "97-24-52.91 W",
		"state": "TEXAS",
		"artcc": "ZHU",
		"type": "RP",
		"updated": "CWK*VORTAC*003.86/34.70"
	},
	{
		"name": "ZUSAT",
		"latitude": "29-47-13 N",
		"longitude": "95-1-39.09 W",
		"state": "TEXAS",
		"artcc": "ZHU",
		"type": "RNAV",
		"updated": "09/06/2017"
	},
	{
		"name": "ZUTAT",
		"latitude": "29-58-8.96 N",
		"longitude": "90-10-4.66 W",
		"state": "LOUISIANA",
		"artcc": "ZHU",
		"type": "RP",
		"updated": "HOX*LD*106.49/4.36"
	},
	{
		"name": "ZUTKI",
		"latitude": "31-40-50.32 N",
		"longitude": "91-22-22.79 W",
		"state": "MISSISSIPPI",
		"artcc": "ZHU",
		"type": "RP",
		"updated": "HAH*NDB*262.02"
	},
	{
		"name": "ZUUUU",
		"latitude": "30-5-52.42 N",
		"longitude": "96-14-21.48 W",
		"state": "TEXAS",
		"artcc": "ZHU",
		"type": "RP",
		"updated": "IAH*VORTAC*275.50/47.30"
	},
	{
		"name": "ZUXNY",
		"latitude": "30-14-6.53 N",
		"longitude": "88-35-22.65 W",
		"state": "MISSISSIPPI",
		"artcc": "ZHU",
		"type": "RNAV",
		"updated": "11/04/2015"
	},
	{
		"name": "ZUXUG",
		"latitude": "29-45-50.35 N",
		"longitude": "95-53-50.17 W",
		"state": "TEXAS",
		"artcc": "ZHU",
		"type": "RNAV",
		"updated": "07/20/2007"
	},
	{
		"name": "ZYDCO",
		"latitude": "30-53-15.68 N",
		"longitude": "90-13-38.86 W",
		"state": "LOUISIANA",
		"artcc": "ZHU",
		"type": "RP",
		"updated": "PCU*VOR/DME*302.38"
	}
]
