	{
		"name": "BAALK",
		"latitude": "38-15-31.67 N",
		"longitude": "85-45-20.85 W",
		"state": "KENTUCKY",
		"artcc": "ZID",
		"type": "RNAV",
		"updated": "06/05/2012",
	},
	{
		"name": "BABME",
		"latitude": "37-3-52.45 N",
		"longitude": "84-36-10.49 W",
		"state": "KENTUCKY",
		"artcc": "ZID",
		"type": "RNAV",
		"updated": "06/21/2006",
	},
	{
		"name": "BABNE",
		"latitude": "40-8-24.94 N",
		"longitude": "85-37-8.24 W",
		"state": "INDIANA",
		"artcc": "ZID",
		"type": "RNAV",
		"updated": "01/12/2015",
	},
	{
		"name": "BACAB",
		"latitude": "37-35-16.35 N",
		"longitude": "83-19-5.83 W",
		"state": "KENTUCKY",
		"artcc": "ZID",
		"type": "RP",
		"updated": "AZQ*VOR/DME*351.39/12.07",
	},
	{
		"name": "BACAS",
		"latitude": "39-7-41 N",
		"longitude": "84-32-27 W",
		"state": "OHIO",
		"artcc": "ZID",
		"type": "RNAV",
		"updated": "11/24/2006",
	},
	{
		"name": "BACNA",
		"latitude": "40-21-56.91 N",
		"longitude": "85-27-40.43 W",
		"state": "INDIANA",
		"artcc": "ZID",
		"type": "RNAV",
		"updated": "08/16/2004",
	},
	{
		"name": "BAILR",
		"latitude": "38-59-38.64 N",
		"longitude": "84-13-48.16 W",
		"state": "OHIO",
		"artcc": "ZID",
		"type": "RP",
		"updated": "CVG*VORTAC*097.25",
	},
	{
		"name": "BAIRE",
		"latitude": "39-12-54.5 N",
		"longitude": "84-38-45.3 W",
		"state": "OHIO",
		"artcc": "ZID",
		"type": "RP",
		"updated": "CIZ*LD*004.21/11.37",
	},
	{
		"name": "BALLL",
		"latitude": "40-10-51.27 N",
		"longitude": "85-19-15.09 W",
		"state": "INDIANA",
		"artcc": "ZID",
		"type": "RP",
		"updated": "MIE*VOR/DME*/4.77",
	},
	{
		"name": "BALOU",
		"latitude": "40-13-32.35 N",
		"longitude": "84-5-54.12 W",
		"state": "OHIO",
		"artcc": "ZID",
		"type": "WP",
		"updated": "DQN*VOR/DME*048.51/18.60",
	},
	{
		"name": "BAMGE",
		"latitude": "39-7-42 N",
		"longitude": "84-46-43 W",
		"state": "OHIO",
		"artcc": "ZID",
		"type": "RNAV",
		"updated": "11/24/2006",
	},
	{
		"name": "BANLE",
		"latitude": "39-20-7.31 N",
		"longitude": "81-19-52.37 W",
		"state": "WEST VIRGINIA",
		"artcc": "ZID",
		"type": "RNAV",
		"updated": "04/09/2012",
	},
	{
		"name": "BARAY",
		"latitude": "39-37-57.68 N",
		"longitude": "86-48-29.79 W",
		"state": "INDIANA",
		"artcc": "ZID",
		"type": "RP",
		"updated": "VHP*VORTAC*241.00/23.14",
	},
	{
		"name": "BARRL",
		"latitude": "37-46-14.44 N",
		"longitude": "85-31-16.75 W",
		"state": "KENTUCKY",
		"artcc": "ZID",
		"type": "RNAV",
		"updated": "01/06/2010",
	},
	{
		"name": "BARRR",
		"latitude": "38-6-52.46 N",
		"longitude": "85-43-29.59 W",
		"state": "KENTUCKY",
		"artcc": "ZID",
		"type": "RP",
		"updated": "IIU*VORTAC*274.49",
	},
	{
		"name": "BASKT",
		"latitude": "37-59-0 N",
		"longitude": "85-45-0 W",
		"state": "KENTUCKY",
		"artcc": "ZID",
		"type": "RNAV",
		"updated": "04/26/2007",
	},
	{
		"name": "BASMN",
		"latitude": "38-24-28.97 N",
		"longitude": "85-52-21.59 W",
		"state": "INDIANA",
		"artcc": "ZID",
		"type": "RNAV",
		"updated": "04/27/2007",
	},
	{
		"name": "BATHY",
		"latitude": "39-23-48.22 N",
		"longitude": "84-55-19.42 W",
		"state": "INDIANA",
		"artcc": "ZID",
		"type": "RP",
		"updated": "RID*VORTAC*193.22/21.82",
	},
	{
		"name": "BBACK",
		"latitude": "39-58-28.05 N",
		"longitude": "86-36-52.6 W",
		"state": "INDIANA",
		"artcc": "ZID",
		"type": "RNAV",
		"updated": "01/12/2015",
	},
	{
		"name": "BBIRD",
		"latitude": "39-50-15 N",
		"longitude": "86-7-44.28 W",
		"state": "INDIANA",
		"artcc": "ZID",
		"type": "RP",
		"updated": "VHP*VORTAC*081.87",
	},
	{
		"name": "BCATT",
		"latitude": "39-28-11.58 N",
		"longitude": "85-23-50.46 W",
		"state": "INDIANA",
		"artcc": "ZID",
		"type": "RNAV",
		"updated": "11/24/2006",
	},
	{
		"name": "BDAWG",
		"latitude": "39-34-30.86 N",
		"longitude": "86-17-49.9 W",
		"state": "INDIANA",
		"artcc": "ZID",
		"type": "RNAV",
		"updated": "04/03/2015",
	},
	{
		"name": "BDOCK",
		"latitude": "39-56-6 N",
		"longitude": "84-14-1.2 W",
		"state": "OHIO",
		"artcc": "ZID",
		"type": "RP",
		"updated": "ROD*VORTAC*207.58",
	},
	{
		"name": "BEAER",
		"latitude": "38-18-27.73 N",
		"longitude": "83-43-43.8 W",
		"state": "KENTUCKY",
		"artcc": "ZID",
		"type": "RP",
		"updated": "HYK*VOR/DME*059.61/40.72",
	},
	{
		"name": "BEDTA",
		"latitude": "37-30-2.82 N",
		"longitude": "83-20-0.51 W",
		"state": "KENTUCKY",
		"artcc": "ZID",
		"type": "RNAV",
		"updated": "05/12/2003",
	},
	{
		"name": "BEGND",
		"latitude": "38-57-57.06 N",
		"longitude": "85-58-12.27 W",
		"state": "INDIANA",
		"artcc": "ZID",
		"type": "RNAV",
		"updated": "09/03/2014",
	},
	{
		"name": "BEMER",
		"latitude": "36-29-28.23 N",
		"longitude": "85-4-46.37 W",
		"state": "TENNESSEE",
		"artcc": "ZID",
		"type": "RP",
		"updated": "LVT*VOR/DME*145.00/7.00",
	},
	{
		"name": "BENAY",
		"latitude": "40-16-5.43 N",
		"longitude": "85-45-57.21 W",
		"state": "INDIANA",
		"artcc": "ZID",
		"type": "RNAV",
		"updated": "07/30/2004",
	},
	{
		"name": "BENDS",
		"latitude": "39-27-47.47 N",
		"longitude": "81-6-20.7 W",
		"state": "WEST VIRGINIA",
		"artcc": "ZID",
		"type": "RP",
		"updated": "AIR*VOR/DME*209.00",
	},
	{
		"name": "BENJJ",
		"latitude": "39-40-29.47 N",
		"longitude": "84-14-7.5 W",
		"state": "OHIO",
		"artcc": "ZID",
		"type": "MR",
		"updated": "FFO*TACAN*228.00/12.00",
	},
	{
		"name": "BENZO",
		"latitude": "39-5-56.3 N",
		"longitude": "80-32-24.58 W",
		"state": "WEST VIRGINIA",
		"artcc": "ZID",
		"type": "RP",
		"updated": "EKN*VORTAC*305.35",
	},
	{
		"name": "BEPEE",
		"latitude": "38-53-20.3 N",
		"longitude": "84-41-3.95 W",
		"state": "KENTUCKY",
		"artcc": "ZID",
		"type": "RP",
		"updated": "VAC*LD*186.17/11.07",
	},
	{
		"name": "BERAY",
		"latitude": "39-45-44.07 N",
		"longitude": "82-46-46.29 W",
		"state": "OHIO",
		"artcc": "ZID",
		"type": "RNAV",
		"updated": "02/12/2008",
	},
	{
		"name": "BESPE",
		"latitude": "38-55-22.15 N",
		"longitude": "83-28-27.89 W",
		"state": "OHIO",
		"artcc": "ZID",
		"type": "RNAV",
		"updated": "04/25/2003",
	},
	{
		"name": "BETHY",
		"latitude": "38-4-35.03 N",
		"longitude": "85-57-8.94 W",
		"state": "INDIANA",
		"artcc": "ZID",
		"type": "RP",
		"updated": "FTK*VOR/DME*006.36/10.18",
	},
	{
		"name": "BEWHY",
		"latitude": "38-56-18.99 N",
		"longitude": "86-41-5.48 W",
		"state": "INDIANA",
		"artcc": "ZID",
		"type": "RNAV",
		"updated": "03/23/2009",
	},
	{
		"name": "BEYCH",
		"latitude": "39-53-5.96 N",
		"longitude": "83-58-0.14 W",
		"state": "OHIO",
		"artcc": "ZID",
		"type": "MR",
		"updated": "FFO*TACAN*050.00/5.70",
	},
	{
		"name": "BEZIL",
		"latitude": "36-39-53 N",
		"longitude": "84-25-5.91 W",
		"state": "KENTUCKY",
		"artcc": "ZID",
		"type": "RNAV",
		"updated": "09/22/2014",
	},
	{
		"name": "BGEST",
		"latitude": "38-7-12.1 N",
		"longitude": "86-24-16.3 W",
		"state": "INDIANA",
		"artcc": "ZID",
		"type": "RNAV",
		"updated": "04/27/2007",
	},
	{
		"name": "BGTEN",
		"latitude": "39-37-10.17 N",
		"longitude": "86-24-25.76 W",
		"state": "INDIANA",
		"artcc": "ZID",
		"type": "RP",
		"updated": "VHP*VORTAC*187.93/11.85",
	},
	{
		"name": "BICAD",
		"latitude": "40-17-0.61 N",
		"longitude": "85-39-2.74 W",
		"state": "INDIANA",
		"artcc": "ZID",
		"type": "RNAV",
		"updated": "08/16/2004",
	},
	{
		"name": "BICEN",
		"latitude": "40-8-17.33 N",
		"longitude": "84-49-28 W",
		"state": "INDIANA",
		"artcc": "ZID",
		"type": "RP",
		"updated": "DQN*VOR/DME*291.47/21.00",
	},
	{
		"name": "BICKS",
		"latitude": "38-47-11.17 N",
		"longitude": "87-7-35.23 W",
		"state": "INDIANA",
		"artcc": "ZID",
		"type": "CF",
		"updated": "PXV*VORTAC*027.07/59.55",
	},
	{
		"name": "BIGLE",
		"latitude": "40-26-58.71 N",
		"longitude": "81-59-41.52 W",
		"state": "OHIO",
		"artcc": "ZID",
		"type": "RP",
		"updated": "DJB*VOR/DME*177.00/55.00",
	},
	{
		"name": "BIGRD",
		"latitude": "39-34-55.61 N",
		"longitude": "86-27-16.51 W",
		"state": "INDIANA",
		"artcc": "ZID",
		"type": "RP",
		"updated": "OQV*LD*226.55/11.74",
	},
	{
		"name": "BIGXX",
		"latitude": "39-19-51.46 N",
		"longitude": "85-29-50.8 W",
		"state": "INDIANA",
		"artcc": "ZID",
		"type": "RP",
		"updated": "ROD*VORTAC*235.00/88.39",
	},
	{
		"name": "BIKAY",
		"latitude": "38-41-46.81 N",
		"longitude": "83-50-30.31 W",
		"state": "OHIO",
		"artcc": "ZID",
		"type": "RNAV",
		"updated": "02/03/2004",
	},
	{
		"name": "BIKME",
		"latitude": "37-48-7.6 N",
		"longitude": "87-55-35.16 W",
		"state": "INDIANA",
		"artcc": "ZID",
		"type": "RNAV",
		"updated": "08/14/2008",
	},
	{
		"name": "BIMGY",
		"latitude": "39-38-41.77 N",
		"longitude": "83-21-19.2 W",
		"state": "OHIO",
		"artcc": "ZID",
		"type": "RNAV",
		"updated": "01/26/2015",
	},
	{
		"name": "BITES",
		"latitude": "38-26-14.48 N",
		"longitude": "80-45-55.55 W",
		"state": "WEST VIRGINIA",
		"artcc": "ZID",
		"type": "RP",
		"updated": "HVQ*VOR/DME*086.36/47.67",
	},
	{
		"name": "BIVDY",
		"latitude": "37-53-40.89 N",
		"longitude": "81-38-56.17 W",
		"state": "WEST VIRGINIA",
		"artcc": "ZID",
		"type": "RP",
		"updated": "BKW*VOR/DME*291.51/25.90",
	},
	{
		"name": "BIYAC",
		"latitude": "37-41-30.59 N",
		"longitude": "87-9-59.74 W",
		"state": "KENTUCKY",
		"artcc": "ZID",
		"type": "RP",
		"updated": "OWB*VOR/DME*184.58/3.10",
	},
	{
		"name": "BLANO",
		"latitude": "39-36-45.74 N",
		"longitude": "87-28-44.55 W",
		"state": "INDIANA",
		"artcc": "ZID",
		"type": "RP",
		"updated": "MTO*VOR/DME*074.58",
	},
	{
		"name": "BLAYD",
		"latitude": "37-59-13.75 N",
		"longitude": "84-39-37.84 W",
		"state": "KENTUCKY",
		"artcc": "ZID",
		"type": "RP",
		"updated": "HYK*VOR/DME*277.93",
	},
	{
		"name": "BLGRS",
		"latitude": "38-19-16.28 N",
		"longitude": "85-47-35.24 W",
		"state": "INDIANA",
		"artcc": "ZID",
		"type": "RP",
		"updated": "SNU*LD*350.40/10.36",
	},
	{
		"name": "BLISS",
		"latitude": "40-19-38.64 N",
		"longitude": "81-58-21.79 W",
		"state": "OHIO",
		"artcc": "ZID",
		"type": "RP",
		"updated": "DJB*VOR/DME*177.00/62.40",
	},
	{
		"name": "BLOCK",
		"latitude": "39-2-44.49 N",
		"longitude": "84-28-53.24 W",
		"state": "KENTUCKY",
		"artcc": "ZID",
		"type": "RP",
		"updated": "FLM*VOR/DME*345.42",
	},
	{
		"name": "BLSTR",
		"latitude": "39-42-8.88 N",
		"longitude": "86-25-39.26 W",
		"state": "INDIANA",
		"artcc": "ZID",
		"type": "RNAV",
		"updated": "01/12/2015",
	},
	{
		"name": "BLUEF",
		"latitude": "37-21-44.99 N",
		"longitude": "81-7-57.9 W",
		"state": "WEST VIRGINIA",
		"artcc": "ZID",
		"type": "RP",
		"updated": "BLF*VOR/DME*/4.47",
	},
	{
		"name": "BLUEY",
		"latitude": "40-31-54.82 N",
		"longitude": "82-4-8.18 W",
		"state": "OHIO",
		"artcc": "ZID",
		"type": "RNAV",
		"updated": "07/16/2015",
	},
	{
		"name": "BLUMR",
		"latitude": "40-12-24.11 N",
		"longitude": "84-24-45.59 W",
		"state": "OHIO",
		"artcc": "ZID",
		"type": "RP",
		"updated": "06/13/2008",
	},
	{
		"name": "BLUST",
		"latitude": "37-4-15 N",
		"longitude": "84-42-42.27 W",
		"state": "KENTUCKY",
		"artcc": "ZID",
		"type": "RP",
		"updated": "LVT*VOR/DME*038.80",
	},
	{
		"name": "BNETT",
		"latitude": "38-3-4 N",
		"longitude": "85-48-57.63 W",
		"state": "KENTUCKY",
		"artcc": "ZID",
		"type": "RNAV",
		"updated": "05/09/2016",
	},
	{
		"name": "BNGLE",
		"latitude": "39-33-1.13 N",
		"longitude": "84-24-32.27 W",
		"state": "OHIO",
		"artcc": "ZID",
		"type": "RNAV",
		"updated": "07/08/2008",
	},
	{
		"name": "BNNUS",
		"latitude": "38-16-35.38 N",
		"longitude": "85-33-32.36 W",
		"state": "KENTUCKY",
		"artcc": "ZID",
		"type": "RNAV",
		"updated": "07/15/2014",
	},
	{
		"name": "BOBCT",
		"latitude": "40-32-55.62 N",
		"longitude": "82-0-46.29 W",
		"state": "OHIO",
		"artcc": "ZID",
		"type": "RP",
		"updated": "DJB*VOR/DME*177.00/49.00",
	},
	{
		"name": "BOCVA",
		"latitude": "37-24-51.66 N",
		"longitude": "85-13-33.14 W",
		"state": "KENTUCKY",
		"artcc": "ZID",
		"type": "RNAV",
		"updated": "10/07/2014",
	},
	{
		"name": "BODYS",
		"latitude": "40-42-24.84 N",
		"longitude": "84-8-8.71 W",
		"state": "OHIO",
		"artcc": "ZID",
		"type": "RNAV",
		"updated": "07/06/2012",
	},
	{
		"name": "BOHUW",
		"latitude": "40-16-27.62 N",
		"longitude": "85-26-4.66 W",
		"state": "INDIANA",
		"artcc": "ZID",
		"type": "RP",
		"updated": "MIE*VOR/DME*323.00/2.90",
	},
	{
		"name": "BOKIN",
		"latitude": "40-26-2.53 N",
		"longitude": "84-13-18.34 W",
		"state": "OHIO",
		"artcc": "ZID",
		"type": "RP",
		"updated": "DQN*VOR/DME*018.76",
	},
	{
		"name": "BONEE",
		"latitude": "40-3-8.85 N",
		"longitude": "83-56-56.15 W",
		"state": "OHIO",
		"artcc": "ZID",
		"type": "RP",
		"updated": "DQN*VOR/DME*084.89/20.76",
	},
	{
		"name": "BONIF",
		"latitude": "40-21-27.4 N",
		"longitude": "82-48-26.6 W",
		"state": "OHIO",
		"artcc": "ZID",
		"type": "RNAV",
		"updated": "06/29/2011",
	},
	{
		"name": "BONLE",
		"latitude": "39-2-46.37 N",
		"longitude": "84-50-18.54 W",
		"state": "KENTUCKY",
		"artcc": "ZID",
		"type": "RNAV",
		"updated": "02/09/2010",
	},
	{
		"name": "BOOKS",
		"latitude": "40-30-16.27 N",
		"longitude": "84-47-40.77 W",
		"state": "OHIO",
		"artcc": "ZID",
		"type": "RP",
		"updated": "FWA*VORTAC*153.64/33.64",
	},
	{
		"name": "BOPGY",
		"latitude": "38-59-16.76 N",
		"longitude": "85-41-3.12 W",
		"state": "INDIANA",
		"artcc": "ZID",
		"type": "RNAV",
		"updated": "06/28/2009",
	},
	{
		"name": "BOSTR",
		"latitude": "38-53-8.13 N",
		"longitude": "84-4-58.02 W",
		"state": "OHIO",
		"artcc": "ZID",
		"type": "RP",
		"updated": "CVG*VORTAC*108.87/30.08",
	},
	{
		"name": "BOTKE",
		"latitude": "39-44-7.16 N",
		"longitude": "84-53-20.03 W",
		"state": "INDIANA",
		"artcc": "ZID",
		"type": "RP",
		"updated": "RID*VORTAC*246.00/2.60",
	},
	{
		"name": "BOULD",
		"latitude": "39-41-20.92 N",
		"longitude": "86-3-0.48 W",
		"state": "INDIANA",
		"artcc": "ZID",
		"type": "RP",
		"updated": "SHB*VOR/DME*287.04/11.00",
	},
	{
		"name": "BOUMR",
		"latitude": "39-6-17.68 N",
		"longitude": "84-52-13.91 W",
		"state": "INDIANA",
		"artcc": "ZID",
		"type": "RNAV",
		"updated": "04/15/2008",
	},
	{
		"name": "BOUTN",
		"latitude": "39-49-8.38 N",
		"longitude": "83-12-16.13 W",
		"state": "OHIO",
		"artcc": "ZID",
		"type": "WP",
		"updated": "BUZ*LS*217.17",
	},
	{
		"name": "BOWRR",
		"latitude": "39-57-58.01 N",
		"longitude": "83-1-56.48 W",
		"state": "OHIO",
		"artcc": "ZID",
		"type": "RP",
		"updated": "APE*VORTAC*247.68/23.27",
	},
	{
		"name": "BOXEY",
		"latitude": "39-48-33.02 N",
		"longitude": "84-4-22.72 W",
		"state": "OHIO",
		"artcc": "ZID",
		"type": "MR",
		"updated": "FFO*TACAN*238.00/1.00",
	},
	{
		"name": "BPANE",
		"latitude": "40-21-0.28 N",
		"longitude": "81-48-45.25 W",
		"state": "OHIO",
		"artcc": "ZID",
		"type": "RNAV",
		"updated": "03/16/2016",
	},
	{
		"name": "BRAMR",
		"latitude": "39-33-29.64 N",
		"longitude": "84-4-41.9 W",
		"state": "OHIO",
		"artcc": "ZID",
		"type": "RP",
		"updated": "MXQ*VOR/DME*305.00/15.00",
	},
	{
		"name": "BRANN",
		"latitude": "39-45-36.37 N",
		"longitude": "84-9-37.39 W",
		"state": "OHIO",
		"artcc": "ZID",
		"type": "MR",
		"updated": "FFO*TACAN*238.00/6.00",
	},
	{
		"name": "BRBON",
		"latitude": "37-50-9.94 N",
		"longitude": "85-38-0.33 W",
		"state": "KENTUCKY",
		"artcc": "ZID",
		"type": "RP",
		"updated": "FTK*VOR/DME*105.71",
	},
	{
		"name": "BRELL",
		"latitude": "38-5-14.95 N",
		"longitude": "85-35-15.79 W",
		"state": "KENTUCKY",
		"artcc": "ZID",
		"type": "RNAV",
		"updated": "05/09/2016",
	},
	{
		"name": "BREMN",
		"latitude": "39-42-1.73 N",
		"longitude": "82-24-15.72 W",
		"state": "OHIO",
		"artcc": "ZID",
		"type": "RP",
		"updated": "APE*VORTAC*168.49/28.32",
	},
	{
		"name": "BRIDL",
		"latitude": "38-7-27.41 N",
		"longitude": "84-30-23.93 W",
		"state": "KENTUCKY",
		"artcc": "ZID",
		"type": "RP",
		"updated": "GNJ*LS*NE CRS",
	},
	{
		"name": "BRIGY",
		"latitude": "37-34-53.41 N",
		"longitude": "84-19-35.47 W",
		"state": "KENTUCKY",
		"artcc": "ZID",
		"type": "RNAV",
		"updated": "12/01/2015",
	},
	{
		"name": "BRISE",
		"latitude": "38-56-11.33 N",
		"longitude": "87-36-11.08 W",
		"state": "ILLINOIS",
		"artcc": "ZID",
		"type": "RNAV",
		"updated": "02/09/2018",
	},
	{
		"name": "BRITL",
		"latitude": "39-10-43.28 N",
		"longitude": "84-40-59.98 W",
		"state": "OHIO",
		"artcc": "ZID",
		"type": "RP",
		"updated": "CJN*LD*006.17/8.02",
	},
	{
		"name": "BRNBX",
		"latitude": "37-54-46.98 N",
		"longitude": "85-40-55.89 W",
		"state": "KENTUCKY",
		"artcc": "ZID",
		"type": "RNAV",
		"updated": "04/26/2007",
	},
	{
		"name": "BRNIE",
		"latitude": "39-16-41.56 N",
		"longitude": "84-13-37.22 W",
		"state": "OHIO",
		"artcc": "ZID",
		"type": "RP",
		"updated": "HKF*NDB*146.13",
	},
	{
		"name": "BROCH",
		"latitude": "39-34-17.82 N",
		"longitude": "81-30-32.36 W",
		"state": "OHIO",
		"artcc": "ZID",
		"type": "RP",
		"updated": "JPU*VOR/DME*324.48/10.00",
	},
	{
		"name": "BRRWN",
		"latitude": "37-45-27.46 N",
		"longitude": "86-6-8.82 W",
		"state": "KENTUCKY",
		"artcc": "ZID",
		"type": "RNAV",
		"updated": "04/26/2007",
	},
	{
		"name": "BRTCL",
		"latitude": "38-50-11.7 N",
		"longitude": "84-41-4.66 W",
		"state": "KENTUCKY",
		"artcc": "ZID",
		"type": "RP",
		"updated": "VAC*LD*186.17/14.21",
	},
	{
		"name": "BRUNO",
		"latitude": "37-42-21.68 N",
		"longitude": "84-36-19.38 W",
		"state": "KENTUCKY",
		"artcc": "ZID",
		"type": "RP",
		"updated": "HYK*VOR/DME*202.00/17.00",
	},
	{
		"name": "BRUNY",
		"latitude": "39-50-50.99 N",
		"longitude": "84-20-6.93 W",
		"state": "OHIO",
		"artcc": "ZID",
		"type": "RP",
		"updated": "DQN*VOR/DME*165.23",
	},
	{
		"name": "BRUSH",
		"latitude": "38-22-2.25 N",
		"longitude": "83-27-17.36 W",
		"state": "KENTUCKY",
		"artcc": "ZID",
		"type": "RP",
		"updated": "CVG*VORTAC*127.15/70.37",
	},
	{
		"name": "BRYDL",
		"latitude": "38-20-43.97 N",
		"longitude": "85-57-49.31 W",
		"state": "INDIANA",
		"artcc": "ZID",
		"type": "RNAV",
		"updated": "04/27/2007",
	},
	{
		"name": "BRYEN",
		"latitude": "40-51-15.73 N",
		"longitude": "84-46-48.9 W",
		"state": "OHIO",
		"artcc": "ZID",
		"type": "RP",
		"updated": "FWA*VORTAC*117.82/20.00",
	},
	{
		"name": "BRYNN",
		"latitude": "39-12-11.36 N",
		"longitude": "84-33-20.72 W",
		"state": "OHIO",
		"artcc": "ZID",
		"type": "RP",
		"updated": "CVG*VORTAC*035.52/13.17",
	},
	{
		"name": "BTTLR",
		"latitude": "39-39-45.65 N",
		"longitude": "86-11-41.41 W",
		"state": "INDIANA",
		"artcc": "ZID",
		"type": "RP",
		"updated": "SHB*VOR/DME*275.12",
	},
	{
		"name": "BUHBA",
		"latitude": "38-16-30.86 N",
		"longitude": "85-53-14.8 W",
		"state": "INDIANA",
		"artcc": "ZID",
		"type": "RNAV",
		"updated": "04/15/2013",
	},
	{
		"name": "BULCO",
		"latitude": "38-0-28.33 N",
		"longitude": "85-41-16.46 W",
		"state": "KENTUCKY",
		"artcc": "ZID",
		"type": "RNAV",
		"updated": "06/05/2012",
	},
	{
		"name": "BULEY",
		"latitude": "37-39-30.9 N",
		"longitude": "82-45-49.89 W",
		"state": "KENTUCKY",
		"artcc": "ZID",
		"type": "RP",
		"updated": "HNN*VORTAC*211.21/74.35",
	},
	{
		"name": "BULLG",
		"latitude": "38-41-41.49 N",
		"longitude": "85-30-57.8 W",
		"state": "INDIANA",
		"artcc": "ZID",
		"type": "RNAV",
		"updated": "09/20/2017",
	},
	{
		"name": "BULVE",
		"latitude": "38-13-20.19 N",
		"longitude": "81-42-43.03 W",
		"state": "WEST VIRGINIA",
		"artcc": "ZID",
		"type": "RNAV",
		"updated": "07/01/2013",
	},
	{
		"name": "BUMCE",
		"latitude": "39-6-19.01 N",
		"longitude": "85-31-7.28 W",
		"state": "INDIANA",
		"artcc": "ZID",
		"type": "RNAV",
		"updated": "06/28/2009",
	},
	{
		"name": "BUMLE",
		"latitude": "40-1-39.48 N",
		"longitude": "82-23-18.71 W",
		"state": "OHIO",
		"artcc": "ZID",
		"type": "RNAV",
		"updated": "07/01/2016",
	},
	{
		"name": "BUMRY",
		"latitude": "38-37-35.22 N",
		"longitude": "83-29-9.34 W",
		"state": "KENTUCKY",
		"artcc": "ZID",
		"type": "RNAV",
		"updated": "03/31/2009",
	},
	{
		"name": "BUNKA",
		"latitude": "39-4-57.32 N",
		"longitude": "87-9-6.58 W",
		"state": "INDIANA",
		"artcc": "ZID",
		"type": "RP",
		"updated": "TTH*VORTAC*167.44/24.78",
	},
	{
		"name": "BUNSS",
		"latitude": "39-34-46.5 N",
		"longitude": "83-42-24.22 W",
		"state": "OHIO",
		"artcc": "ZID",
		"type": "RP",
		"updated": "MXQ*VOR/DME*030.00/10.00",
	},
	{
		"name": "BUPTE",
		"latitude": "39-16-9.49 N",
		"longitude": "85-48-12.92 W",
		"state": "INDIANA",
		"artcc": "ZID",
		"type": "RNAV",
		"updated": "01/12/2015",
	},
	{
		"name": "BUTYN",
		"latitude": "40-26-19.27 N",
		"longitude": "84-17-22.01 W",
		"state": "OHIO",
		"artcc": "ZID",
		"type": "RP",
		"updated": "DQN*VOR/DME*012.00",
	},
	{
		"name": "BUZZI",
		"latitude": "40-32-3.87 N",
		"longitude": "83-45-39.55 W",
		"state": "OHIO",
		"artcc": "ZID",
		"type": "RP",
		"updated": "APE*VORTAC*299.51/58.50",
	},
	{
		"name": "BWARE",
		"latitude": "39-35-26.41 N",
		"longitude": "86-21-14.83 W",
		"state": "INDIANA",
		"artcc": "ZID",
		"type": "RNAV",
		"updated": "10/05/2016",
	},
