[
	{
		"name": "FABDO",
		"latitude": "40-4-34.4 N",
		"longitude": "82-43-55.85 W",
		"state": "OHIO",
		"artcc": "ZID",
		"type": "RP",
		"updated": "APE*VORTAC*241.93/8.00"
	},
	{
		"name": "FABKA",
		"latitude": "40-0-31.51 N",
		"longitude": "84-13-39.46 W",
		"state": "OHIO",
		"artcc": "ZID",
		"type": "RNAV",
		"updated": "04/11/2014"
	},
	{
		"name": "FABVU",
		"latitude": "39-28-50.91 N",
		"longitude": "84-28-15.39 W",
		"state": "OHIO",
		"artcc": "ZID",
		"type": "RNAV",
		"updated": "08/02/2012"
	},
	{
		"name": "FADDR",
		"latitude": "38-3-29.97 N",
		"longitude": "85-42-34.4 W",
		"state": "KENTUCKY",
		"artcc": "ZID",
		"type": "RNAV",
		"updated": "06/05/2012"
	},
	{
		"name": "FAIRF",
		"latitude": "39-44-33.24 N",
		"longitude": "82-25-17.05 W",
		"state": "OHIO",
		"artcc": "ZID",
		"type": "RP",
		"updated": "APE*VORTAC*168.49/25.67"
	},
	{
		"name": "FALAX",
		"latitude": "38-31-19.23 N",
		"longitude": "83-48-11.99 W",
		"state": "KENTUCKY",
		"artcc": "ZID",
		"type": "RNAV",
		"updated": "03/31/2009"
	},
	{
		"name": "FAMIL",
		"latitude": "39-27-38.8 N",
		"longitude": "85-58-29.08 W",
		"state": "INDIANA",
		"artcc": "ZID",
		"type": "RNAV",
		"updated": "01/12/2015"
	},
	{
		"name": "FAMRU",
		"latitude": "38-2-5.34 N",
		"longitude": "85-30-52.17 W",
		"state": "KENTUCKY",
		"artcc": "ZID",
		"type": "RNAV",
		"updated": "02/20/2018"
	},
	{
		"name": "FAMTU",
		"latitude": "39-49-25.87 N",
		"longitude": "86-48-32.53 W",
		"state": "INDIANA",
		"artcc": "ZID",
		"type": "RNAV",
		"updated": "09/23/2003"
	},
	{
		"name": "FANSA",
		"latitude": "38-57-15.14 N",
		"longitude": "84-42-45.21 W",
		"state": "KENTUCKY",
		"artcc": "ZID",
		"type": "RNAV",
		"updated": "04/16/2008"
	},
	{
		"name": "FANTN",
		"latitude": "39-4-28.53 N",
		"longitude": "85-34-21.31 W",
		"state": "INDIANA",
		"artcc": "ZID",
		"type": "RNAV",
		"updated": "06/28/2009"
	},
	{
		"name": "FANUN",
		"latitude": "39-41-14.98 N",
		"longitude": "84-15-3.63 W",
		"state": "OHIO",
		"artcc": "ZID",
		"type": "RP",
		"updated": "FFO*TACAN*233.00/12.00"
	},
	{
		"name": "FAPER",
		"latitude": "37-20-57.38 N",
		"longitude": "86-47-25.19 W",
		"state": "KENTUCKY",
		"artcc": "ZID",
		"type": "RNAV",
		"updated": "09/17/2012"
	},
	{
		"name": "FAREV",
		"latitude": "37-12-28.43 N",
		"longitude": "85-7-21.16 W",
		"state": "KENTUCKY",
		"artcc": "ZID",
		"type": "RNAV",
		"updated": "07/08/2013"
	},
	{
		"name": "FARLN",
		"latitude": "39-22-37.43 N",
		"longitude": "81-50-54.57 W",
		"state": "OHIO",
		"artcc": "ZID",
		"type": "RP",
		"updated": "ZZV*VOR/DME*182.53/33.86"
	},
	{
		"name": "FARUM",
		"latitude": "39-19-56 N",
		"longitude": "83-35-57 W",
		"state": "OHIO",
		"artcc": "ZID",
		"type": "RNAV",
		"updated": "04/15/2008"
	},
	{
		"name": "FASAT",
		"latitude": "39-21-32.49 N",
		"longitude": "81-40-55.9 W",
		"state": "OHIO",
		"artcc": "ZID",
		"type": "RNAV",
		"updated": "04/09/2012"
	},
	{
		"name": "FASVU",
		"latitude": "39-57-34.74 N",
		"longitude": "83-37-36.29 W",
		"state": "OHIO",
		"artcc": "ZID",
		"type": "RNAV",
		"updated": "10/19/2009"
	},
	{
		"name": "FAXIG",
		"latitude": "40-18-40.51 N",
		"longitude": "85-13-45.51 W",
		"state": "INDIANA",
		"artcc": "ZID",
		"type": "RP",
		"updated": "MIE*VOR/DME*062.57/8.77"
	},
	{
		"name": "FEBLU",
		"latitude": "38-53-51.72 N",
		"longitude": "84-41-5.01 W",
		"state": "KENTUCKY",
		"artcc": "ZID",
		"type": "RNAV",
		"updated": "04/16/2008"
	},
	{
		"name": "FEDEX",
		"latitude": "38-4-12.77 N",
		"longitude": "81-42-30.49 W",
		"state": "WEST VIRGINIA",
		"artcc": "ZID",
		"type": "RP",
		"updated": "HVQ*VOR/DME*173.14/17.00"
	},
	{
		"name": "FEDIK",
		"latitude": "39-10-42.84 N",
		"longitude": "82-33-19.34 W",
		"state": "OHIO",
		"artcc": "ZID",
		"type": "RNAV",
		"updated": "08/03/2004"
	},
	{
		"name": "FEDIS",
		"latitude": "40-23-28.27 N",
		"longitude": "83-45-13.33 W",
		"state": "OHIO",
		"artcc": "ZID",
		"type": "RNAV",
		"updated": "03/08/2012"
	},
	{
		"name": "FEDRA",
		"latitude": "38-2-44.41 N",
		"longitude": "85-6-1.98 W",
		"state": "KENTUCKY",
		"artcc": "ZID",
		"type": "RP",
		"updated": "IIU*VORTAC*097.57/22.86"
	},
	{
		"name": "FEGEG",
		"latitude": "39-1-9.83 N",
		"longitude": "87-46-30.02 W",
		"state": "ILLINOIS",
		"artcc": "ZID",
		"type": "RNAV",
		"updated": "07/17/2013"
	},
	{
		"name": "FEHOP",
		"latitude": "39-40-19.79 N",
		"longitude": "81-55-21.03 W",
		"state": "OHIO",
		"artcc": "ZID",
		"type": "RNAV",
		"updated": "04/27/2009"
	},
	{
		"name": "FEIAT",
		"latitude": "39-13-7.84 N",
		"longitude": "83-52-15 W",
		"state": "OHIO",
		"artcc": "ZID",
		"type": "RNAV",
		"updated": "07/09/2009"
	},
	{
		"name": "FEKLO",
		"latitude": "39-9-47.72 N",
		"longitude": "82-20-26.08 W",
		"state": "OHIO",
		"artcc": "ZID",
		"type": "RNAV",
		"updated": "10/05/2017"
	},
	{
		"name": "FEKVU",
		"latitude": "40-30-33.22 N",
		"longitude": "84-19-19.21 W",
		"state": "OHIO",
		"artcc": "ZID",
		"type": "RNAV",
		"updated": "11/14/2014"
	},
	{
		"name": "FELAK",
		"latitude": "38-40-55.58 N",
		"longitude": "83-56-47.85 W",
		"state": "OHIO",
		"artcc": "ZID",
		"type": "RNAV",
		"updated": "02/03/2004"
	},
	{
		"name": "FELIT",
		"latitude": "36-53-41.3 N",
		"longitude": "84-10-50.8 W",
		"state": "KENTUCKY",
		"artcc": "ZID",
		"type": "RP",
		"updated": "LOZ*VOR/DME*205.32/8.96"
	},
	{
		"name": "FELPO",
		"latitude": "38-14-27.21 N",
		"longitude": "83-51-38.94 W",
		"state": "KENTUCKY",
		"artcc": "ZID",
		"type": "RNAV",
		"updated": "08/12/2013"
	},
	{
		"name": "FEMGO",
		"latitude": "40-1-44.99 N",
		"longitude": "85-52-14.19 W",
		"state": "INDIANA",
		"artcc": "ZID",
		"type": "RNAV",
		"updated": "01/12/2015"
	},
	{
		"name": "FEMLU",
		"latitude": "37-54-51.45 N",
		"longitude": "85-58-18.21 W",
		"state": "KENTUCKY",
		"artcc": "ZID",
		"type": "RP",
		"updated": "FTK*VOR/DME*006.36/0.43"
	},
	{
		"name": "FEMSA",
		"latitude": "38-11-51.17 N",
		"longitude": "84-27-25.7 W",
		"state": "KENTUCKY",
		"artcc": "ZID",
		"type": "RNAV",
		"updated": "06/21/2010"
	},
	{
		"name": "FENLA",
		"latitude": "38-58-53.64 N",
		"longitude": "83-23-54.88 W",
		"state": "OHIO",
		"artcc": "ZID",
		"type": "RNAV",
		"updated": "04/25/2003"
	},
	{
		"name": "FENLU",
		"latitude": "39-55-15.3 N",
		"longitude": "83-42-56.3 W",
		"state": "OHIO",
		"artcc": "ZID",
		"type": "RNAV",
		"updated": "08/12/2008"
	},
	{
		"name": "FERAD",
		"latitude": "38-39-41.84 N",
		"longitude": "83-39-31.64 W",
		"state": "OHIO",
		"artcc": "ZID",
		"type": "RNAV",
		"updated": "04/25/2003"
	},
	{
		"name": "FERLO",
		"latitude": "39-42-14.41 N",
		"longitude": "84-16-4.08 W",
		"state": "OHIO",
		"artcc": "ZID",
		"type": "MR",
		"updated": "FFO*TACAN*239.00/12.00"
	},
	{
		"name": "FERNY",
		"latitude": "38-9-11.68 N",
		"longitude": "85-36-43.78 W",
		"state": "KENTUCKY",
		"artcc": "ZID",
		"type": "RP",
		"updated": "IIU*VORTAC*330.14/3.40"
	},
	{
		"name": "FETAV",
		"latitude": "39-25-25.47 N",
		"longitude": "85-8-17.26 W",
		"state": "INDIANA",
		"artcc": "ZID",
		"type": "RNAV",
		"updated": "04/25/2012"
	},
	{
		"name": "FETEG",
		"latitude": "39-16-55.73 N",
		"longitude": "84-8-59.57 W",
		"state": "OHIO",
		"artcc": "ZID",
		"type": "RNAV",
		"updated": "04/21/2005"
	},
	{
		"name": "FETOV",
		"latitude": "39-31-14.75 N",
		"longitude": "87-23-22.45 W",
		"state": "INDIANA",
		"artcc": "ZID",
		"type": "RNAV",
		"updated": "06/20/2005"
	},
	{
		"name": "FEXAM",
		"latitude": "37-46-8.95 N",
		"longitude": "87-7-10.76 W",
		"state": "KENTUCKY",
		"artcc": "ZID",
		"type": "RNAV",
		"updated": "04/18/2010"
	},
	{
		"name": "FEXIL",
		"latitude": "39-55-18.5 N",
		"longitude": "88-3-39.83 W",
		"state": "ILLINOIS",
		"artcc": "ZID",
		"type": "RP",
		"updated": "CMI*VORTAC*121.21/12.00"
	},
	{
		"name": "FFOXX",
		"latitude": "37-52-13.89 N",
		"longitude": "88-11-13.83 W",
		"state": "ILLINOIS",
		"artcc": "ZID",
		"type": "RNAV",
		"updated": "12/03/2012"
	},
	{
		"name": "FIBKE",
		"latitude": "37-2-21.97 N",
		"longitude": "84-41-26.33 W",
		"state": "KENTUCKY",
		"artcc": "ZID",
		"type": "RNAV",
		"updated": "06/21/2013"
	},
	{
		"name": "FIDEK",
		"latitude": "38-57-49 N",
		"longitude": "84-46-48 W",
		"state": "KENTUCKY",
		"artcc": "ZID",
		"type": "RNAV",
		"updated": "11/29/2006"
	},
	{
		"name": "FIDGI",
		"latitude": "37-28-28.33 N",
		"longitude": "84-33-36.6 W",
		"state": "KENTUCKY",
		"artcc": "ZID",
		"type": "RNAV",
		"updated": "12/18/2007"
	},
	{
		"name": "FIDIK",
		"latitude": "38-57-6.38 N",
		"longitude": "86-34-46.42 W",
		"state": "INDIANA",
		"artcc": "ZID",
		"type": "RNAV",
		"updated": "06/18/2012"
	},
	{
		"name": "FIDVO",
		"latitude": "39-52-43.11 N",
		"longitude": "86-3-58.11 W",
		"state": "INDIANA",
		"artcc": "ZID",
		"type": "RNAV",
		"updated": "06/18/2012"
	},
	{
		"name": "FIGIT",
		"latitude": "40-32-22.5 N",
		"longitude": "81-53-12.91 W",
		"state": "OHIO",
		"artcc": "ZID",
		"type": "RNAV",
		"updated": "07/16/2015"
	},
	{
		"name": "FIGLA",
		"latitude": "37-3-35.28 N",
		"longitude": "85-6-28.12 W",
		"state": "KENTUCKY",
		"artcc": "ZID",
		"type": "RNAV",
		"updated": "07/10/2013"
	},
	{
		"name": "FIGPU",
		"latitude": "39-21-59.65 N",
		"longitude": "84-9-15.67 W",
		"state": "OHIO",
		"artcc": "ZID",
		"type": "RNAV",
		"updated": "03/28/2012"
	},
	{
		"name": "FIGRA",
		"latitude": "38-26-29.18 N",
		"longitude": "81-42-11.17 W",
		"state": "WEST VIRGINIA",
		"artcc": "ZID",
		"type": "RNAV",
		"updated": "05/08/2013"
	},
	{
		"name": "FIIRE",
		"latitude": "39-24-9.4 N",
		"longitude": "86-39-5.13 W",
		"state": "INDIANA",
		"artcc": "ZID",
		"type": "RNAV",
		"updated": "09/20/2016"
	},
	{
		"name": "FIKTO",
		"latitude": "39-27-0.1 N",
		"longitude": "85-29-58.52 W",
		"state": "INDIANA",
		"artcc": "ZID",
		"type": "RNAV",
		"updated": "06/18/2012"
	},
	{
		"name": "FIKVI",
		"latitude": "39-9-14.61 N",
		"longitude": "87-26-51.82 W",
		"state": "INDIANA",
		"artcc": "ZID",
		"type": "RNAV",
		"updated": "08/13/2010"
	},
	{
		"name": "FILES",
		"latitude": "38-43-37.15 N",
		"longitude": "80-39-52.44 W",
		"state": "WEST VIRGINIA",
		"artcc": "ZID",
		"type": "RP",
		"updated": "EKN*VORTAC*254.00/28.80"
	},
	{
		"name": "FILMS",
		"latitude": "39-40-47.9 N",
		"longitude": "86-44-7.38 W",
		"state": "INDIANA",
		"artcc": "ZID",
		"type": "RP",
		"updated": "VHP*VORTAC*243.73/18.85"
	},
	{
		"name": "FIMAP",
		"latitude": "39-39-40.27 N",
		"longitude": "87-0-52.13 W",
		"state": "INDIANA",
		"artcc": "ZID",
		"type": "RP",
		"updated": "TTH*VORTAC*/15.00"
	},
	{
		"name": "FIMOJ",
		"latitude": "39-10-12.41 N",
		"longitude": "83-12-30.58 W",
		"state": "OHIO",
		"artcc": "ZID",
		"type": "RNAV",
		"updated": "12/19/2014"
	},
	{
		"name": "FIMPA",
		"latitude": "38-18-54.82 N",
		"longitude": "80-46-0.78 W",
		"state": "WEST VIRGINIA",
		"artcc": "ZID",
		"type": "RNAV",
		"updated": "05/07/2013"
	},
	{
		"name": "FINCH",
		"latitude": "38-8-59.19 N",
		"longitude": "85-12-8.54 W",
		"state": "KENTUCKY",
		"artcc": "ZID",
		"type": "RP",
		"updated": "IIU*VORTAC*080.00/17.97"
	},
	{
		"name": "FINED",
		"latitude": "39-42-20.17 N",
		"longitude": "87-25-22.09 W",
		"state": "INDIANA",
		"artcc": "ZID",
		"type": "RNAV",
		"updated": "10/01/2008"
	},
	{
		"name": "FINUM",
		"latitude": "39-36-34.13 N",
		"longitude": "83-42-32.57 W",
		"state": "OHIO",
		"artcc": "ZID",
		"type": "RNAV",
		"updated": "XSF*TACAN*160.00/15.00"
	},
	{
		"name": "FIPVA",
		"latitude": "40-42-24.96 N",
		"longitude": "84-4-50.37 W",
		"state": "OHIO",
		"artcc": "ZID",
		"type": "RNAV",
		"updated": "12/21/2009"
	},
	{
		"name": "FIVAX",
		"latitude": "39-46-30.21 N",
		"longitude": "86-18-21.38 W",
		"state": "INDIANA",
		"artcc": "ZID",
		"type": "RNAV",
		"updated": "05/02/2018"
	},
	{
		"name": "FIVRI",
		"latitude": "37-51-32.77 N",
		"longitude": "84-22-8.49 W",
		"state": "KENTUCKY",
		"artcc": "ZID",
		"type": "RNAV",
		"updated": "05/15/2006"
	},
	{
		"name": "FLENR",
		"latitude": "36-56-44.27 N",
		"longitude": "82-43-42.75 W",
		"state": "VIRGINIA",
		"artcc": "ZID",
		"type": "RP",
		"updated": "AZQ*VOR/DME*140.01/37.02"
	},
	{
		"name": "FLOEE",
		"latitude": "38-57-24.12 N",
		"longitude": "84-40-8.6 W",
		"state": "KENTUCKY",
		"artcc": "ZID",
		"type": "RNAV",
		"updated": "02/13/2010"
	},
	{
		"name": "FLUYT",
		"latitude": "39-18-32.32 N",
		"longitude": "83-28-49.78 W",
		"state": "OHIO",
		"artcc": "ZID",
		"type": "RNAV",
		"updated": "11/26/2014"
	},
	{
		"name": "FLYRR",
		"latitude": "39-54-11.94 N",
		"longitude": "83-56-0.06 W",
		"state": "OHIO",
		"artcc": "ZID",
		"type": "MW",
		"updated": "12/31/2012"
	},
	{
		"name": "FNGRS",
		"latitude": "40-37-3.8 N",
		"longitude": "85-16-18 W",
		"state": "INDIANA",
		"artcc": "ZID",
		"type": "RNAV",
		"updated": "09/24/2001"
	},
	{
		"name": "FOBAG",
		"latitude": "39-50-3.98 N",
		"longitude": "86-28-27.68 W",
		"state": "INDIANA",
		"artcc": "ZID",
		"type": "RNAV",
		"updated": "07/10/2013"
	},
	{
		"name": "FOBAL",
		"latitude": "39-46-55.08 N",
		"longitude": "84-6-50.45 W",
		"state": "OHIO",
		"artcc": "ZID",
		"type": "MR",
		"updated": "FFO*TACAN*/3.50"
	},
	{
		"name": "FOBKA",
		"latitude": "39-22-21.28 N",
		"longitude": "87-2-45.17 W",
		"state": "INDIANA",
		"artcc": "ZID",
		"type": "RNAV",
		"updated": "06/20/2005"
	},
	{
		"name": "FODAN",
		"latitude": "39-37-4.12 N",
		"longitude": "83-35-57.82 W",
		"state": "OHIO",
		"artcc": "ZID",
		"type": "RP",
		"updated": "SGH*VOR/DME*143.00/17.35"
	},
	{
		"name": "FODBO",
		"latitude": "38-33-12.55 N",
		"longitude": "87-48-40.03 W",
		"state": "ILLINOIS",
		"artcc": "ZID",
		"type": "RNAV",
		"updated": "05/22/2012"
	},
	{
		"name": "FODCU",
		"latitude": "38-57-45.89 N",
		"longitude": "86-28-24.45 W",
		"state": "INDIANA",
		"artcc": "ZID",
		"type": "RNAV",
		"updated": "03/22/2009"
	},
	{
		"name": "FOFWI",
		"latitude": "39-56-16.34 N",
		"longitude": "83-20-49.47 W",
		"state": "OHIO",
		"artcc": "ZID",
		"type": "RNAV",
		"updated": "08/12/2008"
	},
	{
		"name": "FOGAG",
		"latitude": "38-21-56.65 N",
		"longitude": "81-38-39.93 W",
		"state": "WEST VIRGINIA",
		"artcc": "ZID",
		"type": "RP",
		"updated": "HVQ*VOR/DME*083.73/6.00"
	},
	{
		"name": "FOGBU",
		"latitude": "39-54-27.9 N",
		"longitude": "85-39-22.32 W",
		"state": "INDIANA",
		"artcc": "ZID",
		"type": "RNAV",
		"updated": "10/15/2008"
	},
	{
		"name": "FOGEB",
		"latitude": "39-44-16.74 N",
		"longitude": "83-1-28.24 W",
		"state": "OHIO",
		"artcc": "ZID",
		"type": "RNAV",
		"updated": "07/05/2011"
	},
	{
		"name": "FOGLU",
		"latitude": "39-4-18.65 N",
		"longitude": "81-55-12.95 W",
		"state": "OHIO",
		"artcc": "ZID",
		"type": "RNAV",
		"updated": "02/01/2010"
	},
	{
		"name": "FOGPE",
		"latitude": "37-48-42.77 N",
		"longitude": "85-59-31.52 W",
		"state": "KENTUCKY",
		"artcc": "ZID",
		"type": "MW",
		"updated": "10/28/2010"
	},
	{
		"name": "FOLAB",
		"latitude": "37-37-11.75 N",
		"longitude": "87-21-33.88 W",
		"state": "KENTUCKY",
		"artcc": "ZID",
		"type": "RNAV",
		"updated": "11/06/2012"
	},
	{
		"name": "FOLIV",
		"latitude": "39-59-15.76 N",
		"longitude": "86-5-30.24 W",
		"state": "INDIANA",
		"artcc": "ZID",
		"type": "RNAV",
		"updated": "12/04/2008"
	},
	{
		"name": "FOLMU",
		"latitude": "37-4-22.17 N",
		"longitude": "82-17-44.79 W",
		"state": "VIRGINIA",
		"artcc": "ZID",
		"type": "RP",
		"updated": "GZG*VOR/DME*326.98/18.14"
	},
	{
		"name": "FOMAN",
		"latitude": "39-31-22.3 N",
		"longitude": "85-9-4.38 W",
		"state": "INDIANA",
		"artcc": "ZID",
		"type": "RNAV",
		"updated": "07/29/2010"
	},
	{
		"name": "FOMGI",
		"latitude": "39-28-0.34 N",
		"longitude": "86-31-18.9 W",
		"state": "INDIANA",
		"artcc": "ZID",
		"type": "RNAV",
		"updated": "08/07/2012"
	},
	{
		"name": "FOMOP",
		"latitude": "37-22-35.76 N",
		"longitude": "80-56-53.22 W",
		"state": "WEST VIRGINIA",
		"artcc": "ZID",
		"type": "RNAV",
		"updated": "12/31/2009"
	},
	{
		"name": "FOMUV",
		"latitude": "37-52-40.19 N",
		"longitude": "86-30-26.1 W",
		"state": "KENTUCKY",
		"artcc": "ZID",
		"type": "RNAV",
		"updated": "07/04/2011"
	},
	{
		"name": "FONAT",
		"latitude": "40-14-22.67 N",
		"longitude": "85-32-45.14 W",
		"state": "INDIANA",
		"artcc": "ZID",
		"type": "RNAV",
		"updated": "08/07/2012"
	},
	{
		"name": "FOOTE",
		"latitude": "40-21-51.55 N",
		"longitude": "85-32-6.6 W",
		"state": "INDIANA",
		"artcc": "ZID",
		"type": "RP",
		"updated": "FWA*VORTAC*209.38"
	},
	{
		"name": "FOPAS",
		"latitude": "39-5-16.4 N",
		"longitude": "84-24-52.6 W",
		"state": "OHIO",
		"artcc": "ZID",
		"type": "RNAV",
		"updated": "05/06/2011"
	},
	{
		"name": "FORBS",
		"latitude": "38-29-3.31 N",
		"longitude": "86-44-52.79 W",
		"state": "INDIANA",
		"artcc": "ZID",
		"type": "RNAV",
		"updated": "01/19/2011"
	},
	{
		"name": "FORIV",
		"latitude": "38-46-47.91 N",
		"longitude": "80-38-9.75 W",
		"state": "WEST VIRGINIA",
		"artcc": "ZID",
		"type": "RNAV",
		"updated": "12/02/2014"
	},
	{
		"name": "FORKS",
		"latitude": "37-4-11.32 N",
		"longitude": "85-43-35.71 W",
		"state": "KENTUCKY",
		"artcc": "ZID",
		"type": "RP",
		"updated": "BWG*VORTAC*074.00"
	},
	{
		"name": "FOSDU",
		"latitude": "39-42-34.46 N",
		"longitude": "84-12-18.36 W",
		"state": "OHIO",
		"artcc": "ZID",
		"type": "RNAV",
		"updated": "07/11/2009"
	},
	{
		"name": "FOUNT",
		"latitude": "36-57-24.34 N",
		"longitude": "84-3-1.92 W",
		"state": "KENTUCKY",
		"artcc": "ZID",
		"type": "RP",
		"updated": "VXV*VORTAC*356.22/63.48"
	},
	{
		"name": "FOVER",
		"latitude": "39-50-14.85 N",
		"longitude": "84-1-29.25 W",
		"state": "OHIO",
		"artcc": "ZID",
		"type": "MR",
		"updated": "FFO*TACAN*056.00/1.80"
	},
	{
		"name": "FOVKU",
		"latitude": "40-1-58.91 N",
		"longitude": "84-23-55.32 W",
		"state": "OHIO",
		"artcc": "ZID",
		"type": "RNAV",
		"updated": "04/11/2014"
	},
	{
		"name": "FOVRA",
		"latitude": "39-49-46.89 N",
		"longitude": "86-9-43.09 W",
		"state": "INDIANA",
		"artcc": "ZID",
		"type": "RNAV",
		"updated": "04/13/2007"
	},
	{
		"name": "FOYTT",
		"latitude": "39-2-29.89 N",
		"longitude": "86-16-50.91 W",
		"state": "INDIANA",
		"artcc": "ZID",
		"type": "RP",
		"updated": "VHP*VORTAC*174.00/46.52"
	},
	{
		"name": "FRAAM",
		"latitude": "39-46-26.22 N",
		"longitude": "84-33-25.02 W",
		"state": "OHIO",
		"artcc": "ZID",
		"type": "RP",
		"updated": "DQN*VOR/DME*208.00/16.31"
	},
	{
		"name": "FRATE",
		"latitude": "38-4-17.35 N",
		"longitude": "85-17-22.92 W",
		"state": "KENTUCKY",
		"artcc": "ZID",
		"type": "RNAV",
		"updated": "01/10/2013"
	},
	{
		"name": "FRAZE",
		"latitude": "39-7-52.75 N",
		"longitude": "84-38-46.72 W",
		"state": "OHIO",
		"artcc": "ZID",
		"type": "RP",
		"updated": "CIZ*LD*004.21/6.35"
	},
	{
		"name": "FRENY",
		"latitude": "39-43-56.91 N",
		"longitude": "86-25-56.18 W",
		"state": "INDIANA",
		"artcc": "ZID",
		"type": "RNAV",
		"updated": "10/05/2016"
	},
	{
		"name": "FRICC",
		"latitude": "39-45-15.87 N",
		"longitude": "82-8-31.71 W",
		"state": "OHIO",
		"artcc": "ZID",
		"type": "RP",
		"updated": "AIR*VOR/DME*263.00/63.18"
	},
	{
		"name": "FRIZN",
		"latitude": "38-42-47.04 N",
		"longitude": "86-18-4.78 W",
		"state": "INDIANA",
		"artcc": "ZID",
		"type": "RP",
		"updated": "IIU*VORTAC*316.17/50.01"
	},
	{
		"name": "FRNZI",
		"latitude": "37-49-41.26 N",
		"longitude": "84-41-51.43 W",
		"state": "KENTUCKY",
		"artcc": "ZID",
		"type": "RNAV",
		"updated": "08/08/2006"
	},
	{
		"name": "FRTZY",
		"latitude": "39-6-7.5 N",
		"longitude": "84-55-11.61 W",
		"state": "INDIANA",
		"artcc": "ZID",
		"type": "RNAV",
		"updated": "04/15/2008"
	},
	{
		"name": "FTBLL",
		"latitude": "39-35-11.16 N",
		"longitude": "86-28-23.74 W",
		"state": "INDIANA",
		"artcc": "ZID",
		"type": "RP",
		"updated": "IND*LD*229.54/12.10"
	},
	{
		"name": "FULER",
		"latitude": "40-4-21.06 N",
		"longitude": "83-11-52.73 W",
		"state": "OHIO",
		"artcc": "ZID",
		"type": "RP",
		"updated": "OS*NDB*"
	},
	{
		"name": "FUSTO",
		"latitude": "39-50-51.16 N",
		"longitude": "86-8-25.58 W",
		"state": "INDIANA",
		"artcc": "ZID",
		"type": "RP",
		"updated": "VHP*VORTAC*078.31"
	},
	{
		"name": "FYLLS",
		"latitude": "39-54-24.31 N",
		"longitude": "84-37-49.84 W",
		"state": "OHIO",
		"artcc": "ZID",
		"type": "RP",
		"updated": "VHP*VORTAC*084.51/80.44"
	}
]
