[
	{
		"name": "GADGE",
		"latitude": "38-4-45.51 N",
		"longitude": "86-46-19.72 W",
		"state": "INDIANA",
		"artcc": "ZID",
		"type": "RNAV",
		"updated": "06/30/2011"
	},
	{
		"name": "GADSN",
		"latitude": "38-11-2.35 N",
		"longitude": "85-49-49.85 W",
		"state": "KENTUCKY",
		"artcc": "ZID",
		"type": "RNAV",
		"updated": "06/05/2012"
	},
	{
		"name": "GAGCE",
		"latitude": "37-37-47.05 N",
		"longitude": "84-52-38.41 W",
		"state": "KENTUCKY",
		"artcc": "ZID",
		"type": "RNAV",
		"updated": "12/18/2007"
	},
	{
		"name": "GAGSE",
		"latitude": "39-45-32.96 N",
		"longitude": "82-43-19.29 W",
		"state": "OHIO",
		"artcc": "ZID",
		"type": "RNAV",
		"updated": "02/12/2008"
	},
	{
		"name": "GAILL",
		"latitude": "39-35-27.94 N",
		"longitude": "83-25-9.82 W",
		"state": "OHIO",
		"artcc": "ZID",
		"type": "RP",
		"updated": "APE*VORTAC*235.10/51.00"
	},
	{
		"name": "GAKNE",
		"latitude": "39-57-5.93 N",
		"longitude": "86-28-23.76 W",
		"state": "INDIANA",
		"artcc": "ZID",
		"type": "RNAV",
		"updated": "07/10/2013"
	},
	{
		"name": "GALPE",
		"latitude": "39-49-18.19 N",
		"longitude": "86-40-22.02 W",
		"state": "INDIANA",
		"artcc": "ZID",
		"type": "RNAV",
		"updated": "11/07/2016"
	},
	{
		"name": "GAMKE",
		"latitude": "38-46-12.99 N",
		"longitude": "85-14-35.37 W",
		"state": "INDIANA",
		"artcc": "ZID",
		"type": "RNAV",
		"updated": "03/21/2014"
	},
	{
		"name": "GAMLE",
		"latitude": "38-57-19.15 N",
		"longitude": "87-0-37.91 W",
		"state": "INDIANA",
		"artcc": "ZID",
		"type": "RNAV",
		"updated": "01/12/2015"
	},
	{
		"name": "GARTE",
		"latitude": "39-50-26.25 N",
		"longitude": "87-33-27.05 W",
		"state": "ILLINOIS",
		"artcc": "ZID",
		"type": "RNAV",
		"updated": "01/12/2015"
	},
	{
		"name": "GARZO",
		"latitude": "38-19-53.64 N",
		"longitude": "82-11-34.69 W",
		"state": "WEST VIRGINIA",
		"artcc": "ZID",
		"type": "RP",
		"updated": "HVQ*VOR/DME*270.02/20.00"
	},
	{
		"name": "GATGE",
		"latitude": "36-32-15.41 N",
		"longitude": "84-28-44.07 W",
		"state": "TENNESSEE",
		"artcc": "ZID",
		"type": "RNAV",
		"updated": "08/07/2013"
	},
	{
		"name": "GATVE",
		"latitude": "39-2-26.8 N",
		"longitude": "83-28-25.96 W",
		"state": "OHIO",
		"artcc": "ZID",
		"type": "RNAV",
		"updated": "04/25/2003"
	},
	{
		"name": "GAULE",
		"latitude": "38-7-9.92 N",
		"longitude": "81-10-25.77 W",
		"state": "WEST VIRGINIA",
		"artcc": "ZID",
		"type": "RP",
		"updated": "BKW*VOR/DME*359.31/20.46"
	},
	{
		"name": "GAULS",
		"latitude": "39-36-11.03 N",
		"longitude": "87-58-3.62 W",
		"state": "ILLINOIS",
		"artcc": "ZID",
		"type": "RP",
		"updated": "MTO*VOR/DME*060.00"
	},
	{
		"name": "GAVNN",
		"latitude": "38-36-52.97 N",
		"longitude": "83-55-31.21 W",
		"state": "KENTUCKY",
		"artcc": "ZID",
		"type": "RP",
		"updated": "CVG*VORTAC*127.15/43.70"
	},
	{
		"name": "GAVYE",
		"latitude": "39-26-16.25 N",
		"longitude": "86-7-15.25 W",
		"state": "INDIANA",
		"artcc": "ZID",
		"type": "RNAV",
		"updated": "04/13/2007"
	},
	{
		"name": "GAYED",
		"latitude": "38-47-29.03 N",
		"longitude": "81-36-41.58 W",
		"state": "WEST VIRGINIA",
		"artcc": "ZID",
		"type": "RP",
		"updated": "HVQ*VOR/DME*018.67"
	},
	{
		"name": "GAZED",
		"latitude": "39-42-0.33 N",
		"longitude": "81-52-25.25 W",
		"state": "OHIO",
		"artcc": "ZID",
		"type": "RP",
		"updated": "ZZV*VOR/DME*182.53/14.46"
	},
	{
		"name": "GAZPA",
		"latitude": "39-51-15.69 N",
		"longitude": "86-26-35 W",
		"state": "INDIANA",
		"artcc": "ZID",
		"type": "RNAV",
		"updated": "01/12/2015"
	},
	{
		"name": "GBEES",
		"latitude": "38-41-54.72 N",
		"longitude": "85-10-13.03 W",
		"state": "KENTUCKY",
		"artcc": "ZID",
		"type": "RP",
		"updated": "FLM*VOR/DME*278.43/40.50"
	},
	{
		"name": "GDUPP",
		"latitude": "38-9-4.29 N",
		"longitude": "85-35-36.96 W",
		"state": "KENTUCKY",
		"artcc": "ZID",
		"type": "RNAV",
		"updated": "11/03/2011"
	},
	{
		"name": "GEBGE",
		"latitude": "40-1-38.55 N",
		"longitude": "83-41-24.07 W",
		"state": "OHIO",
		"artcc": "ZID",
		"type": "RNAV",
		"updated": "10/14/2009"
	},
	{
		"name": "GEFFS",
		"latitude": "39-0-49.86 N",
		"longitude": "80-48-49.85 W",
		"state": "WEST VIRGINIA",
		"artcc": "ZID",
		"type": "RP",
		"updated": "ROD*VORTAC*121.00/168.00"
	},
	{
		"name": "GEMEH",
		"latitude": "39-5-11.88 N",
		"longitude": "81-42-18.55 W",
		"state": "WEST VIRGINIA",
		"artcc": "ZID",
		"type": "RNAV",
		"updated": "06/16/2011"
	},
	{
		"name": "GENCE",
		"latitude": "37-54-41.66 N",
		"longitude": "82-30-51.54 W",
		"state": "KENTUCKY",
		"artcc": "ZID",
		"type": "RNAV",
		"updated": "10/07/2014"
	},
	{
		"name": "GENIE",
		"latitude": "39-50-35.92 N",
		"longitude": "84-1-22.09 W",
		"state": "OHIO",
		"artcc": "ZID",
		"type": "MR",
		"updated": "FFO*TACAN*/2.10"
	},
	{
		"name": "GENUS",
		"latitude": "38-19-50.89 N",
		"longitude": "84-33-6.67 W",
		"state": "KENTUCKY",
		"artcc": "ZID",
		"type": "RP",
		"updated": "HYK*VOR/DME*350.27/22.16"
	},
	{
		"name": "GEPER",
		"latitude": "37-32-4.81 N",
		"longitude": "87-24-6.63 W",
		"state": "KENTUCKY",
		"artcc": "ZID",
		"type": "RP",
		"updated": "CCT*VORTAC*325.16/11.26"
	},
	{
		"name": "GERDI",
		"latitude": "39-59-44.09 N",
		"longitude": "84-12-52.89 W",
		"state": "OHIO",
		"artcc": "ZID",
		"type": "RP",
		"updated": "DQN*VOR/DME*099.40"
	},
	{
		"name": "GETTA",
		"latitude": "38-5-34.87 N",
		"longitude": "85-35-20.4 W",
		"state": "KENTUCKY",
		"artcc": "ZID",
		"type": "RNAV",
		"updated": "05/09/2016"
	},
	{
		"name": "GEVKE",
		"latitude": "40-2-11.08 N",
		"longitude": "83-44-14.93 W",
		"state": "OHIO",
		"artcc": "ZID",
		"type": "RNAV",
		"updated": "11/14/2014"
	},
	{
		"name": "GHATS",
		"latitude": "36-48-6.75 N",
		"longitude": "84-34-2.44 W",
		"state": "KENTUCKY",
		"artcc": "ZID",
		"type": "RP",
		"updated": "VXV*VORTAC*331.96/62.86"
	},
	{
		"name": "GHOUT",
		"latitude": "37-17-6.99 N",
		"longitude": "85-33-34.9 W",
		"state": "KENTUCKY",
		"artcc": "ZID",
		"type": "RP",
		"updated": "EWO*VOR/DME*164.00/21.50"
	},
	{
		"name": "GIIBS",
		"latitude": "39-9-12.73 N",
		"longitude": "85-44-13.34 W",
		"state": "INDIANA",
		"artcc": "ZID",
		"type": "RNAV",
		"updated": "01/12/2015"
	},
	{
		"name": "GIJWE",
		"latitude": "38-59-4.4 N",
		"longitude": "83-4-54.51 W",
		"state": "OHIO",
		"artcc": "ZID",
		"type": "RNAV",
		"updated": "12/19/2014"
	},
	{
		"name": "GILPE",
		"latitude": "40-6-2.59 N",
		"longitude": "84-13-5.6 W",
		"state": "OHIO",
		"artcc": "ZID",
		"type": "RP",
		"updated": "DQN*VOR/DME*059.40"
	},
	{
		"name": "GINGS",
		"latitude": "40-10-52.92 N",
		"longitude": "83-50-53.27 W",
		"state": "OHIO",
		"artcc": "ZID",
		"type": "RP",
		"updated": "SGH*VOR/DME*003.60"
	},
	{
		"name": "GINUP",
		"latitude": "38-35-58.15 N",
		"longitude": "82-51-42.62 W",
		"state": "KENTUCKY",
		"artcc": "ZID",
		"type": "RP",
		"updated": "YRK*VORTAC*121.00/6.10"
	},
	{
		"name": "GIPLE",
		"latitude": "38-52-40.76 N",
		"longitude": "84-2-49.77 W",
		"state": "OHIO",
		"artcc": "ZID",
		"type": "RP",
		"updated": "CVG*VORTAC*108.87/31.81"
	},
	{
		"name": "GIRNS",
		"latitude": "39-54-50.79 N",
		"longitude": "81-55-3.21 W",
		"state": "OHIO",
		"artcc": "ZID",
		"type": "RNAV",
		"updated": "11/14/2016"
	},
	{
		"name": "GIRSE",
		"latitude": "40-22-29.01 N",
		"longitude": "83-48-38.21 W",
		"state": "OHIO",
		"artcc": "ZID",
		"type": "RP",
		"updated": "ROD*VORTAC*068.89/11.87"
	},
	{
		"name": "GIVES",
		"latitude": "40-25-11.82 N",
		"longitude": "82-35-21.4 W",
		"state": "OHIO",
		"artcc": "ZID",
		"type": "RNAV",
		"updated": "03/30/2018"
	},
	{
		"name": "GIYEL",
		"latitude": "36-57-22.56 N",
		"longitude": "85-5-50.39 W",
		"state": "KENTUCKY",
		"artcc": "ZID",
		"type": "RNAV",
		"updated": "07/10/2013"
	},
	{
		"name": "GLAZE",
		"latitude": "38-33-28.44 N",
		"longitude": "81-26-30.14 W",
		"state": "WEST VIRGINIA",
		"artcc": "ZID",
		"type": "RP",
		"updated": "HVQ*VOR/DME*054.00/19.88"
	},
	{
		"name": "GLAZR",
		"latitude": "36-25-20.78 N",
		"longitude": "84-46-49.29 W",
		"state": "TENNESSEE",
		"artcc": "ZID",
		"type": "RNAV",
		"updated": "12/09/2015"
	},
	{
		"name": "GLDIE",
		"latitude": "38-5-27.92 N",
		"longitude": "85-26-6.74 W",
		"state": "KENTUCKY",
		"artcc": "ZID",
		"type": "RNAV",
		"updated": "06/05/2012"
	},
	{
		"name": "GLICK",
		"latitude": "37-43-2.64 N",
		"longitude": "81-16-34.33 W",
		"state": "WEST VIRGINIA",
		"artcc": "ZID",
		"type": "RP",
		"updated": "BLF*VOR/DME*354.00"
	},
	{
		"name": "GLIMM",
		"latitude": "39-40-55.15 N",
		"longitude": "84-15-18.34 W",
		"state": "OHIO",
		"artcc": "ZID",
		"type": "MW",
		"updated": "11/20/2012"
	},
	{
		"name": "GLOOM",
		"latitude": "39-59-25.78 N",
		"longitude": "82-53-46.45 W",
		"state": "OHIO",
		"artcc": "ZID",
		"type": "RP",
		"updated": "ZZV*VOR/DME*280.00/46.39"
	},
	{
		"name": "GLYBU",
		"latitude": "40-4-2.54 N",
		"longitude": "83-19-25.61 W",
		"state": "OHIO",
		"artcc": "ZID",
		"type": "RNAV",
		"updated": "01/14/2011"
	},
	{
		"name": "GNASH",
		"latitude": "39-57-6.45 N",
		"longitude": "84-20-4.52 W",
		"state": "OHIO",
		"artcc": "ZID",
		"type": "RNAV",
		"updated": "04/11/2014"
	},
	{
		"name": "GOBGE",
		"latitude": "39-45-52.87 N",
		"longitude": "86-6-42.81 W",
		"state": "INDIANA",
		"artcc": "ZID",
		"type": "RNAV",
		"updated": "10/05/2016"
	},
	{
		"name": "GOBVE",
		"latitude": "39-51-4.86 N",
		"longitude": "83-9-38.84 W",
		"state": "OHIO",
		"artcc": "ZID",
		"type": "RP",
		"updated": "APE*VORTAC*241.94/31.93"
	},
	{
		"name": "GODTY",
		"latitude": "37-58-32.44 N",
		"longitude": "86-1-59.29 W",
		"state": "KENTUCKY",
		"artcc": "ZID",
		"type": "RP",
		"updated": "FTK*VOR/DME*326.00/5.01"
	},
	{
		"name": "GOFAR",
		"latitude": "39-45-32.63 N",
		"longitude": "82-6-44.87 W",
		"state": "OHIO",
		"artcc": "ZID",
		"type": "RP",
		"updated": "ZZV*VOR/DME*229.06/14.90"
	},
	{
		"name": "GOLSE",
		"latitude": "39-41-0.95 N",
		"longitude": "86-19-32.27 W",
		"state": "INDIANA",
		"artcc": "ZID",
		"type": "RP",
		"updated": "VHP*VORTAC*165.14"
	},
	{
		"name": "GOLYI",
		"latitude": "39-19-11.01 N",
		"longitude": "84-2-30.3 W",
		"state": "OHIO",
		"artcc": "ZID",
		"type": "RNAV",
		"updated": "07/09/2009"
	},
	{
		"name": "GOMEZ",
		"latitude": "38-25-21.49 N",
		"longitude": "82-6-54.25 W",
		"state": "WEST VIRGINIA",
		"artcc": "ZID",
		"type": "RP",
		"updated": "HVQ*VOR/DME*288.14/16.86"
	},
	{
		"name": "GONDE",
		"latitude": "39-45-48.6 N",
		"longitude": "83-45-45.77 W",
		"state": "OHIO",
		"artcc": "ZID",
		"type": "RP",
		"updated": "SGH*VOR/DME*143.00/5.80"
	},
	{
		"name": "GONKE",
		"latitude": "38-6-11.3 N",
		"longitude": "85-30-18.35 W",
		"state": "KENTUCKY",
		"artcc": "ZID",
		"type": "RP",
		"updated": "IIU*VORTAC*/3.43"
	},
	{
		"name": "GOSCE",
		"latitude": "39-9-6.18 N",
		"longitude": "84-8-26.23 W",
		"state": "OHIO",
		"artcc": "ZID",
		"type": "RNAV",
		"updated": "03/28/2012"
	},
	{
		"name": "GOTVE",
		"latitude": "37-48-31.9 N",
		"longitude": "87-38-25.55 W",
		"state": "KENTUCKY",
		"artcc": "ZID",
		"type": "RNAV",
		"updated": "08/14/2008"
	},
	{
		"name": "GOVME",
		"latitude": "37-43-7.4 N",
		"longitude": "87-55-23.35 W",
		"state": "KENTUCKY",
		"artcc": "ZID",
		"type": "RNAV",
		"updated": "08/14/2008"
	},
	{
		"name": "GOZUM",
		"latitude": "39-11-39.06 N",
		"longitude": "87-19-21.54 W",
		"state": "INDIANA",
		"artcc": "ZID",
		"type": "RP",
		"updated": "TTH*VORTAC*189.00/18.00"
	},
	{
		"name": "GRAAT",
		"latitude": "39-47-27.97 N",
		"longitude": "83-57-18.51 W",
		"state": "OHIO",
		"artcc": "ZID",
		"type": "RP",
		"updated": "DQN*VOR/DME*124.38"
	},
	{
		"name": "GRAVI",
		"latitude": "38-8-45.32 N",
		"longitude": "84-23-4.84 W",
		"state": "KENTUCKY",
		"artcc": "ZID",
		"type": "RNAV",
		"updated": "08/10/2010"
	},
	{
		"name": "GREGZ",
		"latitude": "38-24-59.41 N",
		"longitude": "82-15-49.36 W",
		"state": "WEST VIRGINIA",
		"artcc": "ZID",
		"type": "RNAV",
		"updated": "09/25/2012"
	},
	{
		"name": "GRESY",
		"latitude": "39-52-44.67 N",
		"longitude": "86-15-42.55 W",
		"state": "INDIANA",
		"artcc": "ZID",
		"type": "RNAV",
		"updated": "03/24/2015"
	},
	{
		"name": "GRIFF",
		"latitude": "39-45-32.26 N",
		"longitude": "84-7-49.96 W",
		"state": "OHIO",
		"artcc": "ZID",
		"type": "MR",
		"updated": "FFO*TACAN*228.00/5.00"
	},
	{
		"name": "GRIPZ",
		"latitude": "38-13-11.9 N",
		"longitude": "85-44-33 W",
		"state": "KENTUCKY",
		"artcc": "ZID",
		"type": "RNAV",
		"updated": "01/10/2013"
	},
	{
		"name": "GRNIN",
		"latitude": "37-23-58.9 N",
		"longitude": "86-28-27.15 W",
		"state": "KENTUCKY",
		"artcc": "ZID",
		"type": "RP",
		"updated": "BWG*VORTAC*355.02"
	},
	{
		"name": "GROAT",
		"latitude": "36-44-56.69 N",
		"longitude": "85-24-17.65 W",
		"state": "KENTUCKY",
		"artcc": "ZID",
		"type": "RP",
		"updated": "LVT*VOR/DME*312.68"
	},
	{
		"name": "GRUMN",
		"latitude": "39-11-49.89 N",
		"longitude": "84-0-26.52 W",
		"state": "OHIO",
		"artcc": "ZID",
		"type": "RP",
		"updated": "IYV*LD*217.30/16.18"
	},
	{
		"name": "GUCGE",
		"latitude": "36-41-33.21 N",
		"longitude": "84-14-25.73 W",
		"state": "KENTUCKY",
		"artcc": "ZID",
		"type": "RNAV",
		"updated": "08/14/2012"
	},
	{
		"name": "GUDLY",
		"latitude": "38-57-15.38 N",
		"longitude": "85-43-53.82 W",
		"state": "INDIANA",
		"artcc": "ZID",
		"type": "RNAV",
		"updated": "06/28/2009"
	},
	{
		"name": "GUMMA",
		"latitude": "37-21-45.03 N",
		"longitude": "87-15-25.47 W",
		"state": "KENTUCKY",
		"artcc": "ZID",
		"type": "RNAV",
		"updated": "09/20/2012"
	},
	{
		"name": "GUMRE",
		"latitude": "38-53-53.81 N",
		"longitude": "84-45-57.3 W",
		"state": "KENTUCKY",
		"artcc": "ZID",
		"type": "RNAV",
		"updated": "04/16/2008"
	},
	{
		"name": "GUNNE",
		"latitude": "40-21-49.55 N",
		"longitude": "83-13-58.32 W",
		"state": "OHIO",
		"artcc": "ZID",
		"type": "RP",
		"updated": "FBC*VORTAC*147.87/42.76"
	},
	{
		"name": "GUPDE",
		"latitude": "38-43-49.3 N",
		"longitude": "87-36-2.48 W",
		"state": "ILLINOIS",
		"artcc": "ZID",
		"type": "RNAV",
		"updated": "05/22/2012"
	},
	{
		"name": "GUPNE",
		"latitude": "39-48-34.87 N",
		"longitude": "84-12-30.4 W",
		"state": "OHIO",
		"artcc": "ZID",
		"type": "RNAV",
		"updated": "07/11/2009"
	},
	{
		"name": "GUTHY",
		"latitude": "40-13-22.99 N",
		"longitude": "82-52-40.55 W",
		"state": "OHIO",
		"artcc": "ZID",
		"type": "RP",
		"updated": "APE*VORTAC*294.05/14.00"
	},
	{
		"name": "GYMUS",
		"latitude": "37-33-19.87 N",
		"longitude": "82-41-25.95 W",
		"state": "KENTUCKY",
		"artcc": "ZID",
		"type": "RNAV",
		"updated": "06/13/2017"
	}
]
