	{
		"name": "HABIP",
		"latitude": "40-12-12.83 N",
		"longitude": "85-24-48.97 W",
		"state": "INDIANA",
		"artcc": "ZID",
		"type": "RNAV",
		"updated": "01/21/2015",
	},
	{
		"name": "HABLU",
		"latitude": "39-48-18.23 N",
		"longitude": "83-48-34.15 W",
		"state": "OHIO",
		"artcc": "ZID",
		"type": "RP",
		"updated": "SGH*VOR/DME*143.00/2.50",
	},
	{
		"name": "HABNI",
		"latitude": "40-8-27.9 N",
		"longitude": "82-51-33.53 W",
		"state": "OHIO",
		"artcc": "ZID",
		"type": "RNAV",
		"updated": "11/01/2016",
	},
	{
		"name": "HABNU",
		"latitude": "39-57-29.64 N",
		"longitude": "84-7-38.3 W",
		"state": "OHIO",
		"artcc": "ZID",
		"type": "RP",
		"updated": "DQN*VOR/DME*106.59",
	},
	{
		"name": "HABOP",
		"latitude": "39-59-4.14 N",
		"longitude": "82-44-55.44 W",
		"state": "OHIO",
		"artcc": "ZID",
		"type": "RP",
		"updated": "APE*VORTAC*222.55/12.42",
	},
	{
		"name": "HABTA",
		"latitude": "39-14-1.09 N",
		"longitude": "83-32-39.31 W",
		"state": "OHIO",
		"artcc": "ZID",
		"type": "RNAV",
		"updated": "11/26/2014",
	},
	{
		"name": "HABVI",
		"latitude": "39-37-35.62 N",
		"longitude": "84-4-48.02 W",
		"state": "OHIO",
		"artcc": "ZID",
		"type": "RNAV",
		"updated": "11/14/2014",
	},
	{
		"name": "HACKS",
		"latitude": "39-7-45.89 N",
		"longitude": "81-5-34.9 W",
		"state": "WEST VIRGINIA",
		"artcc": "ZID",
		"type": "RP",
		"updated": "ROD*VORTAC*121.00/153.23",
	},
	{
		"name": "HADBI",
		"latitude": "39-26-42.68 N",
		"longitude": "86-57-14.74 W",
		"state": "INDIANA",
		"artcc": "ZID",
		"type": "RNAV",
		"updated": "11/07/2016",
	},
	{
		"name": "HADNO",
		"latitude": "39-28-22.29 N",
		"longitude": "86-51-33.69 W",
		"state": "INDIANA",
		"artcc": "ZID",
		"type": "RNAV",
		"updated": "11/19/2002",
	},
	{
		"name": "HADUP",
		"latitude": "39-18-31.98 N",
		"longitude": "81-27-26.78 W",
		"state": "WEST VIRGINIA",
		"artcc": "ZID",
		"type": "RP",
		"updated": "JPU*VOR/DME*208.89/8.82",
	},
	{
		"name": "HAFHU",
		"latitude": "39-52-40.42 N",
		"longitude": "85-35-49.49 W",
		"state": "INDIANA",
		"artcc": "ZID",
		"type": "RNAV",
		"updated": "02/12/2018",
	},
	{
		"name": "HAFTU",
		"latitude": "38-38-57.52 N",
		"longitude": "83-49-53.01 W",
		"state": "KENTUCKY",
		"artcc": "ZID",
		"type": "RP",
		"updated": "FLM*VOR/DME*093.88/22.52",
	},
	{
		"name": "HAGAL",
		"latitude": "38-11-11.38 N",
		"longitude": "85-35-22.72 W",
		"state": "KENTUCKY",
		"artcc": "ZID",
		"type": "RNAV",
		"updated": "09/15/2016",
	},
	{
		"name": "HAGEN",
		"latitude": "37-43-45.12 N",
		"longitude": "84-22-18.01 W",
		"state": "KENTUCKY",
		"artcc": "ZID",
		"type": "RP",
		"updated": "HYK*VOR/DME*161.33/15.00",
	},
	{
		"name": "HAGGE",
		"latitude": "37-30-35.24 N",
		"longitude": "87-9-20.93 W",
		"state": "KENTUCKY",
		"artcc": "ZID",
		"type": "RP",
		"updated": "OWB*VOR/DME*182.02/14.02",
	},
	{
		"name": "HAGIO",
		"latitude": "39-35-38.38 N",
		"longitude": "84-9-20.96 W",
		"state": "OHIO",
		"artcc": "ZID",
		"type": "MW",
		"updated": "01/02/2013",
	},
	{
		"name": "HAGOL",
		"latitude": "39-34-9.51 N",
		"longitude": "84-35-36.78 W",
		"state": "OHIO",
		"artcc": "ZID",
		"type": "RNAV",
		"updated": "08/12/2008",
	},
	{
		"name": "HAGSS",
		"latitude": "39-9-24.37 N",
		"longitude": "84-38-47.85 W",
		"state": "OHIO",
		"artcc": "ZID",
		"type": "RNAV",
		"updated": "04/15/2008",
	},
	{
		"name": "HAITI",
		"latitude": "38-16-10.14 N",
		"longitude": "82-15-23.92 W",
		"state": "WEST VIRGINIA",
		"artcc": "ZID",
		"type": "RP",
		"updated": "HVQ*VOR/DME*261.34",
	},
	{
		"name": "HAKAS",
		"latitude": "37-37-29.96 N",
		"longitude": "81-28-35.68 W",
		"state": "WEST VIRGINIA",
		"artcc": "ZID",
		"type": "RNAV",
		"updated": "01/03/2018",
	},
	{
		"name": "HAKOM",
		"latitude": "36-38-40.28 N",
		"longitude": "83-36-31.33 W",
		"state": "KENTUCKY",
		"artcc": "ZID",
		"type": "RNAV",
		"updated": "02/23/2018",
	},
	{
		"name": "HALIR",
		"latitude": "36-57-56.09 N",
		"longitude": "83-53-56.27 W",
		"state": "KENTUCKY",
		"artcc": "ZID",
		"type": "RNAV",
		"updated": "07/26/2016",
	},
	{
		"name": "HALVO",
		"latitude": "38-2-29.55 N",
		"longitude": "85-37-35.88 W",
		"state": "KENTUCKY",
		"artcc": "ZID",
		"type": "RNAV",
		"updated": "06/06/2012",
	},
	{
		"name": "HAMEB",
		"latitude": "39-48-26.75 N",
		"longitude": "85-56-51.35 W",
		"state": "INDIANA",
		"artcc": "ZID",
		"type": "RNAV",
		"updated": "09/24/2004",
	},
	{
		"name": "HAMOT",
		"latitude": "39-57-35.94 N",
		"longitude": "82-44-17.18 W",
		"state": "OHIO",
		"artcc": "ZID",
		"type": "RNAV",
		"updated": "07/05/2011",
	},
	{
		"name": "HAMTU",
		"latitude": "38-49-4.5 N",
		"longitude": "83-32-10.1 W",
		"state": "OHIO",
		"artcc": "ZID",
		"type": "RNAV",
		"updated": "09/24/2015",
	},
	{
		"name": "HANAD",
		"latitude": "37-31-40.47 N",
		"longitude": "84-40-8.02 W",
		"state": "KENTUCKY",
		"artcc": "ZID",
		"type": "RNAV",
		"updated": "12/18/2007",
	},
	{
		"name": "HANRO",
		"latitude": "38-58-5.63 N",
		"longitude": "84-31-38.94 W",
		"state": "KENTUCKY",
		"artcc": "ZID",
		"type": "RNAV",
		"updated": "03/18/2016",
	},
	{
		"name": "HANUT",
		"latitude": "38-57-50 N",
		"longitude": "84-32-10 W",
		"state": "KENTUCKY",
		"artcc": "ZID",
		"type": "RNAV",
		"updated": "11/27/2006",
	},
	{
		"name": "HAPKI",
		"latitude": "37-4-55.73 N",
		"longitude": "82-51-2.62 W",
		"state": "KENTUCKY",
		"artcc": "ZID",
		"type": "RNAV",
		"updated": "01/17/2014",
	},
	{
		"name": "HAPOB",
		"latitude": "39-47-31.51 N",
		"longitude": "84-6-46.03 W",
		"state": "OHIO",
		"artcc": "ZID",
		"type": "RNAV",
		"updated": "10/14/2009",
	},
	{
		"name": "HARDU",
		"latitude": "37-46-41.37 N",
		"longitude": "83-41-9.23 W",
		"state": "KENTUCKY",
		"artcc": "ZID",
		"type": "RP",
		"updated": "HYK*VOR/DME*106.55/39.04",
	},
	{
		"name": "HARIP",
		"latitude": "40-2-17.65 N",
		"longitude": "83-1-28.95 W",
		"state": "OHIO",
		"artcc": "ZID",
		"type": "RNAV",
		"updated": "09/29/2016",
	},
	{
		"name": "HAROD",
		"latitude": "40-24-1.79 N",
		"longitude": "85-20-56.8 W",
		"state": "INDIANA",
		"artcc": "ZID",
		"type": "RP",
		"updated": "MZZ*VOR/DME*113.10",
	},
	{
		"name": "HASEV",
		"latitude": "38-22-42.86 N",
		"longitude": "85-37-4.79 W",
		"state": "KENTUCKY",
		"artcc": "ZID",
		"type": "RNAV",
		"updated": "01/12/2015",
	},
	{
		"name": "HASPI",
		"latitude": "39-46-9.5 N",
		"longitude": "82-54-47.83 W",
		"state": "OHIO",
		"artcc": "ZID",
		"type": "RNAV",
		"updated": "02/12/2008",
	},
	{
		"name": "HASPU",
		"latitude": "39-30-13.93 N",
		"longitude": "84-26-10.38 W",
		"state": "OHIO",
		"artcc": "ZID",
		"type": "RNAV",
		"updated": "08/02/2012",
	},
	{
		"name": "HAUGN",
		"latitude": "38-9-11.74 N",
		"longitude": "85-50-44.8 W",
		"state": "KENTUCKY",
		"artcc": "ZID",
		"type": "RNAV",
		"updated": "06/05/2012",
	},
	{
		"name": "HAVAT",
		"latitude": "37-23-42.23 N",
		"longitude": "83-16-15.13 W",
		"state": "KENTUCKY",
		"artcc": "ZID",
		"type": "RP",
		"updated": "AZQ*VOR/DME*305.26/0.44",
	},
	{
		"name": "HAVIS",
		"latitude": "39-53-26.09 N",
		"longitude": "87-40-47.54 W",
		"state": "ILLINOIS",
		"artcc": "ZID",
		"type": "RNAV",
		"updated": "06/15/2016",
	},
	{
		"name": "HAVLO",
		"latitude": "38-40-41 N",
		"longitude": "84-32-3 W",
		"state": "KENTUCKY",
		"artcc": "ZID",
		"type": "RNAV",
		"updated": "11/27/2006",
	},
	{
		"name": "HAYGA",
		"latitude": "38-16-42.95 N",
		"longitude": "85-24-41.6 W",
		"state": "KENTUCKY",
		"artcc": "ZID",
		"type": "RNAV",
		"updated": "05/09/2016",
	},
	{
		"name": "HAYVU",
		"latitude": "38-59-46.51 N",
		"longitude": "81-52-30.21 W",
		"state": "OHIO",
		"artcc": "ZID",
		"type": "RNAV",
		"updated": "02/01/2010",
	},
	{
		"name": "HAYZL",
		"latitude": "37-50-5.64 N",
		"longitude": "83-43-33.8 W",
		"state": "KENTUCKY",
		"artcc": "ZID",
		"type": "RNAV",
		"updated": "11/17/2016",
	},
	{
		"name": "HEALS",
		"latitude": "38-31-28 N",
		"longitude": "85-51-2.45 W",
		"state": "INDIANA",
		"artcc": "ZID",
		"type": "RP",
		"updated": "IIU*VORTAC*332.00/28.34",
	},
	{
		"name": "HEBOK",
		"latitude": "39-29-24.51 N",
		"longitude": "84-17-21.19 W",
		"state": "OHIO",
		"artcc": "ZID",
		"type": "RNAV",
		"updated": "11/26/2014",
	},
	{
		"name": "HEDEE",
		"latitude": "39-38-15.29 N",
		"longitude": "83-48-20.22 W",
		"state": "OHIO",
		"artcc": "ZID",
		"type": "RP",
		"updated": "APE*VORTAC*247.69/64.09",
	},
	{
		"name": "HEDEN",
		"latitude": "39-16-44.88 N",
		"longitude": "84-2-2.37 W",
		"state": "OHIO",
		"artcc": "ZID",
		"type": "RP",
		"updated": "CVG*VORTAC*067.00/35.00",
	},
	{
		"name": "HEGSI",
		"latitude": "38-40-27.04 N",
		"longitude": "87-39-2 W",
		"state": "ILLINOIS",
		"artcc": "ZID",
		"type": "RNAV",
		"updated": "02/05/2010",
	},
	{
		"name": "HEGUK",
		"latitude": "39-56-50.07 N",
		"longitude": "84-8-52.72 W",
		"state": "OHIO",
		"artcc": "ZID",
		"type": "RNAV",
		"updated": "07/11/2009",
	},
	{
		"name": "HEKUG",
		"latitude": "38-54-34.11 N",
		"longitude": "86-36-49.72 W",
		"state": "INDIANA",
		"artcc": "ZID",
		"type": "RNAV",
		"updated": "02/23/2015",
	},
	{
		"name": "HEKVU",
		"latitude": "39-52-1.73 N",
		"longitude": "86-7-45.66 W",
		"state": "INDIANA",
		"artcc": "ZID",
		"type": "RNAV",
		"updated": "02/23/2015",
	},
	{
		"name": "HELAG",
		"latitude": "40-4-4.32 N",
		"longitude": "85-30-0.91 W",
		"state": "INDIANA",
		"artcc": "ZID",
		"type": "RNAV",
		"updated": "09/24/2009",
	},
	{
		"name": "HELOW",
		"latitude": "39-2-10.74 N",
		"longitude": "86-33-16.27 W",
		"state": "INDIANA",
		"artcc": "ZID",
		"type": "RP",
		"updated": "OOM*VORTAC*159.00/7.00",
	},
	{
		"name": "HELUB",
		"latitude": "37-42-54.84 N",
		"longitude": "84-44-28.31 W",
		"state": "KENTUCKY",
		"artcc": "ZID",
		"type": "RNAV",
		"updated": "01/16/2014",
	},
	{
		"name": "HEMAD",
		"latitude": "37-52-14.6 N",
		"longitude": "82-25-20.83 W",
		"state": "KENTUCKY",
		"artcc": "ZID",
		"type": "RNAV",
		"updated": "11/20/2002",
	},
	{
		"name": "HEMEE",
		"latitude": "38-13-58.25 N",
		"longitude": "87-31-45.57 W",
		"state": "INDIANA",
		"artcc": "ZID",
		"type": "RNAV",
		"updated": "04/29/2011",
	},
	{
		"name": "HENAB",
		"latitude": "37-30-37.83 N",
		"longitude": "81-8-5.42 W",
		"state": "WEST VIRGINIA",
		"artcc": "ZID",
		"type": "RNAV",
		"updated": "12/31/2009",
	},
	{
		"name": "HEPDO",
		"latitude": "39-25-9.97 N",
		"longitude": "85-33-2.38 W",
		"state": "INDIANA",
		"artcc": "ZID",
		"type": "RNAV",
		"updated": "02/23/2015",
	},
	{
		"name": "HEPUN",
		"latitude": "38-22-8.86 N",
		"longitude": "81-26-24.67 W",
		"state": "WEST VIRGINIA",
		"artcc": "ZID",
		"type": "RNAV",
		"updated": "05/08/2013",
	},
	{
		"name": "HERAP",
		"latitude": "37-1-47.42 N",
		"longitude": "84-20-20.91 W",
		"state": "KENTUCKY",
		"artcc": "ZID",
		"type": "RNAV",
		"updated": "08/08/2006",
	},
	{
		"name": "HERER",
		"latitude": "38-44-57.43 N",
		"longitude": "87-7-47.1 W",
		"state": "INDIANA",
		"artcc": "ZID",
		"type": "RNAV",
		"updated": "09/12/2014",
	},
	{
		"name": "HERGU",
		"latitude": "40-8-14.66 N",
		"longitude": "84-13-19.22 W",
		"state": "OHIO",
		"artcc": "ZID",
		"type": "RNAV",
		"updated": "11/14/2014",
	},
	{
		"name": "HERIS",
		"latitude": "39-1-43.44 N",
		"longitude": "80-31-34.75 W",
		"state": "WEST VIRGINIA",
		"artcc": "ZID",
		"type": "RNAV",
		"updated": "07/12/2011",
	},
	{
		"name": "HERMM",
		"latitude": "38-58-40.78 N",
		"longitude": "84-52-48.6 W",
		"state": "INDIANA",
		"artcc": "ZID",
		"type": "RNAV",
		"updated": "02/13/2010",
	},
	{
		"name": "HERMS",
		"latitude": "37-41-30.22 N",
		"longitude": "85-27-51.85 W",
		"state": "KENTUCKY",
		"artcc": "ZID",
		"type": "RP",
		"updated": "EWO*VOR/DME*069.32/10.70",
	},
	{
		"name": "HESEK",
		"latitude": "39-32-17.2 N",
		"longitude": "87-30-5.7 W",
		"state": "INDIANA",
		"artcc": "ZID",
		"type": "RNAV",
		"updated": "04/19/2016",
	},
	{
		"name": "HESLA",
		"latitude": "39-53-0.49 N",
		"longitude": "82-50-19.98 W",
		"state": "OHIO",
		"artcc": "ZID",
		"type": "RNAV",
		"updated": "07/05/2011",
	},
	{
		"name": "HETEP",
		"latitude": "37-45-16.9 N",
		"longitude": "87-50-54.25 W",
		"state": "KENTUCKY",
		"artcc": "ZID",
		"type": "RNAV",
		"updated": "02/20/2014",
	},
	{
		"name": "HEVAN",
		"latitude": "39-21-8.86 N",
		"longitude": "85-7-46.7 W",
		"state": "INDIANA",
		"artcc": "ZID",
		"type": "RNAV",
		"updated": "01/16/2014",
	},
	{
		"name": "HEVOP",
		"latitude": "38-14-45.08 N",
		"longitude": "85-37-4.82 W",
		"state": "KENTUCKY",
		"artcc": "ZID",
		"type": "RP",
		"updated": "BQM*VOR/DME*071.00/2.40",
	},
	{
		"name": "HFFMN",
		"latitude": "39-40-39.74 N",
		"longitude": "84-16-6.77 W",
		"state": "OHIO",
		"artcc": "ZID",
		"type": "MW",
		"updated": "11/20/2012",
	},
	{
		"name": "HHAWK",
		"latitude": "39-35-23.02 N",
		"longitude": "84-10-9.34 W",
		"state": "OHIO",
		"artcc": "ZID",
		"type": "MW",
		"updated": "11/20/2012",
	},
	{
		"name": "HIBAL",
		"latitude": "39-44-2 N",
		"longitude": "86-16-8.72 W",
		"state": "INDIANA",
		"artcc": "ZID",
		"type": "RNAV",
		"updated": "05/02/2018",
	},
	{
		"name": "HIBOR",
		"latitude": "40-1-21.05 N",
		"longitude": "82-30-50.28 W",
		"state": "OHIO",
		"artcc": "ZID",
		"type": "RNAV",
		"updated": "07/01/2016",
	},
	{
		"name": "HIBSO",
		"latitude": "39-41-43.24 N",
		"longitude": "84-10-39.4 W",
		"state": "OHIO",
		"artcc": "ZID",
		"type": "RNAV",
		"updated": "11/14/2014",
	},
	{
		"name": "HIBTI",
		"latitude": "38-20-27.46 N",
		"longitude": "82-28-31.76 W",
		"state": "WEST VIRGINIA",
		"artcc": "ZID",
		"type": "RNAV",
		"updated": "09/25/2012",
	},
	{
		"name": "HIBUK",
		"latitude": "39-25-0.19 N",
		"longitude": "86-31-16.06 W",
		"state": "INDIANA",
		"artcc": "ZID",
		"type": "RNAV",
		"updated": "08/07/2012",
	},
	{
		"name": "HICKI",
		"latitude": "39-1-6.95 N",
		"longitude": "84-56-52.83 W",
		"state": "INDIANA",
		"artcc": "ZID",
		"type": "RP",
		"updated": "ROD*VORTAC*214.15/86.88",
	},
	{
		"name": "HIDIV",
		"latitude": "39-18-58.56 N",
		"longitude": "85-15-30.07 W",
		"state": "INDIANA",
		"artcc": "ZID",
		"type": "RNAV",
		"updated": "07/29/2010",
	},
	{
		"name": "HIDKU",
		"latitude": "40-11-23.43 N",
		"longitude": "85-32-21.8 W",
		"state": "INDIANA",
		"artcc": "ZID",
		"type": "RNAV",
		"updated": "02/23/2015",
	},
	{
		"name": "HIGID",
		"latitude": "39-39-41.29 N",
		"longitude": "83-7-45.88 W",
		"state": "OHIO",
		"artcc": "ZID",
		"type": "RNAV",
		"updated": "07/05/2011",
	},
	{
		"name": "HIGLA",
		"latitude": "40-22-54.73 N",
		"longitude": "84-41-38.6 W",
		"state": "OHIO",
		"artcc": "ZID",
		"type": "RP",
		"updated": "DQN*VOR/DME*329.15/25.82",
	},
	{
		"name": "HIGMA",
		"latitude": "39-15-55.96 N",
		"longitude": "85-35-50.92 W",
		"state": "INDIANA",
		"artcc": "ZID",
		"type": "RP",
		"updated": "CVG*VORTAC*294.00/44.34",
	},
	{
		"name": "HIGUP",
		"latitude": "39-8-37.89 N",
		"longitude": "84-7-29.19 W",
		"state": "OHIO",
		"artcc": "ZID",
		"type": "RNAV",
		"updated": "07/25/2012",
	},
	{
		"name": "HIGUY",
		"latitude": "37-38-8.21 N",
		"longitude": "87-9-43.54 W",
		"state": "KENTUCKY",
		"artcc": "ZID",
		"type": "RP",
		"updated": "OWB*VOR/DME*182.38/6.47",
	},
	{
		"name": "HIKEK",
		"latitude": "39-36-33.365 N",
		"longitude": "86-16-13.105 W",
		"state": "INDIANA",
		"artcc": "ZID",
		"type": "RNAV",
		"updated": "10/05/2016",
	},
	{
		"name": "HIKSA",
		"latitude": "39-4-26.58 N",
		"longitude": "84-12-40.44 W",
		"state": "OHIO",
		"artcc": "ZID",
		"type": "RP",
		"updated": "FLM*VOR/DME*014.34/25.87",
	},
	{
		"name": "HILAV",
		"latitude": "37-56-32.48 N",
		"longitude": "84-21-43.95 W",
		"state": "KENTUCKY",
		"artcc": "ZID",
		"type": "RNAV",
		"updated": "05/15/2006",
	},
	{
		"name": "HINAB",
		"latitude": "39-11-25.42 N",
		"longitude": "82-52-17.15 W",
		"state": "OHIO",
		"artcc": "ZID",
		"type": "RNAV",
		"updated": "12/19/2014",
	},
	{
		"name": "HINEM",
		"latitude": "39-42-49.89 N",
		"longitude": "84-0-14.37 W",
		"state": "OHIO",
		"artcc": "ZID",
		"type": "RNAV",
		"updated": "11/14/2014",
	},
	{
		"name": "HINES",
		"latitude": "40-39-52.39 N",
		"longitude": "84-25-48.12 W",
		"state": "OHIO",
		"artcc": "ZID",
		"type": "RP",
		"updated": "FBC*VORTAC*242.63/35.31",
	},
	{
		"name": "HINIM",
		"latitude": "39-11-21.32 N",
		"longitude": "84-13-1.94 W",
		"state": "OHIO",
		"artcc": "ZID",
		"type": "RNAV",
		"updated": "07/21/2006",
	},
	{
		"name": "HINOR",
		"latitude": "36-53-55.74 N",
		"longitude": "84-9-50.31 W",
		"state": "KENTUCKY",
		"artcc": "ZID",
		"type": "RP",
		"updated": "BYL*LE*019.97/6.59",
	},
	{
		"name": "HINSO",
		"latitude": "39-29-46.5 N",
		"longitude": "84-8-38.91 W",
		"state": "OHIO",
		"artcc": "ZID",
		"type": "RNAV",
		"updated": "11/26/2014",
	},
	{
		"name": "HINUS",
		"latitude": "37-56-16.86 N",
		"longitude": "84-27-52.09 W",
		"state": "KENTUCKY",
		"artcc": "ZID",
		"type": "RNAV",
		"updated": "12/01/2017",
	},
	{
		"name": "HIPAS",
		"latitude": "38-52-49.9 N",
		"longitude": "84-39-42.83 W",
		"state": "KENTUCKY",
		"artcc": "ZID",
		"type": "RNAV",
		"updated": "04/16/2008",
	},
	{
		"name": "HIPOD",
		"latitude": "36-58-20.11 N",
		"longitude": "84-42-35.23 W",
		"state": "KENTUCKY",
		"artcc": "ZID",
		"type": "RP",
		"updated": "SME*LD*227.89/7.20",
	},
	{
		"name": "HIPPO",
		"latitude": "39-22-41.26 N",
		"longitude": "87-24-35.23 W",
		"state": "INDIANA",
		"artcc": "ZID",
		"type": "MR",
		"updated": "TTH*VORTAC*226.42/10.00",
	},
	{
		"name": "HIPTA",
		"latitude": "38-55-38.94 N",
		"longitude": "87-19-22.88 W",
		"state": "INDIANA",
		"artcc": "ZID",
		"type": "RNAV",
		"updated": "09/25/2014",
	},
	{
		"name": "HIRID",
		"latitude": "40-19-40.67 N",
		"longitude": "83-40-16.04 W",
		"state": "OHIO",
		"artcc": "ZID",
		"type": "RNAV",
		"updated": "07/15/2010",
	},
	{
		"name": "HISNA",
		"latitude": "39-35-4.05 N",
		"longitude": "87-20-53.64 W",
		"state": "INDIANA",
		"artcc": "ZID",
		"type": "RNAV",
		"updated": "08/07/2012",
	},
	{
		"name": "HITFO",
		"latitude": "37-6-48.63 N",
		"longitude": "84-30-19.79 W",
		"state": "KENTUCKY",
		"artcc": "ZID",
		"type": "RNAV",
		"updated": "06/21/2006",
	},
	{
		"name": "HITOK",
		"latitude": "39-55-17.08 N",
		"longitude": "85-0-2.72 W",
		"state": "INDIANA",
		"artcc": "ZID",
		"type": "RNAV",
		"updated": "08/07/2012",
	},
	{
		"name": "HITON",
		"latitude": "39-40-5.96 N",
		"longitude": "83-44-52.02 W",
		"state": "OHIO",
		"artcc": "ZID",
		"type": "RNAV",
		"updated": "04/26/2007",
	},
	{
		"name": "HIVOX",
		"latitude": "39-31-21.85 N",
		"longitude": "85-15-32.07 W",
		"state": "INDIANA",
		"artcc": "ZID",
		"type": "RNAV",
		"updated": "07/29/2010",
	},
	{
		"name": "HIXAG",
		"latitude": "40-18-19.13 N",
		"longitude": "85-28-37.42 W",
		"state": "INDIANA",
		"artcc": "ZID",
		"type": "RNAV",
		"updated": "07/21/2006",
	},
	{
		"name": "HIXUX",
		"latitude": "37-2-33.22 N",
		"longitude": "84-38-47.91 W",
		"state": "KENTUCKY",
		"artcc": "ZID",
		"type": "RNAV",
		"updated": "06/21/2006",
	},
	{
		"name": "HLLMT",
		"latitude": "39-45-53.37 N",
		"longitude": "86-29-16.29 W",
		"state": "INDIANA",
		"artcc": "ZID",
		"type": "RNAV",
		"updated": "03/24/2015",
	},
	{
		"name": "HLRRY",
		"latitude": "37-4-30 N",
		"longitude": "82-19-12.89 W",
		"state": "VIRGINIA",
		"artcc": "ZID",
		"type": "RNAV",
		"updated": "07/26/2016",
	},
	{
		"name": "HMRUN",
		"latitude": "38-29-41.33 N",
		"longitude": "86-26-0.92 W",
		"state": "INDIANA",
		"artcc": "ZID",
		"type": "RNAV",
		"updated": "04/27/2007",
	},
	{
		"name": "HNKLE",
		"latitude": "39-44-34.84 N",
		"longitude": "86-4-58.99 W",
		"state": "INDIANA",
		"artcc": "ZID",
		"type": "RNAV",
		"updated": "03/24/2015",
	},
	{
		"name": "HOBAL",
		"latitude": "39-10-7.8 N",
		"longitude": "84-45-25.82 W",
		"state": "OHIO",
		"artcc": "ZID",
		"type": "RNAV",
		"updated": "04/15/2008",
	},
	{
		"name": "HOBEM",
		"latitude": "39-46-39.12 N",
		"longitude": "84-13-37.87 W",
		"state": "OHIO",
		"artcc": "ZID",
		"type": "RNAV",
		"updated": "11/14/2014",
	},
	{
		"name": "HOBEP",
		"latitude": "40-10-19.6 N",
		"longitude": "84-29-26.6 W",
		"state": "OHIO",
		"artcc": "ZID",
		"type": "RNAV",
		"updated": "11/14/2014",
	},
	{
		"name": "HOBNO",
		"latitude": "38-48-44.59 N",
		"longitude": "83-44-31.41 W",
		"state": "OHIO",
		"artcc": "ZID",
		"type": "RP",
		"updated": "YRK*VORTAC*290.95/37.25",
	},
	{
		"name": "HOBOV",
		"latitude": "38-36-37.22 N",
		"longitude": "87-43-14.69 W",
		"state": "ILLINOIS",
		"artcc": "ZID",
		"type": "RP",
		"updated": "LWV*VOR/DME*210.91/11.03",
	},
	{
		"name": "HOBSA",
		"latitude": "39-9-8.79 N",
		"longitude": "85-15-28.48 W",
		"state": "INDIANA",
		"artcc": "ZID",
		"type": "RNAV",
		"updated": "08/11/2010",
	},
	{
		"name": "HODOK",
		"latitude": "40-7-25.32 N",
		"longitude": "81-52-21.96 W",
		"state": "OHIO",
		"artcc": "ZID",
		"type": "RP",
		"updated": "CTW*VOR/DME*257.99",
	},
	{
		"name": "HOGIB",
		"latitude": "36-57-20.15 N",
		"longitude": "82-35-21.67 W",
		"state": "VIRGINIA",
		"artcc": "ZID",
		"type": "RP",
		"updated": "09/29/2006",
	},
	{
		"name": "HOGID",
		"latitude": "39-52-25.19 N",
		"longitude": "83-58-25.65 W",
		"state": "OHIO",
		"artcc": "ZID",
		"type": "MR",
		"updated": "FFO*TACAN*053.00/5.00",
	},
	{
		"name": "HOGLO",
		"latitude": "38-31-38.07 N",
		"longitude": "87-7-46.89 W",
		"state": "INDIANA",
		"artcc": "ZID",
		"type": "RNAV",
		"updated": "09/21/2004",
	},
	{
		"name": "HOLAN",
		"latitude": "38-7-36.22 N",
		"longitude": "87-8-25.93 W",
		"state": "INDIANA",
		"artcc": "ZID",
		"type": "RP",
		"updated": "OWB*VOR/DME*007.00",
	},
	{
		"name": "HOLAX",
		"latitude": "40-1-21.22 N",
		"longitude": "81-49-22.89 W",
		"state": "OHIO",
		"artcc": "ZID",
		"type": "RP",
		"updated": "TNF*LD*NE CRS/6.20",
	},
	{
		"name": "HOLGR",
		"latitude": "39-19-34.86 N",
		"longitude": "84-23-33.22 W",
		"state": "OHIO",
		"artcc": "ZID",
		"type": "RP",
		"updated": "HKF*NDB*170.10",
	},
	{
		"name": "HOLKU",
		"latitude": "39-52-44.21 N",
		"longitude": "83-58-49.03 W",
		"state": "OHIO",
		"artcc": "ZID",
		"type": "MR",
		"updated": "FFO*TACAN*048.00/5.00",
	},
	{
		"name": "HOLLO",
		"latitude": "36-50-31.87 N",
		"longitude": "84-10-54 W",
		"state": "KENTUCKY",
		"artcc": "ZID",
		"type": "RP",
		"updated": "LOZ*VOR/DME*199.77/11.95",
	},
	{
		"name": "HOMAR",
		"latitude": "39-53-35.56 N",
		"longitude": "85-38-23.71 W",
		"state": "INDIANA",
		"artcc": "ZID",
		"type": "RP",
		"updated": "SHB*VOR/DME*027.57/17.80",
	},
	{
		"name": "HOMIX",
		"latitude": "39-9-44.29 N",
		"longitude": "84-27-35.86 W",
		"state": "OHIO",
		"artcc": "ZID",
		"type": "RNAV",
		"updated": "02/14/2010",
	},
	{
		"name": "HOMOR",
		"latitude": "39-27-37.91 N",
		"longitude": "84-38-35.06 W",
		"state": "OHIO",
		"artcc": "ZID",
		"type": "RNAV",
		"updated": "04/22/2009",
	},
	{
		"name": "HONAL",
		"latitude": "37-42-47.34 N",
		"longitude": "86-1-3.4 W",
		"state": "KENTUCKY",
		"artcc": "ZID",
		"type": "MW",
		"updated": "10/28/2010",
	},
	{
		"name": "HONOS",
		"latitude": "38-34-19.24 N",
		"longitude": "86-7-55.74 W",
		"state": "INDIANA",
		"artcc": "ZID",
		"type": "RP",
		"updated": "IIU*VORTAC*316.17/38.40",
	},
	{
		"name": "HOOLA",
		"latitude": "38-27-31.58 N",
		"longitude": "86-2-18.61 W",
		"state": "INDIANA",
		"artcc": "ZID",
		"type": "RNAV",
		"updated": "05/09/2016",
	},
	{
		"name": "HOPAP",
		"latitude": "37-44-36.29 N",
		"longitude": "84-23-8.26 W",
		"state": "KENTUCKY",
		"artcc": "ZID",
		"type": "RNAV",
		"updated": "11/27/2007",
	},
	{
		"name": "HOPAX",
		"latitude": "39-18-37.97 N",
		"longitude": "82-0-8.01 W",
		"state": "OHIO",
		"artcc": "ZID",
		"type": "RNAV",
		"updated": "12/21/2009",
	},
	{
		"name": "HOPRI",
		"latitude": "40-3-39.17 N",
		"longitude": "84-6-41.13 W",
		"state": "OHIO",
		"artcc": "ZID",
		"type": "RNAV",
		"updated": "04/11/2014",
	},
	{
		"name": "HORAV",
		"latitude": "37-51-33.68 N",
		"longitude": "88-16-9.93 W",
		"state": "ILLINOIS",
		"artcc": "ZID",
		"type": "RP",
		"updated": "PXV*VORTAC*257.42/24.43",
	},
	{
		"name": "HORNT",
		"latitude": "39-38-51.27 N",
		"longitude": "86-25-31.11 W",
		"state": "INDIANA",
		"artcc": "ZID",
		"type": "RNAV",
		"updated": "10/05/2016",
	},
	{
		"name": "HOSRI",
		"latitude": "39-47-41.67 N",
		"longitude": "84-13-57.17 W",
		"state": "OHIO",
		"artcc": "ZID",
		"type": "RNAV",
		"updated": "08/16/2006",
	},
	{
		"name": "HOSTO",
		"latitude": "38-7-20.11 N",
		"longitude": "85-42-32.93 W",
		"state": "KENTUCKY",
		"artcc": "ZID",
		"type": "RP",
		"updated": "IIU*VORTAC*279.28",
	},
	{
		"name": "HOTOP",
		"latitude": "39-16-28.97 N",
		"longitude": "83-45-24.11 W",
		"state": "OHIO",
		"artcc": "ZID",
		"type": "RNAV",
		"updated": "11/26/2014",
	},
	{
		"name": "HOUSE",
		"latitude": "39-2-41.58 N",
		"longitude": "86-11-36.75 W",
		"state": "INDIANA",
		"artcc": "ZID",
		"type": "RP",
		"updated": "VHP*VORTAC*169.01/46.85",
	},
	{
		"name": "HOVET",
		"latitude": "38-27-43.94 N",
		"longitude": "81-38-14.4 W",
		"state": "WEST VIRGINIA",
		"artcc": "ZID",
		"type": "RNAV",
		"updated": "05/08/2013",
	},
	{
		"name": "HOXIM",
		"latitude": "40-0-26.52 N",
		"longitude": "84-2-4.54 W",
		"state": "OHIO",
		"artcc": "ZID",
		"type": "RNAV",
		"updated": "04/11/2014",
	},
	{
		"name": "HUBIM",
		"latitude": "40-4-45.14 N",
		"longitude": "83-1-44.59 W",
		"state": "OHIO",
		"artcc": "ZID",
		"type": "RNAV",
		"updated": "01/14/2011",
	},
	{
		"name": "HUCIX",
		"latitude": "38-23-30.79 N",
		"longitude": "84-24-4.92 W",
		"state": "KENTUCKY",
		"artcc": "ZID",
		"type": "RNAV",
		"updated": "10/07/2014",
	},
	{
		"name": "HUDAX",
		"latitude": "39-52-25.29 N",
		"longitude": "85-46-42.77 W",
		"state": "INDIANA",
		"artcc": "ZID",
		"type": "RNAV",
		"updated": "10/10/2008",
	},
	{
		"name": "HUDBA",
		"latitude": "39-43-57.93 N",
		"longitude": "84-46-47.29 W",
		"state": "OHIO",
		"artcc": "ZID",
		"type": "RNAV",
		"updated": "11/26/2014",
	},
	{
		"name": "HUDIR",
		"latitude": "37-41-44.14 N",
		"longitude": "81-8-24.31 W",
		"state": "WEST VIRGINIA",
		"artcc": "ZID",
		"type": "RNAV",
		"updated": "06/20/2011",
	},
	{
		"name": "HUDOL",
		"latitude": "39-36-16.8 N",
		"longitude": "87-5-37.76 W",
		"state": "INDIANA",
		"artcc": "ZID",
		"type": "RP",
		"updated": "TTH*VORTAC*/10.00",
	},
	{
		"name": "HUGEL",
		"latitude": "39-47-58.13 N",
		"longitude": "84-46-47.29 W",
		"state": "OHIO",
		"artcc": "ZID",
		"type": "RNAV",
		"updated": "11/26/2014",
	},
	{
		"name": "HUGEN",
		"latitude": "37-31-46.14 N",
		"longitude": "83-32-58.54 W",
		"state": "KENTUCKY",
		"artcc": "ZID",
		"type": "RP",
		"updated": "AZQ*VOR/DME*305.26/16.00",
	},
	{
		"name": "HUGMU",
		"latitude": "37-54-43.44 N",
		"longitude": "87-39-11.41 W",
		"state": "INDIANA",
		"artcc": "ZID",
		"type": "RP",
		"updated": "OWB*VOR/DME*297.71",
	},
	{
		"name": "HUKTU",
		"latitude": "37-58-1.21 N",
		"longitude": "84-22-34.58 W",
		"state": "KENTUCKY",
		"artcc": "ZID",
		"type": "RNAV",
		"updated": "01/16/2018",
	},
	{
		"name": "HULLI",
		"latitude": "40-9-57.81 N",
		"longitude": "84-18-5.42 W",
		"state": "OHIO",
		"artcc": "ZID",
		"type": "WP",
		"updated": "DQN*VOR/DME*027.05/9.99",
	},
	{
		"name": "HULOP",
		"latitude": "39-59-56.42 N",
		"longitude": "82-50-1.46 W",
		"state": "OHIO",
		"artcc": "ZID",
		"type": "RNAV",
		"updated": "07/17/2013",
	},
	{
		"name": "HULSY",
		"latitude": "39-1-43.78 N",
		"longitude": "87-26-58.7 W",
		"state": "INDIANA",
		"artcc": "ZID",
		"type": "RNAV",
		"updated": "09/25/2014",
	},
	{
		"name": "HUMAD",
		"latitude": "37-56-11.33 N",
		"longitude": "87-10-37.9 W",
		"state": "INDIANA",
		"artcc": "ZID",
		"type": "RNAV",
		"updated": "11/27/2012",
	},
	{
		"name": "HUMAV",
		"latitude": "38-33-59.76 N",
		"longitude": "82-50-44.13 W",
		"state": "KENTUCKY",
		"artcc": "ZID",
		"type": "RNAV",
		"updated": "11/21/2008",
	},
	{
		"name": "HUMIG",
		"latitude": "39-14-34.08 N",
		"longitude": "85-32-26.07 W",
		"state": "INDIANA",
		"artcc": "ZID",
		"type": "RNAV",
		"updated": "01/19/2006",
	},
	{
		"name": "HUMOS",
		"latitude": "37-48-58.38 N",
		"longitude": "82-13-3.12 W",
		"state": "WEST VIRGINIA",
		"artcc": "ZID",
		"type": "RNAV",
		"updated": "06/01/2017",
	},
	{
		"name": "HUMOX",
		"latitude": "39-7-35.43 N",
		"longitude": "85-43-17.09 W",
		"state": "INDIANA",
		"artcc": "ZID",
		"type": "RNAV",
		"updated": "02/17/2006",
	},
	{
		"name": "HUNRU",
		"latitude": "38-43-45.15 N",
		"longitude": "84-35-47.74 W",
		"state": "KENTUCKY",
		"artcc": "ZID",
		"type": "RNAV",
		"updated": "02/09/2010",
	},
	{
		"name": "HUNTT",
		"latitude": "38-23-55.85 N",
		"longitude": "82-39-14.84 W",
		"state": "KENTUCKY",
		"artcc": "ZID",
		"type": "RNAV",
		"updated": "02/21/2014",
	},
	{
		"name": "HUNTU",
		"latitude": "39-50-17.66 N",
		"longitude": "84-21-9.3 W",
		"state": "OHIO",
		"artcc": "ZID",
		"type": "RNAV",
		"updated": "04/11/2014",
	},
	{
		"name": "HUPIX",
		"latitude": "39-11-9.25 N",
		"longitude": "82-39-43.66 W",
		"state": "OHIO",
		"artcc": "ZID",
		"type": "RNAV",
		"updated": "08/03/2004",
	},
	{
		"name": "HURIB",
		"latitude": "40-9-31.15 N",
		"longitude": "84-58-53.08 W",
		"state": "INDIANA",
		"artcc": "ZID",
		"type": "RNAV",
		"updated": "01/19/2011",
	},
	{
		"name": "HURLS",
		"latitude": "37-59-24.99 N",
		"longitude": "85-57-45.78 W",
		"state": "KENTUCKY",
		"artcc": "ZID",
		"type": "MR",
		"updated": "FTK*VOR/DME*006.36/5.00",
	},
	{
		"name": "HURSA",
		"latitude": "39-43-5.47 N",
		"longitude": "86-4-20.19 W",
		"state": "INDIANA",
		"artcc": "ZID",
		"type": "WP",
		"updated": "04/15/2007",
	},
	{
		"name": "HURUM",
		"latitude": "38-44-56.8 N",
		"longitude": "83-49-55.98 W",
		"state": "OHIO",
		"artcc": "ZID",
		"type": "RNAV",
		"updated": "09/24/2015",
	},
	{
		"name": "HUSIN",
		"latitude": "39-39-34.41 N",
		"longitude": "85-7-52.55 W",
		"state": "INDIANA",
		"artcc": "ZID",
		"type": "RNAV",
		"updated": "02/05/2013",
	},
	{
		"name": "HUTAB",
		"latitude": "40-51-51.85 N",
		"longitude": "84-39-38.22 W",
		"state": "OHIO",
		"artcc": "ZID",
		"type": "RNAV",
		"updated": "11/12/2008",
	},
	{
		"name": "HUTVA",
		"latitude": "39-43-13.57 N",
		"longitude": "83-57-31.74 W",
		"state": "OHIO",
		"artcc": "ZID",
		"type": "RP",
		"updated": "SGH*VOR/DME*221.15/8.73",
	},
	{
		"name": "HUTVU",
		"latitude": "37-29-47.85 N",
		"longitude": "86-49-40.24 W",
		"state": "KENTUCKY",
		"artcc": "ZID",
		"type": "RNAV",
		"updated": "04/26/2012",
	},
	{
		"name": "HUUPS",
		"latitude": "39-39-11.37 N",
		"longitude": "86-21-51.7 W",
		"state": "INDIANA",
		"artcc": "ZID",
		"type": "RP",
		"updated": "VHP*VORTAC*178.14",
	},
	{
		"name": "HUXIK",
		"latitude": "38-48-51.37 N",
		"longitude": "84-14-6.13 W",
		"state": "KENTUCKY",
		"artcc": "ZID",
		"type": "RNAV",
		"updated": "10/28/2013",
	},
