[
	{
		"name": "IAMUR",
		"latitude": "38-3-56.96 N",
		"longitude": "85-54-12.99 W",
		"state": "KENTUCKY",
		"artcc": "ZID",
		"type": "RNAV",
		"updated": "06/05/2012"
	},
	{
		"name": "IBATE",
		"latitude": "36-59-12.36 N",
		"longitude": "83-13-40.36 W",
		"state": "KENTUCKY",
		"artcc": "ZID",
		"type": "RNAV",
		"updated": "01/22/2014"
	},
	{
		"name": "ICALO",
		"latitude": "39-26-38.42 N",
		"longitude": "84-25-2.64 W",
		"state": "OHIO",
		"artcc": "ZID",
		"type": "RNAV",
		"updated": "08/16/2006"
	},
	{
		"name": "ICASI",
		"latitude": "40-1-50.23 N",
		"longitude": "84-13-22.76 W",
		"state": "OHIO",
		"artcc": "ZID",
		"type": "RNAV",
		"updated": "07/11/2009"
	},
	{
		"name": "ICGUG",
		"latitude": "37-2-12.28 N",
		"longitude": "82-26-17.14 W",
		"state": "VIRGINIA",
		"artcc": "ZID",
		"type": "CN",
		"updated": "12/04/2014"
	},
	{
		"name": "ICIBO",
		"latitude": "37-47-58.78 N",
		"longitude": "84-51-28.51 W",
		"state": "KENTUCKY",
		"artcc": "ZID",
		"type": "RNAV",
		"updated": "10/12/2006"
	},
	{
		"name": "ICIKO",
		"latitude": "36-34-3.95 N",
		"longitude": "84-17-24.83 W",
		"state": "TENNESSEE",
		"artcc": "ZID",
		"type": "RNAV",
		"updated": "03/20/2007"
	},
	{
		"name": "ICINU",
		"latitude": "37-53-22.98 N",
		"longitude": "87-40-30.76 W",
		"state": "KENTUCKY",
		"artcc": "ZID",
		"type": "RNAV",
		"updated": "08/13/2014"
	},
	{
		"name": "ICOLO",
		"latitude": "37-2-21.13 N",
		"longitude": "84-37-56.36 W",
		"state": "KENTUCKY",
		"artcc": "ZID",
		"type": "RNAV",
		"updated": "10/29/2007"
	},
	{
		"name": "ICREB",
		"latitude": "40-25-30.82 N",
		"longitude": "84-18-4.08 W",
		"state": "OHIO",
		"artcc": "ZID",
		"type": "RNAV",
		"updated": "12/31/2009"
	},
	{
		"name": "ICUCO",
		"latitude": "39-25-0.19 N",
		"longitude": "86-16-37.6 W",
		"state": "INDIANA",
		"artcc": "ZID",
		"type": "RP",
		"updated": "VHP*VORTAC*169.00/24.23"
	},
	{
		"name": "ICURI",
		"latitude": "39-26-44.7 N",
		"longitude": "83-1-0.01 W",
		"state": "OHIO",
		"artcc": "ZID",
		"type": "WP",
		"updated": "11/02/1998"
	},
	{
		"name": "IDABE",
		"latitude": "38-23-31.08 N",
		"longitude": "83-30-27.31 W",
		"state": "KENTUCKY",
		"artcc": "ZID",
		"type": "RNAV",
		"updated": "07/15/2014"
	},
	{
		"name": "IDASY",
		"latitude": "37-14-38.81 N",
		"longitude": "84-23-38.39 W",
		"state": "KENTUCKY",
		"artcc": "ZID",
		"type": "WP",
		"updated": "01/16/1997"
	},
	{
		"name": "IDGOW",
		"latitude": "38-14-47.89 N",
		"longitude": "86-42-34.31 W",
		"state": "INDIANA",
		"artcc": "ZID",
		"type": "RNAV",
		"updated": "10/14/2009"
	},
	{
		"name": "IFALN",
		"latitude": "38-8-33.79 N",
		"longitude": "85-25-42.33 W",
		"state": "KENTUCKY",
		"artcc": "ZID",
		"type": "RNAV",
		"updated": "11/03/2011"
	},
	{
		"name": "IFECA",
		"latitude": "40-26-13.14 N",
		"longitude": "85-17-28.01 W",
		"state": "INDIANA",
		"artcc": "ZID",
		"type": "RNAV",
		"updated": "01/21/2015"
	},
	{
		"name": "IFIGO",
		"latitude": "39-24-51.43 N",
		"longitude": "87-37-26.94 W",
		"state": "ILLINOIS",
		"artcc": "ZID",
		"type": "RP",
		"updated": "TTH*VORTAC*253.72/18.00"
	},
	{
		"name": "IFTAG",
		"latitude": "38-2-11.31 N",
		"longitude": "85-39-1.85 W",
		"state": "KENTUCKY",
		"artcc": "ZID",
		"type": "RNAV",
		"updated": "06/06/2012"
	},
	{
		"name": "IGMIY",
		"latitude": "39-15-22.72 N",
		"longitude": "82-42-38.72 W",
		"state": "OHIO",
		"artcc": "ZID",
		"type": "RNAV",
		"updated": "12/19/2014"
	},
	{
		"name": "IIUUU",
		"latitude": "39-32-41.79 N",
		"longitude": "86-30-6.06 W",
		"state": "INDIANA",
		"artcc": "ZID",
		"type": "RP",
		"updated": "OQV*LD*229.55/14.86"
	},
	{
		"name": "IJENY",
		"latitude": "38-0-9.36 N",
		"longitude": "85-58-36.81 W",
		"state": "INDIANA",
		"artcc": "ZID",
		"type": "MW",
		"updated": "10/28/2010"
	},
	{
		"name": "IJMIN",
		"latitude": "40-21-12.97 N",
		"longitude": "83-46-29.37 W",
		"state": "OHIO",
		"artcc": "ZID",
		"type": "RNAV",
		"updated": "07/15/2010"
	},
	{
		"name": "IJOZU",
		"latitude": "37-47-41.45 N",
		"longitude": "81-12-58.59 W",
		"state": "WEST VIRGINIA",
		"artcc": "ZID",
		"type": "RP",
		"updated": "BLF*VOR/DME*000.95"
	},
	{
		"name": "IJPOV",
		"latitude": "39-13-17.67 N",
		"longitude": "86-25-21.95 W",
		"state": "INDIANA",
		"artcc": "ZID",
		"type": "RNAV",
		"updated": "07/09/2001"
	},
	{
		"name": "IKELE",
		"latitude": "37-45-45.68 N",
		"longitude": "88-1-48.48 W",
		"state": "KENTUCKY",
		"artcc": "ZID",
		"type": "RNAV",
		"updated": "02/20/2014"
	},
	{
		"name": "IKEYU",
		"latitude": "39-34-35.07 N",
		"longitude": "83-48-42.81 W",
		"state": "OHIO",
		"artcc": "ZID",
		"type": "RNAV",
		"updated": "10/15/2008"
	},
	{
		"name": "IKMUJ",
		"latitude": "40-4-1.51 N",
		"longitude": "83-19-50.58 W",
		"state": "OHIO",
		"artcc": "ZID",
		"type": "CN",
		"updated": "02/06/2012"
	},
	{
		"name": "IKOVE",
		"latitude": "40-39-23.45 N",
		"longitude": "83-59-13.36 W",
		"state": "OHIO",
		"artcc": "ZID",
		"type": "RNAV",
		"updated": "12/26/2013"
	},
	{
		"name": "ILAYA",
		"latitude": "38-3-2.43 N",
		"longitude": "86-6-30.97 W",
		"state": "INDIANA",
		"artcc": "ZID",
		"type": "RP",
		"updated": "FTK*VOR/DME*324.15/10.75"
	},
	{
		"name": "ILILE",
		"latitude": "38-33-14.45 N",
		"longitude": "82-36-7.02 W",
		"state": "OHIO",
		"artcc": "ZID",
		"type": "RP",
		"updated": "YRK*VORTAC*111.85/18.51"
	},
	{
		"name": "ILJAY",
		"latitude": "39-53-43.04 N",
		"longitude": "85-14-12.35 W",
		"state": "INDIANA",
		"artcc": "ZID",
		"type": "RNAV",
		"updated": "08/01/2006"
	},
	{
		"name": "ILOYU",
		"latitude": "39-20-17.57 N",
		"longitude": "85-57-27.55 W",
		"state": "INDIANA",
		"artcc": "ZID",
		"type": "RNAV",
		"updated": "02/17/2006"
	},
	{
		"name": "IMOGY",
		"latitude": "37-20-30.55 N",
		"longitude": "86-56-34.68 W",
		"state": "KENTUCKY",
		"artcc": "ZID",
		"type": "RNAV",
		"updated": "08/10/2010"
	},
	{
		"name": "IMOPE",
		"latitude": "38-52-28.24 N",
		"longitude": "82-12-28.22 W",
		"state": "OHIO",
		"artcc": "ZID",
		"type": "RNAV",
		"updated": "02/01/2010"
	},
	{
		"name": "IMOSE",
		"latitude": "40-12-49.5 N",
		"longitude": "84-3-33.32 W",
		"state": "OHIO",
		"artcc": "ZID",
		"type": "RNAV",
		"updated": "04/05/2004"
	},
	{
		"name": "IMPEL",
		"latitude": "38-21-34.38 N",
		"longitude": "87-4-58.91 W",
		"state": "INDIANA",
		"artcc": "ZID",
		"type": "RP",
		"updated": "IIU*VORTAC*281.63/72.81"
	},
	{
		"name": "IMRIC",
		"latitude": "38-0-46.12 N",
		"longitude": "84-33-36.25 W",
		"state": "KENTUCKY",
		"artcc": "ZID",
		"type": "RP",
		"updated": "HYK*VOR/DME*303.87/5.00"
	},
	{
		"name": "IMTEW",
		"latitude": "39-31-12.06 N",
		"longitude": "87-12-44.01 W",
		"state": "INDIANA",
		"artcc": "ZID",
		"type": "RNAV",
		"updated": "10/24/2011"
	},
	{
		"name": "INCUR",
		"latitude": "40-4-28.54 N",
		"longitude": "84-36-1.09 W",
		"state": "OHIO",
		"artcc": "ZID",
		"type": "RP",
		"updated": "DQN*VOR/DME*291.47/10.00"
	},
	{
		"name": "INDAA",
		"latitude": "37-56-14.68 N",
		"longitude": "85-23-58.51 W",
		"state": "KENTUCKY",
		"artcc": "ZID",
		"type": "RNAV",
		"updated": "05/09/2016"
	},
	{
		"name": "INDEP",
		"latitude": "36-28-26.81 N",
		"longitude": "85-15-34.79 W",
		"state": "TENNESSEE",
		"artcc": "ZID",
		"type": "RP",
		"updated": "LVT*VOR/DME*216.25/8.00"
	},
	{
		"name": "INOYO",
		"latitude": "39-46-45.88 N",
		"longitude": "85-54-23.96 W",
		"state": "INDIANA",
		"artcc": "ZID",
		"type": "RNAV",
		"updated": "12/08/2008"
	},
	{
		"name": "IPEDY",
		"latitude": "39-35-36.53 N",
		"longitude": "87-6-33.66 W",
		"state": "INDIANA",
		"artcc": "ZID",
		"type": "RNAV",
		"updated": "10/14/2011"
	},
	{
		"name": "IPEYU",
		"latitude": "37-49-23.72 N",
		"longitude": "88-17-26.93 W",
		"state": "ILLINOIS",
		"artcc": "ZID",
		"type": "RNAV",
		"updated": "02/29/2008"
	},
	{
		"name": "IRACU",
		"latitude": "40-22-22.43 N",
		"longitude": "81-47-23.17 W",
		"state": "OHIO",
		"artcc": "ZID",
		"type": "RNAV",
		"updated": "03/16/2016"
	},
	{
		"name": "IRECA",
		"latitude": "39-17-57.34 N",
		"longitude": "84-47-4.74 W",
		"state": "OHIO",
		"artcc": "ZID",
		"type": "RP",
		"updated": "CVG*VORTAC*351.43/17.40"
	},
	{
		"name": "IREJU",
		"latitude": "40-30-18.51 N",
		"longitude": "83-55-14.97 W",
		"state": "OHIO",
		"artcc": "ZID",
		"type": "RNAV",
		"updated": "03/30/2018"
	},
	{
		"name": "IRHIV",
		"latitude": "37-11-54.64 N",
		"longitude": "83-48-19.27 W",
		"state": "KENTUCKY",
		"artcc": "ZID",
		"type": "RNAV",
		"updated": "02/09/2018"
	},
	{
		"name": "IRIRY",
		"latitude": "39-3-43.27 N",
		"longitude": "87-39-41.61 W",
		"state": "ILLINOIS",
		"artcc": "ZID",
		"type": "RNAV",
		"updated": "07/17/2013"
	},
	{
		"name": "IROGY",
		"latitude": "39-23-46.74 N",
		"longitude": "87-45-59.7 W",
		"state": "ILLINOIS",
		"artcc": "ZID",
		"type": "RNAV",
		"updated": "06/28/2010"
	},
	{
		"name": "IROZU",
		"latitude": "37-10-12.35 N",
		"longitude": "82-55-37.63 W",
		"state": "KENTUCKY",
		"artcc": "ZID",
		"type": "RNAV",
		"updated": "10/21/2014"
	},
	{
		"name": "IRVEF",
		"latitude": "37-59-20.24 N",
		"longitude": "84-31-35.61 W",
		"state": "KENTUCKY",
		"artcc": "ZID",
		"type": "RNAV",
		"updated": "12/01/2017"
	},
	{
		"name": "IRVIN",
		"latitude": "37-45-55.68 N",
		"longitude": "84-2-40.53 W",
		"state": "KENTUCKY",
		"artcc": "ZID",
		"type": "RP",
		"updated": "LOZ*VOR/DME*007.06/44.00"
	},
	{
		"name": "ISFUR",
		"latitude": "38-8-13.05 N",
		"longitude": "83-55-42.37 W",
		"state": "KENTUCKY",
		"artcc": "ZID",
		"type": "RNAV",
		"updated": "08/12/2013"
	},
	{
		"name": "ISWIZ",
		"latitude": "36-54-34.5 N",
		"longitude": "84-16-8.85 W",
		"state": "KENTUCKY",
		"artcc": "ZID",
		"type": "RNAV",
		"updated": "07/26/2016"
	},
	{
		"name": "ITALL",
		"latitude": "39-53-27.61 N",
		"longitude": "84-13-20.65 W",
		"state": "OHIO",
		"artcc": "ZID",
		"type": "WP",
		"updated": "DQN*VOR/DME*133.99/11.01"
	},
	{
		"name": "ITALY",
		"latitude": "38-32-1.38 N",
		"longitude": "81-14-9.43 W",
		"state": "WEST VIRGINIA",
		"artcc": "ZID",
		"type": "RP",
		"updated": "BKW*VOR/DME*359.31/45.47"
	},
	{
		"name": "ITENY",
		"latitude": "40-21-19.84 N",
		"longitude": "82-49-2.43 W",
		"state": "OHIO",
		"artcc": "ZID",
		"type": "RNAV",
		"updated": "11/01/2016"
	},
	{
		"name": "ITIMY",
		"latitude": "38-21-52.98 N",
		"longitude": "83-56-59.52 W",
		"state": "KENTUCKY",
		"artcc": "ZID",
		"type": "RNAV",
		"updated": "03/31/2009"
	},
	{
		"name": "ITOZE",
		"latitude": "36-48-7.52 N",
		"longitude": "84-11-46.25 W",
		"state": "KENTUCKY",
		"artcc": "ZID",
		"type": "RNAV",
		"updated": "BYL*LE*019.97/0.59"
	},
	{
		"name": "ITTOW",
		"latitude": "40-17-34.38 N",
		"longitude": "83-13-58.06 W",
		"state": "OHIO",
		"artcc": "ZID",
		"type": "RNAV",
		"updated": "11/01/2016"
	},
	{
		"name": "ITYEF",
		"latitude": "39-20-52.82 N",
		"longitude": "86-39-14.3 W",
		"state": "INDIANA",
		"artcc": "ZID",
		"type": "RNAV",
		"updated": "03/22/2009"
	},
	{
		"name": "ITZOV",
		"latitude": "38-32-2.61 N",
		"longitude": "83-26-12.66 W",
		"state": "KENTUCKY",
		"artcc": "ZID",
		"type": "RNAV",
		"updated": "03/31/2009"
	},
	{
		"name": "IWYUP",
		"latitude": "36-20-1.8 N",
		"longitude": "85-26-6.95 W",
		"state": "TENNESSEE",
		"artcc": "ZID",
		"type": "RNAV",
		"updated": "01/16/2001"
	},
	{
		"name": "IXAME",
		"latitude": "39-42-26.69 N",
		"longitude": "83-57-0.72 W",
		"state": "OHIO",
		"artcc": "ZID",
		"type": "RNAV",
		"updated": "11/03/2006"
	},
	{
		"name": "IYBOX",
		"latitude": "38-44-41.23 N",
		"longitude": "84-8-9.22 W",
		"state": "KENTUCKY",
		"artcc": "ZID",
		"type": "RP",
		"updated": "FLM*VOR/DME*059.11/10.00"
	},
	{
		"name": "IYIYI",
		"latitude": "37-52-43.32 N",
		"longitude": "81-52-10.53 W",
		"state": "WEST VIRGINIA",
		"artcc": "ZID",
		"type": "RNAV",
		"updated": "06/02/2017"
	},
	{
		"name": "IYUGE",
		"latitude": "38-53-0.85 N",
		"longitude": "84-32-49.56 W",
		"state": "KENTUCKY",
		"artcc": "ZID",
		"type": "RNAV",
		"updated": "09/22/2015"
	},
	{
		"name": "IZZIE",
		"latitude": "40-30-28.67 N",
		"longitude": "84-18-53.25 W",
		"state": "OHIO",
		"artcc": "ZID",
		"type": "RNAV",
		"updated": "12/31/2009"
	},
	{
		"name": "IZZOF",
		"latitude": "39-38-44.09 N",
		"longitude": "84-37-3.91 W",
		"state": "OHIO",
		"artcc": "ZID",
		"type": "RP",
		"updated": "CVG*VORTAC*010.00/37.95"
	}
]
