[
	{
		"name": "JAANE",
		"latitude": "39-36-3.86 N",
		"longitude": "86-17-20.06 W",
		"state": "INDIANA",
		"artcc": "ZID",
		"type": "RNAV",
		"updated": "10/05/2016"
	},
	{
		"name": "JABDU",
		"latitude": "38-52-48.83 N",
		"longitude": "84-34-30.69 W",
		"state": "KENTUCKY",
		"artcc": "ZID",
		"type": "RNAV",
		"updated": "04/16/2008"
	},
	{
		"name": "JACEE",
		"latitude": "39-9-38.08 N",
		"longitude": "81-38-34.06 W",
		"state": "WEST VIRGINIA",
		"artcc": "ZID",
		"type": "RP",
		"updated": "ZZV*VOR/DME*172.00"
	},
	{
		"name": "JADAT",
		"latitude": "39-14-19.66 N",
		"longitude": "84-23-4.26 W",
		"state": "OHIO",
		"artcc": "ZID",
		"type": "RP",
		"updated": "CVG*VORTAC*052.00/20.00"
	},
	{
		"name": "JADBI",
		"latitude": "38-52-16.15 N",
		"longitude": "83-29-4.87 W",
		"state": "OHIO",
		"artcc": "ZID",
		"type": "RNAV",
		"updated": "09/24/2015"
	},
	{
		"name": "JADMU",
		"latitude": "39-56-6.31 N",
		"longitude": "83-24-34.02 W",
		"state": "OHIO",
		"artcc": "ZID",
		"type": "RNAV",
		"updated": "08/12/2008"
	},
	{
		"name": "JADOP",
		"latitude": "39-2-48.03 N",
		"longitude": "84-58-1 W",
		"state": "INDIANA",
		"artcc": "ZID",
		"type": "RP",
		"updated": "URN*LD*W CRS/14.79"
	},
	{
		"name": "JADRO",
		"latitude": "39-6-24.58 N",
		"longitude": "85-1-30.97 W",
		"state": "INDIANA",
		"artcc": "ZID",
		"type": "RP",
		"updated": "CVG*VORTAC*294.00/16.00"
	},
	{
		"name": "JADUB",
		"latitude": "40-1-46.97 N",
		"longitude": "85-20-36.46 W",
		"state": "INDIANA",
		"artcc": "ZID",
		"type": "RP",
		"updated": "ROD*VORTAC*260.92/61.79"
	},
	{
		"name": "JAGER",
		"latitude": "39-59-8.74 N",
		"longitude": "87-49-37.01 W",
		"state": "ILLINOIS",
		"artcc": "ZID",
		"type": "RP",
		"updated": "DNV*VORTAC*211.99"
	},
	{
		"name": "JAGXA",
		"latitude": "38-54-46.78 N",
		"longitude": "84-21-59.37 W",
		"state": "KENTUCKY",
		"artcc": "ZID",
		"type": "RNAV",
		"updated": "03/07/2012"
	},
	{
		"name": "JAKEK",
		"latitude": "39-53-30.8 N",
		"longitude": "83-33-48.96 W",
		"state": "OHIO",
		"artcc": "ZID",
		"type": "RNAV",
		"updated": "10/19/2009"
	},
	{
		"name": "JAKIE",
		"latitude": "38-25-55.16 N",
		"longitude": "84-9-10.96 W",
		"state": "KENTUCKY",
		"artcc": "ZID",
		"type": "RP",
		"updated": "HYK*VOR/DME*028.33"
	},
	{
		"name": "JAMOX",
		"latitude": "39-42-38.7 N",
		"longitude": "81-51-44.12 W",
		"state": "OHIO",
		"artcc": "ZID",
		"type": "RP",
		"updated": "BKW*VOR/DME*349.55/120.80"
	},
	{
		"name": "JAMSO",
		"latitude": "39-13-35.32 N",
		"longitude": "83-35-49.49 W",
		"state": "OHIO",
		"artcc": "ZID",
		"type": "RNAV",
		"updated": "11/26/2014"
	},
	{
		"name": "JANEE",
		"latitude": "40-12-29.28 N",
		"longitude": "84-12-33 W",
		"state": "OHIO",
		"artcc": "ZID",
		"type": "RP",
		"updated": "ROD*VORTAC*243.00/9.00"
	},
	{
		"name": "JANEX",
		"latitude": "37-4-47.82 N",
		"longitude": "81-45-13 W",
		"state": "VIRGINIA",
		"artcc": "ZID",
		"type": "RP",
		"updated": "JFZ*LE*071.63/2.74"
	},
	{
		"name": "JANIX",
		"latitude": "39-26-28.02 N",
		"longitude": "86-40-59.05 W",
		"state": "INDIANA",
		"artcc": "ZID",
		"type": "RNAV",
		"updated": "11/07/2016"
	},
	{
		"name": "JANPO",
		"latitude": "39-46-52.26 N",
		"longitude": "86-28-29.46 W",
		"state": "INDIANA",
		"artcc": "ZID",
		"type": "RNAV",
		"updated": "07/10/2013"
	},
	{
		"name": "JAPOL",
		"latitude": "38-9-38.79 N",
		"longitude": "84-57-39.21 W",
		"state": "KENTUCKY",
		"artcc": "ZID",
		"type": "RNAV",
		"updated": "04/22/2013"
	},
	{
		"name": "JARAM",
		"latitude": "36-58-55.56 N",
		"longitude": "83-56-5.4 W",
		"state": "KENTUCKY",
		"artcc": "ZID",
		"type": "RP",
		"updated": "LOZ*VOR/DME*112.91/8.96"
	},
	{
		"name": "JAREL",
		"latitude": "39-30-0.49 N",
		"longitude": "85-41-35.66 W",
		"state": "INDIANA",
		"artcc": "ZID",
		"type": "RP",
		"updated": "SHB*VOR/DME*141.50/10.00"
	},
	{
		"name": "JARRD",
		"latitude": "39-58-33.89 N",
		"longitude": "83-41-17.79 W",
		"state": "OHIO",
		"artcc": "ZID",
		"type": "RP",
		"updated": "DQN*VOR/DME*095.01/32.77"
	},
	{
		"name": "JARSO",
		"latitude": "39-35-30.26 N",
		"longitude": "83-54-42.05 W",
		"state": "OHIO",
		"artcc": "ZID",
		"type": "RP",
		"updated": "APE*VORTAC*247.68/69.73"
	},
	{
		"name": "JARUD",
		"latitude": "39-36-37.88 N",
		"longitude": "87-40-8.06 W",
		"state": "ILLINOIS",
		"artcc": "ZID",
		"type": "RNAV",
		"updated": "06/15/2016"
	},
	{
		"name": "JASKO",
		"latitude": "38-52-56.02 N",
		"longitude": "86-33-36.32 W",
		"state": "INDIANA",
		"artcc": "ZID",
		"type": "RNAV",
		"updated": "06/18/2012"
	},
	{
		"name": "JASUL",
		"latitude": "37-6-10.34 N",
		"longitude": "85-6-43.84 W",
		"state": "KENTUCKY",
		"artcc": "ZID",
		"type": "RNAV",
		"updated": "07/10/2013"
	},
	{
		"name": "JATAD",
		"latitude": "39-48-46.77 N",
		"longitude": "84-12-27.83 W",
		"state": "OHIO",
		"artcc": "ZID",
		"type": "RNAV",
		"updated": "04/11/2014"
	},
	{
		"name": "JATOD",
		"latitude": "39-54-56.52 N",
		"longitude": "86-8-42.21 W",
		"state": "INDIANA",
		"artcc": "ZID",
		"type": "RNAV",
		"updated": "06/18/2012"
	},
	{
		"name": "JAVDO",
		"latitude": "40-0-15.1 N",
		"longitude": "84-0-32.14 W",
		"state": "OHIO",
		"artcc": "ZID",
		"type": "RNAV",
		"updated": "07/11/2009"
	},
	{
		"name": "JAVKU",
		"latitude": "39-45-29.59 N",
		"longitude": "84-9-4.88 W",
		"state": "OHIO",
		"artcc": "ZID",
		"type": "RNAV",
		"updated": "11/26/2014"
	},
	{
		"name": "JAVOM",
		"latitude": "39-53-35.07 N",
		"longitude": "88-5-23.19 W",
		"state": "ILLINOIS",
		"artcc": "ZID",
		"type": "RP",
		"updated": "DNV*VORTAC*223.76"
	},
	{
		"name": "JAVUP",
		"latitude": "38-24-1.39 N",
		"longitude": "82-39-32 W",
		"state": "KENTUCKY",
		"artcc": "ZID",
		"type": "RNAV",
		"updated": "09/25/2012"
	},
	{
		"name": "JAYEL",
		"latitude": "39-23-43.69 N",
		"longitude": "83-49-57.81 W",
		"state": "OHIO",
		"artcc": "ZID",
		"type": "RNAV",
		"updated": "07/09/2009"
	},
	{
		"name": "JAYKB",
		"latitude": "38-38-49.61 N",
		"longitude": "82-25-46.09 W",
		"state": "OHIO",
		"artcc": "ZID",
		"type": "RP",
		"updated": "HNN*VORTAC*254.42/20.00"
	},
	{
		"name": "JAYVO",
		"latitude": "39-26-26.98 N",
		"longitude": "87-13-42 W",
		"state": "INDIANA",
		"artcc": "ZID",
		"type": "RNAV",
		"updated": "05/09/2016"
	},
	{
		"name": "JAZZY",
		"latitude": "39-56-24.34 N",
		"longitude": "87-25-14.96 W",
		"state": "INDIANA",
		"artcc": "ZID",
		"type": "RP",
		"updated": "DNV*VORTAC*161.46/22.11"
	},
	{
		"name": "JBEAM",
		"latitude": "37-47-27.73 N",
		"longitude": "85-38-34.15 W",
		"state": "KENTUCKY",
		"artcc": "ZID",
		"type": "RP",
		"updated": "IIU*VORTAC*188.43/18.98"
	},
	{
		"name": "JBERT",
		"latitude": "39-27-41.49 N",
		"longitude": "84-54-25.59 W",
		"state": "INDIANA",
		"artcc": "ZID",
		"type": "RNAV",
		"updated": "04/22/2009"
	},
	{
		"name": "JBETH",
		"latitude": "38-59-54.99 N",
		"longitude": "84-26-17.41 W",
		"state": "KENTUCKY",
		"artcc": "ZID",
		"type": "RNAV",
		"updated": "05/06/2011"
	},
	{
		"name": "JBNCH",
		"latitude": "39-34-52.85 N",
		"longitude": "85-1-21.31 W",
		"state": "INDIANA",
		"artcc": "ZID",
		"type": "RNAV",
		"updated": "08/07/2008"
	},
	{
		"name": "JEBDU",
		"latitude": "38-57-59.42 N",
		"longitude": "87-36-12.35 W",
		"state": "ILLINOIS",
		"artcc": "ZID",
		"type": "RNAV",
		"updated": "05/22/2012"
	},
	{
		"name": "JEBNI",
		"latitude": "39-22-46.11 N",
		"longitude": "85-30-42.6 W",
		"state": "INDIANA",
		"artcc": "ZID",
		"type": "RNAV",
		"updated": "06/18/2012"
	},
	{
		"name": "JEDER",
		"latitude": "37-19-30.54 N",
		"longitude": "84-45-14.17 W",
		"state": "KENTUCKY",
		"artcc": "ZID",
		"type": "RNAV",
		"updated": "07/01/2013"
	},
	{
		"name": "JEDIX",
		"latitude": "39-6-23.33 N",
		"longitude": "84-11-0.87 W",
		"state": "OHIO",
		"artcc": "ZID",
		"type": "RNAV",
		"updated": "03/28/2012"
	},
	{
		"name": "JEDKI",
		"latitude": "38-55-14.31 N",
		"longitude": "81-49-47.82 W",
		"state": "WEST VIRGINIA",
		"artcc": "ZID",
		"type": "RNAV",
		"updated": "02/02/2010"
	},
	{
		"name": "JEDRI",
		"latitude": "40-19-52.93 N",
		"longitude": "83-55-43.87 W",
		"state": "OHIO",
		"artcc": "ZID",
		"type": "RP",
		"updated": "ROD*VORTAC*068.49/5.86"
	},
	{
		"name": "JEEDR",
		"latitude": "40-15-52.17 N",
		"longitude": "84-42-18.65 W",
		"state": "OHIO",
		"artcc": "ZID",
		"type": "RNAV",
		"updated": "01/12/2015"
	},
	{
		"name": "JEGOK",
		"latitude": "37-57-58.39 N",
		"longitude": "84-50-53.3 W",
		"state": "KENTUCKY",
		"artcc": "ZID",
		"type": "RNAV",
		"updated": "10/12/2006"
	},
	{
		"name": "JEGUN",
		"latitude": "39-40-21.4 N",
		"longitude": "82-16-26.2 W",
		"state": "OHIO",
		"artcc": "ZID",
		"type": "RNAV",
		"updated": "04/13/2009"
	},
	{
		"name": "JEKLO",
		"latitude": "39-45-42.69 N",
		"longitude": "86-12-55.21 W",
		"state": "INDIANA",
		"artcc": "ZID",
		"type": "RNAV",
		"updated": "05/02/2018"
	},
	{
		"name": "JELAK",
		"latitude": "39-46-11.27 N",
		"longitude": "84-21-17.14 W",
		"state": "OHIO",
		"artcc": "ZID",
		"type": "MW",
		"updated": "11/20/2012"
	},
	{
		"name": "JELLO",
		"latitude": "36-24-36.58 N",
		"longitude": "84-50-8.84 W",
		"state": "TENNESSEE",
		"artcc": "ZID",
		"type": "RP",
		"updated": "LVT*VOR/DME*125.04/19.11"
	},
	{
		"name": "JEMOG",
		"latitude": "37-13-57.19 N",
		"longitude": "83-5-36.54 W",
		"state": "KENTUCKY",
		"artcc": "ZID",
		"type": "RNAV",
		"updated": "06/29/2011"
	},
	{
		"name": "JENAG",
		"latitude": "36-23-55.5 N",
		"longitude": "84-39-35.28 W",
		"state": "TENNESSEE",
		"artcc": "ZID",
		"type": "RNAV",
		"updated": "08/07/2013"
	},
	{
		"name": "JENAT",
		"latitude": "39-54-16.82 N",
		"longitude": "83-43-33.87 W",
		"state": "OHIO",
		"artcc": "ZID",
		"type": "MR",
		"updated": "SGH*VOR/DME*/6.84"
	},
	{
		"name": "JENEY",
		"latitude": "39-21-9.66 N",
		"longitude": "84-5-26.03 W",
		"state": "OHIO",
		"artcc": "ZID",
		"type": "RP",
		"updated": "DQN*VOR/DME*161.28"
	},
	{
		"name": "JENLI",
		"latitude": "40-35-26.86 N",
		"longitude": "85-26-25.05 W",
		"state": "INDIANA",
		"artcc": "ZID",
		"type": "RNAV",
		"updated": "08/16/2004"
	},
	{
		"name": "JENUG",
		"latitude": "39-15-13.83 N",
		"longitude": "83-26-29.13 W",
		"state": "OHIO",
		"artcc": "ZID",
		"type": "RNAV",
		"updated": "12/27/2012"
	},
	{
		"name": "JEPBU",
		"latitude": "38-56-43.75 N",
		"longitude": "86-34-41.51 W",
		"state": "INDIANA",
		"artcc": "ZID",
		"type": "RP",
		"updated": "OOM*VORTAC*174.19/12.00"
	},
	{
		"name": "JEPIV",
		"latitude": "37-29-55.39 N",
		"longitude": "86-10-24.88 W",
		"state": "KENTUCKY",
		"artcc": "ZID",
		"type": "CN",
		"updated": "05/23/2007"
	},
	{
		"name": "JEPLA",
		"latitude": "39-10-54.2 N",
		"longitude": "83-26-40.36 W",
		"state": "OHIO",
		"artcc": "ZID",
		"type": "RNAV",
		"updated": "11/26/2014"
	},
	{
		"name": "JEPVU",
		"latitude": "40-6-22.49 N",
		"longitude": "84-13-46.31 W",
		"state": "OHIO",
		"artcc": "ZID",
		"type": "RNAV",
		"updated": "11/14/2014"
	},
	{
		"name": "JERAL",
		"latitude": "39-14-43.84 N",
		"longitude": "84-3-4.76 W",
		"state": "OHIO",
		"artcc": "ZID",
		"type": "RNAV",
		"updated": "03/28/2012"
	},
	{
		"name": "JERMY",
		"latitude": "39-48-17.99 N",
		"longitude": "84-45-2.64 W",
		"state": "OHIO",
		"artcc": "ZID",
		"type": "RP",
		"updated": "RID*VORTAC*056.62/5.06"
	},
	{
		"name": "JEROV",
		"latitude": "39-25-0.26 N",
		"longitude": "86-27-23.8 W",
		"state": "INDIANA",
		"artcc": "ZID",
		"type": "RNAV",
		"updated": "08/07/2012"
	},
	{
		"name": "JESDA",
		"latitude": "40-11-39.2 N",
		"longitude": "85-28-27.81 W",
		"state": "INDIANA",
		"artcc": "ZID",
		"type": "RNAV",
		"updated": "08/07/2012"
	},
	{
		"name": "JESTS",
		"latitude": "40-0-43.64 N",
		"longitude": "84-7-33.76 W",
		"state": "OHIO",
		"artcc": "ZID",
		"type": "RNAV",
		"updated": "04/11/2014"
	},
	{
		"name": "JETVO",
		"latitude": "38-17-56.64 N",
		"longitude": "81-41-53.05 W",
		"state": "WEST VIRGINIA",
		"artcc": "ZID",
		"type": "RNAV",
		"updated": "10/29/2015"
	},
	{
		"name": "JEVMU",
		"latitude": "39-32-19.47 N",
		"longitude": "82-42-52.55 W",
		"state": "OHIO",
		"artcc": "ZID",
		"type": "RNAV",
		"updated": "04/18/2012"
	},
	{
		"name": "JEXIL",
		"latitude": "36-49-6.35 N",
		"longitude": "83-28-49.6 W",
		"state": "KENTUCKY",
		"artcc": "ZID",
		"type": "RNAV",
		"updated": "06/01/2016"
	},
	{
		"name": "JEXUD",
		"latitude": "37-44-27.03 N",
		"longitude": "85-49-36.02 W",
		"state": "KENTUCKY",
		"artcc": "ZID",
		"type": "RNAV",
		"updated": "04/12/2006"
	},
	{
		"name": "JIBAG",
		"latitude": "36-37-38.69 N",
		"longitude": "83-40-1.51 W",
		"state": "KENTUCKY",
		"artcc": "ZID",
		"type": "RNAV",
		"updated": "05/09/2003"
	},
	{
		"name": "JIBGI",
		"latitude": "36-35-35.64 N",
		"longitude": "84-23-19.54 W",
		"state": "KENTUCKY",
		"artcc": "ZID",
		"type": "RNAV",
		"updated": "03/22/2007"
	},
	{
		"name": "JIBKA",
		"latitude": "39-30-8.93 N",
		"longitude": "87-16-26.74 W",
		"state": "INDIANA",
		"artcc": "ZID",
		"type": "RNAV",
		"updated": "08/06/2012"
	},
	{
		"name": "JIBOK",
		"latitude": "38-34-51.22 N",
		"longitude": "82-58-25.91 W",
		"state": "KENTUCKY",
		"artcc": "ZID",
		"type": "RNAV",
		"updated": "11/21/2008"
	},
	{
		"name": "JIDIB",
		"latitude": "39-18-8.01 N",
		"longitude": "87-26-43.68 W",
		"state": "INDIANA",
		"artcc": "ZID",
		"type": "RNAV",
		"updated": "09/25/2014"
	},
	{
		"name": "JIDUS",
		"latitude": "39-58-17.21 N",
		"longitude": "84-53-17.37 W",
		"state": "INDIANA",
		"artcc": "ZID",
		"type": "RNAV",
		"updated": "08/06/2012"
	},
	{
		"name": "JIGUK",
		"latitude": "39-49-49.44 N",
		"longitude": "84-49-51.94 W",
		"state": "INDIANA",
		"artcc": "ZID",
		"type": "RNAV",
		"updated": "11/26/2014"
	},
	{
		"name": "JIKPI",
		"latitude": "38-25-35.41 N",
		"longitude": "87-2-13.56 W",
		"state": "INDIANA",
		"artcc": "ZID",
		"type": "RNAV",
		"updated": "01/20/2011"
	},
	{
		"name": "JIKRU",
		"latitude": "38-50-29.67 N",
		"longitude": "84-18-29.44 W",
		"state": "KENTUCKY",
		"artcc": "ZID",
		"type": "RNAV",
		"updated": "10/28/2013"
	},
	{
		"name": "JIKVA",
		"latitude": "39-45-55.91 N",
		"longitude": "83-39-4.32 W",
		"state": "OHIO",
		"artcc": "ZID",
		"type": "RNAV",
		"updated": "11/14/2014"
	},
	{
		"name": "JILER",
		"latitude": "36-51-9.79 N",
		"longitude": "84-50-51.38 W",
		"state": "KENTUCKY",
		"artcc": "ZID",
		"type": "RNAV",
		"updated": "02/09/2018"
	},
	{
		"name": "JILNO",
		"latitude": "37-51-32.8 N",
		"longitude": "85-58-47.47 W",
		"state": "KENTUCKY",
		"artcc": "ZID",
		"type": "MW",
		"updated": "10/28/2010"
	},
	{
		"name": "JIMER",
		"latitude": "37-50-5.26 N",
		"longitude": "87-10-19.48 W",
		"state": "KENTUCKY",
		"artcc": "ZID",
		"type": "RNAV",
		"updated": "11/27/2012"
	},
	{
		"name": "JIMUR",
		"latitude": "39-1-17.62 N",
		"longitude": "84-41-2.13 W",
		"state": "KENTUCKY",
		"artcc": "ZID",
		"type": "RP",
		"updated": "VAC*LD*186.17/3.12"
	},
	{
		"name": "JINEN",
		"latitude": "39-30-19.51 N",
		"longitude": "84-16-8.16 W",
		"state": "OHIO",
		"artcc": "ZID",
		"type": "RNAV",
		"updated": "08/16/2006"
	},
	{
		"name": "JINIC",
		"latitude": "39-49-7 N",
		"longitude": "86-3-17.16 W",
		"state": "INDIANA",
		"artcc": "ZID",
		"type": "RNAV",
		"updated": "09/24/2004"
	},
	{
		"name": "JINSU",
		"latitude": "38-54-32.05 N",
		"longitude": "84-29-29.83 W",
		"state": "KENTUCKY",
		"artcc": "ZID",
		"type": "RNAV",
		"updated": "09/22/2015"
	},
	{
		"name": "JIPAD",
		"latitude": "38-0-2.73 N",
		"longitude": "85-49-50.86 W",
		"state": "KENTUCKY",
		"artcc": "ZID",
		"type": "RNAV",
		"updated": "06/06/2012"
	},
	{
		"name": "JIPGA",
		"latitude": "38-32-52.69 N",
		"longitude": "87-38-27.28 W",
		"state": "INDIANA",
		"artcc": "ZID",
		"type": "RNAV",
		"updated": "10/28/2008"
	},
	{
		"name": "JIPOL",
		"latitude": "39-55-6.19 N",
		"longitude": "86-11-50.42 W",
		"state": "INDIANA",
		"artcc": "ZID",
		"type": "RNAV",
		"updated": "01/21/2016"
	},
	{
		"name": "JIRDI",
		"latitude": "39-36-45.89 N",
		"longitude": "84-12-44.22 W",
		"state": "OHIO",
		"artcc": "ZID",
		"type": "RP",
		"updated": "MGY*LE*NE CRS/2.10"
	},
	{
		"name": "JIRIP",
		"latitude": "38-47-35.58 N",
		"longitude": "86-3-43.09 W",
		"state": "INDIANA",
		"artcc": "ZID",
		"type": "RNAV",
		"updated": "03/16/2007"
	},
	{
		"name": "JISAB",
		"latitude": "37-1-7.18 N",
		"longitude": "84-13-6.9 W",
		"state": "KENTUCKY",
		"artcc": "ZID",
		"type": "RNAV",
		"updated": "07/26/2016"
	},
	{
		"name": "JISEV",
		"latitude": "38-13-5.46 N",
		"longitude": "87-20-58.15 W",
		"state": "INDIANA",
		"artcc": "ZID",
		"type": "RP",
		"updated": "OWB*VOR/DME*347.04"
	},
	{
		"name": "JISNI",
		"latitude": "37-57-23.64 N",
		"longitude": "86-36-37.79 W",
		"state": "INDIANA",
		"artcc": "ZID",
		"type": "RNAV",
		"updated": "06/30/2011"
	},
	{
		"name": "JISUG",
		"latitude": "38-5-43.19 N",
		"longitude": "81-6-43.61 W",
		"state": "WEST VIRGINIA",
		"artcc": "ZID",
		"type": "RP",
		"updated": "BKW*VOR/DME*007.63/18.89"
	},
	{
		"name": "JISUX",
		"latitude": "39-28-36.31 N",
		"longitude": "83-34-52.33 W",
		"state": "OHIO",
		"artcc": "ZID",
		"type": "RNAV",
		"updated": "11/26/2014"
	},
	{
		"name": "JISVI",
		"latitude": "39-26-44.71 N",
		"longitude": "84-12-1.49 W",
		"state": "OHIO",
		"artcc": "ZID",
		"type": "RNAV",
		"updated": "11/26/2014"
	},
	{
		"name": "JITEV",
		"latitude": "38-57-23.86 N",
		"longitude": "84-40-8.6 W",
		"state": "KENTUCKY",
		"artcc": "ZID",
		"type": "RP",
		"updated": "CVG*LD*186.18/6.66"
	},
	{
		"name": "JITGA",
		"latitude": "41-10-0.4 N",
		"longitude": "84-56-45.4 W",
		"state": "INDIANA",
		"artcc": "ZID",
		"type": "RNAV",
		"updated": "05/05/2016"
	},
	{
		"name": "JIVAD",
		"latitude": "37-56-20.07 N",
		"longitude": "84-31-39.58 W",
		"state": "KENTUCKY",
		"artcc": "ZID",
		"type": "RNAV",
		"updated": "12/01/2017"
	},
	{
		"name": "JIVLA",
		"latitude": "39-51-34.27 N",
		"longitude": "84-0-3.56 W",
		"state": "OHIO",
		"artcc": "ZID",
		"type": "MR",
		"updated": "FFO*TACAN*050.00/3.50"
	},
	{
		"name": "JIXAR",
		"latitude": "38-29-16.6 N",
		"longitude": "81-25-55.12 W",
		"state": "WEST VIRGINIA",
		"artcc": "ZID",
		"type": "RP",
		"updated": "HNN*VORTAC*122.54"
	},
	{
		"name": "JIXED",
		"latitude": "39-23-26.57 N",
		"longitude": "87-39-13.09 W",
		"state": "ILLINOIS",
		"artcc": "ZID",
		"type": "RNAV",
		"updated": "04/19/2016"
	},
	{
		"name": "JIXUT",
		"latitude": "39-0-35.73 N",
		"longitude": "87-24-0.88 W",
		"state": "INDIANA",
		"artcc": "ZID",
		"type": "RNAV",
		"updated": "07/29/2008"
	},
	{
		"name": "JKUKA",
		"latitude": "38-35-17.8 N",
		"longitude": "85-38-13.92 W",
		"state": "INDIANA",
		"artcc": "ZID",
		"type": "RNAV",
		"updated": "04/29/2014"
	},
	{
		"name": "JMCSY",
		"latitude": "37-45-26.7 N",
		"longitude": "85-42-45.61 W",
		"state": "KENTUCKY",
		"artcc": "ZID",
		"type": "RNAV",
		"updated": "04/26/2007"
	},
	{
		"name": "JMILR",
		"latitude": "38-8-1.76 N",
		"longitude": "80-57-48.55 W",
		"state": "WEST VIRGINIA",
		"artcc": "ZID",
		"type": "RNAV",
		"updated": "11/07/2011"
	},
	{
		"name": "JOBKO",
		"latitude": "39-43-32.38 N",
		"longitude": "86-48-41.46 W",
		"state": "INDIANA",
		"artcc": "ZID",
		"type": "RNAV",
		"updated": "11/07/2016"
	},
	{
		"name": "JOCKE",
		"latitude": "39-19-50.34 N",
		"longitude": "85-50-20.15 W",
		"state": "INDIANA",
		"artcc": "ZID",
		"type": "RNAV",
		"updated": "01/12/2015"
	},
	{
		"name": "JODEL",
		"latitude": "39-35-14.66 N",
		"longitude": "86-28-19.31 W",
		"state": "INDIANA",
		"artcc": "ZID",
		"type": "RP",
		"updated": "IND*LD*228.54/12.02"
	},
	{
		"name": "JODUB",
		"latitude": "38-45-45.03 N",
		"longitude": "82-53-27.42 W",
		"state": "OHIO",
		"artcc": "ZID",
		"type": "RP",
		"updated": "BKW*VOR/DME*311.73/102.17"
	},
	{
		"name": "JOGBA",
		"latitude": "40-22-38.39 N",
		"longitude": "85-34-4.32 W",
		"state": "INDIANA",
		"artcc": "ZID",
		"type": "RNAV",
		"updated": "07/21/2006"
	},
	{
		"name": "JOGER",
		"latitude": "39-43-14.8 N",
		"longitude": "83-24-24.54 W",
		"state": "OHIO",
		"artcc": "ZID",
		"type": "RP",
		"updated": "APE*VORTAC*241.93/45.74"
	},
	{
		"name": "JOKEB",
		"latitude": "37-54-47.69 N",
		"longitude": "85-58-40.42 W",
		"state": "KENTUCKY",
		"artcc": "ZID",
		"type": "RP",
		"updated": "FTK*VOR/DME*326.00/0.44"
	},
	{
		"name": "JOLIG",
		"latitude": "39-7-36.2 N",
		"longitude": "86-1-46.1 W",
		"state": "INDIANA",
		"artcc": "ZID",
		"type": "RNAV",
		"updated": "03/16/2007"
	},
	{
		"name": "JOLIS",
		"latitude": "40-20-27.72 N",
		"longitude": "83-55-38.04 W",
		"state": "OHIO",
		"artcc": "ZID",
		"type": "RNAV",
		"updated": "03/08/2012"
	},
	{
		"name": "JOLIV",
		"latitude": "40-27-25.4 N",
		"longitude": "84-1-33.17 W",
		"state": "OHIO",
		"artcc": "ZID",
		"type": "RNAV",
		"updated": "06/13/2008"
	},
	{
		"name": "JOLOM",
		"latitude": "39-51-32.91 N",
		"longitude": "83-59-31.39 W",
		"state": "OHIO",
		"artcc": "ZID",
		"type": "MW",
		"updated": "08/12/2010"
	},
	{
		"name": "JOLVU",
		"latitude": "39-57-10.91 N",
		"longitude": "86-3-8.14 W",
		"state": "INDIANA",
		"artcc": "ZID",
		"type": "RP",
		"updated": "SHB*VOR/DME*330.32"
	},
	{
		"name": "JOMOT",
		"latitude": "39-19-32.7 N",
		"longitude": "85-48-50.24 W",
		"state": "INDIANA",
		"artcc": "ZID",
		"type": "RNAV",
		"updated": "02/17/2006"
	},
	{
		"name": "JOMPO",
		"latitude": "39-55-59.64 N",
		"longitude": "85-55-56.37 W",
		"state": "INDIANA",
		"artcc": "ZID",
		"type": "RNAV",
		"updated": "08/05/2013"
	},
	{
		"name": "JONEN",
		"latitude": "37-59-8.91 N",
		"longitude": "82-32-46.19 W",
		"state": "KENTUCKY",
		"artcc": "ZID",
		"type": "RNAV",
		"updated": "07/01/2013"
	},
	{
		"name": "JONEP",
		"latitude": "39-19-47.31 N",
		"longitude": "87-58-28.02 W",
		"state": "ILLINOIS",
		"artcc": "ZID",
		"type": "RNAV",
		"updated": "06/28/2010"
	},
	{
		"name": "JONEX",
		"latitude": "39-35-0.5 N",
		"longitude": "82-51-14.19 W",
		"state": "OHIO",
		"artcc": "ZID",
		"type": "RNAV",
		"updated": "04/18/2012"
	},
	{
		"name": "JOPLA",
		"latitude": "40-25-30.28 N",
		"longitude": "84-19-34.3 W",
		"state": "OHIO",
		"artcc": "ZID",
		"type": "RNAV",
		"updated": "11/14/2014"
	},
	{
		"name": "JOPTO",
		"latitude": "40-1-52.78 N",
		"longitude": "83-49-27.03 W",
		"state": "OHIO",
		"artcc": "ZID",
		"type": "RNAV",
		"updated": "11/14/2014"
	},
	{
		"name": "JORPU",
		"latitude": "37-46-33.06 N",
		"longitude": "84-22-32.97 W",
		"state": "KENTUCKY",
		"artcc": "ZID",
		"type": "RNAV",
		"updated": "05/15/2006"
	},
	{
		"name": "JORUV",
		"latitude": "39-42-56.78 N",
		"longitude": "83-14-10.63 W",
		"state": "OHIO",
		"artcc": "ZID",
		"type": "RP",
		"updated": "APE*VORTAC*235.10/39.69"
	},
	{
		"name": "JOSOM",
		"latitude": "37-17-5.87 N",
		"longitude": "81-13-11.43 W",
		"state": "WEST VIRGINIA",
		"artcc": "ZID",
		"type": "RNAV",
		"updated": "12/31/2009"
	},
	{
		"name": "JOSPU",
		"latitude": "39-21-41.4 N",
		"longitude": "84-58-8.99 W",
		"state": "INDIANA",
		"artcc": "ZID",
		"type": "RNAV",
		"updated": "04/25/2012"
	},
	{
		"name": "JOSTO",
		"latitude": "39-35-31.82 N",
		"longitude": "87-28-56.76 W",
		"state": "INDIANA",
		"artcc": "ZID",
		"type": "RNAV",
		"updated": "06/20/2005"
	},
	{
		"name": "JOTPA",
		"latitude": "38-47-31.66 N",
		"longitude": "84-15-49.42 W",
		"state": "KENTUCKY",
		"artcc": "ZID",
		"type": "RNAV",
		"updated": "03/22/2012"
	},
	{
		"name": "JOVEL",
		"latitude": "39-2-32.67 N",
		"longitude": "82-57-51.8 W",
		"state": "OHIO",
		"artcc": "ZID",
		"type": "RNAV",
		"updated": "08/12/2008"
	},
	{
		"name": "JOXAK",
		"latitude": "39-25-21.54 N",
		"longitude": "85-15-31.1 W",
		"state": "INDIANA",
		"artcc": "ZID",
		"type": "RNAV",
		"updated": "08/03/2010"
	},
	{
		"name": "JOXIB",
		"latitude": "39-41-36.27 N",
		"longitude": "84-5-11.45 W",
		"state": "OHIO",
		"artcc": "ZID",
		"type": "RNAV",
		"updated": "11/14/2014"
	},
	{
		"name": "JOXOK",
		"latitude": "39-49-4.62 N",
		"longitude": "83-12-17.02 W",
		"state": "OHIO",
		"artcc": "ZID",
		"type": "RNAV",
		"updated": "11/18/2008"
	},
	{
		"name": "JOYEW",
		"latitude": "36-42-22.13 N",
		"longitude": "85-1-37.89 W",
		"state": "KENTUCKY",
		"artcc": "ZID",
		"type": "RNAV",
		"updated": "08/01/2016"
	},
	{
		"name": "JRICO",
		"latitude": "38-15-33.58 N",
		"longitude": "86-42-30.17 W",
		"state": "INDIANA",
		"artcc": "ZID",
		"type": "RNAV",
		"updated": "04/29/2014"
	},
	{
		"name": "JUBBI",
		"latitude": "39-51-12.65 N",
		"longitude": "82-38-24.52 W",
		"state": "OHIO",
		"artcc": "ZID",
		"type": "RP",
		"updated": "APE*VORTAC*193.65/18.00"
	},
	{
		"name": "JUBDU",
		"latitude": "39-56-53.97 N",
		"longitude": "86-57-10.23 W",
		"state": "INDIANA",
		"artcc": "ZID",
		"type": "RNAV",
		"updated": "10/05/2016"
	},
	{
		"name": "JUBKA",
		"latitude": "36-53-44.95 N",
		"longitude": "84-9-32.74 W",
		"state": "KENTUCKY",
		"artcc": "ZID",
		"type": "RNAV",
		"updated": "08/14/2012"
	},
	{
		"name": "JUBLU",
		"latitude": "38-14-5.96 N",
		"longitude": "81-41-44.72 W",
		"state": "WEST VIRGINIA",
		"artcc": "ZID",
		"type": "RNAV",
		"updated": "10/27/2015"
	},
	{
		"name": "JUBMI",
		"latitude": "39-15-9.12 N",
		"longitude": "85-15-29.45 W",
		"state": "INDIANA",
		"artcc": "ZID",
		"type": "RNAV",
		"updated": "08/13/2010"
	},
	{
		"name": "JUBOV",
		"latitude": "40-32-9.33 N",
		"longitude": "84-21-50.3 W",
		"state": "OHIO",
		"artcc": "ZID",
		"type": "RNAV",
		"updated": "11/14/2014"
	},
	{
		"name": "JUBTO",
		"latitude": "37-6-0.42 N",
		"longitude": "82-19-11.22 W",
		"state": "VIRGINIA",
		"artcc": "ZID",
		"type": "RNAV",
		"updated": "10/05/2006"
	},
	{
		"name": "JUBUN",
		"latitude": "36-23-34.41 N",
		"longitude": "84-56-46.68 W",
		"state": "TENNESSEE",
		"artcc": "ZID",
		"type": "RNAV",
		"updated": "05/03/2017"
	},
	{
		"name": "JUDDI",
		"latitude": "38-45-33.68 N",
		"longitude": "86-26-24.62 W",
		"state": "INDIANA",
		"artcc": "ZID",
		"type": "RP",
		"updated": "PXV*VORTAC*048.00/79.85"
	},
	{
		"name": "JUDSS",
		"latitude": "38-31-32.92 N",
		"longitude": "82-29-10.1 W",
		"state": "OHIO",
		"artcc": "ZID",
		"type": "RNAV",
		"updated": "05/31/2011"
	},
	{
		"name": "JUGOR",
		"latitude": "39-34-46.75 N",
		"longitude": "87-25-47.3 W",
		"state": "INDIANA",
		"artcc": "ZID",
		"type": "RP",
		"updated": "TTH*VORTAC*301.00/10.00"
	},
	{
		"name": "JUGOT",
		"latitude": "38-50-20.84 N",
		"longitude": "82-44-44.08 W",
		"state": "OHIO",
		"artcc": "ZID",
		"type": "RP",
		"updated": "YRK*VORTAC*048.00/16.00"
	},
	{
		"name": "JULEA",
		"latitude": "39-16-27.22 N",
		"longitude": "80-57-52.96 W",
		"state": "WEST VIRGINIA",
		"artcc": "ZID",
		"type": "RP",
		"updated": "HVQ*VOR/DME*037.02"
	},
	{
		"name": "JULKO",
		"latitude": "39-38-52.37 N",
		"longitude": "85-7-53.06 W",
		"state": "INDIANA",
		"artcc": "ZID",
		"type": "RNAV",
		"updated": "05/30/2012"
	},
	{
		"name": "JULVA",
		"latitude": "37-54-34.51 N",
		"longitude": "84-28-47.32 W",
		"state": "KENTUCKY",
		"artcc": "ZID",
		"type": "RNAV",
		"updated": "01/16/2018"
	},
	{
		"name": "JULVU",
		"latitude": "39-3-44.21 N",
		"longitude": "84-31-31.52 W",
		"state": "KENTUCKY",
		"artcc": "ZID",
		"type": "RNAV",
		"updated": "07/26/2012"
	},
	{
		"name": "JUMIP",
		"latitude": "38-19-51.51 N",
		"longitude": "85-43-49.07 W",
		"state": "INDIANA",
		"artcc": "ZID",
		"type": "RNAV",
		"updated": "06/06/2012"
	},
	{
		"name": "JUMOM",
		"latitude": "39-25-36.54 N",
		"longitude": "87-33-42.06 W",
		"state": "ILLINOIS",
		"artcc": "ZID",
		"type": "RP",
		"updated": "TTH*VORTAC*253.72/15.00"
	},
	{
		"name": "JUMOP",
		"latitude": "37-25-57.96 N",
		"longitude": "84-27-21.99 W",
		"state": "KENTUCKY",
		"artcc": "ZID",
		"type": "RNAV",
		"updated": "09/13/2012"
	},
	{
		"name": "JUNAR",
		"latitude": "37-15-37.19 N",
		"longitude": "81-16-1.37 W",
		"state": "VIRGINIA",
		"artcc": "ZID",
		"type": "RNAV",
		"updated": "12/31/2009"
	},
	{
		"name": "JUNGL",
		"latitude": "21-19-30.5 N",
		"longitude": "158-6-47.66 W",
		"state": "HAWAII",
		"artcc": "ZID",
		"type": "RNAV",
		"updated": "02/23/2017"
	},
	{
		"name": "JUNON",
		"latitude": "39-14-40.8 N",
		"longitude": "85-55-6.57 W",
		"state": "INDIANA",
		"artcc": "ZID",
		"type": "RNAV",
		"updated": "02/17/2006"
	},
	{
		"name": "JUNOO",
		"latitude": "37-10-2 N",
		"longitude": "85-3-13 W",
		"state": "KENTUCKY",
		"artcc": "ZID",
		"type": "RNAV",
		"updated": "05/09/2016"
	},
	{
		"name": "JUPAL",
		"latitude": "39-26-2.97 N",
		"longitude": "84-40-1.63 W",
		"state": "OHIO",
		"artcc": "ZID",
		"type": "RP",
		"updated": "SIC*LD*004.18/24.03"
	},
	{
		"name": "JUPLU",
		"latitude": "39-52-14.21 N",
		"longitude": "86-4-51.47 W",
		"state": "INDIANA",
		"artcc": "ZID",
		"type": "RNAV",
		"updated": "01/21/2016"
	},
	{
		"name": "JUPUK",
		"latitude": "40-11-38.05 N",
		"longitude": "82-50-7.78 W",
		"state": "OHIO",
		"artcc": "ZID",
		"type": "RNAV",
		"updated": "06/29/2011"
	},
	{
		"name": "JURLA",
		"latitude": "39-29-40.23 N",
		"longitude": "85-48-48.06 W",
		"state": "INDIANA",
		"artcc": "ZID",
		"type": "RNAV",
		"updated": "03/15/2007"
	},
	{
		"name": "JUSAL",
		"latitude": "39-38-36.51 N",
		"longitude": "84-35-52.31 W",
		"state": "OHIO",
		"artcc": "ZID",
		"type": "RNAV",
		"updated": "05/10/2012"
	},
	{
		"name": "JUSET",
		"latitude": "37-58-48.63 N",
		"longitude": "84-1-48.14 W",
		"state": "KENTUCKY",
		"artcc": "ZID",
		"type": "RNAV",
		"updated": "08/12/2013"
	},
	{
		"name": "JUSGI",
		"latitude": "39-59-55.29 N",
		"longitude": "86-53-31.11 W",
		"state": "INDIANA",
		"artcc": "ZID",
		"type": "RNAV",
		"updated": "10/05/2016"
	},
	{
		"name": "JUVMU",
		"latitude": "39-58-46.31 N",
		"longitude": "86-18-10.17 W",
		"state": "INDIANA",
		"artcc": "ZID",
		"type": "RNAV",
		"updated": "01/21/2016"
	},
	{
		"name": "JVAND",
		"latitude": "39-2-45.68 N",
		"longitude": "84-49-24.64 W",
		"state": "KENTUCKY",
		"artcc": "ZID",
		"type": "RNAV",
		"updated": "04/16/2008"
	}
]
