[
	{
		"name": "KAEDN",
		"latitude": "38-14-59.68 N",
		"longitude": "85-38-29.99 W",
		"state": "KENTUCKY",
		"artcc": "ZID",
		"type": "RNAV",
		"updated": "05/09/2016"
	},
	{
		"name": "KAGGO",
		"latitude": "36-35-8.1 N",
		"longitude": "85-10-10.99 W",
		"state": "TENNESSEE",
		"artcc": "ZID",
		"type": "RNAV",
		"updated": "08/07/2013"
	},
	{
		"name": "KAILS",
		"latitude": "38-53-17.64 N",
		"longitude": "85-56-40.44 W",
		"state": "INDIANA",
		"artcc": "ZID",
		"type": "RNAV",
		"updated": "09/03/2014"
	},
	{
		"name": "KAKLY",
		"latitude": "37-34-9.99 N",
		"longitude": "81-39-48.36 W",
		"state": "WEST VIRGINIA",
		"artcc": "ZID",
		"type": "RNAV",
		"updated": "01/08/2018"
	},
	{
		"name": "KANCO",
		"latitude": "38-18-8.28 N",
		"longitude": "81-41-23.84 W",
		"state": "WEST VIRGINIA",
		"artcc": "ZID",
		"type": "RP",
		"updated": "HVQ*VOR/DME*129.93"
	},
	{
		"name": "KANOA",
		"latitude": "37-13-35.99 N",
		"longitude": "85-30-17.01 W",
		"state": "KENTUCKY",
		"artcc": "ZID",
		"type": "RNAV",
		"updated": "10/07/2014"
	},
	{
		"name": "KAPLE",
		"latitude": "37-34-29.21 N",
		"longitude": "82-46-12.98 W",
		"state": "KENTUCKY",
		"artcc": "ZID",
		"type": "RNAV",
		"updated": "10/07/2014"
	},
	{
		"name": "KAPRE",
		"latitude": "38-57-37.53 N",
		"longitude": "85-42-8.54 W",
		"state": "INDIANA",
		"artcc": "ZID",
		"type": "RNAV",
		"updated": "08/18/2016"
	},
	{
		"name": "KAPTE",
		"latitude": "39-47-0.8 N",
		"longitude": "83-56-37.78 W",
		"state": "OHIO",
		"artcc": "ZID",
		"type": "RNAV",
		"updated": "10/19/2009"
	},
	{
		"name": "KARYL",
		"latitude": "39-51-58.53 N",
		"longitude": "81-38-18.65 W",
		"state": "OHIO",
		"artcc": "ZID",
		"type": "RP",
		"updated": "APE*VORTAC*117.00/47.00"
	},
	{
		"name": "KAVCO",
		"latitude": "37-33-32.46 N",
		"longitude": "83-24-0.66 W",
		"state": "KENTUCKY",
		"artcc": "ZID",
		"type": "RP",
		"updated": "AZQ*VOR/DME*330.95/12.00"
	},
	{
		"name": "KAVME",
		"latitude": "39-2-47.57 N",
		"longitude": "84-47-32.17 W",
		"state": "KENTUCKY",
		"artcc": "ZID",
		"type": "RP",
		"updated": "URN*LD*W CRS/6.63"
	},
	{
		"name": "KAYDE",
		"latitude": "39-2-43.01 N",
		"longitude": "84-23-19.58 W",
		"state": "OHIO",
		"artcc": "ZID",
		"type": "RP",
		"updated": "FLM*VOR/DME*355.25"
	},
	{
		"name": "KAYRU",
		"latitude": "38-18-6.11 N",
		"longitude": "80-48-15.14 W",
		"state": "WEST VIRGINIA",
		"artcc": "ZID",
		"type": "RNAV",
		"updated": "11/07/2011"
	},
	{
		"name": "KEADY",
		"latitude": "39-51-36.09 N",
		"longitude": "86-27-17.31 W",
		"state": "INDIANA",
		"artcc": "ZID",
		"type": "RP",
		"updated": "VHP*VORTAC*302.97/4.86"
	},
	{
		"name": "KEBNE",
		"latitude": "38-47-58.87 N",
		"longitude": "87-36-5.36 W",
		"state": "ILLINOIS",
		"artcc": "ZID",
		"type": "RNAV",
		"updated": "05/22/2012"
	},
	{
		"name": "KECEG",
		"latitude": "38-0-30.12 N",
		"longitude": "87-33-28.77 W",
		"state": "INDIANA",
		"artcc": "ZID",
		"type": "RP",
		"updated": "OWB*VOR/DME*314.56"
	},
	{
		"name": "KEDLE",
		"latitude": "37-30-23.17 N",
		"longitude": "85-48-51.17 W",
		"state": "KENTUCKY",
		"artcc": "ZID",
		"type": "RP",
		"updated": "EWO*VOR/DME*220.33/10.00"
	},
	{
		"name": "KEEEF",
		"latitude": "38-49-1.48 N",
		"longitude": "84-38-52.03 W",
		"state": "KENTUCKY",
		"artcc": "ZID",
		"type": "RP",
		"updated": "EEI*LD*S CRS/14.47"
	},
	{
		"name": "KEELY",
		"latitude": "39-9-40.87 N",
		"longitude": "84-23-9.11 W",
		"state": "OHIO",
		"artcc": "ZID",
		"type": "RP",
		"updated": "LUK*LD*025.01/4.59"
	},
	{
		"name": "KEFLI",
		"latitude": "39-30-34.89 N",
		"longitude": "82-56-28.65 W",
		"state": "OHIO",
		"artcc": "ZID",
		"type": "RNAV",
		"updated": "04/18/2012"
	},
	{
		"name": "KEGLY",
		"latitude": "37-28-29.24 N",
		"longitude": "81-17-9.45 W",
		"state": "WEST VIRGINIA",
		"artcc": "ZID",
		"type": "RP",
		"updated": "BLF*VOR/DME*339.54/11.00"
	},
	{
		"name": "KEKEE",
		"latitude": "39-32-17.4 N",
		"longitude": "84-17-21.29 W",
		"state": "OHIO",
		"artcc": "ZID",
		"type": "RP",
		"updated": "CVG*VORTAC*035.52/36.77"
	},
	{
		"name": "KELEI",
		"latitude": "38-13-36.12 N",
		"longitude": "85-44-41.32 W",
		"state": "KENTUCKY",
		"artcc": "ZID",
		"type": "RP",
		"updated": "PKI*LD*N CRS/3.94"
	},
	{
		"name": "KELLY",
		"latitude": "39-24-49.24 N",
		"longitude": "86-40-16.94 W",
		"state": "INDIANA",
		"artcc": "ZID",
		"type": "RP",
		"updated": "SHB*VOR/DME*250.82/41.46"
	},
	{
		"name": "KEMKE",
		"latitude": "37-56-19.7 N",
		"longitude": "84-25-42.62 W",
		"state": "KENTUCKY",
		"artcc": "ZID",
		"type": "RNAV",
		"updated": "01/16/2018"
	},
	{
		"name": "KENLN",
		"latitude": "38-27-27 N",
		"longitude": "84-30-28 W",
		"state": "KENTUCKY",
		"artcc": "ZID",
		"type": "RP",
		"updated": "CVG*VORTAC*168.60/34.71"
	},
	{
		"name": "KENYA",
		"latitude": "37-19-24.52 N",
		"longitude": "81-32-47.84 W",
		"state": "WEST VIRGINIA",
		"artcc": "ZID",
		"type": "RP",
		"updated": "BLF*VOR/DME*276.57/16.90"
	},
	{
		"name": "KETTA",
		"latitude": "38-41-56.95 N",
		"longitude": "81-28-6.88 W",
		"state": "WEST VIRGINIA",
		"artcc": "ZID",
		"type": "RP",
		"updated": "HVQ*VOR/DME*037.02/25.39"
	},
	{
		"name": "KEVGE",
		"latitude": "38-23-23.78 N",
		"longitude": "82-37-35.61 W",
		"state": "KENTUCKY",
		"artcc": "ZID",
		"type": "RNAV",
		"updated": "09/25/2012"
	},
	{
		"name": "KI42Q",
		"latitude": "37-0-0 N",
		"longitude": "84-0-0 W",
		"state": "KENTUCKY",
		"artcc": "ZID",
		"type": "NRS",
		"updated": "03/05/2005"
	},
	{
		"name": "KI45O",
		"latitude": "37-30-0 N",
		"longitude": "86-0-0 W",
		"state": "KENTUCKY",
		"artcc": "ZID",
		"type": "NRS",
		"updated": "03/05/2005"
	},
	{
		"name": "KI45Q",
		"latitude": "37-30-0 N",
		"longitude": "84-0-0 W",
		"state": "KENTUCKY",
		"artcc": "ZID",
		"type": "NRS",
		"updated": "03/05/2005"
	},
	{
		"name": "KI45S",
		"latitude": "37-30-0 N",
		"longitude": "82-0-0 W",
		"state": "VIRGINIA",
		"artcc": "ZID",
		"type": "NRS",
		"updated": "03/05/2005"
	},
	{
		"name": "KI48M",
		"latitude": "38-0-0 N",
		"longitude": "88-0-0 W",
		"state": "INDIANA",
		"artcc": "ZID",
		"type": "NRS",
		"updated": "03/05/2005"
	},
	{
		"name": "KI48O",
		"latitude": "38-0-0 N",
		"longitude": "86-0-0 W",
		"state": "KENTUCKY",
		"artcc": "ZID",
		"type": "NRS",
		"updated": "03/05/2005"
	},
	{
		"name": "KI48Q",
		"latitude": "38-0-0 N",
		"longitude": "84-0-0 W",
		"state": "KENTUCKY",
		"artcc": "ZID",
		"type": "NRS",
		"updated": "03/05/2005"
	},
	{
		"name": "KI48S",
		"latitude": "38-0-0 N",
		"longitude": "82-0-0 W",
		"state": "WEST VIRGINIA",
		"artcc": "ZID",
		"type": "NRS",
		"updated": "03/05/2005"
	},
	{
		"name": "KI51M",
		"latitude": "38-30-0 N",
		"longitude": "88-0-0 W",
		"state": "ILLINOIS",
		"artcc": "ZID",
		"type": "NRS",
		"updated": "03/05/2005"
	},
	{
		"name": "KI51O",
		"latitude": "38-30-0 N",
		"longitude": "86-0-0 W",
		"state": "INDIANA",
		"artcc": "ZID",
		"type": "NRS",
		"updated": "03/05/2005"
	},
	{
		"name": "KI51Q",
		"latitude": "38-30-0 N",
		"longitude": "84-0-0 W",
		"state": "KENTUCKY",
		"artcc": "ZID",
		"type": "NRS",
		"updated": "03/05/2005"
	},
	{
		"name": "KI51S",
		"latitude": "38-30-0 N",
		"longitude": "82-0-0 W",
		"state": "WEST VIRGINIA",
		"artcc": "ZID",
		"type": "NRS",
		"updated": "03/05/2005"
	},
	{
		"name": "KI54M",
		"latitude": "39-0-0 N",
		"longitude": "88-0-0 W",
		"state": "ILLINOIS",
		"artcc": "ZID",
		"type": "NRS",
		"updated": "03/05/2005"
	},
	{
		"name": "KI54O",
		"latitude": "39-0-0 N",
		"longitude": "86-0-0 W",
		"state": "INDIANA",
		"artcc": "ZID",
		"type": "NRS",
		"updated": "03/05/2005"
	},
	{
		"name": "KI54Q",
		"latitude": "39-0-0 N",
		"longitude": "84-0-0 W",
		"state": "OHIO",
		"artcc": "ZID",
		"type": "NRS",
		"updated": "03/05/2005"
	},
	{
		"name": "KI54S",
		"latitude": "39-0-0 N",
		"longitude": "82-0-0 W",
		"state": "WEST VIRGINIA",
		"artcc": "ZID",
		"type": "NRS",
		"updated": "03/05/2005"
	},
	{
		"name": "KI57M",
		"latitude": "39-30-0 N",
		"longitude": "88-0-0 W",
		"state": "ILLINOIS",
		"artcc": "ZID",
		"type": "NRS",
		"updated": "03/05/2005"
	},
	{
		"name": "KI57O",
		"latitude": "39-30-0 N",
		"longitude": "86-0-0 W",
		"state": "INDIANA",
		"artcc": "ZID",
		"type": "NRS",
		"updated": "03/05/2005"
	},
	{
		"name": "KI57Q",
		"latitude": "39-30-0 N",
		"longitude": "84-0-0 W",
		"state": "OHIO",
		"artcc": "ZID",
		"type": "NRS",
		"updated": "03/05/2005"
	},
	{
		"name": "KI57S",
		"latitude": "39-30-0 N",
		"longitude": "82-0-0 W",
		"state": "OHIO",
		"artcc": "ZID",
		"type": "NRS",
		"updated": "03/05/2005"
	},
	{
		"name": "KI60M",
		"latitude": "40-0-0 N",
		"longitude": "88-0-0 W",
		"state": "ILLINOIS",
		"artcc": "ZID",
		"type": "NRS",
		"updated": "03/05/2005"
	},
	{
		"name": "KI60O",
		"latitude": "40-0-0 N",
		"longitude": "86-0-0 W",
		"state": "INDIANA",
		"artcc": "ZID",
		"type": "NRS",
		"updated": "03/05/2005"
	},
	{
		"name": "KI60Q",
		"latitude": "40-0-0 N",
		"longitude": "84-0-0 W",
		"state": "OHIO",
		"artcc": "ZID",
		"type": "NRS",
		"updated": "03/05/2005"
	},
	{
		"name": "KI60S",
		"latitude": "40-0-0 N",
		"longitude": "82-0-0 W",
		"state": "OHIO",
		"artcc": "ZID",
		"type": "NRS",
		"updated": "03/05/2005"
	},
	{
		"name": "KI63Q",
		"latitude": "40-30-0 N",
		"longitude": "84-0-0 W",
		"state": "OHIO",
		"artcc": "ZID",
		"type": "NRS",
		"updated": "03/05/2005"
	},
	{
		"name": "KI63S",
		"latitude": "40-30-0 N",
		"longitude": "82-0-0 W",
		"state": "OHIO",
		"artcc": "ZID",
		"type": "NRS",
		"updated": "03/05/2005"
	},
	{
		"name": "KICEK",
		"latitude": "36-43-15.92 N",
		"longitude": "84-13-44.7 W",
		"state": "KENTUCKY",
		"artcc": "ZID",
		"type": "RNAV",
		"updated": "08/14/2012"
	},
	{
		"name": "KICSE",
		"latitude": "38-12-12.24 N",
		"longitude": "84-51-2.46 W",
		"state": "KENTUCKY",
		"artcc": "ZID",
		"type": "RNAV",
		"updated": "04/23/2013"
	},
	{
		"name": "KIRKS",
		"latitude": "39-27-39.94 N",
		"longitude": "84-46-22.93 W",
		"state": "OHIO",
		"artcc": "ZID",
		"type": "RNAV",
		"updated": "04/20/2009"
	},
	{
		"name": "KIRON",
		"latitude": "40-11-31.28 N",
		"longitude": "84-13-16.71 W",
		"state": "OHIO",
		"artcc": "ZID",
		"type": "RP",
		"updated": "ROD*VORTAC*240.01/10.00"
	},
	{
		"name": "KIRRA",
		"latitude": "40-24-58.8 N",
		"longitude": "83-21-30.38 W",
		"state": "OHIO",
		"artcc": "ZID",
		"type": "RNAV",
		"updated": "11/01/2016"
	},
	{
		"name": "KIRRK",
		"latitude": "38-17-35.71 N",
		"longitude": "82-19-43.57 W",
		"state": "WEST VIRGINIA",
		"artcc": "ZID",
		"type": "RP",
		"updated": "TUU*LS*118.38"
	},
	{
		"name": "KITCE",
		"latitude": "37-39-27.11 N",
		"longitude": "85-21-15.03 W",
		"state": "KENTUCKY",
		"artcc": "ZID",
		"type": "RNAV",
		"updated": "02/24/2016"
	},
	{
		"name": "KITTI",
		"latitude": "39-41-7.68 N",
		"longitude": "84-25-9.58 W",
		"state": "OHIO",
		"artcc": "ZID",
		"type": "MW",
		"updated": "11/20/2012"
	},
	{
		"name": "KIYSI",
		"latitude": "39-33-41.27 N",
		"longitude": "87-3-18.18 W",
		"state": "INDIANA",
		"artcc": "ZID",
		"type": "RP",
		"updated": "TTH*VORTAC*062.17/10.00"
	},
	{
		"name": "KLARC",
		"latitude": "39-21-42.05 N",
		"longitude": "83-59-51.12 W",
		"state": "OHIO",
		"artcc": "ZID",
		"type": "RP",
		"updated": "DQN*VOR/DME*155.64"
	},
	{
		"name": "KLEPR",
		"latitude": "39-13-28.62 N",
		"longitude": "84-40-4.7 W",
		"state": "OHIO",
		"artcc": "ZID",
		"type": "RP",
		"updated": "SIC*LD*004.18/11.47"
	},
	{
		"name": "KLOAK",
		"latitude": "37-39-50.33 N",
		"longitude": "84-56-37.83 W",
		"state": "KENTUCKY",
		"artcc": "ZID",
		"type": "MR",
		"updated": "IIU*VORTAC*130.00/40.00"
	},
	{
		"name": "KMETZ",
		"latitude": "39-15-16.78 N",
		"longitude": "87-11-52.01 W",
		"state": "INDIANA",
		"artcc": "ZID",
		"type": "RNAV",
		"updated": "06/21/2005"
	},
	{
		"name": "KNEDY",
		"latitude": "38-39-39.38 N",
		"longitude": "84-0-48.59 W",
		"state": "KENTUCKY",
		"artcc": "ZID",
		"type": "RNAV",
		"updated": "11/24/2006"
	},
	{
		"name": "KNIGT",
		"latitude": "39-40-6.75 N",
		"longitude": "86-12-9.4 W",
		"state": "INDIANA",
		"artcc": "ZID",
		"type": "RNAV",
		"updated": "01/12/2015"
	},
	{
		"name": "KNITE",
		"latitude": "39-18-5.8 N",
		"longitude": "83-55-28.83 W",
		"state": "OHIO",
		"artcc": "ZID",
		"type": "RP",
		"updated": "03/25/2010"
	},
	{
		"name": "KOCUJ",
		"latitude": "39-26-51.4 N",
		"longitude": "87-27-27.09 W",
		"state": "INDIANA",
		"artcc": "ZID",
		"type": "RP",
		"updated": "TTH*VORTAC*253.72/10.00"
	},
	{
		"name": "KOGDE",
		"latitude": "39-52-38.17 N",
		"longitude": "85-25-58.74 W",
		"state": "INDIANA",
		"artcc": "ZID",
		"type": "RNAV",
		"updated": "02/06/2018"
	},
	{
		"name": "KOGLE",
		"latitude": "39-14-45.16 N",
		"longitude": "83-19-9.02 W",
		"state": "OHIO",
		"artcc": "ZID",
		"type": "RNAV",
		"updated": "04/13/2009"
	},
	{
		"name": "KOLNY",
		"latitude": "40-5-10.12 N",
		"longitude": "82-50-48.76 W",
		"state": "OHIO",
		"artcc": "ZID",
		"type": "RNAV",
		"updated": "01/14/2011"
	},
	{
		"name": "KOLTS",
		"latitude": "39-50-27.18 N",
		"longitude": "88-5-31.52 W",
		"state": "ILLINOIS",
		"artcc": "ZID",
		"type": "RNAV",
		"updated": "01/12/2015"
	},
	{
		"name": "KONGO",
		"latitude": "37-30-19.46 N",
		"longitude": "82-8-12.56 W",
		"state": "KENTUCKY",
		"artcc": "ZID",
		"type": "RP",
		"updated": "BKW*VOR/DME*257.47/51.02"
	},
	{
		"name": "KONVY",
		"latitude": "39-4-38.3 N",
		"longitude": "85-33-29.69 W",
		"state": "INDIANA",
		"artcc": "ZID",
		"type": "RNAV",
		"updated": "06/28/2009"
	},
	{
		"name": "KOSME",
		"latitude": "38-9-42.91 N",
		"longitude": "82-23-49.74 W",
		"state": "WEST VIRGINIA",
		"artcc": "ZID",
		"type": "RNAV",
		"updated": "09/25/2012"
	},
	{
		"name": "KOXVU",
		"latitude": "38-57-4.23 N",
		"longitude": "86-37-4.84 W",
		"state": "INDIANA",
		"artcc": "ZID",
		"type": "RNAV",
		"updated": "06/16/2011"
	},
	{
		"name": "KOYDE",
		"latitude": "39-49-45.44 N",
		"longitude": "85-37-10.22 W",
		"state": "INDIANA",
		"artcc": "ZID",
		"type": "RNAV",
		"updated": "10/15/2008"
	},
	{
		"name": "KOYEK",
		"latitude": "39-4-43.93 N",
		"longitude": "82-34-0.31 W",
		"state": "OHIO",
		"artcc": "ZID",
		"type": "RNAV",
		"updated": "08/03/2004"
	},
	{
		"name": "KOYGE",
		"latitude": "38-35-26.83 N",
		"longitude": "85-35-52.79 W",
		"state": "INDIANA",
		"artcc": "ZID",
		"type": "RNAV",
		"updated": "03/06/2018"
	},
	{
		"name": "KREEM",
		"latitude": "39-34-39.01 N",
		"longitude": "86-14-25.7 W",
		"state": "INDIANA",
		"artcc": "ZID",
		"type": "RNAV",
		"updated": "03/25/2015"
	},
	{
		"name": "KRTHY",
		"latitude": "39-8-50.13 N",
		"longitude": "84-41-0.41 W",
		"state": "OHIO",
		"artcc": "ZID",
		"type": "RP",
		"updated": "CJN*LD*006.17/6.14"
	},
	{
		"name": "KTRYN",
		"latitude": "36-55-16.45 N",
		"longitude": "82-52-45.57 W",
		"state": "KENTUCKY",
		"artcc": "ZID",
		"type": "RNAV",
		"updated": "07/26/2016"
	},
	{
		"name": "KUDNE",
		"latitude": "39-13-48.97 N",
		"longitude": "85-52-39.15 W",
		"state": "INDIANA",
		"artcc": "ZID",
		"type": "RNAV",
		"updated": "02/17/2006"
	},
	{
		"name": "KUDUZ",
		"latitude": "37-1-50.44 N",
		"longitude": "82-15-43.39 W",
		"state": "VIRGINIA",
		"artcc": "ZID",
		"type": "RNAV",
		"updated": "10/16/2006"
	},
	{
		"name": "KUDZU",
		"latitude": "38-21-21.72 N",
		"longitude": "82-22-54.37 W",
		"state": "WEST VIRGINIA",
		"artcc": "ZID",
		"type": "RNAV",
		"updated": "02/10/2014"
	},
	{
		"name": "KUGEW",
		"latitude": "39-47-8.92 N",
		"longitude": "82-57-43.04 W",
		"state": "OHIO",
		"artcc": "ZID",
		"type": "RP",
		"updated": "DDV*LD*052.30/3.52"
	},
	{
		"name": "KURTZ",
		"latitude": "38-58-19.89 N",
		"longitude": "86-5-33.54 W",
		"state": "INDIANA",
		"artcc": "ZID",
		"type": "RP",
		"updated": "PXV*VORTAC*048.00/100.54"
	},
	{
		"name": "KUSSH",
		"latitude": "39-53-50.81 N",
		"longitude": "83-56-5.54 W",
		"state": "OHIO",
		"artcc": "ZID",
		"type": "MW",
		"updated": "12/31/2012"
	},
	{
		"name": "KUSSS",
		"latitude": "39-50-4.37 N",
		"longitude": "81-37-21.79 W",
		"state": "OHIO",
		"artcc": "ZID",
		"type": "RP",
		"updated": "CTW*VOR/DME*202.95"
	},
	{
		"name": "KUTAW",
		"latitude": "40-12-12.2 N",
		"longitude": "83-34-29.97 W",
		"state": "OHIO",
		"artcc": "ZID",
		"type": "RNAV",
		"updated": "03/13/2012"
	},
	{
		"name": "KUTGE",
		"latitude": "38-6-6.85 N",
		"longitude": "85-59-3.48 W",
		"state": "INDIANA",
		"artcc": "ZID",
		"type": "RP",
		"updated": "FTK*VOR/DME*358.27"
	},
	{
		"name": "KUTPE",
		"latitude": "39-6-10.44 N",
		"longitude": "88-4-20.54 W",
		"state": "ILLINOIS",
		"artcc": "ZID",
		"type": "RNAV",
		"updated": "06/28/2010"
	},
	{
		"name": "KUVNY",
		"latitude": "37-50-0.73 N",
		"longitude": "81-54-9.64 W",
		"state": "WEST VIRGINIA",
		"artcc": "ZID",
		"type": "RNAV",
		"updated": "09/14/2011"
	},
	{
		"name": "KUYEY",
		"latitude": "39-17-14.68 N",
		"longitude": "84-19-23.8 W",
		"state": "OHIO",
		"artcc": "ZID",
		"type": "RNAV",
		"updated": "12/09/2008"
	},
	{
		"name": "KYKAT",
		"latitude": "38-42-44.87 N",
		"longitude": "84-38-53.78 W",
		"state": "KENTUCKY",
		"artcc": "ZID",
		"type": "RP",
		"updated": "EEI*LD*186.21/20.75"
	},
	{
		"name": "KYYLL",
		"latitude": "39-35-19.74 N",
		"longitude": "86-20-11.85 W",
		"state": "INDIANA",
		"artcc": "ZID",
		"type": "RNAV",
		"updated": "10/05/2016"
	}
]
