	{
		"name": "LAANG",
		"latitude": "38-8-40.9 N",
		"longitude": "85-38-0.16 W",
		"state": "KENTUCKY",
		"artcc": "ZID",
		"type": "RNAV",
		"updated": "LKS*LC*117.17",
	},
	{
		"name": "LAFOR",
		"latitude": "38-4-53.03 N",
		"longitude": "81-4-33.56 W",
		"state": "WEST VIRGINIA",
		"artcc": "ZID",
		"type": "RP",
		"updated": "BKW*VOR/DME*/18.19",
	},
	{
		"name": "LAFOX",
		"latitude": "37-5-23.92 N",
		"longitude": "84-11-10.72 W",
		"state": "KENTUCKY",
		"artcc": "ZID",
		"type": "RNAV",
		"updated": "05/09/2016",
	},
	{
		"name": "LAGNE",
		"latitude": "36-54-50.07 N",
		"longitude": "85-5-34.99 W",
		"state": "KENTUCKY",
		"artcc": "ZID",
		"type": "RNAV",
		"updated": "07/10/2013",
	},
	{
		"name": "LAKDE",
		"latitude": "39-33-59.53 N",
		"longitude": "83-0-29.36 W",
		"state": "OHIO",
		"artcc": "ZID",
		"type": "RNAV",
		"updated": "07/05/2011",
	},
	{
		"name": "LAKWA",
		"latitude": "38-2-41.8 N",
		"longitude": "84-33-37.87 W",
		"state": "KENTUCKY",
		"artcc": "ZID",
		"type": "RNAV",
		"updated": "08/10/2010",
	},
	{
		"name": "LAMAH",
		"latitude": "39-22-54.39 N",
		"longitude": "84-40-2.4 W",
		"state": "OHIO",
		"artcc": "ZID",
		"type": "RP",
		"updated": "SIC*LD*004.18/20.89",
	},
	{
		"name": "LAMBS",
		"latitude": "37-58-53.78 N",
		"longitude": "87-9-0.64 W",
		"state": "INDIANA",
		"artcc": "ZID",
		"type": "RP",
		"updated": "OWB*VOR/DME*007.00",
	},
	{
		"name": "LAPER",
		"latitude": "38-52-10.68 N",
		"longitude": "84-38-51.14 W",
		"state": "KENTUCKY",
		"artcc": "ZID",
		"type": "RP",
		"updated": "EEI*LD*186.21/11.33",
	},
	{
		"name": "LARIC",
		"latitude": "39-33-44.58 N",
		"longitude": "82-20-54.44 W",
		"state": "OHIO",
		"artcc": "ZID",
		"type": "RP",
		"updated": "ZZV*VOR/DME*229.06/30.98",
	},
	{
		"name": "LARRY",
		"latitude": "36-29-50.86 N",
		"longitude": "84-46-2.19 W",
		"state": "TENNESSEE",
		"artcc": "ZID",
		"type": "RP",
		"updated": "LVT*VOR/DME*107.00/20.00",
	},
	{
		"name": "LATGY",
		"latitude": "39-39-25.4 N",
		"longitude": "83-59-9.49 W",
		"state": "OHIO",
		"artcc": "ZID",
		"type": "RNAV",
		"updated": "10/19/2009",
	},
	{
		"name": "LATIC",
		"latitude": "37-6-17.63 N",
		"longitude": "81-41-4.99 W",
		"state": "VIRGINIA",
		"artcc": "ZID",
		"type": "RP",
		"updated": "JFZ*LE*071.63/6.37",
	},
	{
		"name": "LATMY",
		"latitude": "38-3-45.42 N",
		"longitude": "84-27-36.45 W",
		"state": "KENTUCKY",
		"artcc": "ZID",
		"type": "RP",
		"updated": "HYK*VOR/DME*005.81/5.80",
	},
	{
		"name": "LATTE",
		"latitude": "39-50-19.36 N",
		"longitude": "86-7-38.69 W",
		"state": "INDIANA",
		"artcc": "ZID",
		"type": "RP",
		"updated": "VHP*VORTAC*081.54",
	},
	{
		"name": "LAYED",
		"latitude": "38-45-49.17 N",
		"longitude": "81-47-51.42 W",
		"state": "WEST VIRGINIA",
		"artcc": "ZID",
		"type": "RP",
		"updated": "HVQ*VOR/DME*360.00/24.85",
	},
	{
		"name": "LAYIV",
		"latitude": "38-13-16.48 N",
		"longitude": "84-48-15.92 W",
		"state": "KENTUCKY",
		"artcc": "ZID",
		"type": "RP",
		"updated": "HYK*VOR/DME*314.28",
	},
	{
		"name": "LAZYT",
		"latitude": "38-2-7.69 N",
		"longitude": "85-23-4.93 W",
		"state": "KENTUCKY",
		"artcc": "ZID",
		"type": "RP",
		"updated": "EWO*VOR/DME*028.68",
	},
	{
		"name": "LEBNE",
		"latitude": "39-52-57.98 N",
		"longitude": "84-16-8.99 W",
		"state": "OHIO",
		"artcc": "ZID",
		"type": "RP",
		"updated": "DQN*VOR/DME*144.63",
	},
	{
		"name": "LEEBR",
		"latitude": "39-40-25.5 N",
		"longitude": "85-59-18.64 W",
		"state": "INDIANA",
		"artcc": "ZID",
		"type": "RP",
		"updated": "SHB*VOR/DME*287.04/8.00",
	},
	{
		"name": "LEEDS",
		"latitude": "39-59-18.82 N",
		"longitude": "84-41-26.56 W",
		"state": "OHIO",
		"artcc": "ZID",
		"type": "RP",
		"updated": "DQN*VOR/DME*264.06/13.65",
	},
	{
		"name": "LEENE",
		"latitude": "38-4-42.68 N",
		"longitude": "85-43-58.94 W",
		"state": "KENTUCKY",
		"artcc": "ZID",
		"type": "RNAV",
		"updated": "06/05/2012",
	},
	{
		"name": "LEEVE",
		"latitude": "38-51-50.62 N",
		"longitude": "86-31-27.44 W",
		"state": "INDIANA",
		"artcc": "ZID",
		"type": "RNAV",
		"updated": "02/23/2015",
	},
	{
		"name": "LEFEJ",
		"latitude": "37-41-19.38 N",
		"longitude": "85-28-42.84 W",
		"state": "KENTUCKY",
		"artcc": "ZID",
		"type": "CN",
		"updated": "10/06/2000",
	},
	{
		"name": "LEFTE",
		"latitude": "39-39-2.69 N",
		"longitude": "83-33-42.4 W",
		"state": "OHIO",
		"artcc": "ZID",
		"type": "RP",
		"updated": "RHX*LD*043.32/18.00",
	},
	{
		"name": "LEFVO",
		"latitude": "37-30-10.3 N",
		"longitude": "85-37-57.04 W",
		"state": "KENTUCKY",
		"artcc": "ZID",
		"type": "RP",
		"updated": "EWO*VOR/DME*164.00/8.00",
	},
	{
		"name": "LEKNE",
		"latitude": "40-13-52.46 N",
		"longitude": "83-42-43.13 W",
		"state": "OHIO",
		"artcc": "ZID",
		"type": "RNAV",
		"updated": "07/15/2010",
	},
	{
		"name": "LEKRE",
		"latitude": "39-56-53.05 N",
		"longitude": "86-9-19.94 W",
		"state": "INDIANA",
		"artcc": "ZID",
		"type": "RNAV",
		"updated": "02/23/2015",
	},
	{
		"name": "LENBE",
		"latitude": "37-47-51.99 N",
		"longitude": "87-4-24.48 W",
		"state": "KENTUCKY",
		"artcc": "ZID",
		"type": "RNAV",
		"updated": "11/06/2012",
	},
	{
		"name": "LENRD",
		"latitude": "40-34-10.26 N",
		"longitude": "82-0-59.9 W",
		"state": "OHIO",
		"artcc": "ZID",
		"type": "RP",
		"updated": "CTW*VOR/DME*316.67/32.08",
	},
	{
		"name": "LEONE",
		"latitude": "37-59-12.47 N",
		"longitude": "81-5-30.45 W",
		"state": "WEST VIRGINIA",
		"artcc": "ZID",
		"type": "RP",
		"updated": "BKW*VOR/DME*/12.47",
	},
	{
		"name": "LETCO",
		"latitude": "37-27-12.89 N",
		"longitude": "83-20-5.81 W",
		"state": "KENTUCKY",
		"artcc": "ZID",
		"type": "RNAV",
		"updated": "AZQ*VOR/DME*321.39/5.08",
	},
	{
		"name": "LEVII",
		"latitude": "38-22-19.6 N",
		"longitude": "81-5-51.59 W",
		"state": "WEST VIRGINIA",
		"artcc": "ZID",
		"type": "RNAV",
		"updated": "07/01/2013",
	},
	{
		"name": "LEWSS",
		"latitude": "38-1-29.42 N",
		"longitude": "85-47-20.62 W",
		"state": "KENTUCKY",
		"artcc": "ZID",
		"type": "RNAV",
		"updated": "05/09/2016",
	},
	{
		"name": "LEXII",
		"latitude": "40-15-13.26 N",
		"longitude": "83-0-8.08 W",
		"state": "OHIO",
		"artcc": "ZID",
		"type": "RP",
		"updated": "APE*VORTAC*294.05/20.00",
	},
	{
		"name": "LEXKO",
		"latitude": "37-18-0.67 N",
		"longitude": "85-23-44.74 W",
		"state": "KENTUCKY",
		"artcc": "ZID",
		"type": "RNAV",
		"updated": "10/07/2014",
	},
	{
		"name": "LICAJ",
		"latitude": "39-0-25.45 N",
		"longitude": "84-16-39.78 W",
		"state": "OHIO",
		"artcc": "ZID",
		"type": "RNAV",
		"updated": "03/28/2012",
	},
	{
		"name": "LIENS",
		"latitude": "37-57-20.38 N",
		"longitude": "81-42-51.43 W",
		"state": "WEST VIRGINIA",
		"artcc": "ZID",
		"type": "RNAV",
		"updated": "06/01/2017",
	},
	{
		"name": "LIFDI",
		"latitude": "38-47-41.94 N",
		"longitude": "83-51-48.63 W",
		"state": "OHIO",
		"artcc": "ZID",
		"type": "RNAV",
		"updated": "02/03/2004",
	},
	{
		"name": "LIKCI",
		"latitude": "37-0-24.89 N",
		"longitude": "84-6-51.92 W",
		"state": "KENTUCKY",
		"artcc": "ZID",
		"type": "RNAV",
		"updated": "08/14/2012",
	},
	{
		"name": "LIMPS",
		"latitude": "39-49-48.22 N",
		"longitude": "83-12-3 W",
		"state": "OHIO",
		"artcc": "ZID",
		"type": "RP",
		"updated": "APE*VORTAC*241.93/34.18",
	},
	{
		"name": "LISLE",
		"latitude": "39-3-31.21 N",
		"longitude": "87-21-22.64 W",
		"state": "INDIANA",
		"artcc": "ZID",
		"type": "RP",
		"updated": "TTH*VORTAC*189.00/26.27",
	},
	{
		"name": "LISTE",
		"latitude": "39-40-41.85 N",
		"longitude": "85-47-40.47 W",
		"state": "INDIANA",
		"artcc": "ZID",
		"type": "RNAV",
		"updated": "03/15/2007",
	},
	{
		"name": "LIVES",
		"latitude": "38-32-35.32 N",
		"longitude": "81-47-4.37 W",
		"state": "WEST VIRGINIA",
		"artcc": "ZID",
		"type": "RP",
		"updated": "HVQ*VOR/DME*359.60/11.60",
	},
	{
		"name": "LIVRE",
		"latitude": "38-20-33.5 N",
		"longitude": "82-28-50.35 W",
		"state": "WEST VIRGINIA",
		"artcc": "ZID",
		"type": "RP",
		"updated": "TUU*LS*118.38",
	},
	{
		"name": "LIYNE",
		"latitude": "38-50-32.88 N",
		"longitude": "86-10-50.35 W",
		"state": "INDIANA",
		"artcc": "ZID",
		"type": "RNAV",
		"updated": "09/03/2014",
	},
	{
		"name": "LLARY",
		"latitude": "39-52-29.06 N",
		"longitude": "86-4-52.26 W",
		"state": "INDIANA",
		"artcc": "ZID",
		"type": "RP",
		"updated": "VHP*VORTAC*073.70",
	},
	{
		"name": "LLAWS",
		"latitude": "38-20-7.17 N",
		"longitude": "85-41-40.79 W",
		"state": "INDIANA",
		"artcc": "ZID",
		"type": "RNAV",
		"updated": "01/18/2013",
	},
	{
		"name": "LNDIZ",
		"latitude": "37-6-44.13 N",
		"longitude": "81-45-9.93 W",
		"state": "VIRGINIA",
		"artcc": "ZID",
		"type": "RNAV",
		"updated": "06/24/2015",
	},
	{
		"name": "LODLL",
		"latitude": "38-48-26.06 N",
		"longitude": "84-22-48.21 W",
		"state": "KENTUCKY",
		"artcc": "ZID",
		"type": "RP",
		"updated": "CVG*VORTAC*133.47",
	},
	{
		"name": "LODPE",
		"latitude": "39-30-5.14 N",
		"longitude": "87-56-1.15 W",
		"state": "ILLINOIS",
		"artcc": "ZID",
		"type": "RNAV",
		"updated": "06/28/2010",
	},
	{
		"name": "LOFKI",
		"latitude": "37-7-15.37 N",
		"longitude": "84-32-14.95 W",
		"state": "KENTUCKY",
		"artcc": "ZID",
		"type": "WP",
		"updated": "11/02/1998",
	},
	{
		"name": "LOFWU",
		"latitude": "38-43-54.85 N",
		"longitude": "86-16-32.72 W",
		"state": "INDIANA",
		"artcc": "ZID",
		"type": "RNAV",
		"updated": "06/16/2011",
	},
	{
		"name": "LOGIC",
		"latitude": "37-53-2.81 N",
		"longitude": "84-2-1.77 W",
		"state": "KENTUCKY",
		"artcc": "ZID",
		"type": "RP",
		"updated": "HYK*VOR/DME*103.20/21.40",
	},
	{
		"name": "LOGOZ",
		"latitude": "39-8-26.88 N",
		"longitude": "84-40-5.92 W",
		"state": "OHIO",
		"artcc": "ZID",
		"type": "RP",
		"updated": "SIC*LD*004.08/6.45",
	},
	{
		"name": "LONIY",
		"latitude": "39-2-39.89 N",
		"longitude": "85-56-15.4 W",
		"state": "INDIANA",
		"artcc": "ZID",
		"type": "RNAV",
		"updated": "02/17/2006",
	},
	{
		"name": "LOOMP",
		"latitude": "39-57-5.83 N",
		"longitude": "83-51-39.25 W",
		"state": "OHIO",
		"artcc": "ZID",
		"type": "MR",
		"updated": "FFO*TACAN*/12.00",
	},
	{
		"name": "LOONE",
		"latitude": "37-44-14.43 N",
		"longitude": "86-45-18.02 W",
		"state": "KENTUCKY",
		"artcc": "ZID",
		"type": "RNAV",
		"updated": "03/10/2015",
	},
	{
		"name": "LOPYU",
		"latitude": "39-12-17.69 N",
		"longitude": "85-22-38.6 W",
		"state": "INDIANA",
		"artcc": "ZID",
		"type": "RP",
		"updated": "CVG*VORTAC*294.00/33.45",
	},
	{
		"name": "LOREE",
		"latitude": "37-28-30.83 N",
		"longitude": "87-12-35.41 W",
		"state": "KENTUCKY",
		"artcc": "ZID",
		"type": "RNAV",
		"updated": "03/30/2009",
	},
	{
		"name": "LORIC",
		"latitude": "37-39-37.99 N",
		"longitude": "82-42-19.27 W",
		"state": "KENTUCKY",
		"artcc": "ZID",
		"type": "RNAV",
		"updated": "10/07/2014",
	},
	{
		"name": "LORON",
		"latitude": "39-42-39.56 N",
		"longitude": "84-14-51.78 W",
		"state": "OHIO",
		"artcc": "ZID",
		"type": "MR",
		"updated": "FFO*TACAN*238.00/11.00",
	},
	{
		"name": "LOTAC",
		"latitude": "39-47-40.23 N",
		"longitude": "85-7-46.83 W",
		"state": "INDIANA",
		"artcc": "ZID",
		"type": "RNAV",
		"updated": "08/01/2006",
	},
	{
		"name": "LOVEY",
		"latitude": "39-12-48.77 N",
		"longitude": "85-24-31.04 W",
		"state": "INDIANA",
		"artcc": "ZID",
		"type": "RP",
		"updated": "CVG*VORTAC*294.00/35.00",
	},
	{
		"name": "LOVNS",
		"latitude": "39-54-9.3 N",
		"longitude": "85-58-16.04 W",
		"state": "INDIANA",
		"artcc": "ZID",
		"type": "RNAV",
		"updated": "01/12/2015",
	},
	{
		"name": "LOWAK",
		"latitude": "37-49-1.79 N",
		"longitude": "81-59-35.63 W",
		"state": "WEST VIRGINIA",
		"artcc": "ZID",
		"type": "RNAV",
		"updated": "12/13/2012",
	},
	{
		"name": "LRLEI",
		"latitude": "37-59-46.04 N",
		"longitude": "88-7-24.93 W",
		"state": "ILLINOIS",
		"artcc": "ZID",
		"type": "RNAV",
		"updated": "08/19/2011",
	},
	{
		"name": "LUDJU",
		"latitude": "39-26-56.05 N",
		"longitude": "87-51-0.2 W",
		"state": "ILLINOIS",
		"artcc": "ZID",
		"type": "RNAV",
		"updated": "06/28/2010",
	},
	{
		"name": "LUKMY",
		"latitude": "38-51-11.32 N",
		"longitude": "87-36-7.6 W",
		"state": "ILLINOIS",
		"artcc": "ZID",
		"type": "RNAV",
		"updated": "05/22/2012",
	},
	{
		"name": "LUKYE",
		"latitude": "36-29-43.4 N",
		"longitude": "84-32-2.48 W",
		"state": "TENNESSEE",
		"artcc": "ZID",
		"type": "RNAV",
		"updated": "08/07/2013",
	},
	{
		"name": "LULOC",
		"latitude": "39-32-17.46 N",
		"longitude": "84-14-40.83 W",
		"state": "OHIO",
		"artcc": "ZID",
		"type": "RNAV",
		"updated": "01/27/2016",
	},
	{
		"name": "LULOU",
		"latitude": "37-22-48.98 N",
		"longitude": "86-36-25.69 W",
		"state": "KENTUCKY",
		"artcc": "ZID",
		"type": "RNAV",
		"updated": "09/20/2012",
	},
	{
		"name": "LUNEY",
		"latitude": "39-58-15.4 N",
		"longitude": "87-41-37.44 W",
		"state": "ILLINOIS",
		"artcc": "ZID",
		"type": "RP",
		"updated": "CMI*VORTAC*094.89/27.12",
	},
	{
		"name": "LUPCE",
		"latitude": "39-14-35.94 N",
		"longitude": "87-18-37.5 W",
		"state": "INDIANA",
		"artcc": "ZID",
		"type": "RP",
		"updated": "TTH*VORTAC*189.00/15.00",
	},
	{
		"name": "LUPIC",
		"latitude": "39-11-56.55 N",
		"longitude": "85-48-51.14 W",
		"state": "INDIANA",
		"artcc": "ZID",
		"type": "RNAV",
		"updated": "02/17/2006",
	},
	{
		"name": "LUPUC",
		"latitude": "38-44-7.72 N",
		"longitude": "82-50-31.6 W",
		"state": "OHIO",
		"artcc": "ZID",
		"type": "RNAV",
		"updated": "08/12/2008",
	},
	{
		"name": "LUSHU",
		"latitude": "40-35-26.51 N",
		"longitude": "84-19-42.54 W",
		"state": "OHIO",
		"artcc": "ZID",
		"type": "RNAV",
		"updated": "12/31/2009",
	},
	{
		"name": "LUUKE",
		"latitude": "38-10-44.12 N",
		"longitude": "85-54-2.21 W",
		"state": "INDIANA",
		"artcc": "ZID",
		"type": "RNAV",
		"updated": "06/05/2012",
	},
	{
		"name": "LYDIC",
		"latitude": "37-14-20.07 N",
		"longitude": "82-26-8.01 W",
		"state": "VIRGINIA",
		"artcc": "ZID",
		"type": "RNAV",
		"updated": "02/09/2018",
	},
	{
		"name": "LYMEE",
		"latitude": "39-20-58.83 N",
		"longitude": "83-52-39.45 W",
		"state": "OHIO",
		"artcc": "ZID",
		"type": "RNAV",
		"updated": "07/09/2009",
	},
	{
		"name": "LYREE",
		"latitude": "38-31-41.32 N",
		"longitude": "86-31-31.89 W",
		"state": "INDIANA",
		"artcc": "ZID",
		"type": "RNAV",
		"updated": "01/20/2011",
	},
