[
	{
		"name": "NABLE",
		"latitude": "39-15-17.6 N",
		"longitude": "81-45-24.69 W",
		"state": "OHIO",
		"artcc": "ZID",
		"type": "RP",
		"updated": "JPU*VOR/DME*240.99/21.00"
	},
	{
		"name": "NACIT",
		"latitude": "39-1-5.17 N",
		"longitude": "87-43-15.02 W",
		"state": "ILLINOIS",
		"artcc": "ZID",
		"type": "RNAV",
		"updated": "07/29/2008"
	},
	{
		"name": "NADDI",
		"latitude": "38-3-56.5 N",
		"longitude": "86-5-43.9 W",
		"state": "INDIANA",
		"artcc": "ZID",
		"type": "RP",
		"updated": "FTK*VOR/DME*329.48/11.15"
	},
	{
		"name": "NADEE",
		"latitude": "39-45-2.78 N",
		"longitude": "86-7-19.66 W",
		"state": "INDIANA",
		"artcc": "ZID",
		"type": "RNAV",
		"updated": "01/12/2015"
	},
	{
		"name": "NADIR",
		"latitude": "40-36-20.77 N",
		"longitude": "84-33-52.14 W",
		"state": "OHIO",
		"artcc": "ZID",
		"type": "RP",
		"updated": "FBC*VORTAC*242.63"
	},
	{
		"name": "NAMGE",
		"latitude": "39-43-28.52 N",
		"longitude": "84-2-57.54 W",
		"state": "OHIO",
		"artcc": "ZID",
		"type": "RNAV",
		"updated": "10/19/2009"
	},
	{
		"name": "NARGE",
		"latitude": "40-3-24.1 N",
		"longitude": "83-55-40.92 W",
		"state": "OHIO",
		"artcc": "ZID",
		"type": "MW",
		"updated": "01/02/2013"
	},
	{
		"name": "NASCI",
		"latitude": "37-42-37.19 N",
		"longitude": "87-12-51.77 W",
		"state": "KENTUCKY",
		"artcc": "ZID",
		"type": "RNAV",
		"updated": "11/06/2012"
	},
	{
		"name": "NASYI",
		"latitude": "39-5-14.24 N",
		"longitude": "86-1-57.67 W",
		"state": "INDIANA",
		"artcc": "ZID",
		"type": "RNAV",
		"updated": "02/17/2006"
	},
	{
		"name": "NAUGT",
		"latitude": "38-56-42.8 N",
		"longitude": "82-51-9.03 W",
		"state": "OHIO",
		"artcc": "ZID",
		"type": "RNAV",
		"updated": "08/12/2008"
	},
	{
		"name": "NAYIC",
		"latitude": "37-10-23.14 N",
		"longitude": "81-29-44.18 W",
		"state": "VIRGINIA",
		"artcc": "ZID",
		"type": "RP",
		"updated": "JFZ*LE*071.63/16.32"
	},
	{
		"name": "NAYIV",
		"latitude": "39-3-34.33 N",
		"longitude": "85-43-54.18 W",
		"state": "INDIANA",
		"artcc": "ZID",
		"type": "RNAV",
		"updated": "09/03/2014"
	},
	{
		"name": "NEALS",
		"latitude": "37-35-45.99 N",
		"longitude": "81-48-24.62 W",
		"state": "WEST VIRGINIA",
		"artcc": "ZID",
		"type": "RP",
		"updated": "BKW*VOR/DME*257.47"
	},
	{
		"name": "NEATH",
		"latitude": "39-24-39.12 N",
		"longitude": "82-59-22.31 W",
		"state": "OHIO",
		"artcc": "ZID",
		"type": "RNAV",
		"updated": "02/12/2016"
	},
	{
		"name": "NEATS",
		"latitude": "39-18-52.57 N",
		"longitude": "84-39-46.59 W",
		"state": "OHIO",
		"artcc": "ZID",
		"type": "RP",
		"updated": "CVG*VORTAC*010.00/18.00"
	},
	{
		"name": "NEBIY",
		"latitude": "38-19-9.04 N",
		"longitude": "84-32-57.61 W",
		"state": "KENTUCKY",
		"artcc": "ZID",
		"type": "RP",
		"updated": "HYK*VOR/DME*350.26/21.46"
	},
	{
		"name": "NEBLA",
		"latitude": "39-54-44.95 N",
		"longitude": "81-55-22.15 W",
		"state": "OHIO",
		"artcc": "ZID",
		"type": "RP",
		"updated": "ZZV*VOR/DME*225.34/2.20"
	},
	{
		"name": "NECWI",
		"latitude": "38-14-52.66 N",
		"longitude": "86-50-18.85 W",
		"state": "INDIANA",
		"artcc": "ZID",
		"type": "RNAV",
		"updated": "10/14/2009"
	},
	{
		"name": "NEGVE",
		"latitude": "37-45-18.18 N",
		"longitude": "81-52-1.3 W",
		"state": "WEST VIRGINIA",
		"artcc": "ZID",
		"type": "RNAV",
		"updated": "09/14/2011"
	},
	{
		"name": "NEKOE",
		"latitude": "39-19-57.72 N",
		"longitude": "83-58-51.4 W",
		"state": "OHIO",
		"artcc": "ZID",
		"type": "RNAV",
		"updated": "04/26/2007"
	},
	{
		"name": "NEMIE",
		"latitude": "39-57-48.09 N",
		"longitude": "84-8-26.32 W",
		"state": "OHIO",
		"artcc": "ZID",
		"type": "RNAV",
		"updated": "04/11/2014"
	},
	{
		"name": "NEPPI",
		"latitude": "40-24-24.51 N",
		"longitude": "83-41-57.9 W",
		"state": "OHIO",
		"artcc": "ZID",
		"type": "RNAV",
		"updated": "03/08/2012"
	},
	{
		"name": "NERVE",
		"latitude": "38-36-56.26 N",
		"longitude": "85-5-25.24 W",
		"state": "KENTUCKY",
		"artcc": "ZID",
		"type": "RP",
		"updated": "CVG*VORTAC*221.22/30.09"
	},
	{
		"name": "NESRY",
		"latitude": "39-20-29.61 N",
		"longitude": "84-47-48.76 W",
		"state": "OHIO",
		"artcc": "ZID",
		"type": "RP",
		"updated": "CVG*VORTAC*351.43/20.00"
	},
	{
		"name": "NESWU",
		"latitude": "40-14-43.8 N",
		"longitude": "83-7-42.64 W",
		"state": "OHIO",
		"artcc": "ZID",
		"type": "RNAV",
		"updated": "03/13/2012"
	},
	{
		"name": "NETKE",
		"latitude": "39-12-27.69 N",
		"longitude": "82-31-22.96 W",
		"state": "OHIO",
		"artcc": "ZID",
		"type": "RNAV",
		"updated": "10/05/2017"
	},
	{
		"name": "NEWIC",
		"latitude": "39-29-1.77 N",
		"longitude": "83-35-51.66 W",
		"state": "OHIO",
		"artcc": "ZID",
		"type": "RP",
		"updated": "MXQ*VOR/DME*075.00/10.00"
	},
	{
		"name": "NEWMY",
		"latitude": "39-51-26.22 N",
		"longitude": "87-56-19.21 W",
		"state": "ILLINOIS",
		"artcc": "ZID",
		"type": "RP",
		"updated": "DNV*VORTAC*212.00"
	},
	{
		"name": "NEWTO",
		"latitude": "39-54-39.55 N",
		"longitude": "85-28-8.36 W",
		"state": "INDIANA",
		"artcc": "ZID",
		"type": "RP",
		"updated": "RID*VORTAC*291.00/30.59"
	},
	{
		"name": "NIBIE",
		"latitude": "39-34-21.44 N",
		"longitude": "88-3-56.42 W",
		"state": "ILLINOIS",
		"artcc": "ZID",
		"type": "RNAV",
		"updated": "09/24/2009"
	},
	{
		"name": "NICID",
		"latitude": "39-4-41.11 N",
		"longitude": "84-40-6.83 W",
		"state": "KENTUCKY",
		"artcc": "ZID",
		"type": "RP",
		"updated": "CVG*LD*N CRS/0.62"
	},
	{
		"name": "NIGMY",
		"latitude": "40-28-20.77 N",
		"longitude": "84-24-49.5 W",
		"state": "OHIO",
		"artcc": "ZID",
		"type": "RNAV",
		"updated": "06/13/2008"
	},
	{
		"name": "NIKLS",
		"latitude": "39-35-38.8 N",
		"longitude": "82-21-40.72 W",
		"state": "OHIO",
		"artcc": "ZID",
		"type": "RP",
		"updated": "APE*VORTAC*168.49/35.00"
	},
	{
		"name": "NINRE",
		"latitude": "39-40-4.16 N",
		"longitude": "84-3-3.87 W",
		"state": "OHIO",
		"artcc": "ZID",
		"type": "RNAV",
		"updated": "11/03/2006"
	},
	{
		"name": "NITTE",
		"latitude": "39-3-29.23 N",
		"longitude": "86-35-57.52 W",
		"state": "INDIANA",
		"artcc": "ZID",
		"type": "RP",
		"updated": "OOM*VORTAC*/5.18"
	},
	{
		"name": "NIYIK",
		"latitude": "38-7-2.87 N",
		"longitude": "83-37-53.57 W",
		"state": "KENTUCKY",
		"artcc": "ZID",
		"type": "RNAV",
		"updated": "07/15/2014"
	},
	{
		"name": "NIYRI",
		"latitude": "38-28-53 N",
		"longitude": "87-32-34.12 W",
		"state": "INDIANA",
		"artcc": "ZID",
		"type": "RNAV",
		"updated": "10/28/2008"
	},
	{
		"name": "NNOAH",
		"latitude": "36-30-38.43 N",
		"longitude": "84-15-26.77 W",
		"state": "TENNESSEE",
		"artcc": "ZID",
		"type": "RNAV",
		"updated": "06/05/2012"
	},
	{
		"name": "NOBYI",
		"latitude": "39-28-11.85 N",
		"longitude": "85-57-14.24 W",
		"state": "INDIANA",
		"artcc": "ZID",
		"type": "RP",
		"updated": "VHP*VORTAC*136.02/28.19"
	},
	{
		"name": "NOCNI",
		"latitude": "38-46-2.58 N",
		"longitude": "87-39-3.79 W",
		"state": "ILLINOIS",
		"artcc": "ZID",
		"type": "RNAV",
		"updated": "05/22/2012"
	},
	{
		"name": "NOCPO",
		"latitude": "38-59-37.82 N",
		"longitude": "81-46-22.3 W",
		"state": "OHIO",
		"artcc": "ZID",
		"type": "WP",
		"updated": "06/15/2011"
	},
	{
		"name": "NODSE",
		"latitude": "39-58-46.35 N",
		"longitude": "81-51-38.05 W",
		"state": "OHIO",
		"artcc": "ZID",
		"type": "RNAV",
		"updated": "11/14/2016"
	},
	{
		"name": "NOGJO",
		"latitude": "40-0-14.96 N",
		"longitude": "83-43-20.41 W",
		"state": "OHIO",
		"artcc": "ZID",
		"type": "RNAV",
		"updated": "08/18/2008"
	},
	{
		"name": "NOMPE",
		"latitude": "40-29-0.92 N",
		"longitude": "85-26-35.12 W",
		"state": "INDIANA",
		"artcc": "ZID",
		"type": "RNAV",
		"updated": "01/21/2015"
	},
	{
		"name": "NOMUF",
		"latitude": "40-1-30.29 N",
		"longitude": "85-22-53.94 W",
		"state": "INDIANA",
		"artcc": "ZID",
		"type": "RNAV",
		"updated": "09/24/2009"
	},
	{
		"name": "NOPCU",
		"latitude": "40-20-27.6 N",
		"longitude": "84-41-12.52 W",
		"state": "OHIO",
		"artcc": "ZID",
		"type": "RNAV",
		"updated": "01/20/2011"
	},
	{
		"name": "NOPOE",
		"latitude": "36-40-0.93 N",
		"longitude": "85-9-1.49 W",
		"state": "KENTUCKY",
		"artcc": "ZID",
		"type": "RNAV",
		"updated": "05/09/2016"
	},
	{
		"name": "NORKE",
		"latitude": "39-39-4.52 N",
		"longitude": "87-40-13.79 W",
		"state": "ILLINOIS",
		"artcc": "ZID",
		"type": "RNAV",
		"updated": "06/15/2016"
	},
	{
		"name": "NOTIY",
		"latitude": "38-51-56.61 N",
		"longitude": "85-58-20.71 W",
		"state": "INDIANA",
		"artcc": "ZID",
		"type": "RNAV",
		"updated": "09/03/2014"
	},
	{
		"name": "NOUNS",
		"latitude": "38-7-42.51 N",
		"longitude": "84-7-17.56 W",
		"state": "KENTUCKY",
		"artcc": "ZID",
		"type": "RP",
		"updated": "HYK*VOR/DME*059.61/19.26"
	},
	{
		"name": "NOVEE",
		"latitude": "36-25-53.77 N",
		"longitude": "84-56-45.53 W",
		"state": "TENNESSEE",
		"artcc": "ZID",
		"type": "RNAV",
		"updated": "05/03/2017"
	},
	{
		"name": "NOXIY",
		"latitude": "36-58-33.7 N",
		"longitude": "84-42-19.55 W",
		"state": "KENTUCKY",
		"artcc": "ZID",
		"type": "WP",
		"updated": "11/02/1998"
	},
	{
		"name": "NUGLY",
		"latitude": "38-10-19.89 N",
		"longitude": "85-10-14.13 W",
		"state": "KENTUCKY",
		"artcc": "ZID",
		"type": "RNAV",
		"updated": "08/09/2006"
	},
	{
		"name": "NUMDE",
		"latitude": "39-52-54.12 N",
		"longitude": "82-21-15.44 W",
		"state": "OHIO",
		"artcc": "ZID",
		"type": "RNAV",
		"updated": "03/28/2017"
	},
	{
		"name": "NUNYA",
		"latitude": "38-19-7.33 N",
		"longitude": "85-28-2.39 W",
		"state": "KENTUCKY",
		"artcc": "ZID",
		"type": "RNAV",
		"updated": "11/06/2006"
	},
	{
		"name": "NURBE",
		"latitude": "38-54-45.24 N",
		"longitude": "85-47-24.6 W",
		"state": "INDIANA",
		"artcc": "ZID",
		"type": "RNAV",
		"updated": "06/28/2009"
	},
	{
		"name": "NURME",
		"latitude": "38-49-6.76 N",
		"longitude": "86-26-5.67 W",
		"state": "INDIANA",
		"artcc": "ZID",
		"type": "RNAV",
		"updated": "06/18/2012"
	},
	{
		"name": "NUTTR",
		"latitude": "37-59-50.15 N",
		"longitude": "81-22-5.13 W",
		"state": "WEST VIRGINIA",
		"artcc": "ZID",
		"type": "RP",
		"updated": "BKW*VOR/DME*324.29"
	},
	{
		"name": "NUYIV",
		"latitude": "36-50-47.99 N",
		"longitude": "84-10-43.74 W",
		"state": "KENTUCKY",
		"artcc": "ZID",
		"type": "RNAV",
		"updated": "08/14/2012"
	},
	{
		"name": "NUYLI",
		"latitude": "38-49-2.08 N",
		"longitude": "84-38-52.02 W",
		"state": "KENTUCKY",
		"artcc": "ZID",
		"type": "RP",
		"updated": "EEI*LD*186.21/14.47"
	},
	{
		"name": "NUZUM",
		"latitude": "39-2-47.97 N",
		"longitude": "84-56-56.59 W",
		"state": "INDIANA",
		"artcc": "ZID",
		"type": "RNAV",
		"updated": "02/22/2010"
	},
	{
		"name": "NYIIM",
		"latitude": "40-13-44.9 N",
		"longitude": "83-55-4.12 W",
		"state": "OHIO",
		"artcc": "ZID",
		"type": "RNAV",
		"updated": "12/23/2013"
	},
	{
		"name": "NYOME",
		"latitude": "38-34-57.73 N",
		"longitude": "82-59-25.78 W",
		"state": "KENTUCKY",
		"artcc": "ZID",
		"type": "RNAV",
		"updated": "05/27/2011"
	}
]
