	{
		"name": "OAKUM",
		"latitude": "37-49-55.74 N",
		"longitude": "84-12-30.06 W",
		"state": "KENTUCKY",
		"artcc": "ZID",
		"type": "RNAV",
		"updated": "09/13/2012",
	},
	{
		"name": "OARED",
		"latitude": "36-46-4.97 N",
		"longitude": "84-19-40.35 W",
		"state": "KENTUCKY",
		"artcc": "ZID",
		"type": "RNAV",
		"updated": "09/22/2014",
	},
	{
		"name": "OAVES",
		"latitude": "39-52-11.41 N",
		"longitude": "84-6-3.17 W",
		"state": "OHIO",
		"artcc": "ZID",
		"type": "RNAV",
		"updated": "04/11/2014",
	},
	{
		"name": "OBERS",
		"latitude": "37-21-59.78 N",
		"longitude": "80-58-29.51 W",
		"state": "WEST VIRGINIA",
		"artcc": "ZID",
		"type": "RP",
		"updated": "BLF*VOR/DME*073.98/11.10",
	},
	{
		"name": "OBKAE",
		"latitude": "39-45-5.84 N",
		"longitude": "81-57-19.16 W",
		"state": "OHIO",
		"artcc": "ZID",
		"type": "RNAV",
		"updated": "05/06/2009",
	},
	{
		"name": "OBNOE",
		"latitude": "39-21-10.2 N",
		"longitude": "85-29-9.46 W",
		"state": "INDIANA",
		"artcc": "ZID",
		"type": "RNAV",
		"updated": "02/23/2015",
	},
	{
		"name": "OBSEW",
		"latitude": "37-34-20.5 N",
		"longitude": "82-17-23.68 W",
		"state": "KENTUCKY",
		"artcc": "ZID",
		"type": "RP",
		"updated": "PBX*LD*093.94/13.16",
	},
	{
		"name": "OBUGE",
		"latitude": "38-24-14.05 N",
		"longitude": "84-19-52.18 W",
		"state": "KENTUCKY",
		"artcc": "ZID",
		"type": "RNAV",
		"updated": "06/21/2010",
	},
	{
		"name": "OCASE",
		"latitude": "38-23-59.05 N",
		"longitude": "84-11-5.32 W",
		"state": "KENTUCKY",
		"artcc": "ZID",
		"type": "RNAV",
		"updated": "01/23/2014",
	},
	{
		"name": "OCHER",
		"latitude": "38-23-55.55 N",
		"longitude": "82-17-26.71 W",
		"state": "WEST VIRGINIA",
		"artcc": "ZID",
		"type": "RNAV",
		"updated": "02/10/2014",
	},
	{
		"name": "OCOCA",
		"latitude": "39-12-14.43 N",
		"longitude": "83-52-21.09 W",
		"state": "OHIO",
		"artcc": "ZID",
		"type": "RNAV",
		"updated": "03/28/2012",
	},
	{
		"name": "OCOGU",
		"latitude": "39-39-26.77 N",
		"longitude": "86-28-33.59 W",
		"state": "INDIANA",
		"artcc": "ZID",
		"type": "RNAV",
		"updated": "07/10/2013",
	},
	{
		"name": "OCOVE",
		"latitude": "40-9-25.13 N",
		"longitude": "85-18-2.94 W",
		"state": "INDIANA",
		"artcc": "ZID",
		"type": "RP",
		"updated": "MIE*VOR/DME*141.30/6.45",
	},
	{
		"name": "OCPAH",
		"latitude": "37-40-35.59 N",
		"longitude": "81-49-53.23 W",
		"state": "WEST VIRGINIA",
		"artcc": "ZID",
		"type": "RNAV",
		"updated": "09/14/2011",
	},
	{
		"name": "OCTUC",
		"latitude": "39-12-1.71 N",
		"longitude": "87-26-49.28 W",
		"state": "INDIANA",
		"artcc": "ZID",
		"type": "RNAV",
		"updated": "09/25/2014",
	},
	{
		"name": "ODABE",
		"latitude": "37-39-39.73 N",
		"longitude": "83-41-51.55 W",
		"state": "KENTUCKY",
		"artcc": "ZID",
		"type": "RNAV",
		"updated": "11/17/2016",
	},
	{
		"name": "ODACI",
		"latitude": "39-17-6.57 N",
		"longitude": "85-53-8.79 W",
		"state": "INDIANA",
		"artcc": "ZID",
		"type": "RNAV",
		"updated": "02/17/2006",
	},
	{
		"name": "ODEBE",
		"latitude": "39-53-17.87 N",
		"longitude": "88-5-1.42 W",
		"state": "ILLINOIS",
		"artcc": "ZID",
		"type": "RNAV",
		"updated": "01/27/2015",
	},
	{
		"name": "ODENN",
		"latitude": "39-15-7.18 N",
		"longitude": "81-29-16.78 W",
		"state": "WEST VIRGINIA",
		"artcc": "ZID",
		"type": "RNAV",
		"updated": "04/09/2012",
	},
	{
		"name": "ODORY",
		"latitude": "39-31-25.75 N",
		"longitude": "83-34-15.12 W",
		"state": "OHIO",
		"artcc": "ZID",
		"type": "RNAV",
		"updated": "07/09/2009",
	},
	{
		"name": "ODUBE",
		"latitude": "37-12-27.26 N",
		"longitude": "83-52-54.43 W",
		"state": "KENTUCKY",
		"artcc": "ZID",
		"type": "RNAV",
		"updated": "08/08/2006",
	},
	{
		"name": "ODWUC",
		"latitude": "37-14-4.26 N",
		"longitude": "83-50-55.85 W",
		"state": "KENTUCKY",
		"artcc": "ZID",
		"type": "RNAV",
		"updated": "08/12/2015",
	},
	{
		"name": "ODYOV",
		"latitude": "37-8-26.46 N",
		"longitude": "82-52-35.43 W",
		"state": "KENTUCKY",
		"artcc": "ZID",
		"type": "RNAV",
		"updated": "02/09/2018",
	},
	{
		"name": "OFIRO",
		"latitude": "38-14-28.47 N",
		"longitude": "84-25-49.9 W",
		"state": "KENTUCKY",
		"artcc": "ZID",
		"type": "WP",
		"updated": "11/02/1998",
	},
	{
		"name": "OFLAN",
		"latitude": "38-1-20.36 N",
		"longitude": "84-31-32.96 W",
		"state": "KENTUCKY",
		"artcc": "ZID",
		"type": "RNAV",
		"updated": "12/01/2017",
	},
	{
		"name": "OFOCO",
		"latitude": "39-22-11.28 N",
		"longitude": "86-28-29.32 W",
		"state": "INDIANA",
		"artcc": "ZID",
		"type": "RP",
		"updated": "OOM*VORTAC*027.39/15.00",
	},
	{
		"name": "OGARE",
		"latitude": "38-58-33.66 N",
		"longitude": "82-34-51.84 W",
		"state": "OHIO",
		"artcc": "ZID",
		"type": "RP",
		"updated": "YRK*VORTAC*048.00/27.26",
	},
	{
		"name": "OGEDY",
		"latitude": "38-14-59.95 N",
		"longitude": "87-4-13.05 W",
		"state": "INDIANA",
		"artcc": "ZID",
		"type": "RNAV",
		"updated": "10/14/2009",
	},
	{
		"name": "OGINY",
		"latitude": "37-40-49.48 N",
		"longitude": "81-21-56.54 W",
		"state": "WEST VIRGINIA",
		"artcc": "ZID",
		"type": "RNAV",
		"updated": "01/11/2018",
	},
	{
		"name": "OGIRE",
		"latitude": "39-24-53 N",
		"longitude": "84-32-30 W",
		"state": "OHIO",
		"artcc": "ZID",
		"type": "RNAV",
		"updated": "11/24/2006",
	},
	{
		"name": "OGMUU",
		"latitude": "37-5-3.54 N",
		"longitude": "82-20-58.01 W",
		"state": "VIRGINIA",
		"artcc": "ZID",
		"type": "RP",
		"updated": "GZG*VOR/DME*322.14/20.25",
	},
	{
		"name": "OGULY",
		"latitude": "40-43-24.15 N",
		"longitude": "83-59-6.74 W",
		"state": "OHIO",
		"artcc": "ZID",
		"type": "RNAV",
		"updated": "12/26/2013",
	},
	{
		"name": "OGUSY",
		"latitude": "39-14-26.67 N",
		"longitude": "86-38-1.31 W",
		"state": "INDIANA",
		"artcc": "ZID",
		"type": "RNAV",
		"updated": "03/23/2009",
	},
	{
		"name": "OHAGI",
		"latitude": "37-52-5.84 N",
		"longitude": "84-44-36.8 W",
		"state": "KENTUCKY",
		"artcc": "ZID",
		"type": "RNAV",
		"updated": "06/05/2012",
	},
	{
		"name": "OHIOS",
		"latitude": "38-49-6.16 N",
		"longitude": "82-40-39.27 W",
		"state": "OHIO",
		"artcc": "ZID",
		"type": "RP",
		"updated": "APE*VORTAC*189.00/80.00",
	},
	{
		"name": "OHMEE",
		"latitude": "39-54-11.38 N",
		"longitude": "83-44-10.57 W",
		"state": "OHIO",
		"artcc": "ZID",
		"type": "RP",
		"updated": "SGH*VOR/DME*055.46/6.42",
	},
	{
		"name": "OHOLO",
		"latitude": "37-46-37.77 N",
		"longitude": "82-44-42.11 W",
		"state": "KENTUCKY",
		"artcc": "ZID",
		"type": "CN",
		"updated": "12/04/2014",
	},
	{
		"name": "OHOZE",
		"latitude": "39-50-15.64 N",
		"longitude": "83-42-32.25 W",
		"state": "OHIO",
		"artcc": "ZID",
		"type": "RNAV",
		"updated": "08/12/2008",
	},
	{
		"name": "OIILL",
		"latitude": "39-50-18.73 N",
		"longitude": "87-5-7.56 W",
		"state": "INDIANA",
		"artcc": "ZID",
		"type": "RNAV",
		"updated": "01/12/2015",
	},
	{
		"name": "OINKK",
		"latitude": "39-39-26.98 N",
		"longitude": "86-22-58.97 W",
		"state": "INDIANA",
		"artcc": "ZID",
		"type": "RP",
		"updated": "VHP*VORTAC*183.37",
	},
	{
		"name": "OJESA",
		"latitude": "37-58-46.29 N",
		"longitude": "86-1-51.99 W",
		"state": "KENTUCKY",
		"artcc": "ZID",
		"type": "MW",
		"updated": "10/28/2010",
	},
	{
		"name": "OJETO",
		"latitude": "37-12-24.71 N",
		"longitude": "85-32-0.78 W",
		"state": "KENTUCKY",
		"artcc": "ZID",
		"type": "RP",
		"updated": "EWO*VOR/DME*164.01/26.36",
	},
	{
		"name": "OJOHN",
		"latitude": "40-1-8.43 N",
		"longitude": "82-35-51.58 W",
		"state": "OHIO",
		"artcc": "ZID",
		"type": "RP",
		"updated": "APE*VORTAC*189.12",
	},
	{
		"name": "OKACA",
		"latitude": "36-54-1.24 N",
		"longitude": "84-48-56.57 W",
		"state": "KENTUCKY",
		"artcc": "ZID",
		"type": "RNAV",
		"updated": "06/21/2013",
	},
	{
		"name": "OKIDE",
		"latitude": "39-56-50.53 N",
		"longitude": "84-6-58.58 W",
		"state": "OHIO",
		"artcc": "ZID",
		"type": "RNAV",
		"updated": "07/29/2009",
	},
	{
		"name": "OKIWI",
		"latitude": "36-21-31.97 N",
		"longitude": "85-22-54.02 W",
		"state": "TENNESSEE",
		"artcc": "ZID",
		"type": "RNAV",
		"updated": "01/16/2001",
	},
	{
		"name": "OKNEW",
		"latitude": "38-9-5.31 N",
		"longitude": "84-29-6.56 W",
		"state": "KENTUCKY",
		"artcc": "ZID",
		"type": "RNAV",
		"updated": "06/21/2010",
	},
	{
		"name": "OKOLO",
		"latitude": "38-9-48.62 N",
		"longitude": "85-40-3.41 W",
		"state": "KENTUCKY",
		"artcc": "ZID",
		"type": "RP",
		"updated": "BQM*VOR/DME*182.95/4.00",
	},
	{
		"name": "OKONE",
		"latitude": "39-57-13.36 N",
		"longitude": "84-30-8.89 W",
		"state": "OHIO",
		"artcc": "ZID",
		"type": "RNAV",
		"updated": "04/05/2004",
	},
	{
		"name": "OKPEW",
		"latitude": "36-53-52.91 N",
		"longitude": "84-12-41.73 W",
		"state": "KENTUCKY",
		"artcc": "ZID",
		"type": "RNAV",
		"updated": "08/08/2006",
	},
	{
		"name": "OKSOW",
		"latitude": "36-57-44.46 N",
		"longitude": "84-14-16.53 W",
		"state": "KENTUCKY",
		"artcc": "ZID",
		"type": "RNAV",
		"updated": "07/26/2016",
	},
	{
		"name": "OLBEE",
		"latitude": "38-53-23.09 N",
		"longitude": "87-15-28.4 W",
		"state": "INDIANA",
		"artcc": "ZID",
		"type": "RNAV",
		"updated": "09/12/2014",
	},
	{
		"name": "OLEDE",
		"latitude": "37-12-9 N",
		"longitude": "84-40-30 W",
		"state": "KENTUCKY",
		"artcc": "ZID",
		"type": "RNAV",
		"updated": "05/09/2016",
	},
	{
		"name": "OLETE",
		"latitude": "37-29-41.89 N",
		"longitude": "83-28-40.21 W",
		"state": "KENTUCKY",
		"artcc": "ZID",
		"type": "RP",
		"updated": "AZQ*VOR/DME*305.26/12.00",
	},
	{
		"name": "OLGEW",
		"latitude": "37-43-1.47 N",
		"longitude": "87-56-31.81 W",
		"state": "KENTUCKY",
		"artcc": "ZID",
		"type": "RNAV",
		"updated": "02/20/2014",
	},
	{
		"name": "OLGLD",
		"latitude": "39-42-39.53 N",
		"longitude": "86-28-33.38 W",
		"state": "INDIANA",
		"artcc": "ZID",
		"type": "RNAV",
		"updated": "03/25/2015",
	},
	{
		"name": "OLIPE",
		"latitude": "38-58-21.98 N",
		"longitude": "88-3-43.09 W",
		"state": "ILLINOIS",
		"artcc": "ZID",
		"type": "RNAV",
		"updated": "01/12/2015",
	},
	{
		"name": "OMIFI",
		"latitude": "37-5-0.69 N",
		"longitude": "85-14-36.98 W",
		"state": "KENTUCKY",
		"artcc": "ZID",
		"type": "RNAV",
		"updated": "01/10/2001",
	},
	{
		"name": "OMIJU",
		"latitude": "37-38-1.38 N",
		"longitude": "81-26-49.58 W",
		"state": "WEST VIRGINIA",
		"artcc": "ZID",
		"type": "RNAV",
		"updated": "01/08/2018",
	},
	{
		"name": "OMITS",
		"latitude": "39-50-19.73 N",
		"longitude": "84-19-13.12 W",
		"state": "OHIO",
		"artcc": "ZID",
		"type": "WP",
		"updated": "DQN*VOR/DME*162.62/11.22",
	},
	{
		"name": "OMOZA",
		"latitude": "36-41-54.02 N",
		"longitude": "85-5-18.99 W",
		"state": "KENTUCKY",
		"artcc": "ZID",
		"type": "RNAV",
		"updated": "08/01/2016",
	},
	{
		"name": "OMUBE",
		"latitude": "37-43-56.77 N",
		"longitude": "81-8-2.38 W",
		"state": "WEST VIRGINIA",
		"artcc": "ZID",
		"type": "RNAV",
		"updated": "06/21/2011",
	},
	{
		"name": "ONAGY",
		"latitude": "38-34-25.78 N",
		"longitude": "85-38-51.88 W",
		"state": "INDIANA",
		"artcc": "ZID",
		"type": "RNAV",
		"updated": "09/27/2016",
	},
	{
		"name": "ONMEE",
		"latitude": "38-4-28.77 N",
		"longitude": "85-54-14.55 W",
		"state": "KENTUCKY",
		"artcc": "ZID",
		"type": "RNAV",
		"updated": "06/05/2012",
	},
	{
		"name": "ONOSY",
		"latitude": "39-32-30.45 N",
		"longitude": "84-58-27.39 W",
		"state": "INDIANA",
		"artcc": "ZID",
		"type": "RNAV",
		"updated": "07/20/2000",
	},
	{
		"name": "ONZIG",
		"latitude": "37-48-48.03 N",
		"longitude": "87-25-56.26 W",
		"state": "KENTUCKY",
		"artcc": "ZID",
		"type": "RNAV",
		"updated": "08/14/2008",
	},
	{
		"name": "OPEVE",
		"latitude": "39-27-22.63 N",
		"longitude": "85-58-53.62 W",
		"state": "INDIANA",
		"artcc": "ZID",
		"type": "RNAV",
		"updated": "01/12/2015",
	},
	{
		"name": "OPHUS",
		"latitude": "39-13-51.87 N",
		"longitude": "84-40-59.26 W",
		"state": "OHIO",
		"artcc": "ZID",
		"type": "RP",
		"updated": "CJN*LD*006.17/11.16",
	},
	{
		"name": "OPMUC",
		"latitude": "39-6-54.85 N",
		"longitude": "86-52-2.68 W",
		"state": "INDIANA",
		"artcc": "ZID",
		"type": "RP",
		"updated": "OOM*VORTAC*263.87/12.00",
	},
	{
		"name": "OPNIC",
		"latitude": "39-42-12.53 N",
		"longitude": "86-6-27.62 W",
		"state": "INDIANA",
		"artcc": "ZID",
		"type": "RNAV",
		"updated": "11/19/2007",
	},
	{
		"name": "OPOKE",
		"latitude": "39-58-3.65 N",
		"longitude": "83-4-57.1 W",
		"state": "OHIO",
		"artcc": "ZID",
		"type": "RNAV",
		"updated": "09/29/2016",
	},
	{
		"name": "OPVAF",
		"latitude": "39-46-17.55 N",
		"longitude": "85-40-35.71 W",
		"state": "INDIANA",
		"artcc": "ZID",
		"type": "RNAV",
		"updated": "02/09/2018",
	},
	{
		"name": "OQCIR",
		"latitude": "38-47-23.12 N",
		"longitude": "87-7-47.17 W",
		"state": "INDIANA",
		"artcc": "ZID",
		"type": "RNAV",
		"updated": "09/12/2014",
	},
	{
		"name": "ORBOE",
		"latitude": "39-42-8.08 N",
		"longitude": "83-43-27.02 W",
		"state": "OHIO",
		"artcc": "ZID",
		"type": "RNAV",
		"updated": "11/03/2006",
	},
	{
		"name": "ORBUE",
		"latitude": "39-49-47.34 N",
		"longitude": "86-5-3.69 W",
		"state": "INDIANA",
		"artcc": "ZID",
		"type": "RNAV",
		"updated": "05/02/2018",
	},
	{
		"name": "OREOH",
		"latitude": "38-28-51.67 N",
		"longitude": "85-44-16.55 W",
		"state": "INDIANA",
		"artcc": "ZID",
		"type": "RNAV",
		"updated": "04/26/2012",
	},
	{
		"name": "OREWO",
		"latitude": "36-46-20.89 N",
		"longitude": "84-55-48.72 W",
		"state": "KENTUCKY",
		"artcc": "ZID",
		"type": "RNAV",
		"updated": "06/21/2013",
	},
	{
		"name": "OREXE",
		"latitude": "39-57-44.85 N",
		"longitude": "83-56-19.43 W",
		"state": "OHIO",
		"artcc": "ZID",
		"type": "RNAV",
		"updated": "07/30/2010",
	},
	{
		"name": "ORICE",
		"latitude": "40-6-40.42 N",
		"longitude": "83-58-41.35 W",
		"state": "OHIO",
		"artcc": "ZID",
		"type": "RP",
		"updated": "ROD*VORTAC*169.22/11.00",
	},
	{
		"name": "ORIKE",
		"latitude": "39-51-47.62 N",
		"longitude": "86-18-45.99 W",
		"state": "INDIANA",
		"artcc": "ZID",
		"type": "RNAV",
		"updated": "01/12/2015",
	},
	{
		"name": "ORLEE",
		"latitude": "39-42-40.15 N",
		"longitude": "83-38-2.34 W",
		"state": "OHIO",
		"artcc": "ZID",
		"type": "RP",
		"updated": "APE*VORTAC*247.68/55.00",
	},
	{
		"name": "ORLEY",
		"latitude": "39-31-22.53 N",
		"longitude": "87-27-35.42 W",
		"state": "INDIANA",
		"artcc": "ZID",
		"type": "RP",
		"updated": "TTH*VORTAC*279.82/10.00",
	},
	{
		"name": "ORRVL",
		"latitude": "39-53-10.09 N",
		"longitude": "83-43-39.72 W",
		"state": "OHIO",
		"artcc": "ZID",
		"type": "MW",
		"updated": "01/02/2013",
	},
	{
		"name": "ORTFI",
		"latitude": "37-59-57.22 N",
		"longitude": "87-32-6.93 W",
		"state": "INDIANA",
		"artcc": "ZID",
		"type": "RNAV",
		"updated": "04/26/2012",
	},
	{
		"name": "OSATE",
		"latitude": "38-47-2.67 N",
		"longitude": "82-36-0.76 W",
		"state": "OHIO",
		"artcc": "ZID",
		"type": "RNAV",
		"updated": "08/03/2004",
	},
	{
		"name": "OSCRR",
		"latitude": "39-41-27.38 N",
		"longitude": "86-20-25.81 W",
		"state": "INDIANA",
		"artcc": "ZID",
		"type": "RP",
		"updated": "VHP*VORTAC*169.44",
	},
	{
		"name": "OSDIE",
		"latitude": "39-41-12.65 N",
		"longitude": "84-9-14.58 W",
		"state": "OHIO",
		"artcc": "ZID",
		"type": "RNAV",
		"updated": "08/02/2012",
	},
	{
		"name": "OSEKE",
		"latitude": "39-23-19.19 N",
		"longitude": "88-0-30.4 W",
		"state": "ILLINOIS",
		"artcc": "ZID",
		"type": "RNAV",
		"updated": "01/22/2016",
	},
	{
		"name": "OSINE",
		"latitude": "37-32-0.63 N",
		"longitude": "86-19-9.84 W",
		"state": "KENTUCKY",
		"artcc": "ZID",
		"type": "RP",
		"updated": "EWO*VOR/DME*258.33",
	},
	{
		"name": "OSLEJ",
		"latitude": "40-14-55.89 N",
		"longitude": "84-15-53.66 W",
		"state": "OHIO",
		"artcc": "ZID",
		"type": "RNAV",
		"updated": "12/23/2013",
	},
	{
		"name": "OSULE",
		"latitude": "39-48-6.8 N",
		"longitude": "86-38-18.41 W",
		"state": "INDIANA",
		"artcc": "ZID",
		"type": "RNAV",
		"updated": "01/13/2016",
	},
	{
		"name": "OTAKY",
		"latitude": "39-24-59.84 N",
		"longitude": "86-18-21.85 W",
		"state": "INDIANA",
		"artcc": "ZID",
		"type": "RNAV",
		"updated": "08/06/2012",
	},
	{
		"name": "OTALY",
		"latitude": "40-12-15.4 N",
		"longitude": "85-19-21.72 W",
		"state": "INDIANA",
		"artcc": "ZID",
		"type": "RNAV",
		"updated": "08/06/2012",
	},
	{
		"name": "OTAPE",
		"latitude": "36-58-17.02 N",
		"longitude": "84-8-30.01 W",
		"state": "KENTUCKY",
		"artcc": "ZID",
		"type": "RP",
		"updated": "LOZ*VOR/DME*205.32/4.00",
	},
	{
		"name": "OTGIE",
		"latitude": "39-51-36 N",
		"longitude": "86-16-34.46 W",
		"state": "INDIANA",
		"artcc": "ZID",
		"type": "RNAV",
		"updated": "02/17/2016",
	},
	{
		"name": "OTMAN",
		"latitude": "39-56-49.2 N",
		"longitude": "81-54-15.6 W",
		"state": "OHIO",
		"artcc": "ZID",
		"type": "RP",
		"updated": "DJB*VOR/DME*177.00/85.42",
	},
	{
		"name": "OTONE",
		"latitude": "37-13-51.93 N",
		"longitude": "81-27-10.68 W",
		"state": "VIRGINIA",
		"artcc": "ZID",
		"type": "RNAV",
		"updated": "07/06/2017",
	},
	{
		"name": "OTOSE",
		"latitude": "39-45-51.28 N",
		"longitude": "86-59-18.88 W",
		"state": "INDIANA",
		"artcc": "ZID",
		"type": "RNAV",
		"updated": "10/07/2016",
	},
	{
		"name": "OTUCU",
		"latitude": "37-48-29.34 N",
		"longitude": "81-22-35.67 W",
		"state": "WEST VIRGINIA",
		"artcc": "ZID",
		"type": "RNAV",
		"updated": "06/21/2011",
	},
	{
		"name": "OVEDE",
		"latitude": "39-53-11.03 N",
		"longitude": "84-3-1.84 W",
		"state": "OHIO",
		"artcc": "ZID",
		"type": "RNAV",
		"updated": "04/11/2014",
	},
	{
		"name": "OVMAW",
		"latitude": "38-0-59.01 N",
		"longitude": "84-51-2.22 W",
		"state": "KENTUCKY",
		"artcc": "ZID",
		"type": "RNAV",
		"updated": "08/10/2010",
	},
	{
		"name": "OVNOE",
		"latitude": "38-19-55.14 N",
		"longitude": "85-54-53.16 W",
		"state": "INDIANA",
		"artcc": "ZID",
		"type": "RNAV",
		"updated": "08/07/2008",
	},
	{
		"name": "OWAVE",
		"latitude": "39-32-20.97 N",
		"longitude": "81-20-18.3 W",
		"state": "OHIO",
		"artcc": "ZID",
		"type": "RNAV",
		"updated": "04/17/2012",
	},
	{
		"name": "OWEQO",
		"latitude": "40-10-6.51 N",
		"longitude": "83-44-18.35 W",
		"state": "OHIO",
		"artcc": "ZID",
		"type": "RNAV",
		"updated": "07/30/2010",
	},
	{
		"name": "OWKIQ",
		"latitude": "40-5-44.85 N",
		"longitude": "85-34-40.44 W",
		"state": "INDIANA",
		"artcc": "ZID",
		"type": "RP",
		"updated": "MIE*VOR/DME*227.52",
	},
	{
		"name": "OXDOH",
		"latitude": "39-3-30.73 N",
		"longitude": "86-48-38.95 W",
		"state": "INDIANA",
		"artcc": "ZID",
		"type": "RNAV",
		"updated": "08/03/2001",
	},
	{
		"name": "OXEPE",
		"latitude": "40-22-3.25 N",
		"longitude": "84-31-3.8 W",
		"state": "OHIO",
		"artcc": "ZID",
		"type": "RNAV",
		"updated": "06/13/2008",
	},
	{
		"name": "OXIRE",
		"latitude": "39-32-35.25 N",
		"longitude": "87-18-42.44 W",
		"state": "INDIANA",
		"artcc": "ZID",
		"type": "RNAV",
		"updated": "09/29/2014",
	},
	{
		"name": "OXOKE",
		"latitude": "39-0-4.93 N",
		"longitude": "85-39-18.24 W",
		"state": "INDIANA",
		"artcc": "ZID",
		"type": "RNAV",
		"updated": "03/16/2007",
	},
	{
		"name": "OXUSE",
		"latitude": "38-54-10.19 N",
		"longitude": "83-32-4.33 W",
		"state": "OHIO",
		"artcc": "ZID",
		"type": "RNAV",
		"updated": "09/24/2015",
	},
	{
		"name": "OXVOR",
		"latitude": "38-0-4.09 N",
		"longitude": "85-24-23.72 W",
		"state": "KENTUCKY",
		"artcc": "ZID",
		"type": "RNAV",
		"updated": "02/20/2018",
	},
	{
		"name": "OYANE",
		"latitude": "38-48-18.47 N",
		"longitude": "85-25-44.12 W",
		"state": "INDIANA",
		"artcc": "ZID",
		"type": "RNAV",
		"updated": "05/12/2008",
	},
	{
		"name": "OYCEG",
		"latitude": "40-7-8.2 N",
		"longitude": "85-12-30.81 W",
		"state": "INDIANA",
		"artcc": "ZID",
		"type": "RNAV",
		"updated": "01/20/2011",
	},
	{
		"name": "OYEGI",
		"latitude": "38-48-55.96 N",
		"longitude": "86-24-21.11 W",
		"state": "INDIANA",
		"artcc": "ZID",
		"type": "RNAV",
		"updated": "06/16/2011",
	},
	{
		"name": "OYILU",
		"latitude": "39-58-15.93 N",
		"longitude": "83-4-47.21 W",
		"state": "OHIO",
		"artcc": "ZID",
		"type": "RNAV",
		"updated": "12/09/2008",
	},
	{
		"name": "OYINU",
		"latitude": "39-26-52.68 N",
		"longitude": "86-38-52.56 W",
		"state": "INDIANA",
		"artcc": "ZID",
		"type": "CN",
		"updated": "01/02/2008",
	},
	{
		"name": "OYNOV",
		"latitude": "40-51-55.2 N",
		"longitude": "84-29-42.12 W",
		"state": "OHIO",
		"artcc": "ZID",
		"type": "RNAV",
		"updated": "11/12/2008",
	},
	{
		"name": "OYOVU",
		"latitude": "39-32-30.36 N",
		"longitude": "83-0-47.88 W",
		"state": "OHIO",
		"artcc": "ZID",
		"type": "RNAV",
		"updated": "07/05/2011",
	},
	{
		"name": "OYUNO",
		"latitude": "38-13-19.57 N",
		"longitude": "83-40-18.99 W",
		"state": "KENTUCKY",
		"artcc": "ZID",
		"type": "RNAV",
		"updated": "08/13/2013",
	},
	{
		"name": "OZIRO",
		"latitude": "39-10-8.89 N",
		"longitude": "87-53-57.18 W",
		"state": "ILLINOIS",
		"artcc": "ZID",
		"type": "RNAV",
		"updated": "07/16/2013",
	},
	{
		"name": "OZMOE",
		"latitude": "39-34-9.13 N",
		"longitude": "86-4-20.96 W",
		"state": "INDIANA",
		"artcc": "ZID",
		"type": "RP",
		"updated": "SHB*VOR/DME*250.82/12.12",
	},
	{
		"name": "OZROC",
		"latitude": "39-42-15.31 N",
		"longitude": "84-56-17.42 W",
		"state": "INDIANA",
		"artcc": "ZID",
		"type": "RNAV",
		"updated": "05/06/2009",
	},
	{
		"name": "OZSAL",
		"latitude": "37-36-55.3 N",
		"longitude": "81-48-24.72 W",
		"state": "WEST VIRGINIA",
		"artcc": "ZID",
		"type": "RNAV",
		"updated": "01/08/2018",
	},
