[
	{
		"name": "PAADS",
		"latitude": "37-43-1.57 N",
		"longitude": "81-59-57.8 W",
		"state": "WEST VIRGINIA",
		"artcc": "ZID",
		"type": "RNAV",
		"updated": "09/14/2011"
	},
	{
		"name": "PACID",
		"latitude": "37-48-36.74 N",
		"longitude": "84-30-5.52 W",
		"state": "KENTUCKY",
		"artcc": "ZID",
		"type": "RNAV",
		"updated": "09/13/2012"
	},
	{
		"name": "PACRR",
		"latitude": "39-47-7.01 N",
		"longitude": "86-11-45.01 W",
		"state": "INDIANA",
		"artcc": "ZID",
		"type": "RP",
		"updated": "VHP*VORTAC*101.48"
	},
	{
		"name": "PAGVE",
		"latitude": "39-3-53.02 N",
		"longitude": "80-27-28.22 W",
		"state": "WEST VIRGINIA",
		"artcc": "ZID",
		"type": "RP",
		"updated": "EKN*VORTAC*305.35"
	},
	{
		"name": "PALLA",
		"latitude": "40-17-23.61 N",
		"longitude": "82-32-10.72 W",
		"state": "OHIO",
		"artcc": "ZID",
		"type": "RP",
		"updated": "APE*VORTAC*022.00/8.66"
	},
	{
		"name": "PALSE",
		"latitude": "37-23-30.27 N",
		"longitude": "85-15-34.5 W",
		"state": "KENTUCKY",
		"artcc": "ZID",
		"type": "RNAV",
		"updated": "06/13/2011"
	},
	{
		"name": "PANTE",
		"latitude": "37-42-22.69 N",
		"longitude": "87-12-34.71 W",
		"state": "KENTUCKY",
		"artcc": "ZID",
		"type": "RP",
		"updated": "OWB*VOR/DME*222.00"
	},
	{
		"name": "PARCL",
		"latitude": "38-4-16.47 N",
		"longitude": "85-41-30.38 W",
		"state": "KENTUCKY",
		"artcc": "ZID",
		"type": "RP",
		"updated": "IIU*VORTAC*249.41"
	},
	{
		"name": "PATIE",
		"latitude": "40-18-6.64 N",
		"longitude": "82-16-2.23 W",
		"state": "OHIO",
		"artcc": "ZID",
		"type": "RNAV",
		"updated": "06/29/2011"
	},
	{
		"name": "PATMY",
		"latitude": "37-15-2.35 N",
		"longitude": "84-25-41.52 W",
		"state": "KENTUCKY",
		"artcc": "ZID",
		"type": "RNAV",
		"updated": "06/21/2006"
	},
	{
		"name": "PAVAE",
		"latitude": "39-56-45.29 N",
		"longitude": "84-56-38.69 W",
		"state": "INDIANA",
		"artcc": "ZID",
		"type": "RNAV",
		"updated": "02/23/2015"
	},
	{
		"name": "PDIDY",
		"latitude": "39-30-26.82 N",
		"longitude": "86-2-23.27 W",
		"state": "INDIANA",
		"artcc": "ZID",
		"type": "RNAV",
		"updated": "01/12/2015"
	},
	{
		"name": "PEAIR",
		"latitude": "37-34-1.62 N",
		"longitude": "82-25-5.23 W",
		"state": "KENTUCKY",
		"artcc": "ZID",
		"type": "RP",
		"updated": "PBX*LD*093.94/7.04"
	},
	{
		"name": "PECID",
		"latitude": "39-1-16.35 N",
		"longitude": "82-34-23.95 W",
		"state": "OHIO",
		"artcc": "ZID",
		"type": "RNAV",
		"updated": "08/03/2004"
	},
	{
		"name": "PEDIE",
		"latitude": "39-53-37.59 N",
		"longitude": "85-1-12.82 W",
		"state": "INDIANA",
		"artcc": "ZID",
		"type": "RNAV",
		"updated": "08/01/2006"
	},
	{
		"name": "PEKYI",
		"latitude": "39-10-34.07 N",
		"longitude": "85-58-0.63 W",
		"state": "INDIANA",
		"artcc": "ZID",
		"type": "RNAV",
		"updated": "02/22/2006"
	},
	{
		"name": "PENBE",
		"latitude": "37-39-15.51 N",
		"longitude": "88-9-31.42 W",
		"state": "ILLINOIS",
		"artcc": "ZID",
		"type": "RP",
		"updated": "PXV*VORTAC*226.06/25.00"
	},
	{
		"name": "PENDS",
		"latitude": "40-5-57.83 N",
		"longitude": "85-42-54.47 W",
		"state": "INDIANA",
		"artcc": "ZID",
		"type": "RP",
		"updated": "MZZ*VOR/DME*187.00"
	},
	{
		"name": "PENIC",
		"latitude": "40-4-40.36 N",
		"longitude": "81-46-28.78 W",
		"state": "OHIO",
		"artcc": "ZID",
		"type": "RP",
		"updated": "TNF*LD*039.84/10.19"
	},
	{
		"name": "PENOE",
		"latitude": "39-54-40.9 N",
		"longitude": "83-43-56.89 W",
		"state": "OHIO",
		"artcc": "ZID",
		"type": "RNAV",
		"updated": "08/03/2010"
	},
	{
		"name": "PENTO",
		"latitude": "38-19-43.31 N",
		"longitude": "87-17-16.73 W",
		"state": "INDIANA",
		"artcc": "ZID",
		"type": "RP",
		"updated": "ENL*VORTAC*088.97/88.45"
	},
	{
		"name": "PERLE",
		"latitude": "38-55-43.43 N",
		"longitude": "86-29-46.32 W",
		"state": "INDIANA",
		"artcc": "ZID",
		"type": "RP",
		"updated": "OOM*VORTAC*159.00/14.00"
	},
	{
		"name": "PETES",
		"latitude": "38-23-12.84 N",
		"longitude": "84-55-28.72 W",
		"state": "KENTUCKY",
		"artcc": "ZID",
		"type": "RP",
		"updated": "FLM*VOR/DME*245.63/32.92"
	},
	{
		"name": "PETLE",
		"latitude": "39-28-42.26 N",
		"longitude": "82-59-5.23 W",
		"state": "OHIO",
		"artcc": "ZID",
		"type": "RNAV",
		"updated": "02/12/2016"
	},
	{
		"name": "PETRO",
		"latitude": "39-28-20.24 N",
		"longitude": "83-58-15.12 W",
		"state": "OHIO",
		"artcc": "ZID",
		"type": "RP",
		"updated": "SGH*VOR/DME*199.00"
	},
	{
		"name": "PETYN",
		"latitude": "39-47-17.16 N",
		"longitude": "86-21-36.14 W",
		"state": "INDIANA",
		"artcc": "ZID",
		"type": "RNAV",
		"updated": "01/12/2015"
	},
	{
		"name": "PEWEZ",
		"latitude": "39-51-53.86 N",
		"longitude": "84-38-19.16 W",
		"state": "OHIO",
		"artcc": "ZID",
		"type": "RNAV",
		"updated": "05/27/2009"
	},
	{
		"name": "PEYIV",
		"latitude": "40-10-33.22 N",
		"longitude": "85-18-52.49 W",
		"state": "INDIANA",
		"artcc": "ZID",
		"type": "RNAV",
		"updated": "07/19/2006"
	},
	{
		"name": "PEYIY",
		"latitude": "39-47-1.43 N",
		"longitude": "82-57-55.31 W",
		"state": "OHIO",
		"artcc": "ZID",
		"type": "RP",
		"updated": "DDV*LD/3.72"
	},
	{
		"name": "PGSUS",
		"latitude": "37-58-23.03 N",
		"longitude": "85-39-30.25 W",
		"state": "KENTUCKY",
		"artcc": "ZID",
		"type": "RP",
		"updated": "IIU*VORTAC*205.18"
	},
	{
		"name": "PHILO",
		"latitude": "39-19-11.68 N",
		"longitude": "84-38-43.51 W",
		"state": "OHIO",
		"artcc": "ZID",
		"type": "RP",
		"updated": "CIZ*LD*004.21/17.65"
	},
	{
		"name": "PHISH",
		"latitude": "37-58-48.99 N",
		"longitude": "84-21-33.7 W",
		"state": "KENTUCKY",
		"artcc": "ZID",
		"type": "RNAV",
		"updated": "08/10/2010"
	},
	{
		"name": "PHLOX",
		"latitude": "38-33-49.65 N",
		"longitude": "83-51-20.86 W",
		"state": "KENTUCKY",
		"artcc": "ZID",
		"type": "RP",
		"updated": "FLM*VOR/DME*107.36/22.00"
	},
	{
		"name": "PICKL",
		"latitude": "39-52-53.07 N",
		"longitude": "82-50-11.53 W",
		"state": "OHIO",
		"artcc": "ZID",
		"type": "RP",
		"updated": "LCK*LS*052.30"
	},
	{
		"name": "PICNO",
		"latitude": "38-58-4.17 N",
		"longitude": "87-23-23.08 W",
		"state": "INDIANA",
		"artcc": "ZID",
		"type": "RNAV",
		"updated": "05/22/2012"
	},
	{
		"name": "PICUM",
		"latitude": "40-14-53.88 N",
		"longitude": "82-50-18.1 W",
		"state": "OHIO",
		"artcc": "ZID",
		"type": "RNAV",
		"updated": "11/10/2016"
	},
	{
		"name": "PIGTE",
		"latitude": "39-41-10.73 N",
		"longitude": "84-46-49.34 W",
		"state": "OHIO",
		"artcc": "ZID",
		"type": "RNAV",
		"updated": "05/27/2009"
	},
	{
		"name": "PINEE",
		"latitude": "37-38-40.12 N",
		"longitude": "81-36-56.77 W",
		"state": "WEST VIRGINIA",
		"artcc": "ZID",
		"type": "RP",
		"updated": "BKW*VOR/DME*257.00"
	},
	{
		"name": "PIPTE",
		"latitude": "39-56-2.93 N",
		"longitude": "86-15-0.97 W",
		"state": "INDIANA",
		"artcc": "ZID",
		"type": "RP",
		"updated": "VHP*VORTAC*036.06"
	},
	{
		"name": "PIRIC",
		"latitude": "40-1-11.02 N",
		"longitude": "82-35-21.95 W",
		"state": "OHIO",
		"artcc": "ZID",
		"type": "RP",
		"updated": "APE*VORTAC*186.38"
	},
	{
		"name": "PIRNS",
		"latitude": "39-49-48.34 N",
		"longitude": "84-0-14.63 W",
		"state": "OHIO",
		"artcc": "ZID",
		"type": "RNAV",
		"updated": "04/11/2014"
	},
	{
		"name": "PISIC",
		"latitude": "40-4-37.78 N",
		"longitude": "85-51-42.75 W",
		"state": "INDIANA",
		"artcc": "ZID",
		"type": "RNAV",
		"updated": "08/05/2013"
	},
	{
		"name": "PIZZA",
		"latitude": "40-5-58.01 N",
		"longitude": "83-19-42.91 W",
		"state": "OHIO",
		"artcc": "ZID",
		"type": "RP",
		"updated": "FBC*VORTAC*161.00"
	},
	{
		"name": "PKAGE",
		"latitude": "38-4-26.38 N",
		"longitude": "85-34-21.51 W",
		"state": "KENTUCKY",
		"artcc": "ZID",
		"type": "RNAV",
		"updated": "01/10/2013"
	},
	{
		"name": "PLASH",
		"latitude": "40-0-59.27 N",
		"longitude": "84-23-49.47 W",
		"state": "OHIO",
		"artcc": "ZID",
		"type": "RNAV",
		"updated": "01/12/2015"
	},
	{
		"name": "PLUMM",
		"latitude": "39-56-48.31 N",
		"longitude": "83-29-52.71 W",
		"state": "OHIO",
		"artcc": "ZID",
		"type": "RP",
		"updated": "APE*VORTAC*260.00/43.67"
	},
	{
		"name": "PNFLD",
		"latitude": "39-40-17.94 N",
		"longitude": "86-21-8.52 W",
		"state": "INDIANA",
		"artcc": "ZID",
		"type": "RNAV",
		"updated": "01/12/2015"
	},
	{
		"name": "PNTHR",
		"latitude": "39-46-37.6 N",
		"longitude": "85-7-47.48 W",
		"state": "INDIANA",
		"artcc": "ZID",
		"type": "RNAV",
		"updated": "07/13/2012"
	},
	{
		"name": "PODIA",
		"latitude": "38-59-23.82 N",
		"longitude": "84-32-10.02 W",
		"state": "KENTUCKY",
		"artcc": "ZID",
		"type": "RNAV",
		"updated": "09/22/2015"
	},
	{
		"name": "PODIY",
		"latitude": "39-51-4.11 N",
		"longitude": "83-49-17.78 W",
		"state": "OHIO",
		"artcc": "ZID",
		"type": "RNAV",
		"updated": "11/03/2006"
	},
	{
		"name": "PODNE",
		"latitude": "37-18-35 N",
		"longitude": "84-29-9 W",
		"state": "KENTUCKY",
		"artcc": "ZID",
		"type": "RNAV",
		"updated": "05/09/2016"
	},
	{
		"name": "POHLL",
		"latitude": "39-42-41.42 N",
		"longitude": "84-54-42.29 W",
		"state": "INDIANA",
		"artcc": "ZID",
		"type": "RP",
		"updated": "DQN*VOR/DME*233.62/30.00"
	},
	{
		"name": "POKHY",
		"latitude": "39-19-11.81 N",
		"longitude": "87-29-26.48 W",
		"state": "INDIANA",
		"artcc": "ZID",
		"type": "RNAV",
		"updated": "10/10/2008"
	},
	{
		"name": "POLNE",
		"latitude": "38-32-17.31 N",
		"longitude": "87-47-59.87 W",
		"state": "ILLINOIS",
		"artcc": "ZID",
		"type": "RNAV",
		"updated": "02/05/2010"
	},
	{
		"name": "POMYK",
		"latitude": "37-52-50.94 N",
		"longitude": "80-50-20.64 W",
		"state": "WEST VIRGINIA",
		"artcc": "ZID",
		"type": "RNAV",
		"updated": "06/04/2012"
	},
	{
		"name": "PONIE",
		"latitude": "38-19-50.07 N",
		"longitude": "85-3-16.72 W",
		"state": "KENTUCKY",
		"artcc": "ZID",
		"type": "RP",
		"updated": "CVG*VORTAC*206.00/44.28"
	},
	{
		"name": "PORKR",
		"latitude": "38-49-21.47 N",
		"longitude": "84-40-10.71 W",
		"state": "KENTUCKY",
		"artcc": "ZID",
		"type": "RP",
		"updated": "CVG*LD*S CRS/14.69"
	},
	{
		"name": "PRARY",
		"latitude": "39-44-56.72 N",
		"longitude": "84-9-46.38 W",
		"state": "OHIO",
		"artcc": "ZID",
		"type": "MW",
		"updated": "11/20/2012"
	},
	{
		"name": "PRINC",
		"latitude": "38-19-45.13 N",
		"longitude": "87-36-59.17 W",
		"state": "INDIANA",
		"artcc": "ZID",
		"type": "RP",
		"updated": "PXV*VORTAC*013.00/25.00"
	},
	{
		"name": "PROGS",
		"latitude": "39-39-21.37 N",
		"longitude": "87-41-31.7 W",
		"state": "ILLINOIS",
		"artcc": "ZID",
		"type": "RNAV",
		"updated": "04/19/2016"
	},
	{
		"name": "PROLE",
		"latitude": "40-1-25.07 N",
		"longitude": "81-49-19.53 W",
		"state": "OHIO",
		"artcc": "ZID",
		"type": "RNAV",
		"updated": "11/14/2016"
	},
	{
		"name": "PROTN",
		"latitude": "40-32-25.69 N",
		"longitude": "83-36-33.11 W",
		"state": "OHIO",
		"artcc": "ZID",
		"type": "RP",
		"updated": "ROD*VORTAC*057.56/25.00"
	},
	{
		"name": "PROUF",
		"latitude": "38-20-55.82 N",
		"longitude": "86-0-42.03 W",
		"state": "INDIANA",
		"artcc": "ZID",
		"type": "RNAV",
		"updated": "05/09/2016"
	},
	{
		"name": "PRUDE",
		"latitude": "39-25-44.92 N",
		"longitude": "83-56-58.6 W",
		"state": "OHIO",
		"artcc": "ZID",
		"type": "RP",
		"updated": "DQN*VOR/DME*150.40/40.85"
	},
	{
		"name": "PTINO",
		"latitude": "38-1-11.39 N",
		"longitude": "85-51-11.8 W",
		"state": "KENTUCKY",
		"artcc": "ZID",
		"type": "RNAV",
		"updated": "04/26/2007"
	},
	{
		"name": "PUBRE",
		"latitude": "38-5-53.17 N",
		"longitude": "86-5-23.18 W",
		"state": "INDIANA",
		"artcc": "ZID",
		"type": "RNAV",
		"updated": "11/03/2010"
	},
	{
		"name": "PUKAE",
		"latitude": "39-51-26.9 N",
		"longitude": "86-13-36.97 W",
		"state": "INDIANA",
		"artcc": "ZID",
		"type": "RNAV",
		"updated": "10/05/2016"
	},
	{
		"name": "PULIC",
		"latitude": "39-8-46.87 N",
		"longitude": "85-44-9.24 W",
		"state": "INDIANA",
		"artcc": "ZID",
		"type": "RNAV",
		"updated": "03/06/2018"
	},
	{
		"name": "PULOY",
		"latitude": "39-1-20.62 N",
		"longitude": "87-54-16.81 W",
		"state": "ILLINOIS",
		"artcc": "ZID",
		"type": "RNAV",
		"updated": "07/29/2008"
	},
	{
		"name": "PULPE",
		"latitude": "40-0-51.26 N",
		"longitude": "82-42-35.89 W",
		"state": "OHIO",
		"artcc": "ZID",
		"type": "RNAV",
		"updated": "07/01/2016"
	},
	{
		"name": "PUNUE",
		"latitude": "39-20-30.96 N",
		"longitude": "84-26-46.95 W",
		"state": "OHIO",
		"artcc": "ZID",
		"type": "RNAV",
		"updated": "06/27/2007"
	},
	{
		"name": "PUPPT",
		"latitude": "38-46-4.89 N",
		"longitude": "84-40-11.32 W",
		"state": "KENTUCKY",
		"artcc": "ZID",
		"type": "RP",
		"updated": "CVG*LD*186.18/17.97"
	},
	{
		"name": "PURBE",
		"latitude": "40-22-11.63 N",
		"longitude": "83-49-38.7 W",
		"state": "OHIO",
		"artcc": "ZID",
		"type": "RP",
		"updated": "ROD*VORTAC*068.49/11.00"
	},
	{
		"name": "PURTE",
		"latitude": "39-49-32.98 N",
		"longitude": "86-56-43.07 W",
		"state": "INDIANA",
		"artcc": "ZID",
		"type": "RNAV",
		"updated": "11/07/2016"
	},
	{
		"name": "PUXOJ",
		"latitude": "38-11-50.47 N",
		"longitude": "85-38-12.06 W",
		"state": "KENTUCKY",
		"artcc": "ZID",
		"type": "RNAV",
		"updated": "11/03/2011"
	},
	{
		"name": "PYRAT",
		"latitude": "39-32-14.45 N",
		"longitude": "81-16-56.93 W",
		"state": "OHIO",
		"artcc": "ZID",
		"type": "RP",
		"updated": "ZZV*VOR/DME*136.39"
	}
]
