	{
		"name": "RACEN",
		"latitude": "39-53-0.41 N",
		"longitude": "86-5-39.73 W",
		"state": "INDIANA",
		"artcc": "ZID",
		"type": "RP",
		"updated": "VHP*VORTAC*070.84",
	},
	{
		"name": "RACRR",
		"latitude": "38-22-39.71 N",
		"longitude": "85-47-47.64 W",
		"state": "INDIANA",
		"artcc": "ZID",
		"type": "RP",
		"updated": "PKI*LD*349.91/13.31",
	},
	{
		"name": "RACYR",
		"latitude": "39-6-42.57 N",
		"longitude": "86-53-50.64 W",
		"state": "INDIANA",
		"artcc": "ZID",
		"type": "RP",
		"updated": "VHP*VORTAC*209.47/48.80",
	},
	{
		"name": "RAFFN",
		"latitude": "38-51-49.99 N",
		"longitude": "81-53-42.58 W",
		"state": "WEST VIRGINIA",
		"artcc": "ZID",
		"type": "RP",
		"updated": "HNN*VORTAC*046.00/9.00",
	},
	{
		"name": "RAGUE",
		"latitude": "37-24-54.83 N",
		"longitude": "85-23-6.67 W",
		"state": "KENTUCKY",
		"artcc": "ZID",
		"type": "RP",
		"updated": "EWO*VOR/DME*132.00/19.00",
	},
	{
		"name": "RAJAH",
		"latitude": "39-18-21.34 N",
		"longitude": "82-59-48.78 W",
		"state": "OHIO",
		"artcc": "ZID",
		"type": "RNAV",
		"updated": "02/12/2016",
	},
	{
		"name": "RAKNE",
		"latitude": "38-57-8.95 N",
		"longitude": "81-59-42.47 W",
		"state": "WEST VIRGINIA",
		"artcc": "ZID",
		"type": "RNAV",
		"updated": "02/02/2010",
	},
	{
		"name": "RALRE",
		"latitude": "39-43-59.3 N",
		"longitude": "84-7-34.53 W",
		"state": "OHIO",
		"artcc": "ZID",
		"type": "RNAV",
		"updated": "11/26/2014",
	},
	{
		"name": "RAMEY",
		"latitude": "39-44-44.58 N",
		"longitude": "86-6-14.3 W",
		"state": "INDIANA",
		"artcc": "ZID",
		"type": "RNAV",
		"updated": "01/12/2015",
	},
	{
		"name": "RAMSE",
		"latitude": "39-27-10.31 N",
		"longitude": "87-12-15.36 W",
		"state": "INDIANA",
		"artcc": "ZID",
		"type": "RNAV",
		"updated": "05/09/2016",
	},
	{
		"name": "RAPBO",
		"latitude": "39-48-30.65 N",
		"longitude": "86-0-40.08 W",
		"state": "INDIANA",
		"artcc": "ZID",
		"type": "RNAV",
		"updated": "10/09/2008",
	},
	{
		"name": "RAPGE",
		"latitude": "38-48-54.91 N",
		"longitude": "81-4-15.91 W",
		"state": "WEST VIRGINIA",
		"artcc": "ZID",
		"type": "RNAV",
		"updated": "07/30/2012",
	},
	{
		"name": "RAVES",
		"latitude": "39-39-48.16 N",
		"longitude": "81-36-13.65 W",
		"state": "OHIO",
		"artcc": "ZID",
		"type": "RP",
		"updated": "AIR*VOR/DME*247.00",
	},
	{
		"name": "RAXEW",
		"latitude": "37-43-17.62 N",
		"longitude": "84-20-35.21 W",
		"state": "KENTUCKY",
		"artcc": "ZID",
		"type": "RNAV",
		"updated": "09/13/2012",
	},
	{
		"name": "RAYOC",
		"latitude": "37-58-47.33 N",
		"longitude": "84-27-53.13 W",
		"state": "KENTUCKY",
		"artcc": "ZID",
		"type": "RNAV",
		"updated": "01/31/2018",
	},
	{
		"name": "RDBRD",
		"latitude": "37-54-26.53 N",
		"longitude": "85-39-24.36 W",
		"state": "KENTUCKY",
		"artcc": "ZID",
		"type": "RP",
		"updated": "IIU*VORTAC*196.77",
	},
	{
		"name": "RDSTN",
		"latitude": "38-23-22.61 N",
		"longitude": "85-18-22.95 W",
		"state": "KENTUCKY",
		"artcc": "ZID",
		"type": "RP",
		"updated": "HYK*VOR/DME*303.00",
	},
	{
		"name": "REBAA",
		"latitude": "38-3-47.16 N",
		"longitude": "84-22-19.22 W",
		"state": "KENTUCKY",
		"artcc": "ZID",
		"type": "RNAV",
		"updated": "08/10/2010",
	},
	{
		"name": "REBEL",
		"latitude": "37-43-58.1 N",
		"longitude": "84-22-50.93 W",
		"state": "KENTUCKY",
		"artcc": "ZID",
		"type": "RP",
		"updated": "HYK*VOR/DME*162.70/14.67",
	},
	{
		"name": "REDKE",
		"latitude": "40-20-33.76 N",
		"longitude": "85-9-32.39 W",
		"state": "INDIANA",
		"artcc": "ZID",
		"type": "RP",
		"updated": "FWA*VORTAC*184.00/38.18",
	},
	{
		"name": "REDLG",
		"latitude": "39-5-31 N",
		"longitude": "87-4-38 W",
		"state": "INDIANA",
		"artcc": "ZID",
		"type": "RNAV",
		"updated": "05/09/2016",
	},
	{
		"name": "REILY",
		"latitude": "37-43-18.72 N",
		"longitude": "84-31-50.21 W",
		"state": "KENTUCKY",
		"artcc": "ZID",
		"type": "RP",
		"updated": "HYK*VOR/DME*190.69/14.91",
	},
	{
		"name": "REMPE",
		"latitude": "38-49-47.89 N",
		"longitude": "84-16-6.6 W",
		"state": "KENTUCKY",
		"artcc": "ZID",
		"type": "RP",
		"updated": "CVG*VORTAC*122.57",
	},
	{
		"name": "RENRO",
		"latitude": "37-28-50.53 N",
		"longitude": "86-39-19.25 W",
		"state": "KENTUCKY",
		"artcc": "ZID",
		"type": "RP",
		"updated": "CCT*VORTAC*079.36/29.66",
	},
	{
		"name": "REROC",
		"latitude": "38-55-53.22 N",
		"longitude": "82-35-0.67 W",
		"state": "OHIO",
		"artcc": "ZID",
		"type": "RNAV",
		"updated": "08/03/2004",
	},
	{
		"name": "RGERS",
		"latitude": "39-13-35.2 N",
		"longitude": "83-9-1.54 W",
		"state": "OHIO",
		"artcc": "ZID",
		"type": "RP",
		"updated": "AIR*VOR/DME*254.09/118.10",
	},
	{
		"name": "RHOMM",
		"latitude": "38-45-52.68 N",
		"longitude": "83-31-21.05 W",
		"state": "OHIO",
		"artcc": "ZID",
		"type": "RP",
		"updated": "YRK*VORTAC*290.95/26.56",
	},
	{
		"name": "RHYNO",
		"latitude": "39-12-21.43 N",
		"longitude": "84-1-4.49 W",
		"state": "OHIO",
		"artcc": "ZID",
		"type": "RP",
		"updated": "MXQ*VOR/DME*016.78",
	},
	{
		"name": "RIBER",
		"latitude": "39-47-44.67 N",
		"longitude": "86-12-24.52 W",
		"state": "INDIANA",
		"artcc": "ZID",
		"type": "RP",
		"updated": "VHP*VORTAC*097.65",
	},
	{
		"name": "RIBIW",
		"latitude": "37-48-37.87 N",
		"longitude": "86-35-20.31 W",
		"state": "KENTUCKY",
		"artcc": "ZID",
		"type": "RNAV",
		"updated": "07/04/2011",
	},
	{
		"name": "RIBVE",
		"latitude": "37-21-22.82 N",
		"longitude": "81-8-19.46 W",
		"state": "WEST VIRGINIA",
		"artcc": "ZID",
		"type": "RP",
		"updated": "BLF*VOR/DME*044.61/4.00",
	},
	{
		"name": "RIDDY",
		"latitude": "37-53-20.66 N",
		"longitude": "88-3-10.92 W",
		"state": "ILLINOIS",
		"artcc": "ZID",
		"type": "RP",
		"updated": "PXV*VORTAC*257.42/14.00",
	},
	{
		"name": "RIJEW",
		"latitude": "38-21-3.14 N",
		"longitude": "83-59-25.96 W",
		"state": "KENTUCKY",
		"artcc": "ZID",
		"type": "RNAV",
		"updated": "08/13/2013",
	},
	{
		"name": "RIKGO",
		"latitude": "39-40-31.67 N",
		"longitude": "83-6-40.28 W",
		"state": "OHIO",
		"artcc": "ZID",
		"type": "RP",
		"updated": "XUB*VOR*330.29",
	},
	{
		"name": "RIKLE",
		"latitude": "39-49-50 N",
		"longitude": "84-7-18 W",
		"state": "OHIO",
		"artcc": "ZID",
		"type": "RP",
		"updated": "APE*VORTAC*261.29",
	},
	{
		"name": "RIKOE",
		"latitude": "40-2-1.47 N",
		"longitude": "83-47-42.14 W",
		"state": "OHIO",
		"artcc": "ZID",
		"type": "RNAV",
		"updated": "08/03/2010",
	},
	{
		"name": "RILLY",
		"latitude": "39-23-31.77 N",
		"longitude": "87-23-49.26 W",
		"state": "INDIANA",
		"artcc": "ZID",
		"type": "RP",
		"updated": "TTH*VORTAC*227.90/9.00",
	},
	{
		"name": "RINGR",
		"latitude": "40-20-9.33 N",
		"longitude": "82-35-39 W",
		"state": "OHIO",
		"artcc": "ZID",
		"type": "RNAV",
		"updated": "06/29/2011",
	},
	{
		"name": "RINTE",
		"latitude": "40-17-16.11 N",
		"longitude": "84-2-34.51 W",
		"state": "OHIO",
		"artcc": "ZID",
		"type": "RNAV",
		"updated": "01/12/2015",
	},
	{
		"name": "RISHI",
		"latitude": "39-46-51.25 N",
		"longitude": "84-18-56.69 W",
		"state": "OHIO",
		"artcc": "ZID",
		"type": "RNAV",
		"updated": "04/11/2014",
	},
	{
		"name": "RISTE",
		"latitude": "37-9-2.92 N",
		"longitude": "82-58-24.38 W",
		"state": "KENTUCKY",
		"artcc": "ZID",
		"type": "RP",
		"updated": "AZQ*VOR/DME*140.01/20.00",
	},
	{
		"name": "RISZO",
		"latitude": "37-33-2.26 N",
		"longitude": "86-6-17.59 W",
		"state": "KENTUCKY",
		"artcc": "ZID",
		"type": "RP",
		"updated": "EWO*VOR/DME*255.75/21.03",
	},
	{
		"name": "RITEY",
		"latitude": "39-39-20.02 N",
		"longitude": "83-34-34.49 W",
		"state": "OHIO",
		"artcc": "ZID",
		"type": "RP",
		"updated": "SGH*VOR/DME*135.02",
	},
	{
		"name": "RITOQ",
		"latitude": "40-4-55.12 N",
		"longitude": "82-57-25.67 W",
		"state": "OHIO",
		"artcc": "ZID",
		"type": "RNAV",
		"updated": "01/14/2011",
	},
	{
		"name": "ROBOW",
		"latitude": "40-1-4.91 N",
		"longitude": "85-22-34.31 W",
		"state": "INDIANA",
		"artcc": "ZID",
		"type": "RP",
		"updated": "AI*NDB*119.44",
	},
	{
		"name": "ROBSN",
		"latitude": "40-3-7.37 N",
		"longitude": "85-29-39.17 W",
		"state": "INDIANA",
		"artcc": "ZID",
		"type": "RNAV",
		"updated": "08/30/2011",
	},
	{
		"name": "ROCCO",
		"latitude": "37-37-59.96 N",
		"longitude": "85-30-28.94 W",
		"state": "KENTUCKY",
		"artcc": "ZID",
		"type": "RP",
		"updated": "EWO*VOR/DME*088.33/8.00",
	},
	{
		"name": "ROCKT",
		"latitude": "39-36-26.52 N",
		"longitude": "82-52-12.77 W",
		"state": "OHIO",
		"artcc": "ZID",
		"type": "RNAV",
		"updated": "02/13/2010",
	},
	{
		"name": "RODIC",
		"latitude": "38-15-10.44 N",
		"longitude": "82-21-21.17 W",
		"state": "WEST VIRGINIA",
		"artcc": "ZID",
		"type": "RP",
		"updated": "YRK*VORTAC*133.44",
	},
	{
		"name": "ROGIE",
		"latitude": "39-36-22.18 N",
		"longitude": "86-13-38.4 W",
		"state": "INDIANA",
		"artcc": "ZID",
		"type": "RNAV",
		"updated": "01/12/2015",
	},
	{
		"name": "ROHDE",
		"latitude": "39-4-20.65 N",
		"longitude": "82-39-38.98 W",
		"state": "OHIO",
		"artcc": "ZID",
		"type": "RP",
		"updated": "YRK*VORTAC*035.00/29.67",
	},
	{
		"name": "RONCO",
		"latitude": "39-12-4.22 N",
		"longitude": "82-5-48.17 W",
		"state": "OHIO",
		"artcc": "ZID",
		"type": "RP",
		"updated": "FLM*VOR/DME*075.61",
	},
	{
		"name": "ROPRR",
		"latitude": "38-58-22.06 N",
		"longitude": "84-41-2.8 W",
		"state": "KENTUCKY",
		"artcc": "ZID",
		"type": "RP",
		"updated": "VAC*LD*186.17/6.04",
	},
	{
		"name": "RORAE",
		"latitude": "39-30-51.96 N",
		"longitude": "87-21-53.04 W",
		"state": "INDIANA",
		"artcc": "ZID",
		"type": "RNAV",
		"updated": "08/06/2012",
	},
	{
		"name": "RORTY",
		"latitude": "36-55-29.27 N",
		"longitude": "83-57-3.81 W",
		"state": "KENTUCKY",
		"artcc": "ZID",
		"type": "RNAV",
		"updated": "07/26/2016",
	},
	{
		"name": "ROSAR",
		"latitude": "36-51-9.03 N",
		"longitude": "83-29-41.83 W",
		"state": "KENTUCKY",
		"artcc": "ZID",
		"type": "RP",
		"updated": "AZQ*VOR/DME*203.09/34.15",
	},
	{
		"name": "ROSCO",
		"latitude": "40-11-35.98 N",
		"longitude": "82-0-23.28 W",
		"state": "OHIO",
		"artcc": "ZID",
		"type": "RP",
		"updated": "CTW*VOR/DME*272.12/24.46",
	},
	{
		"name": "ROSSY",
		"latitude": "40-16-7.77 N",
		"longitude": "84-36-6.14 W",
		"state": "OHIO",
		"artcc": "ZID",
		"type": "RP",
		"updated": "DQN*VOR/DME*329.15/17.83",
	},
	{
		"name": "ROSUE",
		"latitude": "39-54-9.3 N",
		"longitude": "84-54-41.66 W",
		"state": "INDIANA",
		"artcc": "ZID",
		"type": "RNAV",
		"updated": "08/06/2012",
	},
	{
		"name": "ROVGE",
		"latitude": "39-49-50.76 N",
		"longitude": "84-19-16.36 W",
		"state": "OHIO",
		"artcc": "ZID",
		"type": "RNAV",
		"updated": "04/11/2014",
	},
	{
		"name": "ROYYZ",
		"latitude": "38-56-28.93 N",
		"longitude": "84-56-10.19 W",
		"state": "INDIANA",
		"artcc": "ZID",
		"type": "RNAV",
		"updated": "02/06/2017",
	},
	{
		"name": "ROZUV",
		"latitude": "39-8-52.85 N",
		"longitude": "86-22-20.08 W",
		"state": "INDIANA",
		"artcc": "ZID",
		"type": "RNAV",
		"updated": "07/09/2001",
	},
	{
		"name": "RRROE",
		"latitude": "38-16-35.7 N",
		"longitude": "85-48-29.91 W",
		"state": "KENTUCKY",
		"artcc": "ZID",
		"type": "RNAV",
		"updated": "01/18/2013",
	},
	{
		"name": "RRUSH",
		"latitude": "37-42-23.16 N",
		"longitude": "88-5-1.36 W",
		"state": "KENTUCKY",
		"artcc": "ZID",
		"type": "RNAV",
		"updated": "06/19/2012",
	},
	{
		"name": "RSADE",
		"latitude": "39-47-29.13 N",
		"longitude": "86-21-51.04 W",
		"state": "INDIANA",
		"artcc": "ZID",
		"type": "RP",
		"updated": "VHP*VORTAC*172.72",
	},
	{
		"name": "RUHEE",
		"latitude": "38-14-52.55 N",
		"longitude": "85-37-14.88 W",
		"state": "KENTUCKY",
		"artcc": "ZID",
		"type": "RNAV",
		"updated": "11/03/2011",
	},
	{
		"name": "RUJAP",
		"latitude": "37-41-10.54 N",
		"longitude": "82-24-45.78 W",
		"state": "KENTUCKY",
		"artcc": "ZID",
		"type": "RNAV",
		"updated": "09/14/2011",
	},
	{
		"name": "RULEY",
		"latitude": "38-26-4.82 N",
		"longitude": "82-6-44.91 W",
		"state": "WEST VIRGINIA",
		"artcc": "ZID",
		"type": "RP",
		"updated": "HVQ*VOR/DME*290.60/16.94",
	},
	{
		"name": "RULSE",
		"latitude": "39-53-40.5 N",
		"longitude": "85-7-42.58 W",
		"state": "INDIANA",
		"artcc": "ZID",
		"type": "RNAV",
		"updated": "08/01/2006",
	},
	{
		"name": "RUOFF",
		"latitude": "38-45-4.12 N",
		"longitude": "87-33-56.42 W",
		"state": "ILLINOIS",
		"artcc": "ZID",
		"type": "RNAV",
		"updated": "02/05/2010",
	},
	{
		"name": "RURKY",
		"latitude": "38-46-6.91 N",
		"longitude": "87-29-31.54 W",
		"state": "INDIANA",
		"artcc": "ZID",
		"type": "RNAV",
		"updated": "05/22/2012",
	},
	{
		"name": "RUSIA",
		"latitude": "40-16-24.27 N",
		"longitude": "84-28-27.62 W",
		"state": "OHIO",
		"artcc": "ZID",
		"type": "RP",
		"updated": "DQN*VOR/DME*348.00",
	},
	{
		"name": "RUTEE",
		"latitude": "39-47-1.18 N",
		"longitude": "82-1-50.77 W",
		"state": "OHIO",
		"artcc": "ZID",
		"type": "RNAV",
		"updated": "11/14/2016",
	},
	{
		"name": "RUTES",
		"latitude": "37-38-3.94 N",
		"longitude": "85-21-50.8 W",
		"state": "KENTUCKY",
		"artcc": "ZID",
		"type": "RP",
		"updated": "EWO*VOR/DME*088.33/14.86",
	},
	{
		"name": "RUYOT",
		"latitude": "39-4-0.21 N",
		"longitude": "86-6-13.8 W",
		"state": "INDIANA",
		"artcc": "ZID",
		"type": "RNAV",
		"updated": "03/16/2007",
	},
	{
		"name": "RYANS",
		"latitude": "37-23-16.65 N",
		"longitude": "85-1-1.14 W",
		"state": "KENTUCKY",
		"artcc": "ZID",
		"type": "RP",
		"updated": "BWG*VORTAC*066.00/74.00",
	},
