	{
		"name": "SAAPP",
		"latitude": "37-53-0.16 N",
		"longitude": "84-46-35.1 W",
		"state": "KENTUCKY",
		"artcc": "ZID",
		"type": "RP",
		"updated": "HYK*VOR/DME*251.08/15.26",
	},
	{
		"name": "SABGE",
		"latitude": "39-57-36.43 N",
		"longitude": "81-38-1.48 W",
		"state": "OHIO",
		"artcc": "ZID",
		"type": "RP",
		"updated": "ZZV*VOR/DME*090.39/12.00",
	},
	{
		"name": "SACKO",
		"latitude": "38-15-26.16 N",
		"longitude": "86-43-25.83 W",
		"state": "INDIANA",
		"artcc": "ZID",
		"type": "RP",
		"updated": "OWB*VOR/DME*038.12",
	},
	{
		"name": "SACKY",
		"latitude": "39-21-16.89 N",
		"longitude": "81-9-41.97 W",
		"state": "WEST VIRGINIA",
		"artcc": "ZID",
		"type": "RP",
		"updated": "AIR*VOR/DME*209.00",
	},
	{
		"name": "SACOY",
		"latitude": "38-53-4.52 N",
		"longitude": "82-35-19.81 W",
		"state": "OHIO",
		"artcc": "ZID",
		"type": "RNAV",
		"updated": "08/03/2004",
	},
	{
		"name": "SACYO",
		"latitude": "39-30-13.05 N",
		"longitude": "85-4-19.43 W",
		"state": "INDIANA",
		"artcc": "ZID",
		"type": "RNAV",
		"updated": "02/05/2013",
	},
	{
		"name": "SADDL",
		"latitude": "38-12-15.19 N",
		"longitude": "84-24-59.3 W",
		"state": "KENTUCKY",
		"artcc": "ZID",
		"type": "RP",
		"updated": "HYK*VOR/DME*010.53/14.50",
	},
	{
		"name": "SADLE",
		"latitude": "39-25-38.17 N",
		"longitude": "85-53-41.32 W",
		"state": "INDIANA",
		"artcc": "ZID",
		"type": "RNAV",
		"updated": "01/12/2015",
	},
	{
		"name": "SADSE",
		"latitude": "39-52-37.11 N",
		"longitude": "85-22-18.25 W",
		"state": "INDIANA",
		"artcc": "ZID",
		"type": "RNAV",
		"updated": "02/06/2018",
	},
	{
		"name": "SAFLT",
		"latitude": "38-2-11 N",
		"longitude": "85-40-47.41 W",
		"state": "KENTUCKY",
		"artcc": "ZID",
		"type": "RNAV",
		"updated": "04/26/2007",
	},
	{
		"name": "SALTY",
		"latitude": "38-19-8.03 N",
		"longitude": "81-57-29.87 W",
		"state": "WEST VIRGINIA",
		"artcc": "ZID",
		"type": "RP",
		"updated": "HVQ*VOR/DME*261.00/10.00",
	},
	{
		"name": "SARGO",
		"latitude": "38-40-8.06 N",
		"longitude": "85-27-47.7 W",
		"state": "INDIANA",
		"artcc": "ZID",
		"type": "RNAV",
		"updated": "04/29/2014",
	},
	{
		"name": "SARUH",
		"latitude": "39-39-9.62 N",
		"longitude": "86-26-44.79 W",
		"state": "INDIANA",
		"artcc": "ZID",
		"type": "RNAV",
		"updated": "10/15/2016",
	},
	{
		"name": "SAWER",
		"latitude": "39-43-51.75 N",
		"longitude": "84-18-37.03 W",
		"state": "OHIO",
		"artcc": "ZID",
		"type": "RNAV",
		"updated": "04/11/2014",
	},
	{
		"name": "SAXEE",
		"latitude": "39-55-25.92 N",
		"longitude": "86-6-43.28 W",
		"state": "INDIANA",
		"artcc": "ZID",
		"type": "RNAV",
		"updated": "01/27/2016",
	},
	{
		"name": "SCALA",
		"latitude": "37-49-20.33 N",
		"longitude": "85-57-1.64 W",
		"state": "KENTUCKY",
		"artcc": "ZID",
		"type": "RP",
		"updated": "FTK*VOR/DME*169.33/5.20",
	},
	{
		"name": "SCARF",
		"latitude": "39-5-14.79 N",
		"longitude": "85-43-30.91 W",
		"state": "INDIANA",
		"artcc": "ZID",
		"type": "RNAV",
		"updated": "02/09/2015",
	},
	{
		"name": "SCARY",
		"latitude": "38-20-20.33 N",
		"longitude": "85-54-26.49 W",
		"state": "INDIANA",
		"artcc": "ZID",
		"type": "RNAV",
		"updated": "06/05/2012",
	},
	{
		"name": "SCHMT",
		"latitude": "38-41-3.95 N",
		"longitude": "86-54-23.78 W",
		"state": "INDIANA",
		"artcc": "ZID",
		"type": "RNAV",
		"updated": "05/09/2016",
	},
	{
		"name": "SCOTO",
		"latitude": "39-10-8.93 N",
		"longitude": "86-51-16.99 W",
		"state": "INDIANA",
		"artcc": "ZID",
		"type": "RP",
		"updated": "TTH*VORTAC*134.12/26.54",
	},
	{
		"name": "SCRIB",
		"latitude": "38-5-46.89 N",
		"longitude": "81-28-49.99 W",
		"state": "WEST VIRGINIA",
		"artcc": "ZID",
		"type": "RP",
		"updated": "BKW*VOR/DME*324.29/25.42",
	},
	{
		"name": "SEBRE",
		"latitude": "40-5-54.6 N",
		"longitude": "84-19-36.41 W",
		"state": "OHIO",
		"artcc": "ZID",
		"type": "RNAV",
		"updated": "07/09/2009",
	},
	{
		"name": "SEBUE",
		"latitude": "39-56-13.04 N",
		"longitude": "83-50-8.02 W",
		"state": "OHIO",
		"artcc": "ZID",
		"type": "RNAV",
		"updated": "08/13/2010",
	},
	{
		"name": "SECRY",
		"latitude": "38-19-9 N",
		"longitude": "85-47-34 W",
		"state": "INDIANA",
		"artcc": "ZID",
		"type": "RNAV",
		"updated": "04/26/2007",
	},
	{
		"name": "SEMSE",
		"latitude": "39-2-47.97 N",
		"longitude": "84-53-59.14 W",
		"state": "INDIANA",
		"artcc": "ZID",
		"type": "RP",
		"updated": "URN*LD*W CRS/11.65",
	},
	{
		"name": "SENTR",
		"latitude": "40-17-52.28 N",
		"longitude": "85-6-36.8 W",
		"state": "INDIANA",
		"artcc": "ZID",
		"type": "RNAV",
		"updated": "01/31/2017",
	},
	{
		"name": "SEPBU",
		"latitude": "37-36-28.54 N",
		"longitude": "82-22-35.77 W",
		"state": "KENTUCKY",
		"artcc": "ZID",
		"type": "RNAV",
		"updated": "09/14/2011",
	},
	{
		"name": "SERME",
		"latitude": "39-28-22.68 N",
		"longitude": "84-15-17.46 W",
		"state": "OHIO",
		"artcc": "ZID",
		"type": "RNAV",
		"updated": "11/26/2014",
	},
	{
		"name": "SEVKE",
		"latitude": "39-46-57.76 N",
		"longitude": "86-34-1.08 W",
		"state": "INDIANA",
		"artcc": "ZID",
		"type": "RNAV",
		"updated": "01/13/2016",
	},
	{
		"name": "SEVVO",
		"latitude": "39-23-54.14 N",
		"longitude": "85-43-12.07 W",
		"state": "INDIANA",
		"artcc": "ZID",
		"type": "RNAV",
		"updated": "02/17/2006",
	},
	{
		"name": "SEYOS",
		"latitude": "39-43-53.9 N",
		"longitude": "84-1-57.24 W",
		"state": "OHIO",
		"artcc": "ZID",
		"type": "RNAV",
		"updated": "08/16/2006",
	},
	{
		"name": "SHADD",
		"latitude": "36-53-53.24 N",
		"longitude": "84-9-38.65 W",
		"state": "KENTUCKY",
		"artcc": "ZID",
		"type": "RP",
		"updated": "LOZ*VOR/DME*199.77/8.45",
	},
	{
		"name": "SHEAN",
		"latitude": "40-24-13.15 N",
		"longitude": "85-1-20.21 W",
		"state": "INDIANA",
		"artcc": "ZID",
		"type": "RP",
		"updated": "FWA*VORTAC*173.58/35.32",
	},
	{
		"name": "SHILA",
		"latitude": "38-56-24.27 N",
		"longitude": "84-29-40.38 W",
		"state": "KENTUCKY",
		"artcc": "ZID",
		"type": "RP",
		"updated": "LUK*LD*205.01/9.61",
	},
	{
		"name": "SHIPR",
		"latitude": "37-57-59.91 N",
		"longitude": "84-28-28.49 W",
		"state": "KENTUCKY",
		"artcc": "ZID",
		"type": "RNAV",
		"updated": "01/10/2013",
	},
	{
		"name": "SHIRT",
		"latitude": "39-37-58.72 N",
		"longitude": "83-34-16.14 W",
		"state": "OHIO",
		"artcc": "ZID",
		"type": "RP",
		"updated": "APE*VORTAC*241.93/55.00",
	},
	{
		"name": "SHLDA",
		"latitude": "38-50-23.36 N",
		"longitude": "83-57-38.49 W",
		"state": "OHIO",
		"artcc": "ZID",
		"type": "RP",
		"updated": "FLM*VOR/DME*059.11/20.00",
	},
	{
		"name": "SHOAL",
		"latitude": "38-13-54.17 N",
		"longitude": "81-46-53.09 W",
		"state": "WEST VIRGINIA",
		"artcc": "ZID",
		"type": "RP",
		"updated": "HVQ*VOR/DME*187.40/7.09",
	},
	{
		"name": "SHOOS",
		"latitude": "40-32-17.62 N",
		"longitude": "84-3-3.25 W",
		"state": "OHIO",
		"artcc": "ZID",
		"type": "RNAV",
		"updated": "06/13/2008",
	},
	{
		"name": "SHOSH",
		"latitude": "40-0-2.26 N",
		"longitude": "83-2-3.18 W",
		"state": "OHIO",
		"artcc": "ZID",
		"type": "RP",
		"updated": "APE*VORTAC*252.43/22.43",
	},
	{
		"name": "SHOVE",
		"latitude": "39-39-36.97 N",
		"longitude": "84-28-48.05 W",
		"state": "OHIO",
		"artcc": "ZID",
		"type": "RP",
		"updated": "DQN*VOR/DME*191.23/21.69",
	},
	{
		"name": "SIKFE",
		"latitude": "36-56-41.69 N",
		"longitude": "84-10-46.02 W",
		"state": "KENTUCKY",
		"artcc": "ZID",
		"type": "RNAV",
		"updated": "07/26/2016",
	},
	{
		"name": "SILKN",
		"latitude": "40-0-23.35 N",
		"longitude": "82-57-57.75 W",
		"state": "OHIO",
		"artcc": "ZID",
		"type": "RP",
		"updated": "CBP*LD*281.20/2.53",
	},
	{
		"name": "SILKS",
		"latitude": "38-28-0.25 N",
		"longitude": "84-45-5.8 W",
		"state": "KENTUCKY",
		"artcc": "ZID",
		"type": "RP",
		"updated": "CVG*VORTAC*187.95/33.00",
	},
	{
		"name": "SILOH",
		"latitude": "39-49-28.54 N",
		"longitude": "84-9-52.7 W",
		"state": "OHIO",
		"artcc": "ZID",
		"type": "MR",
		"updated": "XSF*TACAN*271.00/15.00",
	},
	{
		"name": "SINRE",
		"latitude": "39-22-19.56 N",
		"longitude": "84-4-32.28 W",
		"state": "OHIO",
		"artcc": "ZID",
		"type": "RNAV",
		"updated": "04/26/2007",
	},
	{
		"name": "SIPOY",
		"latitude": "39-10-16.08 N",
		"longitude": "82-26-55.1 W",
		"state": "OHIO",
		"artcc": "ZID",
		"type": "RNAV",
		"updated": "08/03/2004",
	},
	{
		"name": "SIRBE",
		"latitude": "38-8-45.94 N",
		"longitude": "84-20-26.32 W",
		"state": "KENTUCKY",
		"artcc": "ZID",
		"type": "RNAV",
		"updated": "08/08/2006",
	},
	{
		"name": "SITOW",
		"latitude": "36-53-44.34 N",
		"longitude": "84-47-53.45 W",
		"state": "KENTUCKY",
		"artcc": "ZID",
		"type": "RP",
		"updated": "LOZ*VOR/DME*259.22",
	},
	{
		"name": "SIXMI",
		"latitude": "38-18-34.12 N",
		"longitude": "85-39-24.41 W",
		"state": "KENTUCKY",
		"artcc": "ZID",
		"type": "RNAV",
		"updated": "06/05/2012",
	},
	{
		"name": "SIYOR",
		"latitude": "39-10-51.73 N",
		"longitude": "84-22-33.31 W",
		"state": "OHIO",
		"artcc": "ZID",
		"type": "RNAV",
		"updated": "07/25/2012",
	},
	{
		"name": "SIZBY",
		"latitude": "37-48-38.23 N",
		"longitude": "87-33-38.96 W",
		"state": "KENTUCKY",
		"artcc": "ZID",
		"type": "RNAV",
		"updated": "08/14/2008",
	},
	{
		"name": "SIZES",
		"latitude": "40-6-7.8 N",
		"longitude": "83-9-6.74 W",
		"state": "OHIO",
		"artcc": "ZID",
		"type": "RNAV",
		"updated": "09/29/2016",
	},
	{
		"name": "SKINN",
		"latitude": "37-49-29.75 N",
		"longitude": "86-4-37.27 W",
		"state": "KENTUCKY",
		"artcc": "ZID",
		"type": "RP",
		"updated": "BWG*VORTAC*015.96/56.49",
	},
	{
		"name": "SKIPE",
		"latitude": "39-45-20.39 N",
		"longitude": "84-9-10.88 W",
		"state": "OHIO",
		"artcc": "ZID",
		"type": "MR",
		"updated": "FFO*TACAN*/5.90",
	},
	{
		"name": "SKITE",
		"latitude": "39-32-33.97 N",
		"longitude": "87-26-49.23 W",
		"state": "INDIANA",
		"artcc": "ZID",
		"type": "RNAV",
		"updated": "04/19/2016",
	},
	{
		"name": "SKYRA",
		"latitude": "39-35-59.93 N",
		"longitude": "84-42-9.96 W",
		"state": "OHIO",
		"artcc": "ZID",
		"type": "RNAV",
		"updated": "05/27/2009",
	},
	{
		"name": "SKYWA",
		"latitude": "36-31-37.31 N",
		"longitude": "84-21-42.4 W",
		"state": "TENNESSEE",
		"artcc": "ZID",
		"type": "RNAV",
		"updated": "06/24/2015",
	},
	{
		"name": "SLAPT",
		"latitude": "40-19-26.75 N",
		"longitude": "82-28-46.54 W",
		"state": "OHIO",
		"artcc": "ZID",
		"type": "RNAV",
		"updated": "06/29/2011",
	},
	{
		"name": "SLATY",
		"latitude": "38-16-33.25 N",
		"longitude": "85-45-41.86 W",
		"state": "KENTUCKY",
		"artcc": "ZID",
		"type": "RNAV",
		"updated": "06/05/2012",
	},
	{
		"name": "SLEWW",
		"latitude": "38-20-49 N",
		"longitude": "85-51-28 W",
		"state": "INDIANA",
		"artcc": "ZID",
		"type": "RNAV",
		"updated": "04/27/2007",
	},
	{
		"name": "SLGRR",
		"latitude": "38-17-5.39 N",
		"longitude": "85-45-52.95 W",
		"state": "INDIANA",
		"artcc": "ZID",
		"type": "RP",
		"updated": "PKI*LD*349.91/7.55",
	},
	{
		"name": "SLINK",
		"latitude": "37-28-4.03 N",
		"longitude": "81-57-1.01 W",
		"state": "WEST VIRGINIA",
		"artcc": "ZID",
		"type": "RP",
		"updated": "BLF*VOR/DME*288.20/37.42",
	},
	{
		"name": "SLUBY",
		"latitude": "39-2-37.57 N",
		"longitude": "84-11-36.14 W",
		"state": "OHIO",
		"artcc": "ZID",
		"type": "RNAV",
		"updated": "04/15/2008",
	},
	{
		"name": "SMAIL",
		"latitude": "38-3-2.28 N",
		"longitude": "84-30-6.47 W",
		"state": "KENTUCKY",
		"artcc": "ZID",
		"type": "RNAV",
		"updated": "08/10/2010",
	},
	{
		"name": "SMAZE",
		"latitude": "40-25-23 N",
		"longitude": "80-34-46.1 W",
		"state": "WEST VIRGINIA",
		"artcc": "ZID",
		"type": "RNAV",
		"updated": "05/06/2016",
	},
	{
		"name": "SMUKE",
		"latitude": "39-15-36.9 N",
		"longitude": "86-46-54.98 W",
		"state": "INDIANA",
		"artcc": "ZID",
		"type": "RNAV",
		"updated": "09/27/2016",
	},
	{
		"name": "SNACK",
		"latitude": "39-38-41 N",
		"longitude": "85-2-54.34 W",
		"state": "INDIANA",
		"artcc": "ZID",
		"type": "RNAV",
		"updated": "05/06/2009",
	},
	{
		"name": "SNEVA",
		"latitude": "39-21-26.07 N",
		"longitude": "86-18-57.43 W",
		"state": "INDIANA",
		"artcc": "ZID",
		"type": "RP",
		"updated": "TTH*VORTAC*098.02",
	},
	{
		"name": "SNEZE",
		"latitude": "39-47-52.61 N",
		"longitude": "84-6-50.69 W",
		"state": "OHIO",
		"artcc": "ZID",
		"type": "RP",
		"updated": "DQN*VOR/DME*136.00",
	},
	{
		"name": "SNKPT",
		"latitude": "40-14-13.96 N",
		"longitude": "85-23-39.21 W",
		"state": "INDIANA",
		"artcc": "ZID",
		"type": "RNAV",
		"updated": "01/12/2015",
	},
	{
		"name": "SNPPR",
		"latitude": "38-45-53.47 N",
		"longitude": "84-38-52.9 W",
		"state": "KENTUCKY",
		"artcc": "ZID",
		"type": "RP",
		"updated": "EEI*LD*186.21/17.61",
	},
	{
		"name": "SOCLE",
		"latitude": "36-56-28.01 N",
		"longitude": "82-37-43.93 W",
		"state": "VIRGINIA",
		"artcc": "ZID",
		"type": "RNAV",
		"updated": "05/11/2007",
	},
	{
		"name": "SOFTY",
		"latitude": "37-23-27.6 N",
		"longitude": "80-53-29.84 W",
		"state": "WEST VIRGINIA",
		"artcc": "ZID",
		"type": "RP",
		"updated": "BLF*VOR/DME*073.62/15.34",
	},
	{
		"name": "SOGEE",
		"latitude": "36-31-50.64 N",
		"longitude": "84-11-35.39 W",
		"state": "TENNESSEE",
		"artcc": "ZID",
		"type": "RNAV",
		"updated": "01/23/2014",
	},
	{
		"name": "SOKOC",
		"latitude": "38-14-58.98 N",
		"longitude": "84-39-35.21 W",
		"state": "KENTUCKY",
		"artcc": "ZID",
		"type": "RNAV",
		"updated": "08/04/2008",
	},
	{
		"name": "SORRI",
		"latitude": "37-11-59.03 N",
		"longitude": "83-53-37.92 W",
		"state": "KENTUCKY",
		"artcc": "ZID",
		"type": "RNAV",
		"updated": "02/09/2018",
	},
	{
		"name": "SORTT",
		"latitude": "38-10-24.05 N",
		"longitude": "85-26-47.14 W",
		"state": "KENTUCKY",
		"artcc": "ZID",
		"type": "RNAV",
		"updated": "05/09/2016",
	},
	{
		"name": "SOTZU",
		"latitude": "37-7-15.85 N",
		"longitude": "82-50-34.02 W",
		"state": "KENTUCKY",
		"artcc": "ZID",
		"type": "RNAV",
		"updated": "10/21/2014",
	},
	{
		"name": "SOVGE",
		"latitude": "38-6-28.59 N",
		"longitude": "85-52-44.35 W",
		"state": "KENTUCKY",
		"artcc": "ZID",
		"type": "MW",
		"updated": "10/28/2010",
	},
	{
		"name": "SOVSE",
		"latitude": "38-18-48.21 N",
		"longitude": "83-32-35.41 W",
		"state": "KENTUCKY",
		"artcc": "ZID",
		"type": "RNAV",
		"updated": "07/15/2014",
	},
	{
		"name": "SOVVO",
		"latitude": "39-24-45.27 N",
		"longitude": "84-19-4.01 W",
		"state": "OHIO",
		"artcc": "ZID",
		"type": "RNAV",
		"updated": "08/16/2006",
	},
	{
		"name": "SOWDO",
		"latitude": "40-4-32.83 N",
		"longitude": "84-36-35.45 W",
		"state": "OHIO",
		"artcc": "ZID",
		"type": "RNAV",
		"updated": "01/20/2011",
	},
	{
		"name": "SOXME",
		"latitude": "39-23-17.61 N",
		"longitude": "87-23-45.38 W",
		"state": "INDIANA",
		"artcc": "ZID",
		"type": "RNAV",
		"updated": "10/15/2008",
	},
	{
		"name": "SOYLO",
		"latitude": "39-1-7.64 N",
		"longitude": "82-23-10.7 W",
		"state": "OHIO",
		"artcc": "ZID",
		"type": "RNAV",
		"updated": "10/05/2017",
	},
	{
		"name": "SPAYD",
		"latitude": "38-11-36.56 N",
		"longitude": "82-19-28.69 W",
		"state": "WEST VIRGINIA",
		"artcc": "ZID",
		"type": "RP",
		"updated": "APE*VORTAC*179.93/117.99",
	},
	{
		"name": "SPEDI",
		"latitude": "38-22-33.66 N",
		"longitude": "81-53-37.98 W",
		"state": "WEST VIRGINIA",
		"artcc": "ZID",
		"type": "RP",
		"updated": "HVQ*VOR/DME*288.14/6.06",
	},
	{
		"name": "SPOCC",
		"latitude": "39-46-54.33 N",
		"longitude": "82-9-1.14 W",
		"state": "OHIO",
		"artcc": "ZID",
		"type": "RNAV",
		"updated": "03/06/2018",
	},
	{
		"name": "SPROW",
		"latitude": "38-12-40.71 N",
		"longitude": "83-56-26.63 W",
		"state": "KENTUCKY",
		"artcc": "ZID",
		"type": "RP",
		"updated": "HYK*VOR/DME*059.51/29.15",
	},
	{
		"name": "SPUDR",
		"latitude": "39-22-20.26 N",
		"longitude": "84-38-42.62 W",
		"state": "OHIO",
		"artcc": "ZID",
		"type": "RP",
		"updated": "CIZ*LD*004.21/20.79",
	},
	{
		"name": "SPYRS",
		"latitude": "38-22-39.3 N",
		"longitude": "85-48-42.51 W",
		"state": "INDIANA",
		"artcc": "ZID",
		"type": "RP",
		"updated": "SNU*LD*350.40/13.85",
	},
	{
		"name": "SQWRL",
		"latitude": "38-1-36.14 N",
		"longitude": "85-31-57.6 W",
		"state": "KENTUCKY",
		"artcc": "ZID",
		"type": "RNAV",
		"updated": "05/09/2016",
	},
	{
		"name": "SRGNT",
		"latitude": "40-5-13.81 N",
		"longitude": "84-42-37.2 W",
		"state": "OHIO",
		"artcc": "ZID",
		"type": "RNAV",
		"updated": "01/12/2015",
	},
	{
		"name": "SRICE",
		"latitude": "38-16-41.49 N",
		"longitude": "86-35-30.93 W",
		"state": "INDIANA",
		"artcc": "ZID",
		"type": "RNAV",
		"updated": "05/03/2016",
	},
	{
		"name": "STACY",
		"latitude": "37-20-33.94 N",
		"longitude": "81-58-31.71 W",
		"state": "VIRGINIA",
		"artcc": "ZID",
		"type": "RP",
		"updated": "BLF*VOR/DME*276.57/37.45",
	},
	{
		"name": "STAMM",
		"latitude": "38-3-40.51 N",
		"longitude": "81-1-55.35 W",
		"state": "WEST VIRGINIA",
		"artcc": "ZID",
		"type": "RNAV",
		"updated": "11/07/2011",
	},
	{
		"name": "STDUM",
		"latitude": "39-37-25.75 N",
		"longitude": "86-25-33.02 W",
		"state": "INDIANA",
		"artcc": "ZID",
		"type": "RP",
		"updated": "IND*LD*229.54/8.96",
	},
	{
		"name": "STEPH",
		"latitude": "38-11-6.01 N",
		"longitude": "81-48-14.14 W",
		"state": "WEST VIRGINIA",
		"artcc": "ZID",
		"type": "RP",
		"updated": "HVQ*VOR/DME*192.26/10.00",
	},
	{
		"name": "STEWR",
		"latitude": "39-43-39.28 N",
		"longitude": "86-7-37.87 W",
		"state": "INDIANA",
		"artcc": "ZID",
		"type": "RNAV",
		"updated": "10/05/2016",
	},
	{
		"name": "STILT",
		"latitude": "38-25-51.47 N",
		"longitude": "81-30-51.77 W",
		"state": "WEST VIRGINIA",
		"artcc": "ZID",
		"type": "RP",
		"updated": "HVQ*VOR/DME*070.91/13.00",
	},
	{
		"name": "STOTZ",
		"latitude": "38-1-14.97 N",
		"longitude": "84-30-3.71 W",
		"state": "KENTUCKY",
		"artcc": "ZID",
		"type": "RNAV",
		"updated": "01/16/2018",
	},
	{
		"name": "STOWA",
		"latitude": "40-5-29.94 N",
		"longitude": "85-33-58.99 W",
		"state": "INDIANA",
		"artcc": "ZID",
		"type": "RNAV",
		"updated": "09/29/2009",
	},
	{
		"name": "STREP",
		"latitude": "38-46-22.8 N",
		"longitude": "86-0-49.31 W",
		"state": "INDIANA",
		"artcc": "ZID",
		"type": "RP",
		"updated": "IIU*VORTAC*332.00/45.09",
	},
	{
		"name": "STUGZ",
		"latitude": "38-5-53.5 N",
		"longitude": "85-49-42.56 W",
		"state": "KENTUCKY",
		"artcc": "ZID",
		"type": "RNAV",
		"updated": "06/05/2012",
	},
	{
		"name": "STUNS",
		"latitude": "39-31-5.8 N",
		"longitude": "86-6-25.13 W",
		"state": "INDIANA",
		"artcc": "ZID",
		"type": "RNAV",
		"updated": "05/31/2017",
	},
	{
		"name": "STURR",
		"latitude": "39-33-20.08 N",
		"longitude": "81-51-44.43 W",
		"state": "OHIO",
		"artcc": "ZID",
		"type": "RP",
		"updated": "ZZV*VOR/DME*182.52/23.14",
	},
	{
		"name": "STYKR",
		"latitude": "38-17-53.66 N",
		"longitude": "85-39-31.88 W",
		"state": "KENTUCKY",
		"artcc": "ZID",
		"type": "RNAV",
		"updated": "05/09/2016",
	},
	{
		"name": "SUBWY",
		"latitude": "39-41-52.08 N",
		"longitude": "82-10-34.16 W",
		"state": "OHIO",
		"artcc": "ZID",
		"type": "RP",
		"updated": "AIR*VOR/DME*260.48",
	},
	{
		"name": "SUCOG",
		"latitude": "37-39-20.48 N",
		"longitude": "81-8-48.02 W",
		"state": "WEST VIRGINIA",
		"artcc": "ZID",
		"type": "RNAV",
		"updated": "06/16/2008",
	},
	{
		"name": "SUCVO",
		"latitude": "37-48-5.04 N",
		"longitude": "87-1-56.38 W",
		"state": "KENTUCKY",
		"artcc": "ZID",
		"type": "RNAV",
		"updated": "07/08/2011",
	},
	{
		"name": "SUEFA",
		"latitude": "39-29-43.09 N",
		"longitude": "87-24-0.06 W",
		"state": "INDIANA",
		"artcc": "ZID",
		"type": "RNAV",
		"updated": "09/29/2014",
	},
	{
		"name": "SUGKO",
		"latitude": "39-56-47.35 N",
		"longitude": "88-0-22.1 W",
		"state": "ILLINOIS",
		"artcc": "ZID",
		"type": "RNAV",
		"updated": "10/10/2008",
	},
	{
		"name": "SUITS",
		"latitude": "39-20-44.42 N",
		"longitude": "83-51-44.74 W",
		"state": "OHIO",
		"artcc": "ZID",
		"type": "RP",
		"updated": "IYV*LD*E CRS/5.01",
	},
	{
		"name": "SUMET",
		"latitude": "39-18-0.72 N",
		"longitude": "81-30-36.95 W",
		"state": "WEST VIRGINIA",
		"artcc": "ZID",
		"type": "RP",
		"updated": "AIR*VOR/DME*223.99/53.65",
	},
	{
		"name": "SUMIE",
		"latitude": "39-59-12.26 N",
		"longitude": "82-45-15.45 W",
		"state": "OHIO",
		"artcc": "ZID",
		"type": "RP",
		"updated": "CMH*LD*099.22/7.34",
	},
	{
		"name": "SUNLE",
		"latitude": "39-52-25.3 N",
		"longitude": "84-53-23.7 W",
		"state": "INDIANA",
		"artcc": "ZID",
		"type": "RNAV",
		"updated": "02/23/2015",
	},
	{
		"name": "SUPLE",
		"latitude": "39-53-51.23 N",
		"longitude": "84-23-2.39 W",
		"state": "OHIO",
		"artcc": "ZID",
		"type": "RNAV",
		"updated": "04/11/2014",
	},
	{
		"name": "SURDY",
		"latitude": "38-27-39.61 N",
		"longitude": "87-53-3.61 W",
		"state": "ILLINOIS",
		"artcc": "ZID",
		"type": "RNAV",
		"updated": "02/05/2010",
	},
	{
		"name": "SUREW",
		"latitude": "39-55-38.01 N",
		"longitude": "83-34-53.34 W",
		"state": "OHIO",
		"artcc": "ZID",
		"type": "RNAV",
		"updated": "08/12/2008",
	},
	{
		"name": "SUSYO",
		"latitude": "37-46-59.11 N",
		"longitude": "81-8-28.29 W",
		"state": "WEST VIRGINIA",
		"artcc": "ZID",
		"type": "RP",
		"updated": "BKW*VOR/DME*287.20/0.86",
	},
	{
		"name": "SUSZE",
		"latitude": "39-4-59 N",
		"longitude": "86-44-59 W",
		"state": "INDIANA",
		"artcc": "ZID",
		"type": "RNAV",
		"updated": "05/09/2016",
	},
	{
		"name": "SUTZY",
		"latitude": "38-4-53.55 N",
		"longitude": "84-26-43.41 W",
		"state": "KENTUCKY",
		"artcc": "ZID",
		"type": "RNAV",
		"updated": "02/09/2018",
	},
	{
		"name": "SUVME",
		"latitude": "37-34-42.07 N",
		"longitude": "87-56-17.25 W",
		"state": "KENTUCKY",
		"artcc": "ZID",
		"type": "RNAV",
		"updated": "01/10/2013",
	},
	{
		"name": "SUYKO",
		"latitude": "37-42-18.49 N",
		"longitude": "82-40-17.53 W",
		"state": "KENTUCKY",
		"artcc": "ZID",
		"type": "RNAV",
		"updated": "10/07/2014",
	},
	{
		"name": "SWAPP",
		"latitude": "36-36-49.78 N",
		"longitude": "85-10-56.04 W",
		"state": "TENNESSEE",
		"artcc": "ZID",
		"type": "RP",
		"updated": "IIU*VORTAC*166.92",
	},
	{
		"name": "SWIFT",
		"latitude": "38-23-30.16 N",
		"longitude": "81-18-3.92 W",
		"state": "WEST VIRGINIA",
		"artcc": "ZID",
		"type": "RP",
		"updated": "HVQ*VOR/DME*086.36/22.26",
	},
	{
		"name": "SYNDI",
		"latitude": "37-39-45.74 N",
		"longitude": "85-49-3.16 W",
		"state": "KENTUCKY",
		"artcc": "ZID",
		"type": "RP",
		"updated": "EWO*VOR/DME*284.38/7.00",
	},
