	{
		"name": "UBDOW",
		"latitude": "39-7-28.06 N",
		"longitude": "83-1-52.71 W",
		"state": "OHIO",
		"artcc": "ZID",
		"type": "RNAV",
		"updated": "12/19/2014",
	},
	{
		"name": "UBHES",
		"latitude": "37-30-6.39 N",
		"longitude": "82-43-10.4 W",
		"state": "KENTUCKY",
		"artcc": "ZID",
		"type": "RNAV",
		"updated": "10/07/2014",
	},
	{
		"name": "UBIRE",
		"latitude": "37-38-43.17 N",
		"longitude": "82-14-52.75 W",
		"state": "KENTUCKY",
		"artcc": "ZID",
		"type": "RNAV",
		"updated": "09/14/2011",
	},
	{
		"name": "UBUKY",
		"latitude": "36-22-32.07 N",
		"longitude": "85-20-45.35 W",
		"state": "TENNESSEE",
		"artcc": "ZID",
		"type": "RNAV",
		"updated": "01/18/2001",
	},
	{
		"name": "UBYON",
		"latitude": "37-5-23.64 N",
		"longitude": "85-17-4.2 W",
		"state": "KENTUCKY",
		"artcc": "ZID",
		"type": "RNAV",
		"updated": "03/04/2015",
	},
	{
		"name": "UCALO",
		"latitude": "37-27-26.78 N",
		"longitude": "86-51-17.58 W",
		"state": "KENTUCKY",
		"artcc": "ZID",
		"type": "RP",
		"updated": "CCT*VORTAC*077.92/20.05",
	},
	{
		"name": "UCAYU",
		"latitude": "40-42-23.89 N",
		"longitude": "84-18-18.08 W",
		"state": "OHIO",
		"artcc": "ZID",
		"type": "RP",
		"updated": "FWA*VORTAC*111.82/43.40",
	},
	{
		"name": "UCECU",
		"latitude": "39-53-37.56 N",
		"longitude": "82-39-57.64 W",
		"state": "OHIO",
		"artcc": "ZID",
		"type": "RNAV",
		"updated": "12/02/2008",
	},
	{
		"name": "UCFEX",
		"latitude": "38-53-23.47 N",
		"longitude": "87-7-47.33 W",
		"state": "INDIANA",
		"artcc": "ZID",
		"type": "RNAV",
		"updated": "09/12/2014",
	},
	{
		"name": "UCOBI",
		"latitude": "36-41-35.21 N",
		"longitude": "85-7-46.36 W",
		"state": "KENTUCKY",
		"artcc": "ZID",
		"type": "RNAV",
		"updated": "08/01/2016",
	},
	{
		"name": "UCUCU",
		"latitude": "37-59-25.42 N",
		"longitude": "86-39-17.86 W",
		"state": "INDIANA",
		"artcc": "ZID",
		"type": "RNAV",
		"updated": "06/30/2011",
	},
	{
		"name": "UCYUZ",
		"latitude": "38-22-10.89 N",
		"longitude": "81-36-8.58 W",
		"state": "WEST VIRGINIA",
		"artcc": "ZID",
		"type": "RP",
		"updated": "HCV*LD*231.70/0.10",
	},
	{
		"name": "UGKUJ",
		"latitude": "37-42-6.44 N",
		"longitude": "87-9-55.46 W",
		"state": "KENTUCKY",
		"artcc": "ZID",
		"type": "RNAV",
		"updated": "09/13/2012",
	},
	{
		"name": "UGNIQ",
		"latitude": "37-45-58.71 N",
		"longitude": "83-58-5.59 W",
		"state": "KENTUCKY",
		"artcc": "ZID",
		"type": "RNAV",
		"updated": "08/13/2013",
	},
	{
		"name": "UHAGY",
		"latitude": "39-51-37.71 N",
		"longitude": "83-12-25.05 W",
		"state": "OHIO",
		"artcc": "ZID",
		"type": "RNAV",
		"updated": "02/09/2018",
	},
	{
		"name": "UHOBI",
		"latitude": "39-28-48.86 N",
		"longitude": "84-48-48.12 W",
		"state": "OHIO",
		"artcc": "ZID",
		"type": "RNAV",
		"updated": "04/17/2012",
	},
	{
		"name": "UHZAW",
		"latitude": "40-23-24.65 N",
		"longitude": "85-8-21.67 W",
		"state": "INDIANA",
		"artcc": "ZID",
		"type": "RNAV",
		"updated": "01/21/2015",
	},
	{
		"name": "UJOYU",
		"latitude": "38-58-33.63 N",
		"longitude": "81-49-3.27 W",
		"state": "OHIO",
		"artcc": "ZID",
		"type": "RP",
		"updated": "HVQ*VOR/DME*359.60/37.61",
	},
	{
		"name": "UKATS",
		"latitude": "40-8-4.48 N",
		"longitude": "82-37-12.2 W",
		"state": "OHIO",
		"artcc": "ZID",
		"type": "RNAV",
		"updated": "05/09/2016",
	},
	{
		"name": "UKESY",
		"latitude": "39-12-33.36 N",
		"longitude": "82-49-31.86 W",
		"state": "OHIO",
		"artcc": "ZID",
		"type": "RNAV",
		"updated": "12/19/2014",
	},
	{
		"name": "UKICU",
		"latitude": "38-33-43.99 N",
		"longitude": "82-48-23.74 W",
		"state": "KENTUCKY",
		"artcc": "ZID",
		"type": "RNAV",
		"updated": "05/27/2011",
	},
	{
		"name": "UMEXE",
		"latitude": "40-43-43.74 N",
		"longitude": "84-3-2.89 W",
		"state": "OHIO",
		"artcc": "ZID",
		"type": "RNAV",
		"updated": "12/26/2013",
	},
	{
		"name": "UMODE",
		"latitude": "37-8-29.09 N",
		"longitude": "83-49-5.71 W",
		"state": "KENTUCKY",
		"artcc": "ZID",
		"type": "RNAV",
		"updated": "08/02/2006",
	},
	{
		"name": "UMPTA",
		"latitude": "38-49-13.49 N",
		"longitude": "84-40-10.57 W",
		"state": "KENTUCKY",
		"artcc": "ZID",
		"type": "RP",
		"updated": "CVG*LD*186.18/14.83",
	},
	{
		"name": "UNCKL",
		"latitude": "37-28-52.88 N",
		"longitude": "84-42-58.79 W",
		"state": "KENTUCKY",
		"artcc": "ZID",
		"type": "RP",
		"updated": "LOZ*VOR/DME*315.95/39.56",
	},
	{
		"name": "UNCOD",
		"latitude": "38-53-22.86 N",
		"longitude": "86-30-54.69 W",
		"state": "INDIANA",
		"artcc": "ZID",
		"type": "RNAV",
		"updated": "05/09/2016",
	},
	{
		"name": "UNDOZ",
		"latitude": "37-54-28.88 N",
		"longitude": "85-27-10.91 W",
		"state": "KENTUCKY",
		"artcc": "ZID",
		"type": "RNAV",
		"updated": "02/20/2018",
	},
	{
		"name": "UNICI",
		"latitude": "38-16-9.34 N",
		"longitude": "83-33-47.23 W",
		"state": "KENTUCKY",
		"artcc": "ZID",
		"type": "RNAV",
		"updated": "07/15/2014",
	},
	{
		"name": "UNNOG",
		"latitude": "36-40-39.4 N",
		"longitude": "85-0-53.36 W",
		"state": "KENTUCKY",
		"artcc": "ZID",
		"type": "RNAV",
		"updated": "06/21/2013",
	},
	{
		"name": "UNOIT",
		"latitude": "39-59-56.86 N",
		"longitude": "82-50-9.24 W",
		"state": "OHIO",
		"artcc": "ZID",
		"type": "RP",
		"updated": "ONB*LD*101.22/3.49",
	},
	{
		"name": "UNSAW",
		"latitude": "39-9-31.94 N",
		"longitude": "81-32-10.4 W",
		"state": "WEST VIRGINIA",
		"artcc": "ZID",
		"type": "RNAV",
		"updated": "04/09/2012",
	},
	{
		"name": "UPDEW",
		"latitude": "38-5-44.17 N",
		"longitude": "84-38-9.97 W",
		"state": "KENTUCKY",
		"artcc": "ZID",
		"type": "RNAV",
		"updated": "06/21/2010",
	},
	{
		"name": "UPODE",
		"latitude": "36-36-44.35 N",
		"longitude": "83-44-6.92 W",
		"state": "KENTUCKY",
		"artcc": "ZID",
		"type": "RNAV",
		"updated": "03/20/2007",
	},
	{
		"name": "UPRAW",
		"latitude": "38-12-5.74 N",
		"longitude": "84-25-10.35 W",
		"state": "KENTUCKY",
		"artcc": "ZID",
		"type": "RNAV",
		"updated": "08/08/2006",
	},
	{
		"name": "UPSCO",
		"latitude": "38-1-45.69 N",
		"longitude": "85-40-39.09 W",
		"state": "KENTUCKY",
		"artcc": "ZID",
		"type": "RP",
		"updated": "IIU*VORTAC*225.91",
	},
	{
		"name": "UPZIS",
		"latitude": "37-16-25.31 N",
		"longitude": "83-56-43.55 W",
		"state": "KENTUCKY",
		"artcc": "ZID",
		"type": "RNAV",
		"updated": "08/08/2006",
	},
	{
		"name": "URAYE",
		"latitude": "38-22-3.53 N",
		"longitude": "84-14-8.55 W",
		"state": "KENTUCKY",
		"artcc": "ZID",
		"type": "RNAV",
		"updated": "06/21/2010",
	},
	{
		"name": "URCUR",
		"latitude": "39-10-55.91 N",
		"longitude": "86-31-2.16 W",
		"state": "INDIANA",
		"artcc": "ZID",
		"type": "RNAV",
		"updated": "07/09/2001",
	},
	{
		"name": "URFUZ",
		"latitude": "37-26-35.43 N",
		"longitude": "83-22-13.35 W",
		"state": "KENTUCKY",
		"artcc": "ZID",
		"type": "RP",
		"updated": "AZQ*VOR/DME*305.26/6.00",
	},
	{
		"name": "UROCU",
		"latitude": "38-30-28.51 N",
		"longitude": "81-24-10.98 W",
		"state": "WEST VIRGINIA",
		"artcc": "ZID",
		"type": "CN",
		"updated": "03/02/2010",
	},
	{
		"name": "URZUK",
		"latitude": "38-30-8.49 N",
		"longitude": "83-51-45.63 W",
		"state": "KENTUCKY",
		"artcc": "ZID",
		"type": "RNAV",
		"updated": "03/31/2009",
	},
	{
		"name": "USECE",
		"latitude": "39-46-18.31 N",
		"longitude": "86-31-34.07 W",
		"state": "INDIANA",
		"artcc": "ZID",
		"type": "RNAV",
		"updated": "01/13/2016",
	},
	{
		"name": "USEPE",
		"latitude": "40-1-46.36 N",
		"longitude": "82-20-26.9 W",
		"state": "OHIO",
		"artcc": "ZID",
		"type": "RNAV",
		"updated": "07/01/2016",
	},
	{
		"name": "USOCU",
		"latitude": "37-59-57.02 N",
		"longitude": "87-34-1.54 W",
		"state": "INDIANA",
		"artcc": "ZID",
		"type": "RNAV",
		"updated": "08/13/2014",
	},
	{
		"name": "USOPY",
		"latitude": "39-31-29.26 N",
		"longitude": "84-45-16.9 W",
		"state": "OHIO",
		"artcc": "ZID",
		"type": "RNAV",
		"updated": "04/17/2012",
	},
	{
		"name": "USUDE",
		"latitude": "40-27-0.75 N",
		"longitude": "82-47-29.15 W",
		"state": "OHIO",
		"artcc": "ZID",
		"type": "RNAV",
		"updated": "06/29/2011",
	},
	{
		"name": "UTESE",
		"latitude": "36-51-50.8 N",
		"longitude": "83-53-21.08 W",
		"state": "KENTUCKY",
		"artcc": "ZID",
		"type": "RNAV",
		"updated": "07/26/2016",
	},
	{
		"name": "UTEYU",
		"latitude": "39-56-24.33 N",
		"longitude": "85-9-19.24 W",
		"state": "INDIANA",
		"artcc": "ZID",
		"type": "RNAV",
		"updated": "01/20/2011",
	},
	{
		"name": "UTTER",
		"latitude": "40-18-55.34 N",
		"longitude": "82-20-31.86 W",
		"state": "OHIO",
		"artcc": "ZID",
		"type": "RNAV",
		"updated": "12/07/2017",
	},
	{
		"name": "UUKAY",
		"latitude": "37-56-19.05 N",
		"longitude": "84-51-19.31 W",
		"state": "KENTUCKY",
		"artcc": "ZID",
		"type": "RNAV",
		"updated": "08/08/2006",
	},
	{
		"name": "UWHUH",
		"latitude": "37-56-27.38 N",
		"longitude": "85-58-6.85 W",
		"state": "KENTUCKY",
		"artcc": "ZID",
		"type": "RP",
		"updated": "FTK*VOR/DME*006.36/2.03",
	},
	{
		"name": "UXACI",
		"latitude": "39-18-3.47 N",
		"longitude": "87-18-59.95 W",
		"state": "INDIANA",
		"artcc": "ZID",
		"type": "RNAV",
		"updated": "09/26/2014",
	},
	{
		"name": "UXREL",
		"latitude": "39-11-23.78 N",
		"longitude": "82-16-46.41 W",
		"state": "OHIO",
		"artcc": "ZID",
		"type": "RNAV",
		"updated": "10/05/2017",
	},
	{
		"name": "UXZOR",
		"latitude": "37-52-45.64 N",
		"longitude": "88-7-27.34 W",
		"state": "ILLINOIS",
		"artcc": "ZID",
		"type": "RP",
		"updated": "PXV*VORTAC*257.42/17.43",
	},
	{
		"name": "UYOGO",
		"latitude": "40-0-54.33 N",
		"longitude": "84-1-11.01 W",
		"state": "OHIO",
		"artcc": "ZID",
		"type": "RP",
		"updated": "ROD*VORTAC*181.23",
	},
	{
		"name": "UYOKO",
		"latitude": "39-36-4.16 N",
		"longitude": "84-13-12.6 W",
		"state": "OHIO",
		"artcc": "ZID",
		"type": "RNAV",
		"updated": "11/03/2006",
	},
	{
		"name": "UZAZA",
		"latitude": "40-32-38.66 N",
		"longitude": "83-42-57.68 W",
		"state": "OHIO",
		"artcc": "ZID",
		"type": "RNAV",
		"updated": "12/03/2010",
	},
	{
		"name": "UZMUR",
		"latitude": "37-6-32.83 N",
		"longitude": "84-19-3.77 W",
		"state": "KENTUCKY",
		"artcc": "ZID",
		"type": "RNAV",
		"updated": "06/21/2006",
	},
	{
		"name": "UZNAP",
		"latitude": "36-53-9.82 N",
		"longitude": "83-54-41.62 W",
		"state": "KENTUCKY",
		"artcc": "ZID",
		"type": "RNAV",
		"updated": "07/26/2016",
	},
	{
		"name": "UZXAM",
		"latitude": "38-22-38.58 N",
		"longitude": "84-20-5.08 W",
		"state": "KENTUCKY",
		"artcc": "ZID",
		"type": "RNAV",
		"updated": "10/07/2014",
	},
