	{
		"name": "VACUB",
		"latitude": "39-5-37.24 N",
		"longitude": "84-41-1.15 W",
		"state": "KENTUCKY",
		"artcc": "ZID",
		"type": "RP",
		"updated": "VAC*LD*006.17/1.20",
	},
	{
		"name": "VADUY",
		"latitude": "39-53-27.89 N",
		"longitude": "82-36-21.56 W",
		"state": "OHIO",
		"artcc": "ZID",
		"type": "RP",
		"updated": "APE*VORTAC*189.00/15.61",
	},
	{
		"name": "VANJI",
		"latitude": "39-41-44.68 N",
		"longitude": "87-12-52.67 W",
		"state": "INDIANA",
		"artcc": "ZID",
		"type": "RP",
		"updated": "TTH*VORTAC*005.32/12.50",
	},
	{
		"name": "VARNY",
		"latitude": "37-49-54.33 N",
		"longitude": "81-57-50.22 W",
		"state": "WEST VIRGINIA",
		"artcc": "ZID",
		"type": "RNAV",
		"updated": "12/13/2012",
	},
	{
		"name": "VARUY",
		"latitude": "39-25-16.53 N",
		"longitude": "87-20-59.96 W",
		"state": "INDIANA",
		"artcc": "ZID",
		"type": "RNAV",
		"updated": "10/15/2008",
	},
	{
		"name": "VASUY",
		"latitude": "38-32-47.43 N",
		"longitude": "82-40-2.4 W",
		"state": "OHIO",
		"artcc": "ZID",
		"type": "RNAV",
		"updated": "05/31/2011",
	},
	{
		"name": "VEALS",
		"latitude": "39-57-58.29 N",
		"longitude": "88-10-56.92 W",
		"state": "ILLINOIS",
		"artcc": "ZID",
		"type": "RP",
		"updated": "CMI*VORTAC*130.46/5.95",
	},
	{
		"name": "VECON",
		"latitude": "36-58-44.01 N",
		"longitude": "82-32-45.73 W",
		"state": "VIRGINIA",
		"artcc": "ZID",
		"type": "RNAV",
		"updated": "05/11/2007",
	},
	{
		"name": "VERSI",
		"latitude": "39-15-13.05 N",
		"longitude": "81-29-0.18 W",
		"state": "WEST VIRGINIA",
		"artcc": "ZID",
		"type": "RP",
		"updated": "JPU*VOR/DME*207.25/12.33",
	},
	{
		"name": "VERYU",
		"latitude": "40-12-7.27 N",
		"longitude": "84-39-4.11 W",
		"state": "OHIO",
		"artcc": "ZID",
		"type": "RNAV",
		"updated": "06/17/2008",
	},
	{
		"name": "VIBCO",
		"latitude": "40-12-6.19 N",
		"longitude": "83-23-55.45 W",
		"state": "OHIO",
		"artcc": "ZID",
		"type": "RNAV",
		"updated": "11/10/2016",
	},
	{
		"name": "VICGO",
		"latitude": "38-15-25.35 N",
		"longitude": "84-29-54.81 W",
		"state": "KENTUCKY",
		"artcc": "ZID",
		"type": "RNAV",
		"updated": "08/08/2006",
	},
	{
		"name": "VIDEO",
		"latitude": "40-4-16.49 N",
		"longitude": "85-30-34.7 W",
		"state": "INDIANA",
		"artcc": "ZID",
		"type": "RNAV",
		"updated": "AID*LS*SE CRS",
	},
	{
		"name": "VIKOR",
		"latitude": "36-55-49.37 N",
		"longitude": "84-7-50.63 W",
		"state": "KENTUCKY",
		"artcc": "ZID",
		"type": "RNAV",
		"updated": "07/26/2016",
	},
	{
		"name": "VILLL",
		"latitude": "38-2-36.83 N",
		"longitude": "85-25-46.75 W",
		"state": "KENTUCKY",
		"artcc": "ZID",
		"type": "RNAV",
		"updated": "05/09/2016",
	},
	{
		"name": "VIPPR",
		"latitude": "39-39-20.21 N",
		"longitude": "84-18-3.4 W",
		"state": "OHIO",
		"artcc": "ZID",
		"type": "MR",
		"updated": "FFO*TACAN*/15.00",
	},
	{
		"name": "VITAE",
		"latitude": "39-56-30.32 N",
		"longitude": "86-21-38.41 W",
		"state": "INDIANA",
		"artcc": "ZID",
		"type": "RNAV",
		"updated": "01/21/2016",
	},
	{
		"name": "VIYUT",
		"latitude": "38-55-43.46 N",
		"longitude": "87-27-4.17 W",
		"state": "INDIANA",
		"artcc": "ZID",
		"type": "RNAV",
		"updated": "09/26/2014",
	},
	{
		"name": "VLADY",
		"latitude": "39-23-31.89 N",
		"longitude": "81-44-14.08 W",
		"state": "OHIO",
		"artcc": "ZID",
		"type": "RP",
		"updated": "BKW*VOR/DME*349.55/100.84",
	},
	{
		"name": "VOBCU",
		"latitude": "39-2-42.86 N",
		"longitude": "84-22-50.47 W",
		"state": "OHIO",
		"artcc": "ZID",
		"type": "RNAV",
		"updated": "08/12/2008",
	},
	{
		"name": "VOCCA",
		"latitude": "39-43-16.55 N",
		"longitude": "85-7-4.07 W",
		"state": "INDIANA",
		"artcc": "ZID",
		"type": "RP",
		"updated": "RID*VORTAC*264.18/13.07",
	},
	{
		"name": "VOCUG",
		"latitude": "37-14-21.59 N",
		"longitude": "81-18-26.05 W",
		"state": "VIRGINIA",
		"artcc": "ZID",
		"type": "RNAV",
		"updated": "12/31/2009",
	},
	{
		"name": "VOCUK",
		"latitude": "37-53-56.15 N",
		"longitude": "81-6-23.01 W",
		"state": "WEST VIRGINIA",
		"artcc": "ZID",
		"type": "RP",
		"updated": "BKW*VOR/DME*/7.16",
	},
	{
		"name": "VOCUT",
		"latitude": "38-33-18.69 N",
		"longitude": "87-35-55.19 W",
		"state": "INDIANA",
		"artcc": "ZID",
		"type": "RNAV",
		"updated": "05/22/2012",
	},
	{
		"name": "VOSTK",
		"latitude": "38-28-15.86 N",
		"longitude": "84-43-3.58 W",
		"state": "KENTUCKY",
		"artcc": "ZID",
		"type": "RNAV",
		"updated": "11/26/2007",
	},
	{
		"name": "VOYUK",
		"latitude": "38-13-36.19 N",
		"longitude": "85-45-42.8 W",
		"state": "KENTUCKY",
		"artcc": "ZID",
		"type": "RP",
		"updated": "SNU*LD*350.40/4.51",
	},
	{
		"name": "VOYUV",
		"latitude": "39-34-49.27 N",
		"longitude": "84-19-14.79 W",
		"state": "OHIO",
		"artcc": "ZID",
		"type": "RNAV",
		"updated": "08/02/2012",
	},
	{
		"name": "VPEST",
		"latitude": "38-14-57.48 N",
		"longitude": "85-44-26.69 W",
		"state": "KENTUCKY",
		"artcc": "ZID",
		"type": "VFR",
		"updated": "06/05/2015",
	},
	{
		"name": "VPMFE",
		"latitude": "38-10-28.61 N",
		"longitude": "85-42-45.56 W",
		"state": "KENTUCKY",
		"artcc": "ZID",
		"type": "VFR",
		"updated": "06/05/2015",
	},
	{
		"name": "VPMFW",
		"latitude": "38-10-10.97 N",
		"longitude": "85-45-37.28 W",
		"state": "KENTUCKY",
		"artcc": "ZID",
		"type": "VFR",
		"updated": "06/05/2015",
	},
	{
		"name": "VPWST",
		"latitude": "38-14-56.34 N",
		"longitude": "85-46-55.43 W",
		"state": "KENTUCKY",
		"artcc": "ZID",
		"type": "VFR",
		"updated": "06/05/2015",
	},
	{
		"name": "VROWS",
		"latitude": "40-1-11.15 N",
		"longitude": "82-34-48.04 W",
		"state": "OHIO",
		"artcc": "ZID",
		"type": "RNAV",
		"updated": "07/01/2016",
	},
	{
		"name": "VUDUY",
		"latitude": "39-54-16.51 N",
		"longitude": "85-40-3.72 W",
		"state": "INDIANA",
		"artcc": "ZID",
		"type": "RP",
		"updated": "SHB*VOR/DME*022.90",
	},
	{
		"name": "VUNJU",
		"latitude": "38-46-21.95 N",
		"longitude": "81-56-0.01 W",
		"state": "WEST VIRGINIA",
		"artcc": "ZID",
		"type": "WP",
		"updated": "06/15/2011",
	},
	{
		"name": "VUPUC",
		"latitude": "37-48-27.78 N",
		"longitude": "81-17-55.73 W",
		"state": "WEST VIRGINIA",
		"artcc": "ZID",
		"type": "RP",
		"updated": "BLF*VOR/DME*353.60",
	},
	{
		"name": "VUSWO",
		"latitude": "37-22-46.11 N",
		"longitude": "86-53-43.36 W",
		"state": "KENTUCKY",
		"artcc": "ZID",
		"type": "RNAV",
		"updated": "04/25/2012",
	},
	{
		"name": "VUTUY",
		"latitude": "39-50-35.5 N",
		"longitude": "82-53-12.26 W",
		"state": "OHIO",
		"artcc": "ZID",
		"type": "RNAV",
		"updated": "12/04/2008",
	},
	{
		"name": "VUYUG",
		"latitude": "37-52-10.93 N",
		"longitude": "85-57-46.05 W",
		"state": "KENTUCKY",
		"artcc": "ZID",
		"type": "RP",
		"updated": "FTK*VOR/DME*169.33/2.30",
	},
