[
	{
		"name": "ZABAL",
		"latitude": "39-32-7.24 N",
		"longitude": "85-55-5.62 W",
		"state": "INDIANA",
		"artcc": "ZID",
		"type": "RP",
		"updated": "TTH*VORTAC*085.00/61.86"
	},
	{
		"name": "ZABEP",
		"latitude": "39-55-43.01 N",
		"longitude": "84-5-7.43 W",
		"state": "OHIO",
		"artcc": "ZID",
		"type": "RNAV",
		"updated": "04/11/2014"
	},
	{
		"name": "ZABSI",
		"latitude": "39-32-58.78 N",
		"longitude": "84-2-5.92 W",
		"state": "OHIO",
		"artcc": "ZID",
		"type": "RNAV",
		"updated": "07/30/2012"
	},
	{
		"name": "ZAGAK",
		"latitude": "38-4-46.34 N",
		"longitude": "87-29-14.77 W",
		"state": "INDIANA",
		"artcc": "ZID",
		"type": "RP",
		"updated": "EVV*LD*041.10/3.49"
	},
	{
		"name": "ZAGMO",
		"latitude": "39-57-54.47 N",
		"longitude": "88-10-52.07 W",
		"state": "ILLINOIS",
		"artcc": "ZID",
		"type": "RNAV",
		"updated": "10/15/2008"
	},
	{
		"name": "ZAGPA",
		"latitude": "39-54-34.24 N",
		"longitude": "86-59-58.75 W",
		"state": "INDIANA",
		"artcc": "ZID",
		"type": "RNAV",
		"updated": "10/05/2016"
	},
	{
		"name": "ZAKEB",
		"latitude": "38-57-53.27 N",
		"longitude": "87-49-1.59 W",
		"state": "ILLINOIS",
		"artcc": "ZID",
		"type": "RNAV",
		"updated": "05/23/2012"
	},
	{
		"name": "ZAKIS",
		"latitude": "39-44-3.32 N",
		"longitude": "84-11-23.27 W",
		"state": "OHIO",
		"artcc": "ZID",
		"type": "RNAV",
		"updated": "11/14/2014"
	},
	{
		"name": "ZAKIT",
		"latitude": "39-43-28.22 N",
		"longitude": "84-20-19.88 W",
		"state": "OHIO",
		"artcc": "ZID",
		"type": "RP",
		"updated": "ROD*VORTAC*207.08/36.42"
	},
	{
		"name": "ZALAD",
		"latitude": "40-11-11.76 N",
		"longitude": "84-11-50.94 W",
		"state": "OHIO",
		"artcc": "ZID",
		"type": "RNAV",
		"updated": "04/05/2004"
	},
	{
		"name": "ZALRA",
		"latitude": "38-38-35.51 N",
		"longitude": "87-41-4.75 W",
		"state": "ILLINOIS",
		"artcc": "ZID",
		"type": "RNAV",
		"updated": "02/05/2010"
	},
	{
		"name": "ZAMAK",
		"latitude": "40-49-24.16 N",
		"longitude": "84-18-19.72 W",
		"state": "OHIO",
		"artcc": "ZID",
		"type": "RNAV",
		"updated": "07/06/2012"
	},
	{
		"name": "ZAMBO",
		"latitude": "39-56-46.79 N",
		"longitude": "84-7-5.79 W",
		"state": "OHIO",
		"artcc": "ZID",
		"type": "RP",
		"updated": "DQN*VOR/DME*109.02"
	},
	{
		"name": "ZAMHO",
		"latitude": "39-22-48.12 N",
		"longitude": "84-15-34.46 W",
		"state": "OHIO",
		"artcc": "ZID",
		"type": "RNAV",
		"updated": "11/30/2016"
	},
	{
		"name": "ZANOL",
		"latitude": "38-21-40.98 N",
		"longitude": "81-46-29.04 W",
		"state": "WEST VIRGINIA",
		"artcc": "ZID",
		"type": "RNAV",
		"updated": "10/27/2015"
	},
	{
		"name": "ZAPIM",
		"latitude": "38-42-44.46 N",
		"longitude": "83-45-38.58 W",
		"state": "OHIO",
		"artcc": "ZID",
		"type": "RNAV",
		"updated": "09/24/2015"
	},
	{
		"name": "ZAPSA",
		"latitude": "39-48-33.88 N",
		"longitude": "84-4-23.69 W",
		"state": "OHIO",
		"artcc": "ZID",
		"type": "MR",
		"updated": "FFO*TACAN*239.08/1.00"
	},
	{
		"name": "ZAPUR",
		"latitude": "40-24-15.89 N",
		"longitude": "80-31-28.73 W",
		"state": "WEST VIRGINIA",
		"artcc": "ZID",
		"type": "RNAV",
		"updated": "05/06/2016"
	},
	{
		"name": "ZARHO",
		"latitude": "39-28-59.99 N",
		"longitude": "86-24-17.99 W",
		"state": "INDIANA",
		"artcc": "ZID",
		"type": "RP",
		"updated": "SHB*VOR/DME*250.82"
	},
	{
		"name": "ZAROG",
		"latitude": "38-16-57.32 N",
		"longitude": "81-30-41.54 W",
		"state": "WEST VIRGINIA",
		"artcc": "ZID",
		"type": "RNAV",
		"updated": "05/09/2013"
	},
	{
		"name": "ZASNI",
		"latitude": "39-35-23.19 N",
		"longitude": "86-14-40.95 W",
		"state": "INDIANA",
		"artcc": "ZID",
		"type": "RNAV",
		"updated": "01/12/2015"
	},
	{
		"name": "ZAVNE",
		"latitude": "39-50-32.38 N",
		"longitude": "86-6-59.94 W",
		"state": "INDIANA",
		"artcc": "ZID",
		"type": "RP",
		"updated": "SHB*VOR/DME*312.00"
	},
	{
		"name": "ZAVTA",
		"latitude": "39-57-11.53 N",
		"longitude": "82-44-31.18 W",
		"state": "OHIO",
		"artcc": "ZID",
		"type": "RNAV",
		"updated": "12/03/2008"
	},
	{
		"name": "ZAVUM",
		"latitude": "39-22-51.81 N",
		"longitude": "84-13-5.71 W",
		"state": "OHIO",
		"artcc": "ZID",
		"type": "RNAV",
		"updated": "08/16/2006"
	},
	{
		"name": "ZAXED",
		"latitude": "38-47-28.93 N",
		"longitude": "82-42-22.98 W",
		"state": "OHIO",
		"artcc": "ZID",
		"type": "RNAV",
		"updated": "08/03/2004"
	},
	{
		"name": "ZAZBY",
		"latitude": "36-50-20.23 N",
		"longitude": "84-43-19.15 W",
		"state": "KENTUCKY",
		"artcc": "ZID",
		"type": "RNAV",
		"updated": "06/21/2006"
	},
	{
		"name": "ZEDAR",
		"latitude": "39-50-6.6 N",
		"longitude": "83-43-57.02 W",
		"state": "OHIO",
		"artcc": "ZID",
		"type": "MR",
		"updated": "XSF*TACAN*096.00/5.00"
	},
	{
		"name": "ZEDIK",
		"latitude": "39-7-57.28 N",
		"longitude": "84-21-18.61 W",
		"state": "OHIO",
		"artcc": "ZID",
		"type": "RNAV",
		"updated": "07/25/2012"
	},
	{
		"name": "ZEDIN",
		"latitude": "40-28-7.68 N",
		"longitude": "83-33-24.71 W",
		"state": "OHIO",
		"artcc": "ZID",
		"type": "RP",
		"updated": "APE*VORTAC*299.51/48.37"
	},
	{
		"name": "ZEGEN",
		"latitude": "39-0-53.31 N",
		"longitude": "87-35-14.84 W",
		"state": "ILLINOIS",
		"artcc": "ZID",
		"type": "RNAV",
		"updated": "07/16/2013"
	},
	{
		"name": "ZEGOR",
		"latitude": "38-30-59.69 N",
		"longitude": "86-35-3.74 W",
		"state": "INDIANA",
		"artcc": "ZID",
		"type": "RNAV",
		"updated": "01/20/2011"
	},
	{
		"name": "ZEGUL",
		"latitude": "38-49-44.13 N",
		"longitude": "84-35-7.64 W",
		"state": "KENTUCKY",
		"artcc": "ZID",
		"type": "RNAV",
		"updated": "02/09/2010"
	},
	{
		"name": "ZEKAB",
		"latitude": "39-11-24.8 N",
		"longitude": "85-12-9.46 W",
		"state": "INDIANA",
		"artcc": "ZID",
		"type": "RNAV",
		"updated": "05/12/2003"
	},
	{
		"name": "ZEKAM",
		"latitude": "38-47-2.65 N",
		"longitude": "85-43-49.68 W",
		"state": "INDIANA",
		"artcc": "ZID",
		"type": "RNAV",
		"updated": "03/16/2007"
	},
	{
		"name": "ZELID",
		"latitude": "38-37-49.08 N",
		"longitude": "82-56-36.06 W",
		"state": "KENTUCKY",
		"artcc": "ZID",
		"type": "RNAV",
		"updated": "08/12/2008"
	},
	{
		"name": "ZELUM",
		"latitude": "36-59-43.93 N",
		"longitude": "84-7-54.08 W",
		"state": "KENTUCKY",
		"artcc": "ZID",
		"type": "RP",
		"updated": "BYL*LE*019.97/12.59"
	},
	{
		"name": "ZEMOV",
		"latitude": "37-38-31.65 N",
		"longitude": "85-16-55.81 W",
		"state": "KENTUCKY",
		"artcc": "ZID",
		"type": "RNAV",
		"updated": "06/13/2011"
	},
	{
		"name": "ZENUD",
		"latitude": "40-27-31.05 N",
		"longitude": "82-41-52.77 W",
		"state": "OHIO",
		"artcc": "ZID",
		"type": "RP",
		"updated": "APE*VORTAC*350.76"
	},
	{
		"name": "ZENWA",
		"latitude": "38-3-34.54 N",
		"longitude": "84-32-27.24 W",
		"state": "KENTUCKY",
		"artcc": "ZID",
		"type": "RNAV",
		"updated": "06/21/2010"
	},
	{
		"name": "ZEPEG",
		"latitude": "39-13-59.97 N",
		"longitude": "82-10-48.28 W",
		"state": "OHIO",
		"artcc": "ZID",
		"type": "RNAV",
		"updated": "10/05/2017"
	},
	{
		"name": "ZEPKA",
		"latitude": "38-55-55.68 N",
		"longitude": "87-52-33.15 W",
		"state": "ILLINOIS",
		"artcc": "ZID",
		"type": "RNAV",
		"updated": "05/23/2012"
	},
	{
		"name": "ZERAX",
		"latitude": "37-5-50.77 N",
		"longitude": "85-42-34.12 W",
		"state": "KENTUCKY",
		"artcc": "ZID",
		"type": "RNAV",
		"updated": "04/25/2012"
	},
	{
		"name": "ZERET",
		"latitude": "37-37-27.97 N",
		"longitude": "85-11-59.05 W",
		"state": "KENTUCKY",
		"artcc": "ZID",
		"type": "RNAV",
		"updated": "02/24/2016"
	},
	{
		"name": "ZERKE",
		"latitude": "38-10-44 N",
		"longitude": "80-55-14.96 W",
		"state": "WEST VIRGINIA",
		"artcc": "ZID",
		"type": "RNAV",
		"updated": "11/07/2011"
	},
	{
		"name": "ZERUP",
		"latitude": "37-59-25.61 N",
		"longitude": "86-48-50.43 W",
		"state": "KENTUCKY",
		"artcc": "ZID",
		"type": "RNAV",
		"updated": "07/08/2011"
	},
	{
		"name": "ZERUT",
		"latitude": "38-20-5.07 N",
		"longitude": "81-29-15.27 W",
		"state": "WEST VIRGINIA",
		"artcc": "ZID",
		"type": "RNAV",
		"updated": "05/09/2013"
	},
	{
		"name": "ZESIT",
		"latitude": "39-42-18.37 N",
		"longitude": "86-6-17.9 W",
		"state": "INDIANA",
		"artcc": "ZID",
		"type": "RNAV",
		"updated": "01/12/2015"
	},
	{
		"name": "ZESOD",
		"latitude": "39-27-11.71 N",
		"longitude": "85-12-4.19 W",
		"state": "INDIANA",
		"artcc": "ZID",
		"type": "RNAV",
		"updated": "05/30/2012"
	},
	{
		"name": "ZESXY",
		"latitude": "39-20-8.99 N",
		"longitude": "86-45-36.85 W",
		"state": "INDIANA",
		"artcc": "ZID",
		"type": "RNAV",
		"updated": "03/23/2009"
	},
	{
		"name": "ZETAV",
		"latitude": "39-19-47.43 N",
		"longitude": "83-19-38.4 W",
		"state": "OHIO",
		"artcc": "ZID",
		"type": "RNAV",
		"updated": "12/27/2012"
	},
	{
		"name": "ZETIP",
		"latitude": "38-40-34 N",
		"longitude": "84-46-53 W",
		"state": "KENTUCKY",
		"artcc": "ZID",
		"type": "RNAV",
		"updated": "11/22/2006"
	},
	{
		"name": "ZETLA",
		"latitude": "38-55-42.29 N",
		"longitude": "84-44-37.18 W",
		"state": "KENTUCKY",
		"artcc": "ZID",
		"type": "RP",
		"updated": "CVG*VORTAC*203.78"
	},
	{
		"name": "ZEVAB",
		"latitude": "40-13-57.92 N",
		"longitude": "83-15-56.34 W",
		"state": "OHIO",
		"artcc": "ZID",
		"type": "RNAV",
		"updated": "03/13/2012"
	},
	{
		"name": "ZEVRA",
		"latitude": "40-32-3.5 N",
		"longitude": "82-51-15.66 W",
		"state": "OHIO",
		"artcc": "ZID",
		"type": "RNAV",
		"updated": "06/28/2011"
	},
	{
		"name": "ZEVRU",
		"latitude": "38-20-51.3 N",
		"longitude": "81-37-52.1 W",
		"state": "WEST VIRGINIA",
		"artcc": "ZID",
		"type": "RP",
		"updated": "HVQ*VOR/DME*094.05"
	},
	{
		"name": "ZEZJA",
		"latitude": "37-6-37.63 N",
		"longitude": "85-30-5.4 W",
		"state": "KENTUCKY",
		"artcc": "ZID",
		"type": "CN",
		"updated": "10/13/2009"
	},
	{
		"name": "ZIBUR",
		"latitude": "39-13-46.07 N",
		"longitude": "84-53-29.88 W",
		"state": "INDIANA",
		"artcc": "ZID",
		"type": "RNAV",
		"updated": "04/26/2012"
	},
	{
		"name": "ZIDNA",
		"latitude": "37-50-30.48 N",
		"longitude": "81-6-57.16 W",
		"state": "WEST VIRGINIA",
		"artcc": "ZID",
		"type": "RP",
		"updated": "BKW*VOR/DME*/3.70"
	},
	{
		"name": "ZIDNI",
		"latitude": "40-15-17.33 N",
		"longitude": "84-22-24.69 W",
		"state": "OHIO",
		"artcc": "ZID",
		"type": "RNAV",
		"updated": "12/23/2013"
	},
	{
		"name": "ZIEBR",
		"latitude": "37-37-58.24 N",
		"longitude": "82-45-10.76 W",
		"state": "KENTUCKY",
		"artcc": "ZID",
		"type": "RP",
		"updated": "BKW*VOR/DME*270.00/78.09"
	},
	{
		"name": "ZIFFL",
		"latitude": "38-15-57.95 N",
		"longitude": "84-41-16.29 W",
		"state": "KENTUCKY",
		"artcc": "ZID",
		"type": "RP",
		"updated": "HYK*VOR/DME*330.48"
	},
	{
		"name": "ZIGDO",
		"latitude": "39-9-34.03 N",
		"longitude": "85-36-56.36 W",
		"state": "INDIANA",
		"artcc": "ZID",
		"type": "RNAV",
		"updated": "01/19/2006"
	},
	{
		"name": "ZIGTI",
		"latitude": "39-59-20.05 N",
		"longitude": "82-49-32.19 W",
		"state": "OHIO",
		"artcc": "ZID",
		"type": "RP",
		"updated": "CMH*LD*101.22/4.03"
	},
	{
		"name": "ZILEB",
		"latitude": "39-6-21.53 N",
		"longitude": "87-40-33.04 W",
		"state": "ILLINOIS",
		"artcc": "ZID",
		"type": "RNAV",
		"updated": "07/16/2013"
	},
	{
		"name": "ZIMAT",
		"latitude": "38-19-47.21 N",
		"longitude": "81-26-33.38 W",
		"state": "WEST VIRGINIA",
		"artcc": "ZID",
		"type": "RNAV",
		"updated": "05/09/2013"
	},
	{
		"name": "ZINSO",
		"latitude": "38-46-5.09 N",
		"longitude": "87-33-45.02 W",
		"state": "ILLINOIS",
		"artcc": "ZID",
		"type": "RNAV",
		"updated": "05/23/2012"
	},
	{
		"name": "ZIPPY",
		"latitude": "39-58-21.34 N",
		"longitude": "86-17-58.69 W",
		"state": "INDIANA",
		"artcc": "ZID",
		"type": "RP",
		"updated": "SHB*VOR/DME*312.00/29.98"
	},
	{
		"name": "ZIRIT",
		"latitude": "40-14-22.12 N",
		"longitude": "84-5-50.99 W",
		"state": "OHIO",
		"artcc": "ZID",
		"type": "RNAV",
		"updated": "12/23/2013"
	},
	{
		"name": "ZIRKE",
		"latitude": "38-46-2.88 N",
		"longitude": "84-38-53.02 W",
		"state": "KENTUCKY",
		"artcc": "ZID",
		"type": "RP",
		"updated": "CVG*VORTAC*174.12/15.12"
	},
	{
		"name": "ZISIL",
		"latitude": "36-51-22.91 N",
		"longitude": "83-52-52.67 W",
		"state": "KENTUCKY",
		"artcc": "ZID",
		"type": "RNAV",
		"updated": "07/26/2016"
	},
	{
		"name": "ZITAC",
		"latitude": "38-13-52.83 N",
		"longitude": "84-26-11.62 W",
		"state": "KENTUCKY",
		"artcc": "ZID",
		"type": "WP",
		"updated": "11/02/1998"
	},
	{
		"name": "ZITIS",
		"latitude": "39-46-32.52 N",
		"longitude": "84-40-31.03 W",
		"state": "OHIO",
		"artcc": "ZID",
		"type": "RNAV",
		"updated": "04/17/2012"
	},
	{
		"name": "ZITMU",
		"latitude": "40-24-44.95 N",
		"longitude": "83-43-0.94 W",
		"state": "OHIO",
		"artcc": "ZID",
		"type": "RNAV",
		"updated": "12/03/2010"
	},
	{
		"name": "ZITXI",
		"latitude": "37-53-40.91 N",
		"longitude": "84-17-6.96 W",
		"state": "KENTUCKY",
		"artcc": "ZID",
		"type": "RNAV",
		"updated": "08/13/2013"
	},
	{
		"name": "ZIXEN",
		"latitude": "38-25-1.51 N",
		"longitude": "84-31-3.33 W",
		"state": "KENTUCKY",
		"artcc": "ZID",
		"type": "RNAV",
		"updated": "10/07/2014"
	},
	{
		"name": "ZIZTA",
		"latitude": "36-41-12.06 N",
		"longitude": "83-39-37.66 W",
		"state": "KENTUCKY",
		"artcc": "ZID",
		"type": "RNAV",
		"updated": "03/20/2007"
	},
	{
		"name": "ZOBDU",
		"latitude": "37-34-34.45 N",
		"longitude": "82-52-30.3 W",
		"state": "KENTUCKY",
		"artcc": "ZID",
		"type": "RNAV",
		"updated": "10/07/2014"
	},
	{
		"name": "ZOBIG",
		"latitude": "39-9-2.64 N",
		"longitude": "80-39-53.7 W",
		"state": "WEST VIRGINIA",
		"artcc": "ZID",
		"type": "RP",
		"updated": "EKN*VORTAC*305.35/30.00"
	},
	{
		"name": "ZOBKU",
		"latitude": "36-48-41.48 N",
		"longitude": "84-53-43.03 W",
		"state": "KENTUCKY",
		"artcc": "ZID",
		"type": "RNAV",
		"updated": "06/21/2013"
	},
	{
		"name": "ZODSA",
		"latitude": "38-49-19.32 N",
		"longitude": "81-17-22.95 W",
		"state": "WEST VIRGINIA",
		"artcc": "ZID",
		"type": "RNAV",
		"updated": "07/30/2012"
	},
	{
		"name": "ZOGAM",
		"latitude": "39-47-27.64 N",
		"longitude": "82-57-36.78 W",
		"state": "OHIO",
		"artcc": "ZID",
		"type": "RP",
		"updated": "FQS*LD*232.31/3.21"
	},
	{
		"name": "ZOGUN",
		"latitude": "38-3-52.07 N",
		"longitude": "86-6-42.85 W",
		"state": "INDIANA",
		"artcc": "ZID",
		"type": "RP",
		"updated": "FTK*VOR/DME*326.00/11.51"
	},
	{
		"name": "ZOKAP",
		"latitude": "36-40-46.25 N",
		"longitude": "83-34-38.15 W",
		"state": "KENTUCKY",
		"artcc": "ZID",
		"type": "RNAV",
		"updated": "01/13/2017"
	},
	{
		"name": "ZOKUV",
		"latitude": "40-10-37.38 N",
		"longitude": "84-52-30.74 W",
		"state": "INDIANA",
		"artcc": "ZID",
		"type": "RNAV",
		"updated": "01/21/2015"
	},
	{
		"name": "ZOLPU",
		"latitude": "36-33-17.19 N",
		"longitude": "84-56-41.88 W",
		"state": "TENNESSEE",
		"artcc": "ZID",
		"type": "RNAV",
		"updated": "05/03/2017"
	},
	{
		"name": "ZOMDA",
		"latitude": "37-44-47.85 N",
		"longitude": "85-42-1.9 W",
		"state": "KENTUCKY",
		"artcc": "ZID",
		"type": "RNAV",
		"updated": "04/12/2006"
	},
	{
		"name": "ZOPOM",
		"latitude": "38-14-13.94 N",
		"longitude": "85-27-3.87 W",
		"state": "KENTUCKY",
		"artcc": "ZID",
		"type": "RP",
		"updated": "IIU*VORTAC*035.68/10.00"
	},
	{
		"name": "ZOPVA",
		"latitude": "39-45-24.26 N",
		"longitude": "83-55-23.76 W",
		"state": "OHIO",
		"artcc": "ZID",
		"type": "RP",
		"updated": "DQN*VOR/DME*126.29"
	},
	{
		"name": "ZORPO",
		"latitude": "37-31-57.7 N",
		"longitude": "83-25-18.58 W",
		"state": "KENTUCKY",
		"artcc": "ZID",
		"type": "RNAV",
		"updated": "06/29/2011"
	},
	{
		"name": "ZORUT",
		"latitude": "38-50-2.7 N",
		"longitude": "82-50-56.99 W",
		"state": "OHIO",
		"artcc": "ZID",
		"type": "RNAV",
		"updated": "YRK*VORTAC*033.00/12.90"
	},
	{
		"name": "ZOSAR",
		"latitude": "39-51-53.24 N",
		"longitude": "86-15-38.3 W",
		"state": "INDIANA",
		"artcc": "ZID",
		"type": "RNAV",
		"updated": "01/12/2015"
	},
	{
		"name": "ZOZBO",
		"latitude": "38-26-21.07 N",
		"longitude": "83-26-15.5 W",
		"state": "KENTUCKY",
		"artcc": "ZID",
		"type": "RNAV",
		"updated": "02/09/2018"
	},
	{
		"name": "ZUBGU",
		"latitude": "38-24-13.4 N",
		"longitude": "85-44-16.43 W",
		"state": "INDIANA",
		"artcc": "ZID",
		"type": "RNAV",
		"updated": "04/26/2012"
	},
	{
		"name": "ZUBVO",
		"latitude": "38-46-43.59 N",
		"longitude": "84-20-47.13 W",
		"state": "KENTUCKY",
		"artcc": "ZID",
		"type": "RNAV",
		"updated": "10/28/2013"
	},
	{
		"name": "ZUGAB",
		"latitude": "38-55-47.48 N",
		"longitude": "87-34-45.47 W",
		"state": "ILLINOIS",
		"artcc": "ZID",
		"type": "RNAV",
		"updated": "09/26/2014"
	},
	{
		"name": "ZUGLU",
		"latitude": "38-55-32.46 N",
		"longitude": "84-45-10.82 W",
		"state": "KENTUCKY",
		"artcc": "ZID",
		"type": "RNAV",
		"updated": "02/09/2010"
	},
	{
		"name": "ZUGMI",
		"latitude": "39-2-45.59 N",
		"longitude": "84-26-33.02 W",
		"state": "KENTUCKY",
		"artcc": "ZID",
		"type": "RNAV",
		"updated": "07/25/2012"
	},
	{
		"name": "ZUGTO",
		"latitude": "36-56-25.42 N",
		"longitude": "84-46-47.14 W",
		"state": "KENTUCKY",
		"artcc": "ZID",
		"type": "RNAV",
		"updated": "06/21/2013"
	},
	{
		"name": "ZUKEC",
		"latitude": "40-26-55.09 N",
		"longitude": "84-32-35.89 W",
		"state": "OHIO",
		"artcc": "ZID",
		"type": "RNAV",
		"updated": "06/16/2008"
	},
	{
		"name": "ZUMGA",
		"latitude": "38-29-47.7 N",
		"longitude": "81-35-23.52 W",
		"state": "WEST VIRGINIA",
		"artcc": "ZID",
		"type": "RNAV",
		"updated": "05/09/2013"
	},
	{
		"name": "ZUMVO",
		"latitude": "39-56-31.3 N",
		"longitude": "83-51-2.06 W",
		"state": "OHIO",
		"artcc": "ZID",
		"type": "RP",
		"updated": "FFO*TACAN*056.00/12.00"
	},
	{
		"name": "ZUPIK",
		"latitude": "37-47-13.38 N",
		"longitude": "81-10-20 W",
		"state": "WEST VIRGINIA",
		"artcc": "ZID",
		"type": "RNAV",
		"updated": "06/22/2011"
	},
	{
		"name": "ZUPUT",
		"latitude": "38-24-26.79 N",
		"longitude": "81-32-59.45 W",
		"state": "WEST VIRGINIA",
		"artcc": "ZID",
		"type": "RNAV",
		"updated": "05/09/2013"
	},
	{
		"name": "ZURGA",
		"latitude": "39-17-18.02 N",
		"longitude": "85-55-43.82 W",
		"state": "INDIANA",
		"artcc": "ZID",
		"type": "RNAV",
		"updated": "02/17/2006"
	},
	{
		"name": "ZURUR",
		"latitude": "37-51-55.9 N",
		"longitude": "84-29-42.6 W",
		"state": "KENTUCKY",
		"artcc": "ZID",
		"type": "RNAV",
		"updated": "05/15/2006"
	},
	{
		"name": "ZUSAB",
		"latitude": "38-11-52.53 N",
		"longitude": "85-48-19.69 W",
		"state": "KENTUCKY",
		"artcc": "ZID",
		"type": "RNAV",
		"updated": "02/20/2018"
	},
	{
		"name": "ZUSAV",
		"latitude": "39-56-14.94 N",
		"longitude": "81-36-33.85 W",
		"state": "OHIO",
		"artcc": "ZID",
		"type": "RNAV",
		"updated": "09/03/2013"
	},
	{
		"name": "ZUSPU",
		"latitude": "38-45-55.15 N",
		"longitude": "87-52-23.08 W",
		"state": "ILLINOIS",
		"artcc": "ZID",
		"type": "RNAV",
		"updated": "05/23/2012"
	},
	{
		"name": "ZUSRI",
		"latitude": "37-59-4.78 N",
		"longitude": "82-33-54.43 W",
		"state": "KENTUCKY",
		"artcc": "ZID",
		"type": "RNAV",
		"updated": "10/07/2014"
	},
	{
		"name": "ZUTJO",
		"latitude": "37-37-43.07 N",
		"longitude": "86-45-5.23 W",
		"state": "KENTUCKY",
		"artcc": "ZID",
		"type": "RNAV",
		"updated": "04/25/2012"
	},
	{
		"name": "ZUTOB",
		"latitude": "37-40-58.2 N",
		"longitude": "84-59-11.63 W",
		"state": "KENTUCKY",
		"artcc": "ZID",
		"type": "RNAV",
		"updated": "12/18/2007"
	},
	{
		"name": "ZUTOM",
		"latitude": "38-20-27.88 N",
		"longitude": "84-10-8.03 W",
		"state": "KENTUCKY",
		"artcc": "ZID",
		"type": "RNAV",
		"updated": "10/07/2014"
	},
	{
		"name": "ZUVOL",
		"latitude": "36-43-9.11 N",
		"longitude": "84-22-14.27 W",
		"state": "KENTUCKY",
		"artcc": "ZID",
		"type": "RNAV",
		"updated": "09/22/2014"
	},
	{
		"name": "ZUXOT",
		"latitude": "39-52-34.12 N",
		"longitude": "84-16-53.91 W",
		"state": "OHIO",
		"artcc": "ZID",
		"type": "RNAV",
		"updated": "07/09/2009"
	}
]
