[
	{
		"name": "CADUK",
		"latitude": "13-43-26.83 N",
		"longitude": "144-55-15.31 E",
		"state": "GUAM",
		"artcc": "ZUA",
		"type": "RNAV",
		"updated": "08/03/2006"
	},
	{
		"name": "CCOOK",
		"latitude": "13-34-30.87 N",
		"longitude": "144-54-58.71 E",
		"state": "GUAM",
		"artcc": "ZUA",
		"type": "MR",
		"updated": "UNZ*VORTAC*054.00/12.90"
	},
	{
		"name": "CEGMU",
		"latitude": "13-26-22.58 N",
		"longitude": "144-42-9.78 E",
		"state": "GUAM",
		"artcc": "ZUA",
		"type": "RP",
		"updated": "AWD*LD*242.96/7.12"
	},
	{
		"name": "CENOR",
		"latitude": "15-3-40.03 N",
		"longitude": "145-24-18.4 E",
		"state": "N MARIANA ISLANDS",
		"artcc": "ZUA",
		"type": "RNAV",
		"updated": "08/06/2009"
	},
	{
		"name": "CEPOS",
		"latitude": "14-10-7.78 N",
		"longitude": "145-18-8.02 E",
		"state": "N MARIANA ISLANDS",
		"artcc": "ZUA",
		"type": "RNAV",
		"updated": "12/13/2011"
	},
	{
		"name": "CETAS",
		"latitude": "13-35-23.84 N",
		"longitude": "144-39-56.84 E",
		"state": "GUAM",
		"artcc": "ZUA",
		"type": "RP",
		"updated": "UNZ*VORTAC*332.00/9.00"
	},
	{
		"name": "CIBOL",
		"latitude": "13-34-20.75 N",
		"longitude": "144-59-35.91 E",
		"state": "GUAM",
		"artcc": "ZUA",
		"type": "RNAV",
		"updated": "08/03/2006"
	},
	{
		"name": "COLMA",
		"latitude": "13-32-21.59 N",
		"longitude": "144-50-48.76 E",
		"state": "GUAM",
		"artcc": "ZUA",
		"type": "MR",
		"updated": "UAM*TACAN*240.00/6.60"
	},
	{
		"name": "COVHI",
		"latitude": "14-52-49.39 N",
		"longitude": "145-26-28.5 E",
		"state": "N MARIANA ISLANDS",
		"artcc": "ZUA",
		"type": "RNAV",
		"updated": "08/06/2009"
	},
	{
		"name": "CREET",
		"latitude": "13-38-15.4 N",
		"longitude": "145-0-49.21 E",
		"state": "GUAM",
		"artcc": "ZUA",
		"type": "MR",
		"updated": "UNZ*VORTAC*054.25/19.70"
	},
	{
		"name": "CUDID",
		"latitude": "13-26-36.51 N",
		"longitude": "144-42-37.07 E",
		"state": "GUAM",
		"artcc": "ZUA",
		"type": "RP",
		"updated": "UNZ*VORTAC*241.83/1.50"
	}
]
