	{
		"name": "FABHA",
		"latitude": "14-2-37.61 N",
		"longitude": "145-33-46 E",
		"state": "GUAM",
		"artcc": "ZUA",
		"type": "MR",
		"updated": "UAM*TACAN*051.00/45.00",
	},
	{
		"name": "FAPAM",
		"latitude": "13-25-26.02 N",
		"longitude": "145-4-4.84 E",
		"state": "GUAM",
		"artcc": "ZUA",
		"type": "RNAV",
		"updated": "03/20/2003",
	},
	{
		"name": "FAXEL",
		"latitude": "13-34-17.65 N",
		"longitude": "144-54-31.71 E",
		"state": "GUAM",
		"artcc": "ZUA",
		"type": "MR",
		"updated": "UAM*TACAN*240.00/2.50",
	},
	{
		"name": "FAYZR",
		"latitude": "13-34-50.54 N",
		"longitude": "144-54-52.29 E",
		"state": "GUAM",
		"artcc": "ZUA",
		"type": "MR",
		"updated": "UNZ*VORTAC*052.55/13.00",
	},
	{
		"name": "FIGOR",
		"latitude": "13-18-20.7 N",
		"longitude": "144-45-26.53 E",
		"state": "GUAM",
		"artcc": "ZUA",
		"type": "RP",
		"updated": "UNZ*VORTAC*169.00/9.00",
	},
	{
		"name": "FIPMU",
		"latitude": "15-0-22.25 N",
		"longitude": "145-37-30 E",
		"state": "OFFSHORE PACIFIC",
		"artcc": "ZUA",
		"type": "RP",
		"updated": "SN*NDB*216.24",
	},
	{
		"name": "FISON",
		"latitude": "13-26-22.52 N",
		"longitude": "144-42-9.78 E",
		"state": "GUAM",
		"artcc": "ZUA",
		"type": "RNAV",
		"updated": "03/20/2003",
	},
	{
		"name": "FOLAP",
		"latitude": "13-18-0.71 N",
		"longitude": "144-26-57.37 E",
		"state": "GUAM",
		"artcc": "ZUA",
		"type": "RP",
		"updated": "UNZ*VORTAC*239.00/19.00",
	},
	{
		"name": "FOMOD",
		"latitude": "13-32-50.28 N",
		"longitude": "144-50-7.92 E",
		"state": "GUAM",
		"artcc": "ZUA",
		"type": "MR",
		"updated": "UAM*TACAN*246.00/7.00",
	},
