	{
		"name": "HAAMR",
		"latitude": "13-42-59.08 N",
		"longitude": "145-6-35.63 E",
		"state": "GUAM",
		"artcc": "ZUA",
		"type": "MR",
		"updated": "UNZ*VORTAC*052.55/27.00",
	},
	{
		"name": "HAGIX",
		"latitude": "13-43-38.35 N",
		"longitude": "144-55-24.15 E",
		"state": "GUAM",
		"artcc": "ZUA",
		"type": "RNAV",
		"updated": "03/20/2003",
	},
	{
		"name": "HAMAL",
		"latitude": "13-34-3.16 N",
		"longitude": "144-42-9.35 E",
		"state": "GUAM",
		"artcc": "ZUA",
		"type": "RP",
		"updated": "UNZ*VORTAC*343.00/7.00",
	},
	{
		"name": "HARLO",
		"latitude": "13-26-27.42 N",
		"longitude": "144-42-3.74 E",
		"state": "GUAM",
		"artcc": "ZUA",
		"type": "RP",
		"updated": "GUM*LD*242.95/7.34",
	},
	{
		"name": "HASRA",
		"latitude": "13-37-29.83 N",
		"longitude": "145-1-3.31 E",
		"state": "GUAM",
		"artcc": "ZUA",
		"type": "MR",
		"updated": "UAM*TACAN*062.09/4.61",
	},
	{
		"name": "HESNA",
		"latitude": "13-24-16.55 N",
		"longitude": "144-24-44.68 E",
		"state": "GUAM",
		"artcc": "ZUA",
		"type": "RP",
		"updated": "UNZ*VORTAC*259.00/19.00",
	},
	{
		"name": "HIPRI",
		"latitude": "13-37-55.96 N",
		"longitude": "145-1-2.17 E",
		"state": "GUAM",
		"artcc": "ZUA",
		"type": "MR",
		"updated": "UNZ*VORTAC*055.37/19.70",
	},
	{
		"name": "HOGOS",
		"latitude": "15-10-5.21 N",
		"longitude": "145-51-11.4 E",
		"state": "GUAM",
		"artcc": "ZUA",
		"type": "RP",
		"updated": "SN*NDB*065.76",
	},
	{
		"name": "HUKES",
		"latitude": "13-27-8.45 N",
		"longitude": "144-43-50.11 E",
		"state": "GUAM",
		"artcc": "ZUA",
		"type": "RNAV",
		"updated": "03/20/2003",
	},
