	{
		"name": "BAROE",
		"latitude": "22-3-33.1 N",
		"longitude": "65-47-34.89 W",
		"state": "OFFSHORE ATLANTIC",
		"artcc": "ZSU",
		"type": "RNAV",
		"updated": "12/20/2009",
	},
	{
		"name": "BARVE",
		"latitude": "18-22-50.92 N",
		"longitude": "66-11-18.07 W",
		"state": "PUERTO RICO",
		"artcc": "ZSU",
		"type": "RP",
		"updated": "SJU*VORTAC*262.00/12.00",
	},
	{
		"name": "BAZRI",
		"latitude": "18-18-27.04 N",
		"longitude": "65-33-8.42 W",
		"state": "PUERTO RICO",
		"artcc": "ZSU",
		"type": "RNAV",
		"updated": "01/24/2001",
	},
	{
		"name": "BEANO",
		"latitude": "18-45-35.46 N",
		"longitude": "66-37-10.42 W",
		"state": "PUERTO RICO",
		"artcc": "ZSU",
		"type": "RP",
		"updated": "BQN*VORTAC*070.59",
	},
	{
		"name": "BETIR",
		"latitude": "19-20-35.24 N",
		"longitude": "68-36-15.55 W",
		"state": "PUERTO RICO",
		"artcc": "ZSU",
		"type": "RP",
		"updated": "CDO*VOR/DME*055.86/81.34",
	},
	{
		"name": "BEWIK",
		"latitude": "17-52-13.16 N",
		"longitude": "66-39-39.11 W",
		"state": "PUERTO RICO",
		"artcc": "ZSU",
		"type": "RP",
		"updated": "MAZ*VOR/DME*139.40",
	},
	{
		"name": "BOCCA",
		"latitude": "18-28-33.4 N",
		"longitude": "66-36-8.62 W",
		"state": "PUERTO RICO",
		"artcc": "ZSU",
		"type": "RP",
		"updated": "SJU*VORTAC*284.00/35.00",
	},
	{
		"name": "BUKLE",
		"latitude": "18-22-27.8 N",
		"longitude": "65-27-16.34 W",
		"state": "PUERTO RICO",
		"artcc": "ZSU",
		"type": "MW",
		"updated": "11/01/2017",
	},
