[
	{
		"name": "FAJAR",
		"latitude": "18-28-9.49 N",
		"longitude": "65-38-22.83 W",
		"state": "PUERTO RICO",
		"artcc": "ZSU",
		"type": "RP",
		"updated": "SJU*VORTAC*097.00/20.00"
	},
	{
		"name": "FEGIR",
		"latitude": "17-42-24.12 N",
		"longitude": "64-45-2.13 W",
		"state": "VIRGIN ISLANDS",
		"artcc": "ZSU",
		"type": "RNAV",
		"updated": "11/04/2008"
	},
	{
		"name": "FERNA",
		"latitude": "21-46-7.58 N",
		"longitude": "67-1-17.33 W",
		"state": "OFFSHORE ATLANTIC",
		"artcc": "ZSU",
		"type": "RNAV",
		"updated": "12/20/2009"
	},
	{
		"name": "FIRPE",
		"latitude": "18-26-44.72 N",
		"longitude": "66-11-23.77 W",
		"state": "PUERTO RICO",
		"artcc": "ZSU",
		"type": "RNAV",
		"updated": "02/09/2018"
	},
	{
		"name": "FLABO",
		"latitude": "18-44-59 N",
		"longitude": "66-9-47 W",
		"state": "PUERTO RICO",
		"artcc": "ZSU",
		"type": "RNAV",
		"updated": "07/31/2010"
	},
	{
		"name": "FORTN",
		"latitude": "18-24-26.77 N",
		"longitude": "65-30-22.32 W",
		"state": "PUERTO RICO",
		"artcc": "ZSU",
		"type": "MR",
		"updated": "NRR*TACAN*048.00/13.00"
	},
	{
		"name": "FRATT",
		"latitude": "19-26-4.17 N",
		"longitude": "65-48-20.28 W",
		"state": "OFFSHORE ATLANTIC",
		"artcc": "ZSU",
		"type": "RNAV",
		"updated": "04/07/2008"
	},
	{
		"name": "FRNDO",
		"latitude": "18-36-59.23 N",
		"longitude": "66-10-12.48 W",
		"state": "PUERTO RICO",
		"artcc": "ZSU",
		"type": "RNAV",
		"updated": "07/31/2010"
	}
]
