[
	{
		"name": "HAKVO",
		"latitude": "17-51-3.36 N",
		"longitude": "65-15-23.12 W",
		"state": "OFFSHORE ATLANTIC",
		"artcc": "ZSU",
		"type": "RP",
		"updated": "COY*VOR/DME*292.43/32.57"
	},
	{
		"name": "HAMAR",
		"latitude": "18-33-33.25 N",
		"longitude": "65-37-13.18 W",
		"state": "OFFSHORE ATLANTIC",
		"artcc": "ZSU",
		"type": "RNAV",
		"updated": "07/09/2009"
	},
	{
		"name": "HAMIL",
		"latitude": "17-43-10.83 N",
		"longitude": "64-44-29.62 W",
		"state": "VIRGIN ISLANDS",
		"artcc": "ZSU",
		"type": "RP",
		"updated": "COY*VOR/DME*259.33/2.50"
	},
	{
		"name": "HANCY",
		"latitude": "22-2-12.79 N",
		"longitude": "66-10-14.23 W",
		"state": "OFFSHORE ATLANTIC",
		"artcc": "ZSU",
		"type": "RNAV",
		"updated": "08/20/2009"
	},
	{
		"name": "HARDE",
		"latitude": "20-0-23 N",
		"longitude": "68-49-1.3 W",
		"state": "PUERTO RICO",
		"artcc": "ZSU",
		"type": "RP",
		"updated": "GTK*VORTAC*130.93/156.00"
	},
	{
		"name": "HASTO",
		"latitude": "18-21-59.83 N",
		"longitude": "65-29-59.96 W",
		"state": "PUERTO RICO",
		"artcc": "ZSU",
		"type": "RNAV",
		"updated": "02/21/2002"
	},
	{
		"name": "HENLI",
		"latitude": "16-55-10.17 N",
		"longitude": "65-24-31.49 W",
		"state": "PUERTO RICO",
		"artcc": "ZSU",
		"type": "RP",
		"updated": "03/21/1994"
	},
	{
		"name": "HIVOD",
		"latitude": "17-42-54.6 N",
		"longitude": "64-39-59.83 W",
		"state": "VIRGIN ISLANDS",
		"artcc": "ZSU",
		"type": "RNAV",
		"updated": "11/04/2008"
	},
	{
		"name": "HOMAG",
		"latitude": "18-6-51.12 N",
		"longitude": "65-35-5.26 W",
		"state": "PUERTO RICO",
		"artcc": "ZSU",
		"type": "RNAV",
		"updated": "07/07/2003"
	},
	{
		"name": "HORIL",
		"latitude": "18-0-56.64 N",
		"longitude": "66-37-51.3 W",
		"state": "PUERTO RICO",
		"artcc": "ZSU",
		"type": "RNAV",
		"updated": "03/06/2006"
	},
	{
		"name": "HOVIP",
		"latitude": "18-0-4.14 N",
		"longitude": "66-32-23.54 W",
		"state": "PUERTO RICO",
		"artcc": "ZSU",
		"type": "RNAV",
		"updated": "08/16/2006"
	}
]
