	{
		"name": "JAAWS",
		"latitude": "18-58-42.03 N",
		"longitude": "66-32-26.39 W",
		"state": "PUERTO RICO",
		"artcc": "ZSU",
		"type": "RP",
		"updated": "BQN*VORTAC*058.30",
	},
	{
		"name": "JAMIX",
		"latitude": "18-9-28.33 N",
		"longitude": "65-41-15.86 W",
		"state": "PUERTO RICO",
		"artcc": "ZSU",
		"type": "RNAV",
		"updated": "01/24/2001",
	},
	{
		"name": "JANER",
		"latitude": "18-31-15.3 N",
		"longitude": "64-48-59.65 W",
		"state": "VIRGIN ISLANDS",
		"artcc": "ZSU",
		"type": "RP",
		"updated": "SJU*VORTAC*097.00/67.04",
	},
	{
		"name": "JAQYY",
		"latitude": "18-19-55.82 N",
		"longitude": "65-5-33.54 W",
		"state": "VIRGIN ISLANDS",
		"artcc": "ZSU",
		"type": "RP",
		"updated": "TMN*LD*280.45/7.52",
	},
	{
		"name": "JAVIE",
		"latitude": "17-55-18.33 N",
		"longitude": "66-22-56.67 W",
		"state": "PUERTO RICO",
		"artcc": "ZSU",
		"type": "RNAV",
		"updated": "01/21/2015",
	},
	{
		"name": "JETSS",
		"latitude": "18-40-24.22 N",
		"longitude": "65-21-57.41 W",
		"state": "PUERTO RICO",
		"artcc": "ZSU",
		"type": "RP",
		"updated": "SJU*VORTAC*080.00/38.05",
	},
	{
		"name": "JEYBU",
		"latitude": "17-41-33.33 N",
		"longitude": "64-53-23.45 W",
		"state": "VIRGIN ISLANDS",
		"artcc": "ZSU",
		"type": "RNAV",
		"updated": "03/06/2006",
	},
	{
		"name": "JIREG",
		"latitude": "17-53-7.28 N",
		"longitude": "66-38-19.89 W",
		"state": "PUERTO RICO",
		"artcc": "ZSU",
		"type": "RNAV",
		"updated": "08/16/2006",
	},
	{
		"name": "JOMBI",
		"latitude": "17-42-38 N",
		"longitude": "64-42-44.62 W",
		"state": "VIRGIN ISLANDS",
		"artcc": "ZSU",
		"type": "RNAV",
		"updated": "10/21/2008",
	},
	{
		"name": "JONIB",
		"latitude": "18-26-0.65 N",
		"longitude": "66-1-39.97 W",
		"state": "PUERTO RICO",
		"artcc": "ZSU",
		"type": "RP",
		"updated": "SJU*VORTAC*/2.31",
	},
	{
		"name": "JORIL",
		"latitude": "18-23-20.45 N",
		"longitude": "66-8-14.35 W",
		"state": "PUERTO RICO",
		"artcc": "ZSU",
		"type": "RP",
		"updated": "SJU*VORTAC*/9.10",
	},
	{
		"name": "JOSHE",
		"latitude": "18-14-32.52 N",
		"longitude": "66-30-3.54 W",
		"state": "PUERTO RICO",
		"artcc": "ZSU",
		"type": "RP",
		"updated": "MAZ*VOR/DME*101.20/37.13",
	},
	{
		"name": "JUICE",
		"latitude": "18-7-51.38 N",
		"longitude": "63-40-0 W",
		"state": "VIRGIN ISLANDS",
		"artcc": "ZSU",
		"type": "RP",
		"updated": "PJM*VOR/DME*292.15/31.83",
	},
	{
		"name": "JUNTA",
		"latitude": "18-23-19.43 N",
		"longitude": "67-28-47.04 W",
		"state": "PUERTO RICO",
		"artcc": "ZSU",
		"type": "WP",
		"updated": "11/02/1998",
	},
