[
	{
		"name": "LACEC",
		"latitude": "17-48-32.05 N",
		"longitude": "64-34-14.89 W",
		"state": "VIRGIN ISLANDS",
		"artcc": "ZSU",
		"type": "RNAV",
		"updated": "11/04/2008"
	},
	{
		"name": "LAMKN",
		"latitude": "18-0-0 N",
		"longitude": "61-57-57.59 W",
		"state": "OFFSHORE ATLANTIC",
		"artcc": "ZSU",
		"type": "RNAV",
		"updated": "04/10/2008"
	},
	{
		"name": "LARPP",
		"latitude": "18-12-18.97 N",
		"longitude": "64-6-31.71 W",
		"state": "VIRGIN ISLANDS",
		"artcc": "ZSU",
		"type": "RP",
		"updated": "COY*VOR/DME*060.18"
	},
	{
		"name": "LAZTY",
		"latitude": "18-4-32.58 N",
		"longitude": "65-42-15.42 W",
		"state": "PUERTO RICO",
		"artcc": "ZSU",
		"type": "RNAV",
		"updated": "01/24/2001"
	},
	{
		"name": "LEEOO",
		"latitude": "17-34-39.29 N",
		"longitude": "64-26-26 W",
		"state": "OFFSHORE ATLANTIC",
		"artcc": "ZSU",
		"type": "RNAV",
		"updated": "04/08/2008"
	},
	{
		"name": "LEILA",
		"latitude": "18-29-25.72 N",
		"longitude": "67-29-26.22 W",
		"state": "OFFSHORE ATLANTIC",
		"artcc": "ZSU",
		"type": "RNAV",
		"updated": "04/09/2008"
	},
	{
		"name": "LENNT",
		"latitude": "21-16-1.83 N",
		"longitude": "67-7-56.13 W",
		"state": "OFFSHORE ATLANTIC",
		"artcc": "ZSU",
		"type": "RNAV",
		"updated": "08/10/2010"
	},
	{
		"name": "LIIMA",
		"latitude": "18-2-23.72 N",
		"longitude": "65-44-47.63 W",
		"state": "PUERTO RICO",
		"artcc": "ZSU",
		"type": "MR",
		"updated": "NRR*TACAN*218.00/13.00"
	},
	{
		"name": "LIYIP",
		"latitude": "18-43-58.17 N",
		"longitude": "66-55-0.05 W",
		"state": "PUERTO RICO",
		"artcc": "ZSU",
		"type": "RNAV",
		"updated": "05/06/2013"
	},
	{
		"name": "LOBOZ",
		"latitude": "18-45-20 N",
		"longitude": "65-7-11 W",
		"state": "PUERTO RICO",
		"artcc": "ZSU",
		"type": "MR",
		"updated": "NRR*TACAN*054.67/43.17"
	},
	{
		"name": "LODZI",
		"latitude": "18-16-19.46 N",
		"longitude": "65-36-14.69 W",
		"state": "PUERTO RICO",
		"artcc": "ZSU",
		"type": "RNAV",
		"updated": "11/01/2017"
	},
	{
		"name": "LOGVY",
		"latitude": "18-20-7.5 N",
		"longitude": "65-1-2.38 W",
		"state": "VIRGIN ISLANDS",
		"artcc": "ZSU",
		"type": "RNAV",
		"updated": "02/29/2012"
	},
	{
		"name": "LYANI",
		"latitude": "19-28-32 N",
		"longitude": "64-3-1 W",
		"state": "OFFSHORE ATLANTIC",
		"artcc": "ZSU",
		"type": "RNAV",
		"updated": "01/26/2016"
	}
]
