[
	{
		"name": "MACHE",
		"latitude": "17-40-1.09 N",
		"longitude": "65-56-40.03 W",
		"state": "PUERTO RICO",
		"artcc": "ZSU",
		"type": "MR",
		"updated": "NRR*TACAN*218.00/38.00"
	},
	{
		"name": "MAELO",
		"latitude": "18-42-21.04 N",
		"longitude": "65-49-51.41 W",
		"state": "PUERTO RICO",
		"artcc": "ZSU",
		"type": "RNAV",
		"updated": "11/21/2008"
	},
	{
		"name": "MALCU",
		"latitude": "18-26-6.59 N",
		"longitude": "66-16-38.71 W",
		"state": "PUERTO RICO",
		"artcc": "ZSU",
		"type": "RNAV",
		"updated": "02/09/2018"
	},
	{
		"name": "MALIE",
		"latitude": "18-29-32.58 N",
		"longitude": "65-16-42.55 W",
		"state": "VIRGIN ISLANDS",
		"artcc": "ZSU",
		"type": "RP",
		"updated": "SJU*VORTAC*097.00/40.64"
	},
	{
		"name": "MAVIE",
		"latitude": "18-3-9 N",
		"longitude": "65-33-5 W",
		"state": "PUERTO RICO",
		"artcc": "ZSU",
		"type": "RNAV",
		"updated": "07/31/2010"
	},
	{
		"name": "MAWLY",
		"latitude": "20-9-24.64 N",
		"longitude": "65-59-24.81 W",
		"state": "OFFSHORE ATLANTIC",
		"artcc": "ZSU",
		"type": "RNAV",
		"updated": "10/22/2009"
	},
	{
		"name": "MELLA",
		"latitude": "18-12-0 N",
		"longitude": "68-0-0 W",
		"state": "PUERTO RICO",
		"artcc": "ZSU",
		"type": "RNAV",
		"updated": "07/31/2010"
	},
	{
		"name": "MIGGL",
		"latitude": "17-50-35.67 N",
		"longitude": "66-31-58.68 W",
		"state": "PUERTO RICO",
		"artcc": "ZSU",
		"type": "RNAV",
		"updated": "01/21/2015"
	},
	{
		"name": "MIGHT",
		"latitude": "18-9-53.95 N",
		"longitude": "66-19-6.02 W",
		"state": "PUERTO RICO",
		"artcc": "ZSU",
		"type": "RP",
		"updated": "BQN*VORTAC*123.69/49.29"
	},
	{
		"name": "MILOH",
		"latitude": "18-18-39.83 N",
		"longitude": "65-32-49.68 W",
		"state": "PUERTO RICO",
		"artcc": "ZSU",
		"type": "MW",
		"updated": "11/01/2017"
	},
	{
		"name": "MILOK",
		"latitude": "15-17-36 N",
		"longitude": "65-52-48 W",
		"state": "OFFSHORE ATLANTIC",
		"artcc": "ZSU",
		"type": "RP",
		"updated": "11/23/1998"
	},
	{
		"name": "MIXEE",
		"latitude": "18-5-29.39 N",
		"longitude": "65-41-5.82 W",
		"state": "PUERTO RICO",
		"artcc": "ZSU",
		"type": "RNAV",
		"updated": "04/26/2002"
	},
	{
		"name": "MODUX",
		"latitude": "16-57-32 N",
		"longitude": "63-0-0 W",
		"state": "VIRGIN ISLANDS",
		"artcc": "ZSU",
		"type": "RP",
		"updated": "COY*VOR/DME*125.14/108.05"
	},
	{
		"name": "MORRS",
		"latitude": "22-0-0 N",
		"longitude": "62-40-0 W",
		"state": "PUERTO RICO",
		"artcc": "ZSU",
		"type": "RP",
		"updated": "06/01/1987"
	},
	{
		"name": "MUNDS",
		"latitude": "18-26-19.48 N",
		"longitude": "66-0-53.51 W",
		"state": "PUERTO RICO",
		"artcc": "ZSU",
		"type": "WP",
		"updated": "11/02/1998"
	},
	{
		"name": "MUNGE",
		"latitude": "18-7-55.54 N",
		"longitude": "65-30-20.34 W",
		"state": "PUERTO RICO",
		"artcc": "ZSU",
		"type": "RNAV",
		"updated": "04/26/2002"
	},
	{
		"name": "MUNOZ",
		"latitude": "19-0-58.13 N",
		"longitude": "67-47-52.17 W",
		"state": "OFFSHORE ATLANTIC",
		"artcc": "ZSU",
		"type": "RNAV",
		"updated": "04/07/2014"
	},
	{
		"name": "MYLET",
		"latitude": "18-30-13.72 N",
		"longitude": "66-17-23.06 W",
		"state": "PUERTO RICO",
		"artcc": "ZSU",
		"type": "RNAV",
		"updated": "11/21/2008"
	}
]
