[
	{
		"name": "OBIKE",
		"latitude": "19-20-28.62 N",
		"longitude": "61-46-1.79 W",
		"state": "OFFSHORE ATLANTIC",
		"artcc": "ZSU",
		"type": "RNAV",
		"updated": "08/20/2009"
	},
	{
		"name": "ODEZZ",
		"latitude": "18-26-21.64 N",
		"longitude": "67-18-45.56 W",
		"state": "PUERTO RICO",
		"artcc": "ZSU",
		"type": "RNAV",
		"updated": "08/07/2002"
	},
	{
		"name": "OGDAW",
		"latitude": "18-15-31.54 N",
		"longitude": "65-37-24.64 W",
		"state": "PUERTO RICO",
		"artcc": "ZSU",
		"type": "RNAV",
		"updated": "01/24/2001"
	},
	{
		"name": "OLGAH",
		"latitude": "17-49-12.22 N",
		"longitude": "66-6-17.18 W",
		"state": "PUERTO RICO",
		"artcc": "ZSU",
		"type": "MR",
		"updated": "NRR*TACAN*237.93/36.16"
	},
	{
		"name": "OMMAR",
		"latitude": "17-45-23.8 N",
		"longitude": "66-28-29.55 W",
		"state": "PUERTO RICO",
		"artcc": "ZSU",
		"type": "RNAV",
		"updated": "01/21/2015"
	},
	{
		"name": "OPAUL",
		"latitude": "21-51-23.75 N",
		"longitude": "63-50-47.68 W",
		"state": "OFFSHORE ATLANTIC",
		"artcc": "ZSU",
		"type": "RNAV",
		"updated": "08/20/2009"
	},
	{
		"name": "ORAJO",
		"latitude": "18-25-44.74 N",
		"longitude": "66-2-30.42 W",
		"state": "PUERTO RICO",
		"artcc": "ZSU",
		"type": "RP",
		"updated": "SJU*VORTAC*262.00/3.15"
	},
	{
		"name": "OSSEL",
		"latitude": "18-7-52.4 N",
		"longitude": "64-54-25.9 W",
		"state": "VIRGIN ISLANDS",
		"artcc": "ZSU",
		"type": "RP",
		"updated": "STT*VOR/DME*163.45/15.00"
	}
]
