	{
		"name": "PAESO",
		"latitude": "18-29-26.17 N",
		"longitude": "65-54-54.54 W",
		"state": "PUERTO RICO",
		"artcc": "ZSU",
		"type": "RP",
		"updated": "SJU*VORTAC*069.00/5.00",
	},
	{
		"name": "PALCO",
		"latitude": "18-17-30.17 N",
		"longitude": "65-14-8.23 W",
		"state": "PUERTO RICO",
		"artcc": "ZSU",
		"type": "RP",
		"updated": "SJU*VORTAC*113.00/44.00",
	},
	{
		"name": "PALDE",
		"latitude": "19-4-39.73 N",
		"longitude": "66-37-47.65 W",
		"state": "OFFSHORE ATLANTIC",
		"artcc": "ZSU",
		"type": "RNAV",
		"updated": "07/09/2009",
	},
	{
		"name": "PALON",
		"latitude": "18-1-59.13 N",
		"longitude": "65-39-2.36 W",
		"state": "PUERTO RICO",
		"artcc": "ZSU",
		"type": "MR",
		"updated": "NRR*TACAN*193.00/12.00",
	},
	{
		"name": "PANMO",
		"latitude": "19-10-9.87 N",
		"longitude": "66-17-0.65 W",
		"state": "OFFSHORE ATLANTIC",
		"artcc": "ZSU",
		"type": "RNAV",
		"updated": "04/08/2008",
	},
	{
		"name": "PAPPO",
		"latitude": "18-43-30.08 N",
		"longitude": "66-6-39.15 W",
		"state": "PUERTO RICO",
		"artcc": "ZSU",
		"type": "RNAV",
		"updated": "11/21/2008",
	},
	{
		"name": "PASIC",
		"latitude": "18-17-41.33 N",
		"longitude": "64-39-0.06 W",
		"state": "VIRGIN ISLANDS",
		"artcc": "ZSU",
		"type": "RP",
		"updated": "COY*VOR/DME*014.94",
	},
	{
		"name": "PATTY",
		"latitude": "18-24-30.75 N",
		"longitude": "66-5-21.35 W",
		"state": "PUERTO RICO",
		"artcc": "ZSU",
		"type": "RP",
		"updated": "SJU*VORTAC*/6.12",
	},
	{
		"name": "PEBKY",
		"latitude": "17-42-23.27 N",
		"longitude": "64-45-10.53 W",
		"state": "VIRGIN ISLANDS",
		"artcc": "ZSU",
		"type": "RNAV",
		"updated": "03/06/2006",
	},
	{
		"name": "PEBLO",
		"latitude": "18-29-11.19 N",
		"longitude": "66-50-43.63 W",
		"state": "PUERTO RICO",
		"artcc": "ZSU",
		"type": "RP",
		"updated": "MAZ*VOR/DME*062.00",
	},
	{
		"name": "PERRE",
		"latitude": "17-57-13.89 N",
		"longitude": "65-47-42.2 W",
		"state": "PUERTO RICO",
		"artcc": "ZSU",
		"type": "MW",
		"updated": "11/01/2017",
	},
	{
		"name": "PEVOE",
		"latitude": "18-6-38.86 N",
		"longitude": "65-35-59.36 W",
		"state": "PUERTO RICO",
		"artcc": "ZSU",
		"type": "RNAV",
		"updated": "04/26/2002",
	},
	{
		"name": "PICKI",
		"latitude": "18-44-44.47 N",
		"longitude": "64-48-7.19 W",
		"state": "PUERTO RICO",
		"artcc": "ZSU",
		"type": "MR",
		"updated": "SJU*VORTAC*086.00/70.00",
	},
	{
		"name": "PLAYR",
		"latitude": "18-23-26.97 N",
		"longitude": "66-11-30.01 W",
		"state": "PUERTO RICO",
		"artcc": "ZSU",
		"type": "MR",
		"updated": "SJU*VORTAC*265.00/12.00",
	},
	{
		"name": "PLENA",
		"latitude": "18-17-50.58 N",
		"longitude": "66-9-0.61 W",
		"state": "PUERTO RICO",
		"artcc": "ZSU",
		"type": "RNAV",
		"updated": "11/21/2008",
	},
	{
		"name": "PLENO",
		"latitude": "18-41-0.5 N",
		"longitude": "66-10-14.62 W",
		"state": "PUERTO RICO",
		"artcc": "ZSU",
		"type": "RNAV",
		"updated": "07/31/2010",
	},
	{
		"name": "PLING",
		"latitude": "19-59-31.82 N",
		"longitude": "66-47-52.57 W",
		"state": "PUERTO RICO",
		"artcc": "ZSU",
		"type": "RP",
		"updated": "BQN*VORTAC*021.11/91.03",
	},
	{
		"name": "POKEG",
		"latitude": "20-10-30.76 N",
		"longitude": "70-3-36.36 W",
		"state": "",
		"artcc": "ZSU",
		"type": "RP",
		"updated": "PTA*VOR/DME*057.15/38.08",
	},
	{
		"name": "PORQE",
		"latitude": "17-9-35.98 N",
		"longitude": "64-0-52.15 W",
		"state": "VIRGIN ISLANDS",
		"artcc": "ZSU",
		"type": "RP",
		"updated": "PJM*VOR/DME*236.53/73.37",
	},
	{
		"name": "POVEE",
		"latitude": "18-25-47.61 N",
		"longitude": "66-2-12.15 W",
		"state": "PUERTO RICO",
		"artcc": "ZSU",
		"type": "RNAV",
		"updated": "06/06/2002",
	},
