	{
		"name": "RAFEE",
		"latitude": "16-6-33.24 N",
		"longitude": "65-4-12.32 W",
		"state": "OFFSHORE ATLANTIC",
		"artcc": "ZSU",
		"type": "RNAV",
		"updated": "04/08/2008",
	},
	{
		"name": "RAYAS",
		"latitude": "15-41-16.3 N",
		"longitude": "65-29-18.84 W",
		"state": "OFFSHORE ATLANTIC",
		"artcc": "ZSU",
		"type": "RP",
		"updated": "11/23/1998",
	},
	{
		"name": "REKUA",
		"latitude": "18-21-44.08 N",
		"longitude": "65-58-12.31 W",
		"state": "PUERTO RICO",
		"artcc": "ZSU",
		"type": "RNAV",
		"updated": "11/21/2008",
	},
	{
		"name": "REMSY",
		"latitude": "18-26-1.42 N",
		"longitude": "66-5-34.5 W",
		"state": "PUERTO RICO",
		"artcc": "ZSU",
		"type": "RP",
		"updated": "SJU*VORTAC*273.77/5.95",
	},
	{
		"name": "RENTS",
		"latitude": "18-15-55.84 N",
		"longitude": "64-46-43.79 W",
		"state": "VIRGIN ISLANDS",
		"artcc": "ZSU",
		"type": "RP",
		"updated": "COY*VOR/DME*001.00",
	},
	{
		"name": "RIMMA",
		"latitude": "18-24-26.56 N",
		"longitude": "66-5-31.81 W",
		"state": "PUERTO RICO",
		"artcc": "ZSU",
		"type": "RNAV",
		"updated": "07/31/2010",
	},
	{
		"name": "RIQIE",
		"latitude": "17-50-3.81 N",
		"longitude": "65-35-58.29 W",
		"state": "PUERTO RICO",
		"artcc": "ZSU",
		"type": "MR",
		"updated": "NRR*TACAN*185.00/24.00",
	},
	{
		"name": "ROBLL",
		"latitude": "18-57-16.29 N",
		"longitude": "67-0-50.57 W",
		"state": "PUERTO RICO",
		"artcc": "ZSU",
		"type": "RP",
		"updated": "BQN*VORTAC*021.11/27.81",
	},
	{
		"name": "ROJAN",
		"latitude": "17-58-6.39 N",
		"longitude": "66-26-3.61 W",
		"state": "PUERTO RICO",
		"artcc": "ZSU",
		"type": "RNAV",
		"updated": "01/21/2015",
	},
	{
		"name": "RORPE",
		"latitude": "18-1-4.9 N",
		"longitude": "66-40-37.29 W",
		"state": "PUERTO RICO",
		"artcc": "ZSU",
		"type": "RNAV",
		"updated": "03/06/2006",
	},
	{
		"name": "RUTPE",
		"latitude": "18-25-0.75 N",
		"longitude": "66-48-43.88 W",
		"state": "PUERTO RICO",
		"artcc": "ZSU",
		"type": "RNAV",
		"updated": "05/06/2013",
	},
