	{
		"name": "SAALR",
		"latitude": "19-6-47.47 N",
		"longitude": "66-20-10.21 W",
		"state": "PUERTO RICO",
		"artcc": "ZSU",
		"type": "RP",
		"updated": "BQN*VORTAC*059.96",
	},
	{
		"name": "SANLO",
		"latitude": "18-12-2.77 N",
		"longitude": "65-56-5.64 W",
		"state": "PUERTO RICO",
		"artcc": "ZSU",
		"type": "RP",
		"updated": "SJU*VORTAC*179.00/15.00",
	},
	{
		"name": "SATOE",
		"latitude": "17-40-0 N",
		"longitude": "68-0-0 W",
		"state": "OFFSHORE ATLANTIC",
		"artcc": "ZSU",
		"type": "RNAV",
		"updated": "09/19/2016",
	},
	{
		"name": "SCAPA",
		"latitude": "15-50-2.9 N",
		"longitude": "67-29-58.3 W",
		"state": "PUERTO RICO",
		"artcc": "ZSU",
		"type": "RNAV",
		"updated": "10/25/2016",
	},
	{
		"name": "SEPBO",
		"latitude": "17-58-12.79 N",
		"longitude": "66-46-30.06 W",
		"state": "PUERTO RICO",
		"artcc": "ZSU",
		"type": "RNAV",
		"updated": "03/07/2006",
	},
	{
		"name": "SHMUU",
		"latitude": "19-20-39.03 N",
		"longitude": "67-38-22.39 W",
		"state": "OFFSHORE ATLANTIC",
		"artcc": "ZSU",
		"type": "RNAV",
		"updated": "11/21/2008",
	},
	{
		"name": "SILOE",
		"latitude": "18-30-48.07 N",
		"longitude": "65-49-50.1 W",
		"state": "PUERTO RICO",
		"artcc": "ZSU",
		"type": "RNAV",
		"updated": "06/06/2002",
	},
	{
		"name": "SIYPO",
		"latitude": "17-38-32.91 N",
		"longitude": "64-33-9.62 W",
		"state": "VIRGIN ISLANDS",
		"artcc": "ZSU",
		"type": "RNAV",
		"updated": "11/04/2008",
	},
	{
		"name": "SLUGO",
		"latitude": "18-23-22 N",
		"longitude": "63-40-0 W",
		"state": "VIRGIN ISLANDS",
		"artcc": "ZSU",
		"type": "RP",
		"updated": "PJM*VOR/DME*315.75/37.71",
	},
	{
		"name": "SNGRA",
		"latitude": "18-24-1.81 N",
		"longitude": "65-45-53.66 W",
		"state": "OFFSHORE ATLANTIC",
		"artcc": "ZSU",
		"type": "RNAV",
		"updated": "07/09/2009",
	},
	{
		"name": "SNOOZ",
		"latitude": "17-48-53.87 N",
		"longitude": "65-5-1.94 W",
		"state": "VIRGIN ISLANDS",
		"artcc": "ZSU",
		"type": "RP",
		"updated": "COY*VOR/DME*292.43/22.46",
	},
	{
		"name": "SOCCO",
		"latitude": "21-6-59.05 N",
		"longitude": "63-3-42.76 W",
		"state": "OFFSHORE ATLANTIC",
		"artcc": "ZSU",
		"type": "RNAV",
		"updated": "08/20/2009",
	},
