[
	{
		"name": "TANZY",
		"latitude": "17-40-7.6 N",
		"longitude": "64-24-8.89 W",
		"state": "VIRGIN ISLANDS",
		"artcc": "ZSU",
		"type": "RP",
		"updated": "COY*VOR/DME*112.89/17.53"
	},
	{
		"name": "TARGT",
		"latitude": "18-28-3.54 N",
		"longitude": "67-13-36.81 W",
		"state": "PUERTO RICO",
		"artcc": "ZSU",
		"type": "RP",
		"updated": "BQN*VORTAC*265.00/7.00"
	},
	{
		"name": "TAYOG",
		"latitude": "17-54-15.61 N",
		"longitude": "66-51-14.98 W",
		"state": "PUERTO RICO",
		"artcc": "ZSU",
		"type": "RNAV",
		"updated": "06/27/2017"
	},
	{
		"name": "TBURN",
		"latitude": "18-34-29.38 N",
		"longitude": "66-51-52.16 W",
		"state": "PUERTO RICO",
		"artcc": "ZSU",
		"type": "RNAV",
		"updated": "05/06/2013"
	},
	{
		"name": "TEJOS",
		"latitude": "17-57-56.47 N",
		"longitude": "66-31-41.22 W",
		"state": "PUERTO RICO",
		"artcc": "ZSU",
		"type": "RNAV",
		"updated": "01/21/2015"
	},
	{
		"name": "THANK",
		"latitude": "21-27-37.34 N",
		"longitude": "66-3-12.52 W",
		"state": "PUERTO RICO",
		"artcc": "ZSU",
		"type": "RNAV",
		"updated": "DDP*NDB*017.41"
	},
	{
		"name": "TIKAL",
		"latitude": "17-28-25.7 N",
		"longitude": "62-49-4.81 W",
		"state": "PUERTO RICO",
		"artcc": "ZSU",
		"type": "RP",
		"updated": "PJM*VOR/DME*164.90/37.88"
	},
	{
		"name": "TILDI",
		"latitude": "20-9-49 N",
		"longitude": "67-37-46 W",
		"state": "PUERTO RICO",
		"artcc": "ZSU",
		"type": "RNAV",
		"updated": "04/08/2008"
	},
	{
		"name": "TNNER",
		"latitude": "18-26-1.95 N",
		"longitude": "66-11-58.14 W",
		"state": "PUERTO RICO",
		"artcc": "ZSU",
		"type": "RP",
		"updated": "SJU*VORTAC*277.49/12.00"
	},
	{
		"name": "TOREY",
		"latitude": "17-25-22.23 N",
		"longitude": "66-29-33.89 W",
		"state": "OFFSHORE ATLANTIC",
		"artcc": "ZSU",
		"type": "RNAV",
		"updated": "07/09/2009"
	},
	{
		"name": "TOURO",
		"latitude": "18-28-50.02 N",
		"longitude": "65-27-52.98 W",
		"state": "PUERTO RICO",
		"artcc": "ZSU",
		"type": "RP",
		"updated": "SJU*VORTAC*097.00/30.00"
	},
	{
		"name": "TROCO",
		"latitude": "18-11-14 N",
		"longitude": "65-45-28 W",
		"state": "PUERTO RICO",
		"artcc": "ZSU",
		"type": "RNAV",
		"updated": "07/31/2010"
	},
	{
		"name": "TUKRE",
		"latitude": "18-28-50.36 N",
		"longitude": "65-54-41.15 W",
		"state": "PUERTO RICO",
		"artcc": "ZSU",
		"type": "RNAV",
		"updated": "06/06/2002"
	},
	{
		"name": "TUUNA",
		"latitude": "17-58-51.16 N",
		"longitude": "65-53-10.07 W",
		"state": "PUERTO RICO",
		"artcc": "ZSU",
		"type": "RP",
		"updated": "BQN*VORTAC*123.69"
	}
]
