	{
		"name": "WALNA",
		"latitude": "18-38-43.68 N",
		"longitude": "66-0-57.66 W",
		"state": "PUERTO RICO",
		"artcc": "ZSU",
		"type": "RP",
		"updated": "SJU*VORTAC*003.77/12.00",
	},
	{
		"name": "WATRS",
		"latitude": "21-53-15.19 N",
		"longitude": "67-47-32.05 W",
		"state": "OFFSHORE ATLANTIC",
		"artcc": "ZSU",
		"type": "RP",
		"updated": "PTA*VOR/DME*058.34/201.41",
	},
	{
		"name": "WESEN",
		"latitude": "18-22-12.09 N",
		"longitude": "66-11-2.69 W",
		"state": "PUERTO RICO",
		"artcc": "ZSU",
		"type": "RP",
		"updated": "SJU*VORTAC*258.71/12.00",
	},
	{
		"name": "WEXET",
		"latitude": "19-35-14.59 N",
		"longitude": "66-30-34.02 W",
		"state": "PUERTO RICO",
		"artcc": "ZSU",
		"type": "RNAV",
		"updated": "11/24/2008",
	},
	{
		"name": "WEXIG",
		"latitude": "18-14-10.83 N",
		"longitude": "67-13-57.82 W",
		"state": "PUERTO RICO",
		"artcc": "ZSU",
		"type": "RNAV",
		"updated": "04/14/2011",
	},
	{
		"name": "WIGUM",
		"latitude": "17-59-32.58 N",
		"longitude": "66-31-9.05 W",
		"state": "PUERTO RICO",
		"artcc": "ZSU",
		"type": "RP",
		"updated": "MAZ*VOR/DME*123.51",
	},
	{
		"name": "WITRA",
		"latitude": "18-28-20.34 N",
		"longitude": "67-12-14.59 W",
		"state": "PUERTO RICO",
		"artcc": "ZSU",
		"type": "RNAV",
		"updated": "05/06/2013",
	},
	{
		"name": "WLFRD",
		"latitude": "17-51-41.82 N",
		"longitude": "66-19-38.18 W",
		"state": "PUERTO RICO",
		"artcc": "ZSU",
		"type": "RNAV",
		"updated": "01/21/2015",
	},
