	{
		"name": "ZABOR",
		"latitude": "21-23-27.4 N",
		"longitude": "62-37-34.46 W",
		"state": "OFFSHORE ATLANTIC",
		"artcc": "ZSU",
		"type": "RNAV",
		"updated": "04/10/2008",
	},
	{
		"name": "ZADAV",
		"latitude": "18-14-1.19 N",
		"longitude": "67-30-1.64 W",
		"state": "PUERTO RICO",
		"artcc": "ZSU",
		"type": "RP",
		"updated": "MAZ*VOR/DME*276.15/20.00",
	},
	{
		"name": "ZASPU",
		"latitude": "18-26-1.05 N",
		"longitude": "66-2-36.71 W",
		"state": "PUERTO RICO",
		"artcc": "ZSU",
		"type": "RP",
		"updated": "CLA*LD*281.14/3.19",
	},
	{
		"name": "ZATOG",
		"latitude": "19-36-42.96 N",
		"longitude": "66-16-36.68 W",
		"state": "OFFSHORE ATLANTIC",
		"artcc": "ZSU",
		"type": "RNAV",
		"updated": "11/24/2008",
	},
	{
		"name": "ZIDUG",
		"latitude": "17-57-16.68 N",
		"longitude": "65-17-26.12 W",
		"state": "OFFSHORE ATLANTIC",
		"artcc": "ZSU",
		"type": "RNAV",
		"updated": "11/24/2008",
	},
	{
		"name": "ZNDER",
		"latitude": "17-41-36.88 N",
		"longitude": "66-17-14.3 W",
		"state": "PUERTO RICO",
		"artcc": "ZSU",
		"type": "RNAV",
		"updated": "11/24/2008",
	},
	{
		"name": "ZUGOD",
		"latitude": "18-21-23.66 N",
		"longitude": "66-19-15.99 W",
		"state": "PUERTO RICO",
		"artcc": "ZSU",
		"type": "RNAV",
		"updated": "11/24/2008",
	},
	{
		"name": "ZULRO",
		"latitude": "18-26-16.14 N",
		"longitude": "66-0-54.95 W",
		"state": "PUERTO RICO",
		"artcc": "ZSU",
		"type": "RP",
		"updated": "SJU*VORTAC*262.00/1.55",
	},
