[
	{
		"name": "ABRAQ",
		"latitude": "40-20-53.29 N",
		"longitude": "86-6-28.09 W",
		"state": "INDIANA",
		"artcc": "ZAU",
		"type": "RNAV",
		"updated": "02/09/2018"
	},
	{
		"name": "ACCRA",
		"latitude": "41-56-0 N",
		"longitude": "88-1-10 W",
		"state": "ILLINOIS",
		"artcc": "ZAU",
		"type": "RNAV",
		"updated": "04/01/2014"
	},
	{
		"name": "ACEHY",
		"latitude": "41-6-19.17 N",
		"longitude": "87-4-55.51 W",
		"state": "INDIANA",
		"artcc": "ZAU",
		"type": "WP",
		"updated": "11/02/1998"
	},
	{
		"name": "ACELA",
		"latitude": "41-26-19.89 N",
		"longitude": "72-46-51.07 W",
		"state": "CONNECTICUT",
		"artcc": "ZAU",
		"type": "RP",
		"updated": "MAD*VOR/DME*344.92/8.50"
	},
	{
		"name": "ACEMI",
		"latitude": "42-6-52.51 N",
		"longitude": "90-11-55.71 W",
		"state": "IOWA",
		"artcc": "ZAU",
		"type": "RNAV",
		"updated": "04/02/2012"
	},
	{
		"name": "ACIBE",
		"latitude": "40-50-48.05 N",
		"longitude": "85-32-47.83 W",
		"state": "INDIANA",
		"artcc": "ZAU",
		"type": "RNAV",
		"updated": "03/22/2006"
	},
	{
		"name": "ACIDU",
		"latitude": "42-45-40.62 N",
		"longitude": "88-37-34.02 W",
		"state": "WISCONSIN",
		"artcc": "ZAU",
		"type": "RNAV",
		"updated": "08/01/2011"
	},
	{
		"name": "ACISA",
		"latitude": "40-50-21.83 N",
		"longitude": "85-23-31.35 W",
		"state": "INDIANA",
		"artcc": "ZAU",
		"type": "RP",
		"updated": "FWA*VORTAC*228.00/12.50"
	},
	{
		"name": "ACITO",
		"latitude": "41-23-55 N",
		"longitude": "88-11-0 W",
		"state": "ILLINOIS",
		"artcc": "ZAU",
		"type": "RNAV",
		"updated": "09/29/2008"
	},
	{
		"name": "ACKLY",
		"latitude": "41-6-33.86 N",
		"longitude": "91-52-37.81 W",
		"state": "IOWA",
		"artcc": "ZAU",
		"type": "RP",
		"updated": "IOW*VOR/DME*201.00"
	},
	{
		"name": "ACOTI",
		"latitude": "40-40-29.86 N",
		"longitude": "86-3-8.97 W",
		"state": "INDIANA",
		"artcc": "ZAU",
		"type": "RNAV",
		"updated": "03/22/2006"
	},
	{
		"name": "ADALE",
		"latitude": "42-51-10.84 N",
		"longitude": "86-0-39.57 W",
		"state": "MICHIGAN",
		"artcc": "ZAU",
		"type": "RP",
		"updated": "BAE*VOR/DME*096.21/101.36"
	},
	{
		"name": "ADAME",
		"latitude": "41-58-8.9 N",
		"longitude": "87-39-8.5 W",
		"state": "ILLINOIS",
		"artcc": "ZAU",
		"type": "RP",
		"updated": "TSL*LD*E CRS/10.11"
	},
	{
		"name": "ADAMZ",
		"latitude": "43-56-32.22 N",
		"longitude": "89-58-54.36 W",
		"state": "WISCONSIN",
		"artcc": "ZAU",
		"type": "MR",
		"updated": "DLL*VORTAC*335.07/25.33"
	},
	{
		"name": "ADCOJ",
		"latitude": "42-7-52.02 N",
		"longitude": "92-16-7.01 W",
		"state": "IOWA",
		"artcc": "ZAU",
		"type": "RNAV",
		"updated": "02/18/2010"
	},
	{
		"name": "ADDDY",
		"latitude": "41-53-21.91 N",
		"longitude": "86-16-30.22 W",
		"state": "MICHIGAN",
		"artcc": "ZAU",
		"type": "RNAV",
		"updated": "07/11/2017"
	},
	{
		"name": "ADECI",
		"latitude": "40-50-30.17 N",
		"longitude": "86-3-21.37 W",
		"state": "INDIANA",
		"artcc": "ZAU",
		"type": "RNAV",
		"updated": "03/22/2006"
	},
	{
		"name": "ADELE",
		"latitude": "43-10-50.71 N",
		"longitude": "87-51-16.96 W",
		"state": "WISCONSIN",
		"artcc": "ZAU",
		"type": "RP",
		"updated": "LJT*VOR/DME*063.97"
	},
	{
		"name": "ADELL",
		"latitude": "41-14-59 N",
		"longitude": "88-15-0 W",
		"state": "ILLINOIS",
		"artcc": "ZAU",
		"type": "RNAV",
		"updated": "11/19/2012"
	},
	{
		"name": "ADELY",
		"latitude": "40-52-0.02 N",
		"longitude": "91-22-13.21 W",
		"state": "IOWA",
		"artcc": "ZAU",
		"type": "RP",
		"updated": "BRL*VOR/DME*288.13/22.00"
	},
	{
		"name": "ADEYO",
		"latitude": "42-57-41.04 N",
		"longitude": "89-25-55.56 W",
		"state": "WISCONSIN",
		"artcc": "ZAU",
		"type": "RNAV",
		"updated": "05/24/2016"
	},
	{
		"name": "ADIKE",
		"latitude": "41-44-54.06 N",
		"longitude": "90-15-12.25 W",
		"state": "ILLINOIS",
		"artcc": "ZAU",
		"type": "RNAV",
		"updated": "06/18/2012"
	},
	{
		"name": "ADIME",
		"latitude": "41-57-22.86 N",
		"longitude": "86-12-51.51 W",
		"state": "MICHIGAN",
		"artcc": "ZAU",
		"type": "RP",
		"updated": "ELX*VOR/DME*200.00/12.00"
	},
	{
		"name": "ADIYI",
		"latitude": "42-7-42.74 N",
		"longitude": "86-32-56.46 W",
		"state": "MICHIGAN",
		"artcc": "ZAU",
		"type": "RNAV",
		"updated": "06/29/2011"
	},
	{
		"name": "ADLER",
		"latitude": "40-43-30.17 N",
		"longitude": "89-48-18.47 W",
		"state": "ILLINOIS",
		"artcc": "ZAU",
		"type": "RP",
		"updated": "PIA*VORTAC*345.17"
	},
	{
		"name": "ADLMN",
		"latitude": "41-58-55.96 N",
		"longitude": "88-30-42.55 W",
		"state": "ILLINOIS",
		"artcc": "ZAU",
		"type": "RP",
		"updated": "03/26/2013"
	},
	{
		"name": "ADOSE",
		"latitude": "42-21-34.98 N",
		"longitude": "89-21-56.55 W",
		"state": "ILLINOIS",
		"artcc": "ZAU",
		"type": "RP",
		"updated": "RFD*VOR/DME*316.40"
	},
	{
		"name": "AERIE",
		"latitude": "41-39-55.79 N",
		"longitude": "86-52-49.55 W",
		"state": "INDIANA",
		"artcc": "ZAU",
		"type": "RNAV",
		"updated": "11/18/2016"
	},
	{
		"name": "AFAGU",
		"latitude": "41-5-22.92 N",
		"longitude": "86-18-1.24 W",
		"state": "INDIANA",
		"artcc": "ZAU",
		"type": "RNAV",
		"updated": "07/29/2008"
	},
	{
		"name": "AFECY",
		"latitude": "41-12-27.25 N",
		"longitude": "85-7-37.86 W",
		"state": "INDIANA",
		"artcc": "ZAU",
		"type": "RNAV",
		"updated": "09/06/2002"
	},
	{
		"name": "AGACI",
		"latitude": "40-39-13.99 N",
		"longitude": "85-48-5.36 W",
		"state": "INDIANA",
		"artcc": "ZAU",
		"type": "RNAV",
		"updated": "08/16/2004"
	},
	{
		"name": "AGENS",
		"latitude": "41-1-43.78 N",
		"longitude": "92-20-50.25 W",
		"state": "IOWA",
		"artcc": "ZAU",
		"type": "RP",
		"updated": "OTM*VOR/DME*263.00/0.97"
	},
	{
		"name": "AGEYU",
		"latitude": "42-42-25.29 N",
		"longitude": "85-26-21.07 W",
		"state": "MICHIGAN",
		"artcc": "ZAU",
		"type": "RNAV",
		"updated": "02/15/2018"
	},
	{
		"name": "AGONY",
		"latitude": "41-51-24.67 N",
		"longitude": "90-32-32.96 W",
		"state": "IOWA",
		"artcc": "ZAU",
		"type": "RNAV",
		"updated": "08/24/2015"
	},
	{
		"name": "AGOST",
		"latitude": "43-2-22.2 N",
		"longitude": "89-36-47.88 W",
		"state": "WISCONSIN",
		"artcc": "ZAU",
		"type": "RNAV",
		"updated": "05/24/2016"
	},
	{
		"name": "AGREE",
		"latitude": "41-22-36.95 N",
		"longitude": "87-47-23.16 W",
		"state": "ILLINOIS",
		"artcc": "ZAU",
		"type": "RNAV",
		"updated": "01/20/2009"
	},
	{
		"name": "AGZED",
		"latitude": "41-57-57.08 N",
		"longitude": "87-49-6.44 W",
		"state": "ILLINOIS",
		"artcc": "ZAU",
		"type": "RNAV",
		"updated": "08/28/2015"
	},
	{
		"name": "AHLOU",
		"latitude": "41-39-3 N",
		"longitude": "88-7-28.03 W",
		"state": "ILLINOIS",
		"artcc": "ZAU",
		"type": "RNAV",
		"updated": "11/19/2012"
	},
	{
		"name": "AHMED",
		"latitude": "41-29-51.69 N",
		"longitude": "88-51-52.29 W",
		"state": "ILLINOIS",
		"artcc": "ZAU",
		"type": "RP",
		"updated": "PNT*VOR/DME*348.72"
	},
	{
		"name": "AHSTN",
		"latitude": "41-42-45.58 N",
		"longitude": "88-21-26.41 W",
		"state": "ILLINOIS",
		"artcc": "ZAU",
		"type": "RNAV",
		"updated": "08/26/2013"
	},
	{
		"name": "AHYOB",
		"latitude": "42-33-22.9 N",
		"longitude": "88-2-31.53 W",
		"state": "WISCONSIN",
		"artcc": "ZAU",
		"type": "RNAV",
		"updated": "06/22/2009"
	},
	{
		"name": "AJAYS",
		"latitude": "40-34-47.98 N",
		"longitude": "85-17-58.04 W",
		"state": "INDIANA",
		"artcc": "ZID",
		"type": "RP",
		"updated": "MZZ*VOR/DME*076.23"
	},
	{
		"name": "AJEPO",
		"latitude": "43-50-24.05 N",
		"longitude": "90-4-58.7 W",
		"state": "WISCONSIN",
		"artcc": "ZAU",
		"type": "RNAV",
		"updated": "06/30/2003"
	},
	{
		"name": "AKETT",
		"latitude": "43-56-22.55 N",
		"longitude": "90-13-26.5 W",
		"state": "WISCONSIN",
		"artcc": "ZAU",
		"type": "MR",
		"updated": "VOK*TACAN*/1.53"
	},
	{
		"name": "AKEWS",
		"latitude": "41-2-23.39 N",
		"longitude": "85-6-48.17 W",
		"state": "INDIANA",
		"artcc": "ZAU",
		"type": "RNAV",
		"updated": "07/29/2008"
	},
	{
		"name": "AKICA",
		"latitude": "40-19-8.22 N",
		"longitude": "85-51-8.22 W",
		"state": "INDIANA",
		"artcc": "ZAU",
		"type": "RP",
		"updated": "MZZ*VOR/DME*/13.12"
	},
	{
		"name": "AKMIE",
		"latitude": "40-42-38.77 N",
		"longitude": "88-29-28.05 W",
		"state": "ILLINOIS",
		"artcc": "ZAU",
		"type": "RNAV",
		"updated": "11/19/2012"
	},
	{
		"name": "ALADE",
		"latitude": "40-28-7.05 N",
		"longitude": "88-8-38.3 W",
		"state": "ILLINOIS",
		"artcc": "ZAU",
		"type": "RNAV",
		"updated": "03/15/2001"
	},
	{
		"name": "ALAND",
		"latitude": "40-13-57.22 N",
		"longitude": "89-18-14.3 W",
		"state": "ILLINOIS",
		"artcc": "ZAU",
		"type": "RP",
		"updated": "PIA*VORTAC*136.00"
	},
	{
		"name": "ALASE",
		"latitude": "41-41-35.1 N",
		"longitude": "88-4-13.12 W",
		"state": "ILLINOIS",
		"artcc": "ZAU",
		"type": "RNAV",
		"updated": "06/26/2007"
	},
	{
		"name": "ALBIS",
		"latitude": "41-38-8.93 N",
		"longitude": "91-32-27.57 W",
		"state": "IOWA",
		"artcc": "ZAU",
		"type": "WP",
		"updated": "03/13/1995"
	},
	{
		"name": "ALBRT",
		"latitude": "40-50-29.09 N",
		"longitude": "92-13-41.82 W",
		"state": "IOWA",
		"artcc": "ZAU",
		"type": "RP",
		"updated": "IRK*VORTAC*015.33"
	},
	{
		"name": "ALECU",
		"latitude": "41-28-52.58 N",
		"longitude": "90-33-40.51 W",
		"state": "ILLINOIS",
		"artcc": "ZAU",
		"type": "RNAV",
		"updated": "08/07/2009"
	},
	{
		"name": "ALEXI",
		"latitude": "40-55-58.54 N",
		"longitude": "90-32-39.35 W",
		"state": "ILLINOIS",
		"artcc": "ZAU",
		"type": "RP",
		"updated": "MZV*VOR/DME*164.61"
	},
	{
		"name": "ALIGE",
		"latitude": "43-1-53.52 N",
		"longitude": "90-50-6.82 W",
		"state": "WISCONSIN",
		"artcc": "ZAU",
		"type": "RNAV",
		"updated": "09/16/2002"
	},
	{
		"name": "ALIME",
		"latitude": "41-26-44.95 N",
		"longitude": "87-16-31 W",
		"state": "INDIANA",
		"artcc": "ZAU",
		"type": "RNAV",
		"updated": "04/12/2006"
	},
	{
		"name": "ALKYL",
		"latitude": "41-57-26.29 N",
		"longitude": "87-51-36.29 W",
		"state": "ILLINOIS",
		"artcc": "ZAU",
		"type": "RP",
		"updated": "OBK*VOR/DME*167.49"
	},
	{
		"name": "ALLFA",
		"latitude": "43-56-19.68 N",
		"longitude": "90-16-53.14 W",
		"state": "WISCONSIN",
		"artcc": "ZAU",
		"type": "MR",
		"updated": "VOK*TACAN*256.00/1.00"
	},
	{
		"name": "ALLII",
		"latitude": "42-0-41.85 N",
		"longitude": "86-27-43.87 W",
		"state": "MICHIGAN",
		"artcc": "ZAU",
		"type": "RNAV",
		"updated": "06/29/2017"
	},
	{
		"name": "ALOOF",
		"latitude": "42-42-50.98 N",
		"longitude": "89-48-32.66 W",
		"state": "WISCONSIN",
		"artcc": "ZAU",
		"type": "RNAV",
		"updated": "03/24/2009"
	},
	{
		"name": "ALQAZ",
		"latitude": "40-31-31.02 N",
		"longitude": "86-45-41.09 W",
		"state": "INDIANA",
		"artcc": "ZAU",
		"type": "RNAV",
		"updated": "09/12/2016"
	},
	{
		"name": "ALQUE",
		"latitude": "41-33-50.8 N",
		"longitude": "88-6-52.76 W",
		"state": "ILLINOIS",
		"artcc": "ZAU",
		"type": "RNAV",
		"updated": "05/28/2014"
	},
	{
		"name": "ALYEA",
		"latitude": "41-57-25.64 N",
		"longitude": "87-58-5.05 W",
		"state": "ILLINOIS",
		"artcc": "ZAU",
		"type": "RP",
		"updated": "OBK*VOR/DME*184.66"
	},
	{
		"name": "AMBIA",
		"latitude": "40-34-18.19 N",
		"longitude": "87-43-30.21 W",
		"state": "ILLINOIS",
		"artcc": "ZAU",
		"type": "MR",
		"updated": "BVT*VORTAC*271.00/30.00"
	},
	{
		"name": "AMONE",
		"latitude": "41-18-22.37 N",
		"longitude": "91-40-27.74 W",
		"state": "IOWA",
		"artcc": "ZAU",
		"type": "RNAV",
		"updated": "02/18/2016"
	},
	{
		"name": "AMPEY",
		"latitude": "42-22-31.07 N",
		"longitude": "85-22-8.57 W",
		"state": "MICHIGAN",
		"artcc": "ZAU",
		"type": "RNAV",
		"updated": "03/01/2011"
	},
	{
		"name": "ANACO",
		"latitude": "41-58-7.93 N",
		"longitude": "87-59-30.68 W",
		"state": "ILLINOIS",
		"artcc": "ZAU",
		"type": "RNAV",
		"updated": "08/07/2008"
	},
	{
		"name": "ANAGE",
		"latitude": "43-5-9.92 N",
		"longitude": "91-12-6.66 W",
		"state": "WISCONSIN",
		"artcc": "ZAU",
		"type": "RNAV",
		"updated": "09/16/2002"
	},
	{
		"name": "ANCUT",
		"latitude": "41-51-58.72 N",
		"longitude": "89-11-55.83 W",
		"state": "ILLINOIS",
		"artcc": "ZAU",
		"type": "RNAV",
		"updated": "04/14/2009"
	},
	{
		"name": "ANDIN",
		"latitude": "42-7-23.94 N",
		"longitude": "88-19-48.74 W",
		"state": "ILLINOIS",
		"artcc": "ZAU",
		"type": "RP",
		"updated": "DPA*VOR/DME*001.65/14.00"
	},
	{
		"name": "ANNAY",
		"latitude": "40-26-37.8 N",
		"longitude": "88-46-24.78 W",
		"state": "ILLINOIS",
		"artcc": "ZAU",
		"type": "RP",
		"updated": "BMI*VOR/DME*110.89/7.56"
	},
	{
		"name": "ANOSA",
		"latitude": "42-6-39.51 N",
		"longitude": "91-19-20.48 W",
		"state": "IOWA",
		"artcc": "ZAU",
		"type": "RP",
		"updated": "CID*VOR/DME*051.96/24.68"
	},
	{
		"name": "ANOSE",
		"latitude": "41-51-35.78 N",
		"longitude": "89-11-57.43 W",
		"state": "ILLINOIS",
		"artcc": "ZAU",
		"type": "RNAV",
		"updated": "11/02/2015"
	},
	{
		"name": "ANOXE",
		"latitude": "43-10-38.27 N",
		"longitude": "89-44-51.17 W",
		"state": "WISCONSIN",
		"artcc": "ZAU",
		"type": "RNAV",
		"updated": "10/05/2007"
	},
	{
		"name": "ANUCO",
		"latitude": "41-42-8.4 N",
		"longitude": "86-27-0.79 W",
		"state": "INDIANA",
		"artcc": "ZAU",
		"type": "RNAV",
		"updated": "05/31/2005"
	},
	{
		"name": "ANWEY",
		"latitude": "41-31-29.34 N",
		"longitude": "85-50-51.69 W",
		"state": "INDIANA",
		"artcc": "ZAU",
		"type": "RNAV",
		"updated": "06/13/2011"
	},
	{
		"name": "APADY",
		"latitude": "41-46-15.51 N",
		"longitude": "92-49-47.23 W",
		"state": "IOWA",
		"artcc": "ZAU",
		"type": "RNAV",
		"updated": "03/26/2008"
	},
	{
		"name": "APILE",
		"latitude": "41-55-30.24 N",
		"longitude": "88-57-37.41 W",
		"state": "ILLINOIS",
		"artcc": "ZAU",
		"type": "RNAV",
		"updated": "11/02/2015"
	},
	{
		"name": "APIXE",
		"latitude": "44-4-5.96 N",
		"longitude": "88-38-56.3 W",
		"state": "WISCONSIN",
		"artcc": "ZAU",
		"type": "RP",
		"updated": "OSH*VORTAC*317.28/6.17"
	},
	{
		"name": "APMEF",
		"latitude": "43-14-10.18 N",
		"longitude": "89-20-51.61 W",
		"state": "WISCONSIN",
		"artcc": "ZAU",
		"type": "RP",
		"updated": "MSN*VORTAC*353.35/5.49"
	},
	{
		"name": "APOOZ",
		"latitude": "43-6-6.76 N",
		"longitude": "89-26-11.68 W",
		"state": "WISCONSIN",
		"artcc": "ZAU",
		"type": "RNAV",
		"updated": "03/23/2009"
	},
	{
		"name": "APPLR",
		"latitude": "42-33-45 N",
		"longitude": "87-53-29.67 W",
		"state": "WISCONSIN",
		"artcc": "ZAU",
		"type": "RNAV",
		"updated": "06/22/2009"
	},
	{
		"name": "ARACI",
		"latitude": "41-25-9.7 N",
		"longitude": "90-27-12.76 W",
		"state": "ILLINOIS",
		"artcc": "ZAU",
		"type": "RNAV",
		"updated": "08/07/2009"
	},
	{
		"name": "ARAMY",
		"latitude": "43-50-22.23 N",
		"longitude": "90-11-18.7 W",
		"state": "WISCONSIN",
		"artcc": "ZAU",
		"type": "RNAV",
		"updated": "05/24/2016"
	},
	{
		"name": "ARAWO",
		"latitude": "43-24-45.49 N",
		"longitude": "88-51-38.44 W",
		"state": "WISCONSIN",
		"artcc": "ZAU",
		"type": "RNAV",
		"updated": "05/24/2016"
	},
	{
		"name": "ARCAB",
		"latitude": "40-35-46.72 N",
		"longitude": "85-17-41.73 W",
		"state": "INDIANA",
		"artcc": "ZID",
		"type": "RNAV",
		"updated": "01/12/2015"
	},
	{
		"name": "ARCEE",
		"latitude": "43-53-24.15 N",
		"longitude": "90-32-59.18 W",
		"state": "WISCONSIN",
		"artcc": "ZAU",
		"type": "MR",
		"updated": "VOK*TACAN*256.00/13.00"
	},
	{
		"name": "ARDIE",
		"latitude": "40-31-44.02 N",
		"longitude": "89-42-1.56 W",
		"state": "ILLINOIS",
		"artcc": "ZAU",
		"type": "RP",
		"updated": "PIA*VORTAC*151.00/10.00"
	},
	{
		"name": "ARIST",
		"latitude": "41-57-59.29 N",
		"longitude": "88-30-42.36 W",
		"state": "ILLINOIS",
		"artcc": "ZAU",
		"type": "RP",
		"updated": "MED*LD*272.86/28.36"
	},
	{
		"name": "ARLYN",
		"latitude": "40-19-0 N",
		"longitude": "88-40-0 W",
		"state": "ILLINOIS",
		"artcc": "ZAU",
		"type": "RNAV",
		"updated": "11/19/2012"
	},
	{
		"name": "AROYA",
		"latitude": "41-46-59.98 N",
		"longitude": "86-35-11.78 W",
		"state": "INDIANA",
		"artcc": "ZAU",
		"type": "RNAV",
		"updated": "05/31/2005"
	},
	{
		"name": "ARTYS",
		"latitude": "42-34-46.53 N",
		"longitude": "93-4-34.64 W",
		"state": "IOWA",
		"artcc": "ZAU",
		"type": "RP",
		"updated": "MCW*VOR/DME*154.00"
	},
	{
		"name": "ARUGE",
		"latitude": "41-2-43.79 N",
		"longitude": "92-48-41.94 W",
		"state": "IOWA",
		"artcc": "ZAU",
		"type": "RNAV",
		"updated": "05/24/2011"
	},
	{
		"name": "ARULE",
		"latitude": "42-49-49.81 N",
		"longitude": "91-3-28.65 W",
		"state": "WISCONSIN",
		"artcc": "ZAU",
		"type": "RNAV",
		"updated": "09/16/2002"
	},
	{
		"name": "ARYED",
		"latitude": "42-5-30.74 N",
		"longitude": "90-45-54.98 W",
		"state": "IOWA",
		"artcc": "ZAU",
		"type": "RNAV",
		"updated": "06/26/2013"
	},
	{
		"name": "ASHLE",
		"latitude": "41-52-51.37 N",
		"longitude": "92-10-21.98 W",
		"state": "IOWA",
		"artcc": "ZAU",
		"type": "RP",
		"updated": "CID*VOR/DME*263.82/17.35"
	},
	{
		"name": "ASHTO",
		"latitude": "41-54-32.1 N",
		"longitude": "89-10-30.31 W",
		"state": "ILLINOIS",
		"artcc": "ZAU",
		"type": "RP",
		"updated": "RFD*VOR/DME*175.73"
	},
	{
		"name": "ASUDE",
		"latitude": "40-50-17.8 N",
		"longitude": "86-8-26.91 W",
		"state": "INDIANA",
		"artcc": "ZAU",
		"type": "RNAV",
		"updated": "05/16/2016"
	},
	{
		"name": "ATAXE",
		"latitude": "42-10-1.03 N",
		"longitude": "93-0-46.71 W",
		"state": "IOWA",
		"artcc": "ZAU",
		"type": "RNAV",
		"updated": "08/25/2014"
	},
	{
		"name": "ATCAD",
		"latitude": "42-34-0.72 N",
		"longitude": "92-19-57.9 W",
		"state": "IOWA",
		"artcc": "ZAU",
		"type": "CN",
		"updated": "06/21/2000"
	},
	{
		"name": "ATILE",
		"latitude": "40-2-58.36 N",
		"longitude": "86-43-2.68 W",
		"state": "INDIANA",
		"artcc": "ZAU",
		"type": "RNAV",
		"updated": "01/12/2015"
	},
	{
		"name": "ATLEE",
		"latitude": "40-7-23.37 N",
		"longitude": "86-18-25.21 W",
		"state": "INDIANA",
		"artcc": "ZAU",
		"type": "RNAV",
		"updated": "02/09/2018"
	},
	{
		"name": "ATOBE",
		"latitude": "42-41-11.62 N",
		"longitude": "89-16-55.48 W",
		"state": "WISCONSIN",
		"artcc": "ZAU",
		"type": "RP",
		"updated": "JVL*VOR/DME*311.62/10.99"
	},
	{
		"name": "ATOHU",
		"latitude": "43-8-16.98 N",
		"longitude": "88-36-38.02 W",
		"state": "WISCONSIN",
		"artcc": "ZAU",
		"type": "RNAV",
		"updated": "01/20/2009"
	},
	{
		"name": "ATTIL",
		"latitude": "40-21-21.67 N",
		"longitude": "87-9-26.12 W",
		"state": "INDIANA",
		"artcc": "ZAU",
		"type": "CN",
		"updated": "12/04/2014"
	},
	{
		"name": "ATUKE",
		"latitude": "41-34-59.91 N",
		"longitude": "88-12-20.21 W",
		"state": "ILLINOIS",
		"artcc": "ZAU",
		"type": "RNAV",
		"updated": "03/29/2018"
	},
	{
		"name": "ATULE",
		"latitude": "40-2-12.88 N",
		"longitude": "87-42-48.95 W",
		"state": "ILLINOIS",
		"artcc": "ZAU",
		"type": "RNAV",
		"updated": "06/27/2007"
	},
	{
		"name": "AUDIE",
		"latitude": "41-26-52.6 N",
		"longitude": "90-26-54.41 W",
		"state": "ILLINOIS",
		"artcc": "ZAU",
		"type": "RNAV",
		"updated": "01/05/2012"
	},
	{
		"name": "AUDRE",
		"latitude": "41-48-48.03 N",
		"longitude": "88-6-58.65 W",
		"state": "ILLINOIS",
		"artcc": "ZAU",
		"type": "RNAV",
		"updated": "12/21/2009"
	},
	{
		"name": "AUSTJ",
		"latitude": "41-50-3.93 N",
		"longitude": "86-11-28.47 W",
		"state": "MICHIGAN",
		"artcc": "ZAU",
		"type": "RNAV",
		"updated": "06/29/2017"
	},
	{
		"name": "AUSTN",
		"latitude": "42-7-52.39 N",
		"longitude": "85-31-42.79 W",
		"state": "MICHIGAN",
		"artcc": "ZAU",
		"type": "RP",
		"updated": "AZO*VOR/DME*171.18/6.44"
	},
	{
		"name": "AVABE",
		"latitude": "42-56-52.54 N",
		"longitude": "91-2-37.89 W",
		"state": "WISCONSIN",
		"artcc": "ZAU",
		"type": "RNAV",
		"updated": "09/16/2002"
	},
	{
		"name": "AVACE",
		"latitude": "40-24-42.16 N",
		"longitude": "85-37-14.39 W",
		"state": "INDIANA",
		"artcc": "ZID",
		"type": "RNAV",
		"updated": "08/16/2004"
	},
	{
		"name": "AVAPE",
		"latitude": "42-26-6.55 N",
		"longitude": "90-44-45.27 W",
		"state": "IOWA",
		"artcc": "ZAU",
		"type": "CN",
		"updated": "06/21/2000"
	},
	{
		"name": "AVCOB",
		"latitude": "40-33-50.13 N",
		"longitude": "86-15-35.9 W",
		"state": "INDIANA",
		"artcc": "ZAU",
		"type": "MR",
		"updated": "GUS*VORTAC*/6.93"
	},
	{
		"name": "AVENE",
		"latitude": "40-36-42.36 N",
		"longitude": "89-25-14.67 W",
		"state": "ILLINOIS",
		"artcc": "ZAU",
		"type": "RNAV",
		"updated": "08/24/2005"
	},
	{
		"name": "AVROY",
		"latitude": "41-34-39.07 N",
		"longitude": "85-10-20.79 W",
		"state": "INDIANA",
		"artcc": "ZAU",
		"type": "RNAV",
		"updated": "02/26/2018"
	},
	{
		"name": "AVUME",
		"latitude": "43-0-5.73 N",
		"longitude": "88-47-22.55 W",
		"state": "WISCONSIN",
		"artcc": "ZAU",
		"type": "RNAV",
		"updated": "03/19/2003"
	},
	{
		"name": "AWECU",
		"latitude": "41-8-32.75 N",
		"longitude": "91-58-56.39 W",
		"state": "IOWA",
		"artcc": "ZAU",
		"type": "CN",
		"updated": "06/21/2000"
	},
	{
		"name": "AWIFI",
		"latitude": "40-44-52.52 N",
		"longitude": "91-21-18.08 W",
		"state": "IOWA",
		"artcc": "ZAU",
		"type": "RNAV",
		"updated": "03/27/2018"
	},
	{
		"name": "AWJUB",
		"latitude": "40-40-31.82 N",
		"longitude": "91-13-34.14 W",
		"state": "IOWA",
		"artcc": "ZAU",
		"type": "RP",
		"updated": "BRL*VOR/DME*253.26/14.00"
	},
	{
		"name": "AWOKA",
		"latitude": "40-59-8.13 N",
		"longitude": "85-10-52.78 W",
		"state": "INDIANA",
		"artcc": "ZAU",
		"type": "RP",
		"updated": "FWA*VORTAC*038.00/0.50"
	},
	{
		"name": "AWOYI",
		"latitude": "40-51-21.84 N",
		"longitude": "85-33-59.07 W",
		"state": "INDIANA",
		"artcc": "ZAU",
		"type": "RNAV",
		"updated": "12/31/2002"
	},
	{
		"name": "AWOYU",
		"latitude": "43-26-54.54 N",
		"longitude": "85-29-59.86 W",
		"state": "MICHIGAN",
		"artcc": "ZAU",
		"type": "RNAV",
		"updated": "07/15/2015"
	},
	{
		"name": "AWSUM",
		"latitude": "41-31-19.74 N",
		"longitude": "86-34-23.35 W",
		"state": "INDIANA",
		"artcc": "ZAU",
		"type": "RP",
		"updated": "GSH*VORTAC*269.76/24.57"
	},
	{
		"name": "AXCUK",
		"latitude": "40-52-13.61 N",
		"longitude": "91-7-29.24 W",
		"state": "IOWA",
		"artcc": "ZAU",
		"type": "RNAV",
		"updated": "10/03/2000"
	},
	{
		"name": "AXIOM",
		"latitude": "42-56-55.5 N",
		"longitude": "87-42-27.09 W",
		"state": "WISCONSIN",
		"artcc": "ZAU",
		"type": "RNAV",
		"updated": "11/06/2013"
	},
	{
		"name": "AXUKY",
		"latitude": "41-10-19.85 N",
		"longitude": "92-21-46.77 W",
		"state": "IOWA",
		"artcc": "ZAU",
		"type": "CN",
		"updated": "06/21/2000"
	},
	{
		"name": "AYDOV",
		"latitude": "40-46-10.66 N",
		"longitude": "92-56-41.19 W",
		"state": "IOWA",
		"artcc": "ZAU",
		"type": "RNAV",
		"updated": "01/10/2017"
	},
	{
		"name": "AYECO",
		"latitude": "43-20-44.28 N",
		"longitude": "89-19-54.88 W",
		"state": "WISCONSIN",
		"artcc": "ZAU",
		"type": "RNAV",
		"updated": "12/28/2015"
	},
	{
		"name": "AYERU",
		"latitude": "41-37-31.81 N",
		"longitude": "85-58-30.14 W",
		"state": "INDIANA",
		"artcc": "ZAU",
		"type": "RNAV",
		"updated": "05/25/2005"
	},
	{
		"name": "AYRAN",
		"latitude": "41-37-3.23 N",
		"longitude": "93-0-35.75 W",
		"state": "IOWA",
		"artcc": "ZAU",
		"type": "RNAV",
		"updated": "10/06/2008"
	},
	{
		"name": "AYSHA",
		"latitude": "41-49-44.13 N",
		"longitude": "91-29-0.42 W",
		"state": "IOWA",
		"artcc": "ZAU",
		"type": "RP",
		"updated": "CID*VOR/DME*099.44/14.00"
	},
	{
		"name": "AYUDA",
		"latitude": "40-5-27 N",
		"longitude": "86-11-1.9 W",
		"state": "INDIANA",
		"artcc": "ZAU",
		"type": "RNAV",
		"updated": "12/08/2008"
	},
	{
		"name": "AYUYI",
		"latitude": "41-43-15.47 N",
		"longitude": "85-46-42.66 W",
		"state": "INDIANA",
		"artcc": "ZAU",
		"type": "RP",
		"updated": "ELX*VOR/DME*148.63/29.71"
	},
	{
		"name": "AZDAV",
		"latitude": "42-47-8.75 N",
		"longitude": "88-16-8.56 W",
		"state": "WISCONSIN",
		"artcc": "ZAU",
		"type": "RNAV",
		"updated": "01/02/2003"
	},
	{
		"name": "AZHUP",
		"latitude": "40-12-5.91 N",
		"longitude": "86-37-26.34 W",
		"state": "INDIANA",
		"artcc": "ZAU",
		"type": "CN",
		"updated": "12/04/2014"
	},
	{
		"name": "AZMAT",
		"latitude": "41-46-17.87 N",
		"longitude": "88-21-0.73 W",
		"state": "ILLINOIS",
		"artcc": "ZAU",
		"type": "CN",
		"updated": "07/05/2001"
	},
	{
		"name": "AZUMO",
		"latitude": "41-27-27.94 N",
		"longitude": "87-0-17.27 W",
		"state": "INDIANA",
		"artcc": "ZAU",
		"type": "RP",
		"updated": "OXI*VOR/DME*297.00/18.00"
	}
]
