	{
		"name": "BABAC",
		"latitude": "41-0-40.7 N",
		"longitude": "85-9-0.51 W",
		"state": "INDIANA",
		"artcc": "ZAU",
		"type": "RNAV",
		"updated": "08/07/2008",
	},
	{
		"name": "BABAW",
		"latitude": "42-2-38.96 N",
		"longitude": "90-17-43.3 W",
		"state": "IOWA",
		"artcc": "ZAU",
		"type": "RNAV",
		"updated": "11/07/2008",
	},
	{
		"name": "BABJY",
		"latitude": "42-11-19.94 N",
		"longitude": "89-41-7.05 W",
		"state": "ILLINOIS",
		"artcc": "ZAU",
		"type": "RNAV",
		"updated": "06/27/2007",
	},
	{
		"name": "BABUU",
		"latitude": "41-52-54.76 N",
		"longitude": "87-8-16.41 W",
		"state": "MICHIGAN",
		"artcc": "ZAU",
		"type": "RNAV",
		"updated": "12/21/2009",
	},
	{
		"name": "BACEN",
		"latitude": "41-24-24 N",
		"longitude": "88-1-47 W",
		"state": "ILLINOIS",
		"artcc": "ZAU",
		"type": "RNAV",
		"updated": "11/20/2007",
	},
	{
		"name": "BADAN",
		"latitude": "43-44-31.84 N",
		"longitude": "88-47-19.79 W",
		"state": "WISCONSIN",
		"artcc": "ZAU",
		"type": "RP",
		"updated": "BJB*VOR*304.80",
	},
	{
		"name": "BADER",
		"latitude": "40-20-58.43 N",
		"longitude": "90-23-29.8 W",
		"state": "ILLINOIS",
		"artcc": "ZAU",
		"type": "RP",
		"updated": "BRL*VOR/DME*127.35/33.17",
	},
	{
		"name": "BAGEL",
		"latitude": "41-30-57.51 N",
		"longitude": "85-36-49.28 W",
		"state": "INDIANA",
		"artcc": "ZAU",
		"type": "RP",
		"updated": "GSH*VORTAC*091.55/18.68",
	},
	{
		"name": "BAGOE",
		"latitude": "43-39-51.47 N",
		"longitude": "88-27-37.67 W",
		"state": "WISCONSIN",
		"artcc": "ZAU",
		"type": "RP",
		"updated": "OSH*VORTAC*166.00/20.00",
	},
	{
		"name": "BAIRY",
		"latitude": "41-57-47.45 N",
		"longitude": "88-30-42.32 W",
		"state": "ILLINOIS",
		"artcc": "ZAU",
		"type": "RP",
		"updated": "SXH*LD*272.86/25.78",
	},
	{
		"name": "BAKBE",
		"latitude": "42-59-2.42 N",
		"longitude": "90-59-10.36 W",
		"state": "WISCONSIN",
		"artcc": "ZAU",
		"type": "RNAV",
		"updated": "09/16/2002",
	},
	{
		"name": "BAKKS",
		"latitude": "42-27-53.15 N",
		"longitude": "89-12-0.6 W",
		"state": "ILLINOIS",
		"artcc": "ZAU",
		"type": "RP",
		"updated": "JVL*VOR/DME*214.00/7.00",
	},
	{
		"name": "BALAC",
		"latitude": "40-38-30.48 N",
		"longitude": "85-31-36.71 W",
		"state": "INDIANA",
		"artcc": "ZAU",
		"type": "RNAV",
		"updated": "07/30/2004",
	},
	{
		"name": "BALLA",
		"latitude": "41-31-35.02 N",
		"longitude": "85-40-20.2 W",
		"state": "INDIANA",
		"artcc": "ZAU",
		"type": "RP",
		"updated": "GSH*VORTAC*089.62/16.03",
	},
	{
		"name": "BALMS",
		"latitude": "42-56-39.76 N",
		"longitude": "88-14-26.61 W",
		"state": "WISCONSIN",
		"artcc": "ZAU",
		"type": "RNAV",
		"updated": "11/06/2013",
	},
	{
		"name": "BAMBB",
		"latitude": "42-5-27.5 N",
		"longitude": "88-16-31.34 W",
		"state": "ILLINOIS",
		"artcc": "ZAU",
		"type": "RNAV",
		"updated": "10/26/2009",
	},
	{
		"name": "BANER",
		"latitude": "41-36-38.18 N",
		"longitude": "87-58-19.39 W",
		"state": "ILLINOIS",
		"artcc": "ZAU",
		"type": "RP",
		"updated": "CGT*VORTAC*286.62",
	},
	{
		"name": "BARRW",
		"latitude": "40-0-55.39 N",
		"longitude": "88-18-41.7 W",
		"state": "ILLINOIS",
		"artcc": "ZAU",
		"type": "RP",
		"updated": "CMI*VORTAC*232.00/2.00",
	},
	{
		"name": "BASHH",
		"latitude": "41-59-0.56 N",
		"longitude": "87-34-56.08 W",
		"state": "ILLINOIS",
		"artcc": "ZAU",
		"type": "RP",
		"updated": "IAC*LD*093.00/13.60",
	},
	{
		"name": "BASPE",
		"latitude": "43-8-59.49 N",
		"longitude": "91-16-30.3 W",
		"state": "IOWA",
		"artcc": "ZAU",
		"type": "RNAV",
		"updated": "09/16/2002",
	},
	{
		"name": "BATAM",
		"latitude": "40-26-33.83 N",
		"longitude": "87-35-32.78 W",
		"state": "ILLINOIS",
		"artcc": "ZAU",
		"type": "RP",
		"updated": "RBS*VOR/DME*105.48",
	},
	{
		"name": "BATBE",
		"latitude": "41-49-36.01 N",
		"longitude": "89-19-13.98 W",
		"state": "ILLINOIS",
		"artcc": "ZAU",
		"type": "RNAV",
		"updated": "04/22/2003",
	},
	{
		"name": "BATHE",
		"latitude": "41-37-1.84 N",
		"longitude": "86-51-47.43 W",
		"state": "INDIANA",
		"artcc": "ZAU",
		"type": "RNAV",
		"updated": "11/18/2016",
	},
	{
		"name": "BATLE",
		"latitude": "40-27-41.92 N",
		"longitude": "86-58-46.14 W",
		"state": "INDIANA",
		"artcc": "ZAU",
		"type": "RP",
		"updated": "BVT*VORTAC*143.00/7.00",
	},
	{
		"name": "BATOL",
		"latitude": "42-21-42.35 N",
		"longitude": "85-11-2.72 W",
		"state": "MICHIGAN",
		"artcc": "ZAU",
		"type": "RP",
		"updated": "LFD*VOR/DME*319.00",
	},
	{
		"name": "BAULK",
		"latitude": "42-41-5.09 N",
		"longitude": "90-11-40.75 W",
		"state": "WISCONSIN",
		"artcc": "ZAU",
		"type": "RP",
		"updated": "DBQ*VORTAC*049.15/28.45",
	},
	{
		"name": "BAXKO",
		"latitude": "41-50-15.51 N",
		"longitude": "92-55-57.03 W",
		"state": "IOWA",
		"artcc": "ZAU",
		"type": "RNAV",
		"updated": "03/26/2008",
	},
	{
		"name": "BAYAK",
		"latitude": "41-36-36.72 N",
		"longitude": "88-1-51.84 W",
		"state": "ILLINOIS",
		"artcc": "ZAU",
		"type": "RNAV",
		"updated": "06/26/2007",
	},
	{
		"name": "BAYZE",
		"latitude": "42-59-54.83 N",
		"longitude": "87-53-9.59 W",
		"state": "WISCONSIN",
		"artcc": "ZAU",
		"type": "RP",
		"updated": "LJT*VOR/DME*137.02",
	},
	{
		"name": "BEARZ",
		"latitude": "41-33-36.28 N",
		"longitude": "87-16-32.86 W",
		"state": "INDIANA",
		"artcc": "ZAU",
		"type": "RP",
		"updated": "EON*VORTAC*051.00",
	},
	{
		"name": "BEBEE",
		"latitude": "41-48-25.61 N",
		"longitude": "87-35-7.49 W",
		"state": "ILLINOIS",
		"artcc": "ZAU",
		"type": "RP",
		"updated": "ORD*VOR/DME*125.01",
	},
	{
		"name": "BEDJO",
		"latitude": "42-18-3.58 N",
		"longitude": "85-28-9.21 W",
		"state": "MICHIGAN",
		"artcc": "ZAU",
		"type": "RNAV",
		"updated": "03/01/2011",
	},
	{
		"name": "BEERI",
		"latitude": "43-46-9 N",
		"longitude": "89-24-50.22 W",
		"state": "WISCONSIN",
		"artcc": "ZAU",
		"type": "RP",
		"updated": "BAE*VOR/DME*306.79/63.00",
	},
	{
		"name": "BEHTY",
		"latitude": "41-5-5.17 N",
		"longitude": "91-41-24.28 W",
		"state": "IOWA",
		"artcc": "ZAU",
		"type": "RNAV",
		"updated": "02/15/2010",
	},
	{
		"name": "BEIGE",
		"latitude": "41-51-28.8 N",
		"longitude": "92-10-59.86 W",
		"state": "IOWA",
		"artcc": "ZAU",
		"type": "RP",
		"updated": "CID*VOR/DME*259.45/17.91",
	},
	{
		"name": "BEJAE",
		"latitude": "42-26-55.94 N",
		"longitude": "85-4-32.34 W",
		"state": "MICHIGAN",
		"artcc": "ZAU",
		"type": "RP",
		"updated": "PMM*VOR/DME*090.90/45.77",
	},
	{
		"name": "BEKFY",
		"latitude": "42-3-30.52 N",
		"longitude": "92-49-12.37 W",
		"state": "IOWA",
		"artcc": "ZAU",
		"type": "RNAV",
		"updated": "08/25/2014",
	},
	{
		"name": "BEKKI",
		"latitude": "40-19-0 N",
		"longitude": "88-20-54 W",
		"state": "ILLINOIS",
		"artcc": "ZAU",
		"type": "RNAV",
		"updated": "11/19/2012",
	},
	{
		"name": "BEKRE",
		"latitude": "41-2-33.31 N",
		"longitude": "92-52-28.12 W",
		"state": "IOWA",
		"artcc": "ZAU",
		"type": "RNAV",
		"updated": "05/24/2011",
	},
	{
		"name": "BELDE",
		"latitude": "41-57-31.17 N",
		"longitude": "88-50-10.09 W",
		"state": "ILLINOIS",
		"artcc": "ZAU",
		"type": "RNAV",
		"updated": "04/22/2003",
	},
	{
		"name": "BELMY",
		"latitude": "40-7-17.82 N",
		"longitude": "88-8-37.47 W",
		"state": "ILLINOIS",
		"artcc": "ZAU",
		"type": "RNAV",
		"updated": "03/15/2001",
	},
	{
		"name": "BELRE",
		"latitude": "41-38-5.09 N",
		"longitude": "90-8-44.12 W",
		"state": "ILLINOIS",
		"artcc": "ZAU",
		"type": "RNAV",
		"updated": "06/06/2012",
	},
	{
		"name": "BEMSE",
		"latitude": "41-31-12.05 N",
		"longitude": "88-25-15.33 W",
		"state": "ILLINOIS",
		"artcc": "ZAU",
		"type": "RNAV",
		"updated": "04/07/2017",
	},
	{
		"name": "BENAT",
		"latitude": "42-8-3.21 N",
		"longitude": "86-18-5.04 W",
		"state": "MICHIGAN",
		"artcc": "ZAU",
		"type": "RP",
		"updated": "ELX*VOR/DME*265.82/8.00",
	},
	{
		"name": "BENAY",
		"latitude": "40-16-5.43 N",
		"longitude": "85-45-57.21 W",
		"state": "INDIANA",
		"artcc": "ZID",
		"type": "RNAV",
		"updated": "07/30/2004",
	},
	{
		"name": "BENJO",
		"latitude": "41-53-8.45 N",
		"longitude": "85-12-33.15 W",
		"state": "MICHIGAN",
		"artcc": "ZAU",
		"type": "RP",
		"updated": "FWA*VORTAC*005.00",
	},
	{
		"name": "BENKY",
		"latitude": "41-30-42.59 N",
		"longitude": "88-42-32.46 W",
		"state": "ILLINOIS",
		"artcc": "ZAU",
		"type": "RP",
		"updated": "PNT*VOR/DME*358.53",
	},
	{
		"name": "BENNR",
		"latitude": "42-31-35.28 N",
		"longitude": "90-49-14.38 W",
		"state": "IOWA",
		"artcc": "ZAU",
		"type": "RNAV",
		"updated": "08/24/2015",
	},
	{
		"name": "BEPKE",
		"latitude": "41-47-43.92 N",
		"longitude": "88-2-12.54 W",
		"state": "ILLINOIS",
		"artcc": "ZAU",
		"type": "RNAV",
		"updated": "04/27/2010",
	},
	{
		"name": "BERNE",
		"latitude": "40-39-17.26 N",
		"longitude": "84-55-6.27 W",
		"state": "INDIANA",
		"artcc": "ZAU",
		"type": "RP",
		"updated": "FWA*VORTAC*148.00/23.00",
	},
	{
		"name": "BESIE",
		"latitude": "42-26-21.07 N",
		"longitude": "88-29-43.95 W",
		"state": "ILLINOIS",
		"artcc": "ZAU",
		"type": "RP",
		"updated": "BAE*VOR/DME*191.00/41.71",
	},
	{
		"name": "BETEL",
		"latitude": "40-42-58.59 N",
		"longitude": "85-7-37.77 W",
		"state": "INDIANA",
		"artcc": "ZAU",
		"type": "RP",
		"updated": "FWA*VORTAC*176.00/16.00",
	},
	{
		"name": "BETTA",
		"latitude": "43-2-42.23 N",
		"longitude": "87-48-40.19 W",
		"state": "WISCONSIN",
		"artcc": "ZAU",
		"type": "RNAV",
		"updated": "11/06/2013",
	},
	{
		"name": "BEUKE",
		"latitude": "40-28-3.16 N",
		"longitude": "86-22-58.87 W",
		"state": "INDIANA",
		"artcc": "ZAU",
		"type": "MR",
		"updated": "GUS*VORTAC*/15.00",
	},
	{
		"name": "BEVRE",
		"latitude": "40-58-49.84 N",
		"longitude": "86-23-2.19 W",
		"state": "INDIANA",
		"artcc": "ZAU",
		"type": "RNAV",
		"updated": "02/23/2016",
	},
	{
		"name": "BGLRI",
		"latitude": "40-14-11.54 N",
		"longitude": "86-10-39.25 W",
		"state": "INDIANA",
		"artcc": "ZAU",
		"type": "RNAV",
		"updated": "03/27/2018",
	},
	{
		"name": "BGRAY",
		"latitude": "40-36-17.69 N",
		"longitude": "89-35-31.24 W",
		"state": "ILLINOIS",
		"artcc": "ZAU",
		"type": "RNAV",
		"updated": "07/01/2013",
	},
	{
		"name": "BHAWK",
		"latitude": "42-31-6.49 N",
		"longitude": "89-46-36.81 W",
		"state": "WISCONSIN",
		"artcc": "ZAU",
		"type": "RNAV",
		"updated": "08/20/2015",
	},
	{
		"name": "BIBAC",
		"latitude": "40-34-1.1 N",
		"longitude": "85-44-11.11 W",
		"state": "INDIANA",
		"artcc": "ZAU",
		"type": "RNAV",
		"updated": "08/16/2004",
	},
	{
		"name": "BIBKE",
		"latitude": "43-16-42.19 N",
		"longitude": "85-1-42.85 W",
		"state": "MICHIGAN",
		"artcc": "ZAU",
		"type": "RNAV",
		"updated": "03/06/2014",
	},
	{
		"name": "BIBME",
		"latitude": "43-45-17.75 N",
		"longitude": "88-29-10.34 W",
		"state": "WISCONSIN",
		"artcc": "ZAU",
		"type": "RP",
		"updated": "FLD*LE*181.99/1.56",
	},
	{
		"name": "BICAB",
		"latitude": "42-20-44.26 N",
		"longitude": "91-56-46.21 W",
		"state": "IOWA",
		"artcc": "ZAU",
		"type": "RNAV",
		"updated": "01/22/2018",
	},
	{
		"name": "BICAD",
		"latitude": "40-17-0.61 N",
		"longitude": "85-39-2.74 W",
		"state": "INDIANA",
		"artcc": "ZID",
		"type": "RNAV",
		"updated": "08/16/2004",
	},
	{
		"name": "BIKBE",
		"latitude": "43-15-7.99 N",
		"longitude": "89-45-9.63 W",
		"state": "WISCONSIN",
		"artcc": "ZAU",
		"type": "RNAV",
		"updated": "10/05/2007",
	},
	{
		"name": "BIKLE",
		"latitude": "42-33-17.67 N",
		"longitude": "85-41-46.32 W",
		"state": "MICHIGAN",
		"artcc": "ZAU",
		"type": "RP",
		"updated": "PMM*VOR/DME*073.48/18.90",
	},
	{
		"name": "BILCO",
		"latitude": "42-21-35.54 N",
		"longitude": "87-57-38.63 W",
		"state": "ILLINOIS",
		"artcc": "ZAU",
		"type": "RP",
		"updated": "OBK*VOR/DME*359.26/8.31",
	},
	{
		"name": "BILOX",
		"latitude": "41-46-34.09 N",
		"longitude": "90-57-45.04 W",
		"state": "IOWA",
		"artcc": "ZAU",
		"type": "RP",
		"updated": "IOW*VOR/DME*057.00/33.09",
	},
	{
		"name": "BIRRM",
		"latitude": "40-51-33.39 N",
		"longitude": "91-58-42.39 W",
		"state": "IOWA",
		"artcc": "ZAU",
		"type": "RNAV",
		"updated": "08/08/2007",
	},
	{
		"name": "BITLE",
		"latitude": "42-56-14.79 N",
		"longitude": "90-53-2.55 W",
		"state": "WISCONSIN",
		"artcc": "ZAU",
		"type": "RNAV",
		"updated": "09/16/2002",
	},
	{
		"name": "BITTN",
		"latitude": "42-52-20.04 N",
		"longitude": "88-21-18.12 W",
		"state": "WISCONSIN",
		"artcc": "ZAU",
		"type": "RP",
		"updated": "BAE*VOR/DME*190.00/15.00",
	},
	{
		"name": "BITTR",
		"latitude": "43-7-17.68 N",
		"longitude": "85-56-38.18 W",
		"state": "MICHIGAN",
		"artcc": "ZAU",
		"type": "RP",
		"updated": "PMM*VOR/DME*010.19/39.96",
	},
	{
		"name": "BIXBY",
		"latitude": "41-47-23.58 N",
		"longitude": "89-29-57.75 W",
		"state": "ILLINOIS",
		"artcc": "ZAU",
		"type": "WP",
		"updated": "11/20/2000",
	},
	{
		"name": "BIZZE",
		"latitude": "41-37-21.16 N",
		"longitude": "87-18-20.24 W",
		"state": "INDIANA",
		"artcc": "ZAU",
		"type": "RNAV",
		"updated": "05/03/2007",
	},
	{
		"name": "BLACO",
		"latitude": "42-7-37.55 N",
		"longitude": "86-18-27.07 W",
		"state": "MICHIGAN",
		"artcc": "ZAU",
		"type": "RNAV",
		"updated": "03/30/2009",
	},
	{
		"name": "BLBBY",
		"latitude": "42-45-32.92 N",
		"longitude": "85-32-59.32 W",
		"state": "MICHIGAN",
		"artcc": "ZAU",
		"type": "RP",
		"updated": "VIO*VOR/DME*238.66/2.86",
	},
	{
		"name": "BLIMY",
		"latitude": "41-54-23.16 N",
		"longitude": "90-14-40.4 W",
		"state": "IOWA",
		"artcc": "ZAU",
		"type": "RP",
		"updated": "CVA*VORTAC*038.00/16.00",
	},
	{
		"name": "BLLUE",
		"latitude": "40-7-9.2 N",
		"longitude": "88-32-45.48 W",
		"state": "ILLINOIS",
		"artcc": "ZAU",
		"type": "RP",
		"updated": "AXC*VORTAC*028.95/27.00",
	},
	{
		"name": "BLOKR",
		"latitude": "41-14-59 N",
		"longitude": "88-5-0 W",
		"state": "ILLINOIS",
		"artcc": "ZAU",
		"type": "RNAV",
		"updated": "11/19/2012",
	},
	{
		"name": "BLUTO",
		"latitude": "41-58-7.66 N",
		"longitude": "87-26-30.93 W",
		"state": "ILLINOIS",
		"artcc": "ZAU",
		"type": "RP",
		"updated": "DPA*VOR/DME*081.10/40.95",
	},
	{
		"name": "BNITO",
		"latitude": "41-57-21.37 N",
		"longitude": "88-18-5.19 W",
		"state": "ILLINOIS",
		"artcc": "ZAU",
		"type": "RP",
		"updated": "IZJ*LD*273.87/18.29",
	},
	{
		"name": "BOBBB",
		"latitude": "41-36-59.46 N",
		"longitude": "88-20-35.24 W",
		"state": "ILLINOIS",
		"artcc": "ZAU",
		"type": "RP",
		"updated": "DPA*VOR/DME*176.89",
	},
	{
		"name": "BOCAL",
		"latitude": "40-22-10.78 N",
		"longitude": "85-56-19.7 W",
		"state": "INDIANA",
		"artcc": "ZAU",
		"type": "RNAV",
		"updated": "07/30/2004",
	},
	{
		"name": "BOCAY",
		"latitude": "43-12-46.69 N",
		"longitude": "90-6-20.77 W",
		"state": "WISCONSIN",
		"artcc": "ZAU",
		"type": "RP",
		"updated": "LNR*VOR/DME*166.18",
	},
	{
		"name": "BOCCI",
		"latitude": "43-1-6.77 N",
		"longitude": "87-44-21.88 W",
		"state": "WISCONSIN",
		"artcc": "ZAU",
		"type": "RNAV",
		"updated": "11/06/2013",
	},
	{
		"name": "BOCIJ",
		"latitude": "42-38-13.6 N",
		"longitude": "87-49-13.44 W",
		"state": "WISCONSIN",
		"artcc": "ZAU",
		"type": "RNAV",
		"updated": "06/22/2009",
	},
	{
		"name": "BODVE",
		"latitude": "41-55-37.61 N",
		"longitude": "88-42-25.32 W",
		"state": "ILLINOIS",
		"artcc": "ZAU",
		"type": "RP",
		"updated": "DJK*LD*SW CRS/1.03",
	},
	{
		"name": "BOHRR",
		"latitude": "42-35-16.53 N",
		"longitude": "85-26-5.87 W",
		"state": "MICHIGAN",
		"artcc": "ZAU",
		"type": "RP",
		"updated": "VIO*VOR/DME*171.00/12.24",
	},
	{
		"name": "BOJAK",
		"latitude": "41-39-30.31 N",
		"longitude": "87-57-53.21 W",
		"state": "ILLINOIS",
		"artcc": "ZAU",
		"type": "RP",
		"updated": "RBS*VOR/DME*005.91/65.20",
	},
	{
		"name": "BOJOE",
		"latitude": "40-32-21.56 N",
		"longitude": "89-9-42.55 W",
		"state": "ILLINOIS",
		"artcc": "ZAU",
		"type": "RP",
		"updated": "BMI*VOR/DME*285.47/11.12",
	},
	{
		"name": "BOLRR",
		"latitude": "40-33-22.03 N",
		"longitude": "87-4-9.55 W",
		"state": "INDIANA",
		"artcc": "ZAU",
		"type": "WP",
		"updated": "11/02/1998",
	},
	{
		"name": "BOMER",
		"latitude": "41-42-42.07 N",
		"longitude": "88-18-51.34 W",
		"state": "ILLINOIS",
		"artcc": "ZAU",
		"type": "RP",
		"updated": "JOT*VOR/DME*359.08/9.91",
	},
	{
		"name": "BONOT",
		"latitude": "42-52-18.18 N",
		"longitude": "88-11-32.31 W",
		"state": "WISCONSIN",
		"artcc": "ZAU",
		"type": "RP",
		"updated": "BAE*VOR/DME*162.56/15.25",
	},
	{
		"name": "BONOY",
		"latitude": "40-30-24.11 N",
		"longitude": "86-1-16.88 W",
		"state": "INDIANA",
		"artcc": "ZAU",
		"type": "RP",
		"updated": "OKK*VORTAC*132.00/2.10",
	},
	{
		"name": "BONZO",
		"latitude": "42-0-9 N",
		"longitude": "87-39-8.44 W",
		"state": "ILLINOIS",
		"artcc": "ZAU",
		"type": "RP",
		"updated": "OBK*VOR/DME*132.39",
	},
	{
		"name": "BOOKK",
		"latitude": "40-42-15.65 N",
		"longitude": "90-18-47 W",
		"state": "ILLINOIS",
		"artcc": "ZAU",
		"type": "RNAV",
		"updated": "05/06/2013",
	},
	{
		"name": "BOONE",
		"latitude": "41-21-49.53 N",
		"longitude": "87-11-31.73 W",
		"state": "INDIANA",
		"artcc": "ZAU",
		"type": "RP",
		"updated": "IKK*VOR/DME*059.57",
	},
	{
		"name": "BOOTE",
		"latitude": "41-45-58.69 N",
		"longitude": "86-38-22.27 W",
		"state": "INDIANA",
		"artcc": "ZAU",
		"type": "RNAV",
		"updated": "04/10/2007",
	},
	{
		"name": "BOOTR",
		"latitude": "41-57-22.56 N",
		"longitude": "88-13-52.29 W",
		"state": "ILLINOIS",
		"artcc": "ZAU",
		"type": "RP",
		"updated": "IZJ*LD*273.87/15.15",
	},
	{
		"name": "BOPIJ",
		"latitude": "41-23-0.38 N",
		"longitude": "86-41-2.03 W",
		"state": "INDIANA",
		"artcc": "ZAU",
		"type": "RP",
		"updated": "OXI*VOR/DME*337.00/4.00",
	},
	{
		"name": "BOSSY",
		"latitude": "40-38-47.74 N",
		"longitude": "87-21-23.97 W",
		"state": "INDIANA",
		"artcc": "ZAU",
		"type": "RP",
		"updated": "EON*VORTAC*150.00/42.26",
	},
	{
		"name": "BOSWL",
		"latitude": "40-33-44.42 N",
		"longitude": "87-17-55.08 W",
		"state": "INDIANA",
		"artcc": "ZAU",
		"type": "RP",
		"updated": "EON*VORTAC*150.00/47.96",
	},
	{
		"name": "BOTIW",
		"latitude": "41-39-34.09 N",
		"longitude": "86-41-30.55 W",
		"state": "INDIANA",
		"artcc": "ZAU",
		"type": "RNAV",
		"updated": "07/30/2013",
	},
	{
		"name": "BOVME",
		"latitude": "40-28-40.66 N",
		"longitude": "89-33-4.48 W",
		"state": "ILLINOIS",
		"artcc": "ZAU",
		"type": "RNAV",
		"updated": "08/24/2005",
	},
	{
		"name": "BOWZO",
		"latitude": "42-35-27 N",
		"longitude": "87-27-48 W",
		"state": "WISCONSIN",
		"artcc": "ZAU",
		"type": "RP",
		"updated": "OBK*VOR/DME*046.26/31.02",
	},
	{
		"name": "BOZOS",
		"latitude": "41-2-23.56 N",
		"longitude": "86-14-2.4 W",
		"state": "INDIANA",
		"artcc": "ZAU",
		"type": "RNAV",
		"updated": "05/16/2016",
	},
	{
		"name": "BRAIK",
		"latitude": "42-10-58.85 N",
		"longitude": "87-21-45.3 W",
		"state": "ILLINOIS",
		"artcc": "ZAU",
		"type": "RP",
		"updated": "OBK*VOR/DME*096.82/26.38",
	},
	{
		"name": "BRANS",
		"latitude": "43-10-37.76 N",
		"longitude": "87-41-45.45 W",
		"state": "WISCONSIN",
		"artcc": "ZAU",
		"type": "RNAV",
		"updated": "09/08/2011",
	},
	{
		"name": "BRATN",
		"latitude": "40-8-13.78 N",
		"longitude": "86-7-45.44 W",
		"state": "INDIANA",
		"artcc": "ZAU",
		"type": "RP",
		"updated": "MZZ*VOR/DME*227.19/29.71",
	},
	{
		"name": "BRAVE",
		"latitude": "42-41-55.17 N",
		"longitude": "87-20-57.63 W",
		"state": "WISCONSIN",
		"artcc": "ZAU",
		"type": "RP",
		"updated": "BAE*VOR/DME*119.00/48.26",
	},
	{
		"name": "BRBIE",
		"latitude": "41-39-3 N",
		"longitude": "88-1-21.94 W",
		"state": "ILLINOIS",
		"artcc": "ZAU",
		"type": "RNAV",
		"updated": "01/26/2015",
	},
	{
		"name": "BREWR",
		"latitude": "41-52-48.18 N",
		"longitude": "87-17-12.58 W",
		"state": "INDIANA",
		"artcc": "ZAU",
		"type": "RNAV",
		"updated": "09/08/2004",
	},
	{
		"name": "BRIBE",
		"latitude": "42-47-54 N",
		"longitude": "89-56-25.3 W",
		"state": "WISCONSIN",
		"artcc": "ZAU",
		"type": "RP",
		"updated": "DBQ*VORTAC*050.79",
	},
	{
		"name": "BRIDY",
		"latitude": "42-13-36.15 N",
		"longitude": "93-7-11.11 W",
		"state": "IOWA",
		"artcc": "ZAU",
		"type": "RNAV",
		"updated": "08/25/2014",
	},
	{
		"name": "BRIER",
		"latitude": "41-29-9.88 N",
		"longitude": "85-27-12.38 W",
		"state": "INDIANA",
		"artcc": "ZAU",
		"type": "RNAV",
		"updated": "05/05/2016",
	},
	{
		"name": "BRIMM",
		"latitude": "40-28-18.53 N",
		"longitude": "86-8-1.03 W",
		"state": "INDIANA",
		"artcc": "ZAU",
		"type": "RNAV",
		"updated": "05/17/2016",
	},
	{
		"name": "BRIZE",
		"latitude": "41-56-1.91 N",
		"longitude": "89-19-39.92 W",
		"state": "ILLINOIS",
		"artcc": "ZAU",
		"type": "RP",
		"updated": "RFD*VOR/DME*197.21",
	},
	{
		"name": "BRONZ",
		"latitude": "42-20-2.43 N",
		"longitude": "85-39-31.79 W",
		"state": "MICHIGAN",
		"artcc": "ZAU",
		"type": "RP",
		"updated": "PMM*VOR/DME*111.62/21.35",
	},
	{
		"name": "BROOG",
		"latitude": "40-16-56.24 N",
		"longitude": "86-2-27.43 W",
		"state": "INDIANA",
		"artcc": "ZAU",
		"type": "RNAV",
		"updated": "02/09/2018",
	},
	{
		"name": "BROTS",
		"latitude": "43-3-13.45 N",
		"longitude": "88-4-55.77 W",
		"state": "WISCONSIN",
		"artcc": "ZAU",
		"type": "RP",
		"updated": "BAE*VOR/DME*111.00",
	},
	{
		"name": "BRTMN",
		"latitude": "42-28-25.81 N",
		"longitude": "87-48-18.76 W",
		"state": "ILLINOIS",
		"artcc": "ZAU",
		"type": "RNAV",
		"updated": "05/06/2013",
	},
	{
		"name": "BRUNE",
		"latitude": "40-36-40.88 N",
		"longitude": "89-58-4.83 W",
		"state": "ILLINOIS",
		"artcc": "ZAU",
		"type": "RP",
		"updated": "PIA*VORTAC*238.81/9.00",
	},
	{
		"name": "BRYTO",
		"latitude": "41-44-30.25 N",
		"longitude": "85-18-47.66 W",
		"state": "INDIANA",
		"artcc": "ZAU",
		"type": "RP",
		"updated": "FWA*VORTAC*358.99",
	},
	{
		"name": "BSPRO",
		"latitude": "40-21-22.68 N",
		"longitude": "86-2-55.2 W",
		"state": "INDIANA",
		"artcc": "ZAU",
		"type": "RNAV",
		"updated": "04/26/2016",
	},
	{
		"name": "BTKUS",
		"latitude": "41-48-31.06 N",
		"longitude": "88-4-13.37 W",
		"state": "ILLINOIS",
		"artcc": "ZAU",
		"type": "RNAV",
		"updated": "05/25/2012",
	},
	{
		"name": "BUBEE",
		"latitude": "41-32-33.21 N",
		"longitude": "90-39-41.15 W",
		"state": "IOWA",
		"artcc": "ZAU",
		"type": "RP",
		"updated": "CVA*VORTAC*214.90/12.78",
	},
	{
		"name": "BUBLE",
		"latitude": "40-11-13.3 N",
		"longitude": "87-51-19.36 W",
		"state": "ILLINOIS",
		"artcc": "ZAU",
		"type": "RP",
		"updated": "RBS*VOR/DME*147.00",
	},
	{
		"name": "BUCGA",
		"latitude": "41-31-30.23 N",
		"longitude": "85-57-22.18 W",
		"state": "INDIANA",
		"artcc": "ZAU",
		"type": "RNAV",
		"updated": "05/25/2005",
	},
	{
		"name": "BUCKA",
		"latitude": "41-42-29.21 N",
		"longitude": "91-17-17.57 W",
		"state": "IOWA",
		"artcc": "ZAU",
		"type": "RNAV",
		"updated": "11/25/2008",
	},
	{
		"name": "BUCLA",
		"latitude": "40-49-22.69 N",
		"longitude": "88-50-28.41 W",
		"state": "ILLINOIS",
		"artcc": "ZAU",
		"type": "RNAV",
		"updated": "05/28/2008",
	},
	{
		"name": "BUCRA",
		"latitude": "40-31-53.99 N",
		"longitude": "85-43-17.06 W",
		"state": "INDIANA",
		"artcc": "ZAU",
		"type": "RP",
		"updated": "MZZ*VOR/DME*323.00/3.00",
	},
	{
		"name": "BUFAL",
		"latitude": "41-21-54.91 N",
		"longitude": "90-51-6.42 W",
		"state": "ILLINOIS",
		"artcc": "ZAU",
		"type": "RP",
		"updated": "MZV*VOR/DME*280.47/10.01",
	},
	{
		"name": "BUFFO",
		"latitude": "40-53-9.7 N",
		"longitude": "86-43-41.87 W",
		"state": "INDIANA",
		"artcc": "ZAU",
		"type": "MR",
		"updated": "GUS*VORTAC*301.00/30.00",
	},
	{
		"name": "BUFOR",
		"latitude": "41-59-36.76 N",
		"longitude": "86-19-4.76 W",
		"state": "MICHIGAN",
		"artcc": "ZAU",
		"type": "WP",
		"updated": "ELX*VOR/DME*224.00/12.60",
	},
	{
		"name": "BUGSE",
		"latitude": "41-58-7.47 N",
		"longitude": "88-2-30.57 W",
		"state": "ILLINOIS",
		"artcc": "ZAU",
		"type": "RP",
		"updated": "OBK*VOR/DME*196.92",
	},
	{
		"name": "BUKKE",
		"latitude": "43-7-34.39 N",
		"longitude": "89-26-4.71 W",
		"state": "WISCONSIN",
		"artcc": "ZAU",
		"type": "RP",
		"updated": "11/14/1994",
	},
	{
		"name": "BULLY",
		"latitude": "43-3-17.67 N",
		"longitude": "86-30-54.09 W",
		"state": "MICHIGAN",
		"artcc": "ZAU",
		"type": "RNAV",
		"updated": "04/19/2018",
	},
	{
		"name": "BULLZ",
		"latitude": "42-27-27.26 N",
		"longitude": "88-46-16.67 W",
		"state": "ILLINOIS",
		"artcc": "ZAU",
		"type": "RP",
		"updated": "RFD*VOR/DME*052.70",
	},
	{
		"name": "BUMRE",
		"latitude": "42-54-2.4 N",
		"longitude": "87-44-44.56 W",
		"state": "WISCONSIN",
		"artcc": "ZAU",
		"type": "RNAV",
		"updated": "11/06/2013",
	},
	{
		"name": "BURKE",
		"latitude": "41-58-2.46 N",
		"longitude": "88-22-17.42 W",
		"state": "ILLINOIS",
		"artcc": "ZAU",
		"type": "RP",
		"updated": "MED*LD*272.86/22.08",
	},
	{
		"name": "BURKK",
		"latitude": "40-58-8.8 N",
		"longitude": "91-13-51.29 W",
		"state": "IOWA",
		"artcc": "ZAU",
		"type": "RP",
		"updated": "BDF*VORTAC*261.83/75.44",
	},
	{
		"name": "BURLI",
		"latitude": "40-29-1.79 N",
		"longitude": "86-24-9.7 W",
		"state": "INDIANA",
		"artcc": "ZAU",
		"type": "MR",
		"updated": "GUS*VORTAC*230.00/15.00",
	},
	{
		"name": "BURNN",
		"latitude": "43-27-34.35 N",
		"longitude": "88-40-47.51 W",
		"state": "WISCONSIN",
		"artcc": "ZAU",
		"type": "RP",
		"updated": "BAE*VOR/DME*318.00/26.89",
	},
	{
		"name": "BURNS",
		"latitude": "40-39-15.35 N",
		"longitude": "91-7-22.82 W",
		"state": "ILLINOIS",
		"artcc": "ZAU",
		"type": "RP",
		"updated": "BRL*VOR/DME*240.27",
	},
	{
		"name": "BURRA",
		"latitude": "41-51-50.18 N",
		"longitude": "85-20-43.46 W",
		"state": "MICHIGAN",
		"artcc": "ZAU",
		"type": "RP",
		"updated": "IRS*NDB*056.43",
	},
	{
		"name": "BURUU",
		"latitude": "40-32-26.41 N",
		"longitude": "90-10-4.41 W",
		"state": "ILLINOIS",
		"artcc": "ZAU",
		"type": "RNAV",
		"updated": "05/06/2013",
	},
	{
		"name": "BUSSE",
		"latitude": "43-35-8.47 N",
		"longitude": "88-40-40.99 W",
		"state": "WISCONSIN",
		"artcc": "ZAU",
		"type": "RNAV",
		"updated": "08/20/2015",
	},
	{
		"name": "BUSSY",
		"latitude": "41-11-42.84 N",
		"longitude": "92-51-21.25 W",
		"state": "IOWA",
		"artcc": "ZAU",
		"type": "RP",
		"updated": "TNU*VOR/DME*159.00",
	},
	{
		"name": "BXCNB",
		"latitude": "42-6-54.02 N",
		"longitude": "89-20-25.03 W",
		"state": "ILLINOIS",
		"artcc": "ZAU",
		"type": "CN",
		"updated": "11/12/2010",
	},
	{
		"name": "BYLAW",
		"latitude": "41-16-48.9 N",
		"longitude": "89-17-27.51 W",
		"state": "ILLINOIS",
		"artcc": "ZAU",
		"type": "RNAV",
		"updated": "08/19/2015",
	},
