	{
		"name": "CABAC",
		"latitude": "40-51-16.71 N",
		"longitude": "85-1-9.58 W",
		"state": "INDIANA",
		"artcc": "ZAU",
		"type": "RNAV",
		"updated": "10/27/2004",
	},
	{
		"name": "CABIG",
		"latitude": "43-12-49.33 N",
		"longitude": "89-53-56.48 W",
		"state": "WISCONSIN",
		"artcc": "ZAU",
		"type": "RNAV",
		"updated": "04/16/2008",
	},
	{
		"name": "CABIJ",
		"latitude": "41-53-18.03 N",
		"longitude": "87-36-36.85 W",
		"state": "ILLINOIS",
		"artcc": "ZAU",
		"type": "RNAV",
		"updated": "08/27/2013",
	},
	{
		"name": "CABIR",
		"latitude": "43-2-15.88 N",
		"longitude": "86-11-42.86 W",
		"state": "MICHIGAN",
		"artcc": "ZAU",
		"type": "RP",
		"updated": "MKG*VORTAC*222.00/10.45",
	},
	{
		"name": "CADIM",
		"latitude": "42-37-3.56 N",
		"longitude": "85-15-1.46 W",
		"state": "MICHIGAN",
		"artcc": "ZAU",
		"type": "RNAV",
		"updated": "02/15/2018",
	},
	{
		"name": "CADIZ",
		"latitude": "41-10-3.99 N",
		"longitude": "87-23-15.77 W",
		"state": "INDIANA",
		"artcc": "ZAU",
		"type": "RP",
		"updated": "BDF*VORTAC*089.00/99.70",
	},
	{
		"name": "CADON",
		"latitude": "41-39-6.58 N",
		"longitude": "87-55-12.63 W",
		"state": "ILLINOIS",
		"artcc": "ZAU",
		"type": "RP",
		"updated": "CGT*VORTAC*296.56",
	},
	{
		"name": "CADRO",
		"latitude": "40-21-22.68 N",
		"longitude": "86-13-23.08 W",
		"state": "INDIANA",
		"artcc": "ZAU",
		"type": "RNAV",
		"updated": "04/26/2016",
	},
	{
		"name": "CADVU",
		"latitude": "43-41-46.87 N",
		"longitude": "88-29-0.14 W",
		"state": "WISCONSIN",
		"artcc": "ZAU",
		"type": "RP",
		"updated": "FLD*LE*181.99/5.08",
	},
	{
		"name": "CAGRA",
		"latitude": "42-17-42.75 N",
		"longitude": "89-4-37.61 W",
		"state": "ILLINOIS",
		"artcc": "ZAU",
		"type": "RNAV",
		"updated": "01/22/2014",
	},
	{
		"name": "CAKBA",
		"latitude": "43-58-35.1 N",
		"longitude": "88-25-7.69 W",
		"state": "WISCONSIN",
		"artcc": "ZAU",
		"type": "RP",
		"updated": "OSH*VORTAC*096.00/6.00",
	},
	{
		"name": "CAKIM",
		"latitude": "43-49-49.26 N",
		"longitude": "90-11-52.79 W",
		"state": "WISCONSIN",
		"artcc": "ZAU",
		"type": "RNAV",
		"updated": "04/19/2017",
	},
	{
		"name": "CAKOS",
		"latitude": "41-57-26.54 N",
		"longitude": "87-39-8.5 W",
		"state": "ILLINOIS",
		"artcc": "ZAU",
		"type": "RP",
		"updated": "VQX*LD*093.88/10.77",
	},
	{
		"name": "CAKVO",
		"latitude": "41-36-26.65 N",
		"longitude": "88-7-33.86 W",
		"state": "ILLINOIS",
		"artcc": "ZAU",
		"type": "RNAV",
		"updated": "01/30/2017",
	},
	{
		"name": "CALDO",
		"latitude": "42-47-11.3 N",
		"longitude": "85-29-52.31 W",
		"state": "MICHIGAN",
		"artcc": "ZAU",
		"type": "RP",
		"updated": "DVS*LS*177.31",
	},
	{
		"name": "CAMLI",
		"latitude": "41-25-15.13 N",
		"longitude": "88-9-31.64 W",
		"state": "ILLINOIS",
		"artcc": "ZAU",
		"type": "RNAV",
		"updated": "04/27/2010",
	},
	{
		"name": "CANDO",
		"latitude": "40-48-31.54 N",
		"longitude": "86-24-0.66 W",
		"state": "INDIANA",
		"artcc": "ZAU",
		"type": "MR",
		"updated": "GUS*VORTAC*313.00/15.00",
	},
	{
		"name": "CANKA",
		"latitude": "41-37-27.35 N",
		"longitude": "86-47-9.51 W",
		"state": "INDIANA",
		"artcc": "ZAU",
		"type": "RNAV",
		"updated": "11/18/2016",
	},
	{
		"name": "CANUL",
		"latitude": "43-36-36.47 N",
		"longitude": "88-15-14.81 W",
		"state": "WISCONSIN",
		"artcc": "ZAU",
		"type": "RP",
		"updated": "BAE*VOR/DME*000.55/29.62",
	},
	{
		"name": "CANUT",
		"latitude": "40-21-20.53 N",
		"longitude": "90-13-56.53 W",
		"state": "ILLINOIS",
		"artcc": "ZAU",
		"type": "RNAV",
		"updated": "01/08/2013",
	},
	{
		"name": "CAPIM",
		"latitude": "41-40-7.7 N",
		"longitude": "86-3-0.21 W",
		"state": "INDIANA",
		"artcc": "ZAU",
		"type": "RNAV",
		"updated": "11/18/2016",
	},
	{
		"name": "CAPPR",
		"latitude": "42-13-4.76 N",
		"longitude": "92-25-36.51 W",
		"state": "IOWA",
		"artcc": "ZAU",
		"type": "RP",
		"updated": "DBQ*VORTAC*258.39/77.26",
	},
	{
		"name": "CAPTL",
		"latitude": "43-5-22.38 N",
		"longitude": "89-26-1.56 W",
		"state": "WISCONSIN",
		"artcc": "ZAU",
		"type": "RP",
		"updated": "11/14/1994",
	},
	{
		"name": "CAPUD",
		"latitude": "43-35-43.85 N",
		"longitude": "89-29-5.64 W",
		"state": "WISCONSIN",
		"artcc": "ZAU",
		"type": "RNAV",
		"updated": "01/12/2017",
	},
	{
		"name": "CARET",
		"latitude": "40-47-0 N",
		"longitude": "91-31-0 W",
		"state": "IOWA",
		"artcc": "ZAU",
		"type": "RNAV",
		"updated": "08/26/2013",
	},
	{
		"name": "CARKS",
		"latitude": "41-1-32.84 N",
		"longitude": "86-0-21.2 W",
		"state": "INDIANA",
		"artcc": "ZAU",
		"type": "RNAV",
		"updated": "05/16/2016",
	},
	{
		"name": "CARLE",
		"latitude": "41-58-6.05 N",
		"longitude": "88-9-40.74 W",
		"state": "ILLINOIS",
		"artcc": "ZAU",
		"type": "RP",
		"updated": "MED*LD*272.86/12.67",
	},
	{
		"name": "CARNA",
		"latitude": "43-7-49.33 N",
		"longitude": "87-51-8.5 W",
		"state": "WISCONSIN",
		"artcc": "ZAU",
		"type": "RP",
		"updated": "BAE*VOR/DME*085.00/19.00",
	},
	{
		"name": "CARVR",
		"latitude": "41-0-1.8 N",
		"longitude": "85-32-51 W",
		"state": "INDIANA",
		"artcc": "ZAU",
		"type": "RNAV",
		"updated": "08/28/2013",
	},
	{
		"name": "CARYN",
		"latitude": "41-14-59 N",
		"longitude": "87-53-33 W",
		"state": "ILLINOIS",
		"artcc": "ZAU",
		"type": "RNAV",
		"updated": "11/19/2012",
	},
	{
		"name": "CASHO",
		"latitude": "41-55-42.1 N",
		"longitude": "88-57-42.16 W",
		"state": "ILLINOIS",
		"artcc": "ZAU",
		"type": "RNAV",
		"updated": "08/07/2008",
	},
	{
		"name": "CASIP",
		"latitude": "40-32-41.58 N",
		"longitude": "89-29-9.81 W",
		"state": "ILLINOIS",
		"artcc": "ZAU",
		"type": "RNAV",
		"updated": "08/24/2005",
	},
	{
		"name": "CASSY",
		"latitude": "42-44-40.73 N",
		"longitude": "91-1-44.86 W",
		"state": "WISCONSIN",
		"artcc": "ZAU",
		"type": "RP",
		"updated": "LNR*VOR/DME*230.40",
	},
	{
		"name": "CATER",
		"latitude": "41-39-3 N",
		"longitude": "87-50-23 W",
		"state": "ILLINOIS",
		"artcc": "ZAU",
		"type": "RNAV",
		"updated": "11/19/2012",
	},
	{
		"name": "CATLI",
		"latitude": "42-1-1.58 N",
		"longitude": "84-49-27.4 W",
		"state": "MICHIGAN",
		"artcc": "ZOB",
		"type": "RNAV",
		"updated": "02/20/2008",
	},
	{
		"name": "CAVAT",
		"latitude": "40-9-26.56 N",
		"longitude": "87-36-54.17 W",
		"state": "ILLINOIS",
		"artcc": "ZAU",
		"type": "RP",
		"updated": "DNV*VORTAC*196.03/8.60",
	},
	{
		"name": "CAVEX",
		"latitude": "43-5-55.87 N",
		"longitude": "89-24-44.81 W",
		"state": "WISCONSIN",
		"artcc": "ZAU",
		"type": "RNAV",
		"updated": "03/23/2009",
	},
	{
		"name": "CAVUS",
		"latitude": "42-53-42.49 N",
		"longitude": "85-22-36.39 W",
		"state": "MICHIGAN",
		"artcc": "ZAU",
		"type": "RNAV",
		"updated": "05/21/2009",
	},
	{
		"name": "CAXED",
		"latitude": "42-6-50.76 N",
		"longitude": "88-17-42.63 W",
		"state": "ILLINOIS",
		"artcc": "ZAU",
		"type": "RNAV",
		"updated": "10/24/2007",
	},
	{
		"name": "CAXEV",
		"latitude": "40-16-20.05 N",
		"longitude": "86-17-21.11 W",
		"state": "INDIANA",
		"artcc": "ZAU",
		"type": "RNAV",
		"updated": "07/10/2013",
	},
	{
		"name": "CAXOG",
		"latitude": "40-45-47.88 N",
		"longitude": "85-32-43.9 W",
		"state": "INDIANA",
		"artcc": "ZAU",
		"type": "RNAV",
		"updated": "03/22/2006",
	},
	{
		"name": "CAXUS",
		"latitude": "42-7-37.59 N",
		"longitude": "86-18-20.75 W",
		"state": "MICHIGAN",
		"artcc": "ZAU",
		"type": "RNAV",
		"updated": "11/07/2011",
	},
	{
		"name": "CEAST",
		"latitude": "40-42-36.72 N",
		"longitude": "86-29-36.58 W",
		"state": "INDIANA",
		"artcc": "ZAU",
		"type": "RNAV",
		"updated": "03/18/2011",
	},
	{
		"name": "CEBLU",
		"latitude": "43-18-39.26 N",
		"longitude": "90-27-28.56 W",
		"state": "WISCONSIN",
		"artcc": "ZAU",
		"type": "RNAV",
		"updated": "04/16/2008",
	},
	{
		"name": "CEBMU",
		"latitude": "44-4-35.28 N",
		"longitude": "88-49-42 W",
		"state": "WISCONSIN",
		"artcc": "ZAU",
		"type": "RNAV",
		"updated": "04/06/2012",
	},
	{
		"name": "CEBTU",
		"latitude": "42-48-34.28 N",
		"longitude": "88-55-45.93 W",
		"state": "WISCONSIN",
		"artcc": "ZAU",
		"type": "RNAV",
		"updated": "03/19/2003",
	},
	{
		"name": "CECOF",
		"latitude": "43-8-6.95 N",
		"longitude": "85-8-11.45 W",
		"state": "MICHIGAN",
		"artcc": "ZAU",
		"type": "RNAV",
		"updated": "04/17/2018",
	},
	{
		"name": "CEDAC",
		"latitude": "42-43-29.17 N",
		"longitude": "86-14-30.92 W",
		"state": "MICHIGAN",
		"artcc": "ZAU",
		"type": "RNAV",
		"updated": "07/04/2011",
	},
	{
		"name": "CEDOB",
		"latitude": "41-31-32.62 N",
		"longitude": "85-45-0.58 W",
		"state": "INDIANA",
		"artcc": "ZAU",
		"type": "RP",
		"updated": "GSH*VORTAC*/12.52",
	},
	{
		"name": "CEGEG",
		"latitude": "40-34-26.93 N",
		"longitude": "86-21-48.47 W",
		"state": "INDIANA",
		"artcc": "ZAU",
		"type": "RNAV",
		"updated": "08/02/2013",
	},
	{
		"name": "CEGNU",
		"latitude": "42-38-21.5 N",
		"longitude": "91-57-0.44 W",
		"state": "IOWA",
		"artcc": "ZAU",
		"type": "RNAV",
		"updated": "01/22/2018",
	},
	{
		"name": "CEGOL",
		"latitude": "42-5-31.31 N",
		"longitude": "84-52-23.98 W",
		"state": "MICHIGAN",
		"artcc": "ZOB",
		"type": "RNAV",
		"updated": "02/20/2008",
	},
	{
		"name": "CEGOM",
		"latitude": "43-14-31.01 N",
		"longitude": "90-9-49.34 W",
		"state": "WISCONSIN",
		"artcc": "ZAU",
		"type": "RP",
		"updated": "LNR*VOR/DME*203.07/3.42",
	},
	{
		"name": "CEGRA",
		"latitude": "40-52-38.26 N",
		"longitude": "88-43-30.41 W",
		"state": "ILLINOIS",
		"artcc": "ZAU",
		"type": "RNAV",
		"updated": "05/28/2008",
	},
	{
		"name": "CEILI",
		"latitude": "41-5-32.52 N",
		"longitude": "86-39-12.78 W",
		"state": "INDIANA",
		"artcc": "ZAU",
		"type": "RNAV",
		"updated": "02/23/2016",
	},
	{
		"name": "CEKDO",
		"latitude": "43-12-46.79 N",
		"longitude": "90-6-0.15 W",
		"state": "WISCONSIN",
		"artcc": "ZAU",
		"type": "RNAV",
		"updated": "04/16/2008",
	},
	{
		"name": "CEKEP",
		"latitude": "43-59-32.66 N",
		"longitude": "88-41-30.96 W",
		"state": "WISCONSIN",
		"artcc": "ZAU",
		"type": "RNAV",
		"updated": "07/12/2013",
	},
	{
		"name": "CEKMU",
		"latitude": "41-54-13.89 N",
		"longitude": "86-1-39.58 W",
		"state": "MICHIGAN",
		"artcc": "ZAU",
		"type": "RNAV",
		"updated": "03/22/2006",
	},
	{
		"name": "CELMO",
		"latitude": "41-57-21.08 N",
		"longitude": "85-0-9.11 W",
		"state": "MICHIGAN",
		"artcc": "ZAU",
		"type": "RP",
		"updated": "LFD*VOR/DME*244.02/12.40",
	},
	{
		"name": "CELRI",
		"latitude": "43-4-21.63 N",
		"longitude": "91-11-11.3 W",
		"state": "WISCONSIN",
		"artcc": "ZAU",
		"type": "RNAV",
		"updated": "09/16/2002",
	},
	{
		"name": "CEMAX",
		"latitude": "42-50-46.57 N",
		"longitude": "88-6-22.19 W",
		"state": "WISCONSIN",
		"artcc": "ZAU",
		"type": "RNAV",
		"updated": "11/06/2013",
	},
	{
		"name": "CENAK",
		"latitude": "41-59-46 N",
		"longitude": "86-58-31 W",
		"state": "MICHIGAN",
		"artcc": "ZAU",
		"type": "RNAV",
		"updated": "09/30/2008",
	},
	{
		"name": "CENAP",
		"latitude": "41-45-42.86 N",
		"longitude": "87-42-54.83 W",
		"state": "ILLINOIS",
		"artcc": "ZAU",
		"type": "RNAV",
		"updated": "09/25/2002",
	},
	{
		"name": "CENTI",
		"latitude": "43-39-58.17 N",
		"longitude": "88-26-56.82 W",
		"state": "WISCONSIN",
		"artcc": "ZAU",
		"type": "RP",
		"updated": "OSH*VORTAC*164.55/20.00",
	},
	{
		"name": "CEPOT",
		"latitude": "40-44-6.8 N",
		"longitude": "89-36-33.84 W",
		"state": "ILLINOIS",
		"artcc": "ZAU",
		"type": "RNAV",
		"updated": "05/30/2001",
	},
	{
		"name": "CEPUX",
		"latitude": "41-3-7.35 N",
		"longitude": "92-51-26.57 W",
		"state": "IOWA",
		"artcc": "ZAU",
		"type": "RNAV",
		"updated": "06/24/2013",
	},
	{
		"name": "CERIG",
		"latitude": "42-45-50.88 N",
		"longitude": "90-11-5.32 W",
		"state": "WISCONSIN",
		"artcc": "ZAU",
		"type": "RNAV",
		"updated": "06/28/2009",
	},
	{
		"name": "CERTO",
		"latitude": "43-7-50.12 N",
		"longitude": "89-40-3.9 W",
		"state": "WISCONSIN",
		"artcc": "ZAU",
		"type": "RP",
		"updated": "CFQ*LE*W CRS/6.49",
	},
	{
		"name": "CESBO",
		"latitude": "41-50-44.68 N",
		"longitude": "88-27-43.17 W",
		"state": "ILLINOIS",
		"artcc": "ZAU",
		"type": "RNAV",
		"updated": "08/07/2008",
	},
	{
		"name": "CETAN",
		"latitude": "41-52-50.97 N",
		"longitude": "88-43-44.28 W",
		"state": "ILLINOIS",
		"artcc": "ZAU",
		"type": "RP",
		"updated": "DJK*LD*201.50/4.30",
	},
	{
		"name": "CETEM",
		"latitude": "40-54-50.72 N",
		"longitude": "87-10-52.72 W",
		"state": "INDIANA",
		"artcc": "ZAU",
		"type": "RNAV",
		"updated": "03/27/2012",
	},
	{
		"name": "CETMI",
		"latitude": "40-47-14.76 N",
		"longitude": "89-41-55.62 W",
		"state": "ILLINOIS",
		"artcc": "ZAU",
		"type": "RNAV",
		"updated": "04/24/2018",
	},
	{
		"name": "CETOL",
		"latitude": "43-59-30.81 N",
		"longitude": "88-36-57.33 W",
		"state": "WISCONSIN",
		"artcc": "ZAU",
		"type": "RP",
		"updated": "OSH*VORTAC*269.95/2.60",
	},
	{
		"name": "CETRU",
		"latitude": "40-21-12.24 N",
		"longitude": "90-4-47.25 W",
		"state": "ILLINOIS",
		"artcc": "ZAU",
		"type": "RNAV",
		"updated": "01/08/2013",
	},
	{
		"name": "CEVSA",
		"latitude": "42-55-49.02 N",
		"longitude": "87-38-9.68 W",
		"state": "WISCONSIN",
		"artcc": "ZAU",
		"type": "RP",
		"updated": "08/06/2003",
	},
	{
		"name": "CEWUF",
		"latitude": "42-51-35.78 N",
		"longitude": "90-36-20.9 W",
		"state": "WISCONSIN",
		"artcc": "ZAU",
		"type": "RNAV",
		"updated": "06/28/2009",
	},
	{
		"name": "CEXAB",
		"latitude": "41-37-10.77 N",
		"longitude": "88-26-6.68 W",
		"state": "ILLINOIS",
		"artcc": "ZAU",
		"type": "RNAV",
		"updated": "11/20/2012",
	},
	{
		"name": "CEXED",
		"latitude": "42-36-13.83 N",
		"longitude": "85-40-38.33 W",
		"state": "MICHIGAN",
		"artcc": "ZAU",
		"type": "RNAV",
		"updated": "12/21/2009",
	},
	{
		"name": "CEXIS",
		"latitude": "43-4-7.85 N",
		"longitude": "88-4-11.46 W",
		"state": "WISCONSIN",
		"artcc": "ZAU",
		"type": "RNAV",
		"updated": "08/06/2003",
	},
	{
		"name": "CEYYA",
		"latitude": "41-42-46.95 N",
		"longitude": "86-23-3.85 W",
		"state": "INDIANA",
		"artcc": "ZAU",
		"type": "RNAV",
		"updated": "11/19/2002",
	},
	{
		"name": "CFBBB",
		"latitude": "41-52-51.16 N",
		"longitude": "91-26-30.14 W",
		"state": "IOWA",
		"artcc": "ZAU",
		"type": "CN",
		"updated": "01/19/2012",
	},
	{
		"name": "CFBDB",
		"latitude": "41-26-39.89 N",
		"longitude": "90-14-28.04 W",
		"state": "ILLINOIS",
		"artcc": "ZAU",
		"type": "CN",
		"updated": "01/18/2013",
	},
	{
		"name": "CFBDJ",
		"latitude": "41-42-46.9 N",
		"longitude": "87-46-5.52 W",
		"state": "ILLINOIS",
		"artcc": "ZAU",
		"type": "CN",
		"updated": "05/20/2013",
	},
	{
		"name": "CFBDK",
		"latitude": "41-48-3.01 N",
		"longitude": "87-41-21.43 W",
		"state": "ILLINOIS",
		"artcc": "ZAU",
		"type": "CN",
		"updated": "10/03/2014",
	},
	{
		"name": "CFBDL",
		"latitude": "41-48-3.94 N",
		"longitude": "87-40-24.46 W",
		"state": "ILLINOIS",
		"artcc": "ZAU",
		"type": "CN",
		"updated": "10/03/2014",
	},
	{
		"name": "CFBDM",
		"latitude": "41-48-3.94 N",
		"longitude": "87-40-24.45 W",
		"state": "ILLINOIS",
		"artcc": "ZAU",
		"type": "CN",
		"updated": "10/03/2014",
	},
	{
		"name": "CFBDN",
		"latitude": "41-47-13.89 N",
		"longitude": "87-39-14.07 W",
		"state": "ILLINOIS",
		"artcc": "ZAU",
		"type": "CN",
		"updated": "06/13/2014",
	},
	{
		"name": "CFBDP",
		"latitude": "41-42-55.85 N",
		"longitude": "87-55-53.02 W",
		"state": "ILLINOIS",
		"artcc": "ZAU",
		"type": "CN",
		"updated": "05/16/2013",
	},
	{
		"name": "CFBHD",
		"latitude": "42-45-20.77 N",
		"longitude": "87-49-6.31 W",
		"state": "WISCONSIN",
		"artcc": "ZAU",
		"type": "CN",
		"updated": "03/29/2017",
	},
	{
		"name": "CFBHM",
		"latitude": "43-56-10.17 N",
		"longitude": "87-41-23.88 W",
		"state": "WISCONSIN",
		"artcc": "ZAU",
		"type": "CN",
		"updated": "03/23/2012",
	},
	{
		"name": "CFBKN",
		"latitude": "41-42-48.75 N",
		"longitude": "87-43-49.24 W",
		"state": "ILLINOIS",
		"artcc": "ZAU",
		"type": "CN",
		"updated": "05/16/2013",
	},
	{
		"name": "CFBSM",
		"latitude": "43-46-25.48 N",
		"longitude": "88-33-33.07 W",
		"state": "WISCONSIN",
		"artcc": "ZAU",
		"type": "CN",
		"updated": "07/12/2013",
	},
	{
		"name": "CFBSZ",
		"latitude": "42-15-7.77 N",
		"longitude": "90-30-13.39 W",
		"state": "IOWA",
		"artcc": "ZAU",
		"type": "CN",
		"updated": "06/02/2014",
	},
	{
		"name": "CFBXR",
		"latitude": "41-31-26.57 N",
		"longitude": "92-51-39.76 W",
		"state": "IOWA",
		"artcc": "ZAU",
		"type": "CN",
		"updated": "09/04/2014",
	},
	{
		"name": "CFBZC",
		"latitude": "41-41-29.21 N",
		"longitude": "87-27-39.26 W",
		"state": "INDIANA",
		"artcc": "ZAU",
		"type": "CN",
		"updated": "04/14/2015",
	},
	{
		"name": "CFBZJ",
		"latitude": "42-54-35.34 N",
		"longitude": "85-14-38.03 W",
		"state": "MICHIGAN",
		"artcc": "ZAU",
		"type": "CN",
		"updated": "06/25/2014",
	},
	{
		"name": "CFBZL",
		"latitude": "40-49-16.51 N",
		"longitude": "89-58-36.76 W",
		"state": "ILLINOIS",
		"artcc": "ZAU",
		"type": "CN",
		"updated": "03/16/2015",
	},
	{
		"name": "CFCBJ",
		"latitude": "40-33-44.37 N",
		"longitude": "89-31-1.05 W",
		"state": "ILLINOIS",
		"artcc": "ZAU",
		"type": "CN",
		"updated": "03/16/2015",
	},
	{
		"name": "CFCDD",
		"latitude": "40-0-38.1 N",
		"longitude": "86-39-16.81 W",
		"state": "INDIANA",
		"artcc": "ZAU",
		"type": "CN",
		"updated": "03/24/2015",
	},
	{
		"name": "CFCDM",
		"latitude": "43-9-2.48 N",
		"longitude": "89-19-44.13 W",
		"state": "WISCONSIN",
		"artcc": "ZAU",
		"type": "CN",
		"updated": "12/29/2015",
	},
	{
		"name": "CFCFH",
		"latitude": "41-41-12.95 N",
		"longitude": "87-21-44.41 W",
		"state": "INDIANA",
		"artcc": "ZAU",
		"type": "CN",
		"updated": "07/07/2015",
	},
	{
		"name": "CFCFI",
		"latitude": "42-1-37.43 N",
		"longitude": "85-30-24.15 W",
		"state": "MICHIGAN",
		"artcc": "ZAU",
		"type": "CN",
		"updated": "01/10/2017",
	},
	{
		"name": "CFCFJ",
		"latitude": "41-32-22.05 N",
		"longitude": "87-15-40.65 W",
		"state": "INDIANA",
		"artcc": "ZAU",
		"type": "CN",
		"updated": "07/07/2015",
	},
	{
		"name": "CFCFK",
		"latitude": "41-30-56.7 N",
		"longitude": "87-12-53.97 W",
		"state": "INDIANA",
		"artcc": "ZAU",
		"type": "CN",
		"updated": "07/07/2015",
	},
	{
		"name": "CFCGJ",
		"latitude": "40-46-27.26 N",
		"longitude": "85-27-14.17 W",
		"state": "INDIANA",
		"artcc": "ZAU",
		"type": "CN",
		"updated": "02/06/2017",
	},
	{
		"name": "CFCJB",
		"latitude": "41-28-5.64 N",
		"longitude": "90-55-27.88 W",
		"state": "IOWA",
		"artcc": "ZAU",
		"type": "CN",
		"updated": "08/23/2017",
	},
	{
		"name": "CFCUO",
		"latitude": "41-47-44.32 N",
		"longitude": "87-50-44.69 W",
		"state": "ILLINOIS",
		"artcc": "ZAU",
		"type": "CN",
		"updated": "05/23/2013",
	},
	{
		"name": "CFDZQ",
		"latitude": "41-57-27.19 N",
		"longitude": "87-54-0.97 W",
		"state": "ILLINOIS",
		"artcc": "ZAU",
		"type": "CN",
		"updated": "09/26/2016",
	},
	{
		"name": "CFFLS",
		"latitude": "40-57-29.64 N",
		"longitude": "92-15-16.27 W",
		"state": "IOWA",
		"artcc": "ZAU",
		"type": "CN",
		"updated": "03/08/2017",
	},
	{
		"name": "CFLCC",
		"latitude": "41-57-26.98 N",
		"longitude": "87-55-40.37 W",
		"state": "ILLINOIS",
		"artcc": "ZAU",
		"type": "CN",
		"updated": "08/31/2015",
	},
	{
		"name": "CFNRN",
		"latitude": "21-16-46.34 N",
		"longitude": "158-4-6.34 W",
		"state": "HAWAII",
		"artcc": "ZAU",
		"type": "CN",
		"updated": "02/22/2017",
	},
	{
		"name": "CFPWC",
		"latitude": "42-56-8.15 N",
		"longitude": "87-45-5.12 W",
		"state": "WISCONSIN",
		"artcc": "ZAU",
		"type": "CN",
		"updated": "11/06/2013",
	},
	{
		"name": "CFPZT",
		"latitude": "43-0-19.76 N",
		"longitude": "87-47-36.04 W",
		"state": "WISCONSIN",
		"artcc": "ZAU",
		"type": "CN",
		"updated": "11/06/2013",
	},
	{
		"name": "CFQBC",
		"latitude": "43-0-28.04 N",
		"longitude": "87-47-1.88 W",
		"state": "WISCONSIN",
		"artcc": "ZAU",
		"type": "CN",
		"updated": "11/06/2013",
	},
	{
		"name": "CFTJP",
		"latitude": "43-3-21.29 N",
		"longitude": "87-48-19.86 W",
		"state": "WISCONSIN",
		"artcc": "ZAU",
		"type": "CN",
		"updated": "11/06/2013",
	},
	{
		"name": "CFTKB",
		"latitude": "42-57-36.83 N",
		"longitude": "88-4-44.92 W",
		"state": "WISCONSIN",
		"artcc": "ZAU",
		"type": "CN",
		"updated": "11/06/2013",
	},
	{
		"name": "CFTLF",
		"latitude": "42-51-56.41 N",
		"longitude": "88-3-58.61 W",
		"state": "WISCONSIN",
		"artcc": "ZAU",
		"type": "CN",
		"updated": "11/06/2013",
	},
	{
		"name": "CFVNG",
		"latitude": "40-39-10.89 N",
		"longitude": "85-53-46.72 W",
		"state": "INDIANA",
		"artcc": "ZAU",
		"type": "CN",
		"updated": "05/17/2016",
	},
	{
		"name": "CFVNZ",
		"latitude": "42-26-11.6 N",
		"longitude": "85-5-27.74 W",
		"state": "MICHIGAN",
		"artcc": "ZAU",
		"type": "CN",
		"updated": "08/11/2016",
	},
	{
		"name": "CFXFL",
		"latitude": "42-52-11.29 N",
		"longitude": "88-3-27.97 W",
		"state": "WISCONSIN",
		"artcc": "ZAU",
		"type": "CN",
		"updated": "11/06/2013",
	},
	{
		"name": "CFXMM",
		"latitude": "42-56-24.83 N",
		"longitude": "88-3-35.32 W",
		"state": "WISCONSIN",
		"artcc": "ZAU",
		"type": "CN",
		"updated": "11/06/2013",
	},
	{
		"name": "CFZFF",
		"latitude": "42-56-18.82 N",
		"longitude": "88-4-9.47 W",
		"state": "WISCONSIN",
		"artcc": "ZAU",
		"type": "CN",
		"updated": "11/06/2013",
	},
	{
		"name": "CFZLL",
		"latitude": "42-59-10.76 N",
		"longitude": "88-5-27.64 W",
		"state": "WISCONSIN",
		"artcc": "ZAU",
		"type": "CN",
		"updated": "11/06/2013",
	},
	{
		"name": "CFZLM",
		"latitude": "42-56-26.03 N",
		"longitude": "87-45-49 W",
		"state": "WISCONSIN",
		"artcc": "ZAU",
		"type": "CN",
		"updated": "11/06/2013",
	},
	{
		"name": "CFZWW",
		"latitude": "42-56-30.95 N",
		"longitude": "87-45-15.35 W",
		"state": "WISCONSIN",
		"artcc": "ZAU",
		"type": "CN",
		"updated": "11/06/2013",
	},
	{
		"name": "CHANA",
		"latitude": "41-58-25.14 N",
		"longitude": "89-11-57.39 W",
		"state": "ILLINOIS",
		"artcc": "ZAU",
		"type": "RP",
		"updated": "RFD*VOR/DME*179.00",
	},
	{
		"name": "CHANU",
		"latitude": "40-17-33.49 N",
		"longitude": "88-0-52.52 W",
		"state": "ILLINOIS",
		"artcc": "ZAU",
		"type": "RP",
		"updated": "RBS*VOR/DME*156.37",
	},
	{
		"name": "CHASY",
		"latitude": "40-41-38.25 N",
		"longitude": "92-41-55.11 W",
		"state": "IOWA",
		"artcc": "ZAU",
		"type": "RP",
		"updated": "MZV*VOR/DME*243.79/100.86",
	},
	{
		"name": "CHDRR",
		"latitude": "43-20-10.89 N",
		"longitude": "87-52-19.44 W",
		"state": "WISCONSIN",
		"artcc": "ZAU",
		"type": "RNAV",
		"updated": "08/19/2015",
	},
	{
		"name": "CHETT",
		"latitude": "41-46-33.17 N",
		"longitude": "87-3-31.98 W",
		"state": "MICHIGAN",
		"artcc": "ZAU",
		"type": "RP",
		"updated": "OXI*VOR/DME*326.00",
	},
	{
		"name": "CHEVI",
		"latitude": "40-40-0.46 N",
		"longitude": "86-7-40.96 W",
		"state": "INDIANA",
		"artcc": "ZAU",
		"type": "MR",
		"updated": "GUS*VORTAC*041.46/1.70",
	},
	{
		"name": "CHIKO",
		"latitude": "42-12-5.65 N",
		"longitude": "87-56-54.14 W",
		"state": "ILLINOIS",
		"artcc": "ZAU",
		"type": "RNAV",
		"updated": "01/03/2012",
	},
	{
		"name": "CHILR",
		"latitude": "41-59-0.2 N",
		"longitude": "88-13-53.43 W",
		"state": "ILLINOIS",
		"artcc": "ZAU",
		"type": "RP",
		"updated": "JAV*LD*272.98/15.45",
	},
	{
		"name": "CHIPR",
		"latitude": "41-32-22.5 N",
		"longitude": "87-25-9.92 W",
		"state": "INDIANA",
		"artcc": "ZAU",
		"type": "RNAV",
		"updated": "05/03/2007",
	},
	{
		"name": "CHMLY",
		"latitude": "40-44-31.69 N",
		"longitude": "85-25-43.76 W",
		"state": "INDIANA",
		"artcc": "ZAU",
		"type": "RP",
		"updated": "FWA*VORTAC*223.73/17.94",
	},
	{
		"name": "CHMPN",
		"latitude": "42-25-47.55 N",
		"longitude": "89-3-31.69 W",
		"state": "ILLINOIS",
		"artcc": "ZAU",
		"type": "RNAV",
		"updated": "08/28/2014",
	},
	{
		"name": "CHOLS",
		"latitude": "41-27-7.45 N",
		"longitude": "91-16-43.36 W",
		"state": "IOWA",
		"artcc": "ZAU",
		"type": "RP",
		"updated": "IOW*VOR/DME*099.78/15.61",
	},
	{
		"name": "CHRSS",
		"latitude": "40-26-21.8 N",
		"longitude": "89-44-25.4 W",
		"state": "ILLINOIS",
		"artcc": "ZAU",
		"type": "RNAV",
		"updated": "03/16/2015",
	},
	{
		"name": "CHUMM",
		"latitude": "40-50-43.63 N",
		"longitude": "90-29-46.37 W",
		"state": "ILLINOIS",
		"artcc": "ZAU",
		"type": "RP",
		"updated": "GBG*VOR/DME*/6.20",
	},
	{
		"name": "CHUMP",
		"latitude": "41-22-35.21 N",
		"longitude": "89-59-26.06 W",
		"state": "ILLINOIS",
		"artcc": "ZAU",
		"type": "RNAV",
		"updated": "08/19/2015",
	},
	{
		"name": "CIBAD",
		"latitude": "42-48-12.68 N",
		"longitude": "88-19-46.73 W",
		"state": "WISCONSIN",
		"artcc": "ZAU",
		"type": "RNAV",
		"updated": "08/01/2011",
	},
	{
		"name": "CIBGO",
		"latitude": "42-9-57.61 N",
		"longitude": "85-42-0.73 W",
		"state": "MICHIGAN",
		"artcc": "ZAU",
		"type": "RNAV",
		"updated": "01/31/2011",
	},
	{
		"name": "CIBIP",
		"latitude": "41-54-55.83 N",
		"longitude": "85-55-1.73 W",
		"state": "MICHIGAN",
		"artcc": "ZAU",
		"type": "RNAV",
		"updated": "03/22/2006",
	},
	{
		"name": "CIBNO",
		"latitude": "41-47-51.08 N",
		"longitude": "91-26-37.04 W",
		"state": "IOWA",
		"artcc": "ZAU",
		"type": "RNAV",
		"updated": "03/14/2007",
	},
	{
		"name": "CIDAR",
		"latitude": "42-21-3.95 N",
		"longitude": "88-8-55.42 W",
		"state": "ILLINOIS",
		"artcc": "ZAU",
		"type": "RNAV",
		"updated": "01/04/2001",
	},
	{
		"name": "CIDIG",
		"latitude": "41-49-10.64 N",
		"longitude": "87-42-45.76 W",
		"state": "ILLINOIS",
		"artcc": "ZAU",
		"type": "RNAV",
		"updated": "09/25/2002",
	},
	{
		"name": "CIDIX",
		"latitude": "40-8-24 N",
		"longitude": "89-24-12.61 W",
		"state": "ILLINOIS",
		"artcc": "ZAU",
		"type": "RP",
		"updated": "SPI*VORTAC*036.00/22.00",
	},
	{
		"name": "CIDSO",
		"latitude": "41-55-56.9 N",
		"longitude": "90-38-47.32 W",
		"state": "IOWA",
		"artcc": "ZAU",
		"type": "RP",
		"updated": "CVA*VORTAC*327.46",
	},
	{
		"name": "CIFAY",
		"latitude": "40-37-12.2 N",
		"longitude": "86-45-51 W",
		"state": "INDIANA",
		"artcc": "ZAU",
		"type": "RNAV",
		"updated": "08/31/2016",
	},
	{
		"name": "CIGIG",
		"latitude": "40-23-9.77 N",
		"longitude": "88-56-56.37 W",
		"state": "ILLINOIS",
		"artcc": "ZAU",
		"type": "RP",
		"updated": "TXN*LD*S CRS/6.38",
	},
	{
		"name": "CIGIP",
		"latitude": "41-43-14.46 N",
		"longitude": "86-7-44.84 W",
		"state": "INDIANA",
		"artcc": "ZAU",
		"type": "RNAV",
		"updated": "05/25/2005",
	},
	{
		"name": "CIGUL",
		"latitude": "42-35-9.44 N",
		"longitude": "85-32-33.09 W",
		"state": "MICHIGAN",
		"artcc": "ZAU",
		"type": "RNAV",
		"updated": "12/21/2009",
	},
	{
		"name": "CIKAS",
		"latitude": "43-14-26.78 N",
		"longitude": "89-31-11.13 W",
		"state": "WISCONSIN",
		"artcc": "ZAU",
		"type": "RNAV",
		"updated": "03/22/2009",
	},
	{
		"name": "CIKEM",
		"latitude": "42-52-53.19 N",
		"longitude": "88-11-45.41 W",
		"state": "WISCONSIN",
		"artcc": "ZAU",
		"type": "RNAV",
		"updated": "08/06/2003",
	},
	{
		"name": "CILOK",
		"latitude": "42-35-9.22 N",
		"longitude": "89-21-1.12 W",
		"state": "WISCONSIN",
		"artcc": "ZAU",
		"type": "RP",
		"updated": "JVL*VOR/DME*275.84/10.99",
	},
	{
		"name": "CIMKO",
		"latitude": "41-39-22.83 N",
		"longitude": "88-11-43.81 W",
		"state": "ILLINOIS",
		"artcc": "ZAU",
		"type": "RNAV",
		"updated": "05/04/2011",
	},
	{
		"name": "CINDY",
		"latitude": "41-53-7.88 N",
		"longitude": "91-48-8.75 W",
		"state": "IOWA",
		"artcc": "ZAU",
		"type": "RP",
		"updated": "IOW*VOR/DME*333.92",
	},
	{
		"name": "CINOR",
		"latitude": "41-45-31.3 N",
		"longitude": "93-20-10.31 W",
		"state": "IOWA",
		"artcc": "ZAU",
		"type": "RP",
		"updated": "DSM*VORTAC*029.04",
	},
	{
		"name": "CINOT",
		"latitude": "42-58-41.14 N",
		"longitude": "89-7-18.55 W",
		"state": "WISCONSIN",
		"artcc": "ZAU",
		"type": "RNAV",
		"updated": "03/28/2011",
	},
	{
		"name": "CIPON",
		"latitude": "41-15-49.7 N",
		"longitude": "92-32-46.52 W",
		"state": "IOWA",
		"artcc": "ZAU",
		"type": "RNAV",
		"updated": "08/21/2009",
	},
	{
		"name": "CIRBO",
		"latitude": "43-2-2.84 N",
		"longitude": "86-5-7.88 W",
		"state": "MICHIGAN",
		"artcc": "ZAU",
		"type": "RP",
		"updated": "MKG*VORTAC*195.06/8.36",
	},
	{
		"name": "CIRIP",
		"latitude": "42-47-43.16 N",
		"longitude": "87-51-54.84 W",
		"state": "WISCONSIN",
		"artcc": "ZAU",
		"type": "RNAV",
		"updated": "12/21/2009",
	},
	{
		"name": "CIRNI",
		"latitude": "40-41-33.85 N",
		"longitude": "85-36-48.85 W",
		"state": "INDIANA",
		"artcc": "ZAU",
		"type": "RNAV",
		"updated": "08/16/2004",
	},
	{
		"name": "CIROD",
		"latitude": "41-33-13.82 N",
		"longitude": "90-51-12.54 W",
		"state": "IOWA",
		"artcc": "ZAU",
		"type": "RNAV",
		"updated": "01/05/2012",
	},
	{
		"name": "CIRYI",
		"latitude": "41-54-2.28 N",
		"longitude": "92-51-34 W",
		"state": "IOWA",
		"artcc": "ZAU",
		"type": "RNAV",
		"updated": "03/26/2008",
	},
	{
		"name": "CISHO",
		"latitude": "41-59-37.41 N",
		"longitude": "86-10-53.47 W",
		"state": "MICHIGAN",
		"artcc": "ZAU",
		"type": "RNAV",
		"updated": "06/05/2010",
	},
	{
		"name": "CITEB",
		"latitude": "41-45-9.33 N",
		"longitude": "90-16-29.37 W",
		"state": "ILLINOIS",
		"artcc": "ZAU",
		"type": "RNAV",
		"updated": "01/30/2011",
	},
	{
		"name": "CITGO",
		"latitude": "41-42-51.82 N",
		"longitude": "87-50-28.52 W",
		"state": "ILLINOIS",
		"artcc": "ZAU",
		"type": "RP",
		"updated": "HKH*LD*227.48/5.61",
	},
	{
		"name": "CITKI",
		"latitude": "43-0-39.09 N",
		"longitude": "87-37-17.1 W",
		"state": "WISCONSIN",
		"artcc": "ZAU",
		"type": "RNAV",
		"updated": "PXY*LE*073.66/13.99",
	},
	{
		"name": "CIVIS",
		"latitude": "41-12-13.99 N",
		"longitude": "93-29-47.1 W",
		"state": "IOWA",
		"artcc": "ZAU",
		"type": "RNAV",
		"updated": "02/27/2012",
	},
	{
		"name": "CIVPU",
		"latitude": "41-54-50.22 N",
		"longitude": "86-17-45.46 W",
		"state": "MICHIGAN",
		"artcc": "ZAU",
		"type": "RNAV",
		"updated": "02/24/2011",
	},
	{
		"name": "CIYAC",
		"latitude": "41-7-31.27 N",
		"longitude": "89-58-59.1 W",
		"state": "ILLINOIS",
		"artcc": "ZAU",
		"type": "RNAV",
		"updated": "07/29/2013",
	},
	{
		"name": "CLAUD",
		"latitude": "42-26-17.01 N",
		"longitude": "86-19-40.56 W",
		"state": "MICHIGAN",
		"artcc": "ZAU",
		"type": "RP",
		"updated": "MKG*VORTAC*197.30",
	},
	{
		"name": "CLEFT",
		"latitude": "41-4-51.95 N",
		"longitude": "86-2-29.28 W",
		"state": "INDIANA",
		"artcc": "ZAU",
		"type": "RP",
		"updated": "GSH*VORTAC*181.32/26.64",
	},
	{
		"name": "CLLEM",
		"latitude": "42-38-0.09 N",
		"longitude": "85-4-24.51 W",
		"state": "MICHIGAN",
		"artcc": "ZAU",
		"type": "RNAV",
		"updated": "04/04/2018",
	},
	{
		"name": "CLOCK",
		"latitude": "43-8-44.48 N",
		"longitude": "85-35-46.11 W",
		"state": "MICHIGAN",
		"artcc": "ZAU",
		"type": "RP",
		"updated": "VIO*VOR/DME*352.58/21.97",
	},
	{
		"name": "CLSBY",
		"latitude": "42-24-32.8 N",
		"longitude": "88-53-37.47 W",
		"state": "ILLINOIS",
		"artcc": "ZAU",
		"type": "RNAV",
		"updated": "08/28/2014",
	},
	{
		"name": "CLUSO",
		"latitude": "41-39-17.04 N",
		"longitude": "87-29-41.62 W",
		"state": "INDIANA",
		"artcc": "ZAU",
		"type": "RNAV",
		"updated": "08/27/2013",
	},
	{
		"name": "CMSKY",
		"latitude": "41-24-47 N",
		"longitude": "87-52-38 W",
		"state": "ILLINOIS",
		"artcc": "ZAU",
		"type": "RNAV",
		"updated": "11/20/2007",
	},
	{
		"name": "CNOTA",
		"latitude": "41-26-2.82 N",
		"longitude": "92-29-24.44 W",
		"state": "IOWA",
		"artcc": "ZAU",
		"type": "RP",
		"updated": "IOW*VOR/DME*257.96",
	},
	{
		"name": "COAST",
		"latitude": "41-44-16.14 N",
		"longitude": "88-27-14.51 W",
		"state": "ILLINOIS",
		"artcc": "ZAU",
		"type": "RP",
		"updated": "DPA*VOR/DME*205.07",
	},
	{
		"name": "COBAB",
		"latitude": "40-58-36.26 N",
		"longitude": "85-11-4.74 W",
		"state": "INDIANA",
		"artcc": "ZAU",
		"type": "RP",
		"updated": "FWA*VORTAC*131.97/0.21",
	},
	{
		"name": "COBLE",
		"latitude": "42-53-33.95 N",
		"longitude": "89-14-5.76 W",
		"state": "WISCONSIN",
		"artcc": "ZAU",
		"type": "RNAV",
		"updated": "06/13/2011",
	},
	{
		"name": "COBLO",
		"latitude": "43-20-50.27 N",
		"longitude": "89-25-27.69 W",
		"state": "WISCONSIN",
		"artcc": "ZAU",
		"type": "RNAV",
		"updated": "05/24/2016",
	},
	{
		"name": "COBRA",
		"latitude": "40-51-24.9 N",
		"longitude": "86-19-34.71 W",
		"state": "INDIANA",
		"artcc": "ZAU",
		"type": "RP",
		"updated": "GUS*VORTAC*330.00/15.00",
	},
	{
		"name": "CODVA",
		"latitude": "41-48-11.85 N",
		"longitude": "86-0-30.95 W",
		"state": "MICHIGAN",
		"artcc": "ZAU",
		"type": "RNAV",
		"updated": "03/22/2006",
	},
	{
		"name": "COGNE",
		"latitude": "41-43-15.69 N",
		"longitude": "85-53-37.22 W",
		"state": "INDIANA",
		"artcc": "ZAU",
		"type": "RNAV",
		"updated": "06/10/2005",
	},
	{
		"name": "COGRA",
		"latitude": "41-9-43.59 N",
		"longitude": "92-24-34.29 W",
		"state": "IOWA",
		"artcc": "ZAU",
		"type": "RNAV",
		"updated": "08/21/2009",
	},
	{
		"name": "COGSS",
		"latitude": "42-20-39.38 N",
		"longitude": "88-23-41.65 W",
		"state": "ILLINOIS",
		"artcc": "ZAU",
		"type": "RNAV",
		"updated": "10/26/2009",
	},
	{
		"name": "COIRO",
		"latitude": "41-42-57.23 N",
		"longitude": "86-12-6.43 W",
		"state": "INDIANA",
		"artcc": "ZAU",
		"type": "RNAV",
		"updated": "11/19/2002",
	},
	{
		"name": "COKED",
		"latitude": "41-25-15.11 N",
		"longitude": "87-31-25.69 W",
		"state": "INDIANA",
		"artcc": "ZAU",
		"type": "RP",
		"updated": "EON*VORTAC*051.00",
	},
	{
		"name": "COKEN",
		"latitude": "42-9-19.16 N",
		"longitude": "92-16-58.41 W",
		"state": "IOWA",
		"artcc": "ZAU",
		"type": "RNAV",
		"updated": "03/12/2012",
	},
	{
		"name": "COKPA",
		"latitude": "44-1-2.84 N",
		"longitude": "88-33-21.65 W",
		"state": "WISCONSIN",
		"artcc": "ZAU",
		"type": "RNAV",
		"updated": "07/12/2013",
	},
	{
		"name": "COLAR",
		"latitude": "40-1-34.92 N",
		"longitude": "88-21-43.88 W",
		"state": "ILLINOIS",
		"artcc": "ZAU",
		"type": "RP",
		"updated": "CMI*VORTAC*260.00/4.00",
	},
	{
		"name": "COLBI",
		"latitude": "41-27-8.3 N",
		"longitude": "86-57-32.01 W",
		"state": "INDIANA",
		"artcc": "ZAU",
		"type": "RNAV",
		"updated": "12/12/2007",
	},
	{
		"name": "COLDT",
		"latitude": "42-5-57.46 N",
		"longitude": "85-44-21.7 W",
		"state": "MICHIGAN",
		"artcc": "ZAU",
		"type": "RNAV",
		"updated": "03/01/2011",
	},
	{
		"name": "COLIT",
		"latitude": "41-42-52.84 N",
		"longitude": "87-39-8.9 W",
		"state": "ILLINOIS",
		"artcc": "ZAU",
		"type": "RNAV",
		"updated": "01/12/2004",
	},
	{
		"name": "COLNO",
		"latitude": "41-29-58.17 N",
		"longitude": "87-13-24.21 W",
		"state": "INDIANA",
		"artcc": "ZAU",
		"type": "RNAV",
		"updated": "09/10/2004",
	},
	{
		"name": "COLNZ",
		"latitude": "41-57-0.32 N",
		"longitude": "91-47-29.81 W",
		"state": "IOWA",
		"artcc": "ZAU",
		"type": "RNAV",
		"updated": "01/25/2005",
	},
	{
		"name": "CONAN",
		"latitude": "41-58-35.5 N",
		"longitude": "89-7-3.98 W",
		"state": "ILLINOIS",
		"artcc": "ZAU",
		"type": "RNAV",
		"updated": "11/16/2010",
	},
	{
		"name": "CONAT",
		"latitude": "42-10-26.27 N",
		"longitude": "90-16-39.1 W",
		"state": "IOWA",
		"artcc": "ZAU",
		"type": "RNAV",
		"updated": "02/07/2018",
	},
	{
		"name": "CONAX",
		"latitude": "43-49-43.17 N",
		"longitude": "87-57-13.41 W",
		"state": "WISCONSIN",
		"artcc": "ZAU",
		"type": "RNAV",
		"updated": "09/23/2004",
	},
	{
		"name": "CONLL",
		"latitude": "43-9-36.46 N",
		"longitude": "89-23-23.64 W",
		"state": "WISCONSIN",
		"artcc": "ZAU",
		"type": "RP",
		"updated": "11/14/1994",
	},
	{
		"name": "CONUM",
		"latitude": "40-6-43.83 N",
		"longitude": "86-45-15.7 W",
		"state": "INDIANA",
		"artcc": "ZAU",
		"type": "RNAV",
		"updated": "10/05/2016",
	},
	{
		"name": "COOKS",
		"latitude": "40-32-42.83 N",
		"longitude": "88-45-54.57 W",
		"state": "ILLINOIS",
		"artcc": "ZAU",
		"type": "RP",
		"updated": "BMI*VOR/DME*060.01",
	},
	{
		"name": "COOTE",
		"latitude": "41-32-21.02 N",
		"longitude": "87-18-22.4 W",
		"state": "INDIANA",
		"artcc": "ZAU",
		"type": "RNAV",
		"updated": "05/03/2007",
	},
	{
		"name": "COPTR",
		"latitude": "41-8-36.4 N",
		"longitude": "85-5-15.4 W",
		"state": "INDIANA",
		"artcc": "ZAU",
		"type": "RNAV",
		"updated": "02/09/2018",
	},
	{
		"name": "COPTU",
		"latitude": "41-20-1.19 N",
		"longitude": "88-24-59.47 W",
		"state": "ILLINOIS",
		"artcc": "ZAU",
		"type": "RNAV",
		"updated": "04/07/2017",
	},
	{
		"name": "CORIR",
		"latitude": "43-28-2.47 N",
		"longitude": "88-23-32.51 W",
		"state": "WISCONSIN",
		"artcc": "ZAU",
		"type": "RP",
		"updated": "BAE*VOR/DME*345.35/21.55",
	},
	{
		"name": "CORPI",
		"latitude": "41-31-54.01 N",
		"longitude": "87-27-35.93 W",
		"state": "INDIANA",
		"artcc": "ZAU",
		"type": "RNAV",
		"updated": "10/08/2015",
	},
	{
		"name": "CORUN",
		"latitude": "42-12-40.83 N",
		"longitude": "86-24-31.58 W",
		"state": "MICHIGAN",
		"artcc": "ZAU",
		"type": "RNAV",
		"updated": "02/16/2011",
	},
	{
		"name": "CORYA",
		"latitude": "41-43-15.64 N",
		"longitude": "85-54-13.17 W",
		"state": "INDIANA",
		"artcc": "ZAU",
		"type": "RNAV",
		"updated": "05/25/2005",
	},
	{
		"name": "COSHE",
		"latitude": "41-2-11.76 N",
		"longitude": "93-27-52.97 W",
		"state": "IOWA",
		"artcc": "ZAU",
		"type": "RNAV",
		"updated": "10/22/2009",
	},
	{
		"name": "COSIG",
		"latitude": "41-40-11.75 N",
		"longitude": "86-8-48.17 W",
		"state": "INDIANA",
		"artcc": "ZAU",
		"type": "RNAV",
		"updated": "11/18/2016",
	},
	{
		"name": "COSMA",
		"latitude": "40-24-22.13 N",
		"longitude": "87-26-39.6 W",
		"state": "INDIANA",
		"artcc": "ZAU",
		"type": "RP",
		"updated": "RBS*VOR/DME*105.48",
	},
	{
		"name": "COSRO",
		"latitude": "43-52-27.26 N",
		"longitude": "89-43-39.33 W",
		"state": "WISCONSIN",
		"artcc": "ZAU",
		"type": "RNAV",
		"updated": "04/10/2002",
	},
	{
		"name": "COTON",
		"latitude": "42-19-11.7 N",
		"longitude": "89-18-44.02 W",
		"state": "ILLINOIS",
		"artcc": "ZAU",
		"type": "RP",
		"updated": "BDF*VORTAC*010.00",
	},
	{
		"name": "COTRI",
		"latitude": "41-31-26.63 N",
		"longitude": "88-7-22.3 W",
		"state": "ILLINOIS",
		"artcc": "ZAU",
		"type": "RNAV",
		"updated": "02/06/2017",
	},
	{
		"name": "COUPR",
		"latitude": "41-57-49.11 N",
		"longitude": "88-26-29.86 W",
		"state": "ILLINOIS",
		"artcc": "ZAU",
		"type": "RP",
		"updated": "SXH*LD*272.86/22.64",
	},
	{
		"name": "COVAV",
		"latitude": "42-1-43.46 N",
		"longitude": "85-30-25.62 W",
		"state": "MICHIGAN",
		"artcc": "ZAU",
		"type": "RNAV",
		"updated": "07/19/2007",
	},
	{
		"name": "COVKA",
		"latitude": "41-45-23.55 N",
		"longitude": "89-37-13.52 W",
		"state": "ILLINOIS",
		"artcc": "ZAU",
		"type": "RNAV",
		"updated": "10/10/2008",
	},
	{
		"name": "COVNI",
		"latitude": "43-18-17.29 N",
		"longitude": "87-54-40.88 W",
		"state": "WISCONSIN",
		"artcc": "ZAU",
		"type": "RNAV",
		"updated": "02/15/2010",
	},
	{
		"name": "COVPO",
		"latitude": "41-21-35.22 N",
		"longitude": "85-34-18.22 W",
		"state": "INDIANA",
		"artcc": "ZAU",
		"type": "RNAV",
		"updated": "08/19/2010",
	},
	{
		"name": "COYAP",
		"latitude": "41-13-26.93 N",
		"longitude": "87-41-20.3 W",
		"state": "ILLINOIS",
		"artcc": "ZAU",
		"type": "RNAV",
		"updated": "03/21/2013",
	},
	{
		"name": "COYAR",
		"latitude": "41-18-36.99 N",
		"longitude": "89-9-9.63 W",
		"state": "ILLINOIS",
		"artcc": "ZAU",
		"type": "RNAV",
		"updated": "09/08/2015",
	},
	{
		"name": "COYNU",
		"latitude": "42-2-12.82 N",
		"longitude": "85-3-36.37 W",
		"state": "MICHIGAN",
		"artcc": "ZAU",
		"type": "CN",
		"updated": "OBK*VOR/DME*095.93/129.56",
	},
	{
		"name": "CRETE",
		"latitude": "40-46-35.47 N",
		"longitude": "85-23-38.5 W",
		"state": "INDIANA",
		"artcc": "ZAU",
		"type": "RP",
		"updated": "FWA*VORTAC*223.73/15.34",
	},
	{
		"name": "CRILO",
		"latitude": "40-2-36.78 N",
		"longitude": "86-16-23.79 W",
		"state": "INDIANA",
		"artcc": "ZAU",
		"type": "RNAV",
		"updated": "12/04/2008",
	},
	{
		"name": "CRYSL",
		"latitude": "42-11-29.03 N",
		"longitude": "88-26-12.07 W",
		"state": "ILLINOIS",
		"artcc": "ZAU",
		"type": "WP",
		"updated": "04/11/2000",
	},
	{
		"name": "CRYTA",
		"latitude": "41-5-30.75 N",
		"longitude": "86-29-35.67 W",
		"state": "INDIANA",
		"artcc": "ZAU",
		"type": "RNAV",
		"updated": "02/23/2016",
	},
	{
		"name": "CSTLO",
		"latitude": "43-10-50.36 N",
		"longitude": "85-22-32.67 W",
		"state": "MICHIGAN",
		"artcc": "ZAU",
		"type": "RNAV",
		"updated": "02/26/2018",
	},
	{
		"name": "CTLER",
		"latitude": "41-33-28.39 N",
		"longitude": "87-53-36.92 W",
		"state": "ILLINOIS",
		"artcc": "ZAU",
		"type": "RNAV",
		"updated": "05/06/2013",
	},
	{
		"name": "CUBAM",
		"latitude": "41-34-36.31 N",
		"longitude": "86-59-37.85 W",
		"state": "INDIANA",
		"artcc": "ZAU",
		"type": "RNAV",
		"updated": "11/18/2016",
	},
	{
		"name": "CUBAT",
		"latitude": "40-13-16 N",
		"longitude": "86-28-29 W",
		"state": "INDIANA",
		"artcc": "ZAU",
		"type": "RP",
		"updated": "VHP*VORTAC*347.58/24.86",
	},
	{
		"name": "CUBOR",
		"latitude": "41-53-31.57 N",
		"longitude": "86-8-17.29 W",
		"state": "MICHIGAN",
		"artcc": "ZAU",
		"type": "RNAV",
		"updated": "03/22/2006",
	},
	{
		"name": "CUCAD",
		"latitude": "40-15-22.11 N",
		"longitude": "86-4-46.32 W",
		"state": "INDIANA",
		"artcc": "ZAU",
		"type": "RNAV",
		"updated": "02/14/2011",
	},
	{
		"name": "CUCTA",
		"latitude": "40-45-44.03 N",
		"longitude": "85-40-37.64 W",
		"state": "INDIANA",
		"artcc": "ZAU",
		"type": "RNAV",
		"updated": "03/22/2006",
	},
	{
		"name": "CUCZI",
		"latitude": "41-31-26.72 N",
		"longitude": "85-55-10.11 W",
		"state": "INDIANA",
		"artcc": "ZAU",
		"type": "RNAV",
		"updated": "06/13/2011",
	},
	{
		"name": "CUDIX",
		"latitude": "40-23-26.53 N",
		"longitude": "86-14-41.55 W",
		"state": "INDIANA",
		"artcc": "ZAU",
		"type": "RNAV",
		"updated": "07/26/2012",
	},
	{
		"name": "CUDLA",
		"latitude": "40-4-6.46 N",
		"longitude": "88-18-26 W",
		"state": "ILLINOIS",
		"artcc": "ZAU",
		"type": "RP",
		"updated": "CMI*VORTAC*321.80/2.49",
	},
	{
		"name": "CUDMA",
		"latitude": "42-0-10.23 N",
		"longitude": "90-11-53.69 W",
		"state": "IOWA",
		"artcc": "ZAU",
		"type": "RNAV",
		"updated": "06/06/2012",
	},
	{
		"name": "CUDRU",
		"latitude": "41-8-58.28 N",
		"longitude": "85-54-9.18 W",
		"state": "INDIANA",
		"artcc": "ZAU",
		"type": "RP",
		"updated": "FWA*VORTAC*293.73/34.00",
	},
	{
		"name": "CUDUP",
		"latitude": "42-9-11.47 N",
		"longitude": "89-13-42.82 W",
		"state": "ILLINOIS",
		"artcc": "ZAU",
		"type": "RNAV",
		"updated": "05/09/2011",
	},
	{
		"name": "CUJBA",
		"latitude": "40-58-48.36 N",
		"longitude": "87-10-53.86 W",
		"state": "INDIANA",
		"artcc": "ZAU",
		"type": "RNAV",
		"updated": "03/27/2012",
	},
	{
		"name": "CUKEP",
		"latitude": "41-5-36.89 N",
		"longitude": "85-4-10.01 W",
		"state": "INDIANA",
		"artcc": "ZAU",
		"type": "RNAV",
		"updated": "11/17/2010",
	},
	{
		"name": "CUKIK",
		"latitude": "41-23-15.88 N",
		"longitude": "87-0-22.93 W",
		"state": "INDIANA",
		"artcc": "ZAU",
		"type": "RNAV",
		"updated": "12/12/2007",
	},
	{
		"name": "CUKLA",
		"latitude": "41-53-14.28 N",
		"longitude": "91-58-28.54 W",
		"state": "IOWA",
		"artcc": "ZAU",
		"type": "RNAV",
		"updated": "03/14/2007",
	},
	{
		"name": "CUKON",
		"latitude": "43-26-13.99 N",
		"longitude": "89-58-59.88 W",
		"state": "WISCONSIN",
		"artcc": "ZAU",
		"type": "RNAV",
		"updated": "01/19/2012",
	},
	{
		"name": "CUKRA",
		"latitude": "42-59-40.58 N",
		"longitude": "89-20-53.24 W",
		"state": "WISCONSIN",
		"artcc": "ZAU",
		"type": "RP",
		"updated": "MSN*LD*184.94/7.62",
	},
	{
		"name": "CULBE",
		"latitude": "42-13-3.8 N",
		"longitude": "91-58-49.01 W",
		"state": "IOWA",
		"artcc": "ZAU",
		"type": "RNAV",
		"updated": "02/18/2010",
	},
	{
		"name": "CULCA",
		"latitude": "42-37-30.14 N",
		"longitude": "92-30-54.44 W",
		"state": "IOWA",
		"artcc": "ZAU",
		"type": "RP",
		"updated": "ALO*LD*304.78/7.50",
	},
	{
		"name": "CULEK",
		"latitude": "43-4-3.33 N",
		"longitude": "87-41-26.4 W",
		"state": "WISCONSIN",
		"artcc": "ZAU",
		"type": "RNAV",
		"updated": "11/06/2013",
	},
	{
		"name": "CULMO",
		"latitude": "42-27-55.21 N",
		"longitude": "89-13-29.31 W",
		"state": "ILLINOIS",
		"artcc": "ZAU",
		"type": "RNAV",
		"updated": "04/05/2010",
	},
	{
		"name": "CUMLA",
		"latitude": "40-41-10.35 N",
		"longitude": "85-46-28 W",
		"state": "INDIANA",
		"artcc": "ZAU",
		"type": "RNAV",
		"updated": "04/26/2016",
	},
	{
		"name": "CUMUG",
		"latitude": "41-30-31.06 N",
		"longitude": "86-46-12.89 W",
		"state": "INDIANA",
		"artcc": "ZAU",
		"type": "RNAV",
		"updated": "08/09/2012",
	},
	{
		"name": "CUPEM",
		"latitude": "40-17-44.46 N",
		"longitude": "86-47-32.5 W",
		"state": "INDIANA",
		"artcc": "ZAU",
		"type": "RNAV",
		"updated": "09/10/2012",
	},
	{
		"name": "CUPIE",
		"latitude": "41-31-38.64 N",
		"longitude": "85-33-58.47 W",
		"state": "INDIANA",
		"artcc": "ZAU",
		"type": "RNAV",
		"updated": "05/05/2016",
	},
	{
		"name": "CUPOX",
		"latitude": "41-50-16.63 N",
		"longitude": "89-30-21.14 W",
		"state": "ILLINOIS",
		"artcc": "ZAU",
		"type": "RNAV",
		"updated": "07/27/2009",
	},
	{
		"name": "CUPTU",
		"latitude": "40-58-58.76 N",
		"longitude": "87-48-15.1 W",
		"state": "ILLINOIS",
		"artcc": "ZAU",
		"type": "RNAV",
		"updated": "03/21/2013",
	},
	{
		"name": "CURTT",
		"latitude": "41-35-7.93 N",
		"longitude": "91-26-39.26 W",
		"state": "IOWA",
		"artcc": "ZAU",
		"type": "RNAV",
		"updated": "11/26/2008",
	},
	{
		"name": "CURVI",
		"latitude": "42-15-14.54 N",
		"longitude": "89-5-37.78 W",
		"state": "ILLINOIS",
		"artcc": "ZAU",
		"type": "RP",
		"updated": "RFD*VOR/DME*069.01/5.00",
	},
	{
		"name": "CUSIT",
		"latitude": "43-8-39.42 N",
		"longitude": "87-51-39.54 W",
		"state": "WISCONSIN",
		"artcc": "ZAU",
		"type": "RNAV",
		"updated": "08/06/2003",
	},
	{
		"name": "CUSUB",
		"latitude": "41-38-46.81 N",
		"longitude": "87-28-15.01 W",
		"state": "INDIANA",
		"artcc": "ZAU",
		"type": "RNAV",
		"updated": "02/02/2018",
	},
	{
		"name": "CUTMO",
		"latitude": "42-50-14.06 N",
		"longitude": "87-54-48.83 W",
		"state": "WISCONSIN",
		"artcc": "ZAU",
		"type": "RP",
		"updated": "BUU*VOR/DME*063.53",
	},
	{
		"name": "CUTUD",
		"latitude": "40-33-22.78 N",
		"longitude": "86-5-33.86 W",
		"state": "INDIANA",
		"artcc": "ZAU",
		"type": "RNAV",
		"updated": "08/02/2013",
	},
	{
		"name": "CUUPP",
		"latitude": "42-26-16.46 N",
		"longitude": "89-7-17.42 W",
		"state": "ILLINOIS",
		"artcc": "ZAU",
		"type": "RNAV",
		"updated": "08/28/2014",
	},
	{
		"name": "CUVKI",
		"latitude": "40-53-38.9 N",
		"longitude": "90-27-44.7 W",
		"state": "ILLINOIS",
		"artcc": "ZAU",
		"type": "RNAV",
		"updated": "05/15/2012",
	},
	{
		"name": "CUVUN",
		"latitude": "43-51-20.61 N",
		"longitude": "87-46-7.02 W",
		"state": "WISCONSIN",
		"artcc": "ZAU",
		"type": "RP",
		"updated": "FAH*VOR/DME*035.70/6.27",
	},
	{
		"name": "CUXEB",
		"latitude": "42-58-6.08 N",
		"longitude": "87-47-50.44 W",
		"state": "WISCONSIN",
		"artcc": "ZAU",
		"type": "RNAV",
		"updated": "08/06/2003",
	},
	{
		"name": "CUXUL",
		"latitude": "41-26-41.38 N",
		"longitude": "90-23-13.65 W",
		"state": "ILLINOIS",
		"artcc": "ZAU",
		"type": "WP",
		"updated": "02/01/2011",
	},
	{
		"name": "CYBIL",
		"latitude": "40-19-0 N",
		"longitude": "87-51-52 W",
		"state": "ILLINOIS",
		"artcc": "ZAU",
		"type": "RNAV",
		"updated": "11/19/2012",
	},
	{
		"name": "CYCLN",
		"latitude": "41-24-46.49 N",
		"longitude": "93-28-52.35 W",
		"state": "IOWA",
		"artcc": "ZAU",
		"type": "RP",
		"updated": "DSM*VORTAC*094.04",
	},
	{
		"name": "CYNDI",
		"latitude": "43-38-14.14 N",
		"longitude": "87-49-5.98 W",
		"state": "WISCONSIN",
		"artcc": "ZAU",
		"type": "RP",
		"updated": "FAH*VOR/DME*172.46/8.00",
	},
