[
	{
		"name": "DAANE",
		"latitude": "42-57-13.61 N",
		"longitude": "88-19-53.52 W",
		"state": "WISCONSIN",
		"artcc": "ZAU",
		"type": "RP",
		"updated": "BAE*VOR/DME*190.00/10.00"
	},
	{
		"name": "DABDE",
		"latitude": "41-16-35.1 N",
		"longitude": "85-34-11.2 W",
		"state": "INDIANA",
		"artcc": "ZAU",
		"type": "RP",
		"updated": "OLK*VOR*301.41"
	},
	{
		"name": "DABJU",
		"latitude": "43-11-54.37 N",
		"longitude": "86-16-23.78 W",
		"state": "MICHIGAN",
		"artcc": "ZAU",
		"type": "RP",
		"updated": "BAE*VOR/DME*084.14/88.45"
	},
	{
		"name": "DABOZ",
		"latitude": "40-39-49.83 N",
		"longitude": "88-30-7.55 W",
		"state": "ILLINOIS",
		"artcc": "ZAU",
		"type": "RNAV",
		"updated": "05/25/2016"
	},
	{
		"name": "DABYA",
		"latitude": "40-55-31.07 N",
		"longitude": "85-6-46.67 W",
		"state": "INDIANA",
		"artcc": "ZAU",
		"type": "RNAV",
		"updated": "02/13/2010"
	},
	{
		"name": "DACAC",
		"latitude": "41-30-48.11 N",
		"longitude": "86-3-57.6 W",
		"state": "INDIANA",
		"artcc": "ZAU",
		"type": "RNAV",
		"updated": "05/25/2005"
	},
	{
		"name": "DACEK",
		"latitude": "42-42-29.96 N",
		"longitude": "88-46-57.46 W",
		"state": "WISCONSIN",
		"artcc": "ZAU",
		"type": "RNAV",
		"updated": "04/06/2010"
	},
	{
		"name": "DACKS",
		"latitude": "41-36-26.49 N",
		"longitude": "88-28-10.8 W",
		"state": "ILLINOIS",
		"artcc": "ZAU",
		"type": "RNAV",
		"updated": "12/21/2009"
	},
	{
		"name": "DADFY",
		"latitude": "43-10-15.01 N",
		"longitude": "85-33-55.2 W",
		"state": "MICHIGAN",
		"artcc": "ZAU",
		"type": "RNAV",
		"updated": "04/06/2009"
	},
	{
		"name": "DAGTE",
		"latitude": "44-4-22.32 N",
		"longitude": "88-33-19.04 W",
		"state": "WISCONSIN",
		"artcc": "ZAU",
		"type": "RNAV",
		"updated": "07/12/2013"
	},
	{
		"name": "DAIFE",
		"latitude": "41-16-8 N",
		"longitude": "85-51-19 W",
		"state": "INDIANA",
		"artcc": "ZAU",
		"type": "RNAV",
		"updated": "09/07/2012"
	},
	{
		"name": "DALEY",
		"latitude": "42-54-18.1 N",
		"longitude": "89-47-18.24 W",
		"state": "WISCONSIN",
		"artcc": "ZAU",
		"type": "RP",
		"updated": "LNR*VOR/DME*146.91/27.84"
	},
	{
		"name": "DANEE",
		"latitude": "43-10-20.79 N",
		"longitude": "89-22-8.74 W",
		"state": "WISCONSIN",
		"artcc": "ZAU",
		"type": "RP",
		"updated": "MSN*VORTAC*319.08/2.10"
	},
	{
		"name": "DANGE",
		"latitude": "41-43-16.65 N",
		"longitude": "87-27-27.59 W",
		"state": "INDIANA",
		"artcc": "ZAU",
		"type": "RNAV",
		"updated": "07/07/2015"
	},
	{
		"name": "DARCY",
		"latitude": "41-12-8 N",
		"longitude": "87-43-33 W",
		"state": "ILLINOIS",
		"artcc": "ZAU",
		"type": "RNAV",
		"updated": "11/19/2012"
	},
	{
		"name": "DARIA",
		"latitude": "42-53-0.97 N",
		"longitude": "88-17-43.32 W",
		"state": "WISCONSIN",
		"artcc": "ZAU",
		"type": "RP",
		"updated": "BAE*VOR/DME*179.99/14.00"
	},
	{
		"name": "DARKK",
		"latitude": "40-19-42.67 N",
		"longitude": "90-24-48.62 W",
		"state": "ILLINOIS",
		"artcc": "ZAU",
		"type": "RNAV",
		"updated": "08/19/2015"
	},
	{
		"name": "DATEC",
		"latitude": "40-42-31.95 N",
		"longitude": "86-37-37.8 W",
		"state": "INDIANA",
		"artcc": "ZAU",
		"type": "RNAV",
		"updated": "03/18/2011"
	},
	{
		"name": "DATRE",
		"latitude": "40-45-35.41 N",
		"longitude": "85-55-21.47 W",
		"state": "INDIANA",
		"artcc": "ZAU",
		"type": "RNAV",
		"updated": "03/22/2006"
	},
	{
		"name": "DAVIS",
		"latitude": "42-26-26.75 N",
		"longitude": "89-23-3.09 W",
		"state": "ILLINOIS",
		"artcc": "ZAU",
		"type": "RP",
		"updated": "RFD*VOR/DME*326.54/15.31"
	},
	{
		"name": "DAXEJ",
		"latitude": "42-53-13.4 N",
		"longitude": "85-26-57.42 W",
		"state": "MICHIGAN",
		"artcc": "ZAU",
		"type": "RNAV",
		"updated": "05/22/2009"
	},
	{
		"name": "DAYSA",
		"latitude": "42-43-37.12 N",
		"longitude": "86-13-31.43 W",
		"state": "MICHIGAN",
		"artcc": "ZAU",
		"type": "CN",
		"updated": "02/16/2001"
	},
	{
		"name": "DAYVL",
		"latitude": "41-58-15.45 N",
		"longitude": "89-18-45.93 W",
		"state": "ILLINOIS",
		"artcc": "ZAU",
		"type": "RP",
		"updated": "RFD*VOR/DME*197.40"
	},
	{
		"name": "DAYZE",
		"latitude": "41-57-20.03 N",
		"longitude": "88-22-17.81 W",
		"state": "ILLINOIS",
		"artcc": "ZAU",
		"type": "RP",
		"updated": "IZJ*LD*273.87/21.43"
	},
	{
		"name": "DEASH",
		"latitude": "41-34-52.26 N",
		"longitude": "87-26-4.07 W",
		"state": "INDIANA",
		"artcc": "ZAU",
		"type": "RNAV",
		"updated": "10/08/2015"
	},
	{
		"name": "DEBBO",
		"latitude": "41-22-12.66 N",
		"longitude": "91-8-14.48 W",
		"state": "IOWA",
		"artcc": "ZAU",
		"type": "WP",
		"updated": "MZV*VOR/DME*272.60/22.75"
	},
	{
		"name": "DEBOW",
		"latitude": "42-44-8.3 N",
		"longitude": "88-50-48.92 W",
		"state": "WISCONSIN",
		"artcc": "ZAU",
		"type": "RP",
		"updated": "BAE*VOR/DME*225.51/33.73"
	},
	{
		"name": "DECAK",
		"latitude": "41-51-0.7 N",
		"longitude": "88-45-17.47 W",
		"state": "ILLINOIS",
		"artcc": "ZAU",
		"type": "RNAV",
		"updated": "05/15/2003"
	},
	{
		"name": "DECAL",
		"latitude": "43-22-56.61 N",
		"longitude": "89-19-48.9 W",
		"state": "WISCONSIN",
		"artcc": "ZAU",
		"type": "RP",
		"updated": "DLL*VORTAC*114.94"
	},
	{
		"name": "DECEK",
		"latitude": "43-42-39.86 N",
		"longitude": "87-45-22.36 W",
		"state": "WISCONSIN",
		"artcc": "ZAU",
		"type": "RNAV",
		"updated": "09/23/2004"
	},
	{
		"name": "DECER",
		"latitude": "42-47-17.81 N",
		"longitude": "88-26-14.22 W",
		"state": "WISCONSIN",
		"artcc": "ZAU",
		"type": "RNAV",
		"updated": "08/01/2011"
	},
	{
		"name": "DEEKS",
		"latitude": "40-12-38.37 N",
		"longitude": "85-58-5.38 W",
		"state": "INDIANA",
		"artcc": "ZAU",
		"type": "RP",
		"updated": "VHP*VORTAC*036.66/30.04"
	},
	{
		"name": "DEERE",
		"latitude": "42-11-56.88 N",
		"longitude": "87-36-14.05 W",
		"state": "ILLINOIS",
		"artcc": "ZAU",
		"type": "RP",
		"updated": "OBK*VOR/DME*096.80/15.56"
	},
	{
		"name": "DEFSA",
		"latitude": "41-46-28.57 N",
		"longitude": "93-0-19.55 W",
		"state": "IOWA",
		"artcc": "ZAU",
		"type": "RNAV",
		"updated": "03/26/2008"
	},
	{
		"name": "DEGAN",
		"latitude": "41-41-0.51 N",
		"longitude": "88-13-2.59 W",
		"state": "ILLINOIS",
		"artcc": "ZAU",
		"type": "RP",
		"updated": "DPA*VOR/DME*152.30"
	},
	{
		"name": "DEKEY",
		"latitude": "42-56-44.71 N",
		"longitude": "89-21-1.31 W",
		"state": "WISCONSIN",
		"artcc": "ZAU",
		"type": "RNAV",
		"updated": "12/29/2015"
	},
	{
		"name": "DELEY",
		"latitude": "43-2-36.2 N",
		"longitude": "87-52-28.3 W",
		"state": "WISCONSIN",
		"artcc": "ZAU",
		"type": "RNAV",
		"updated": "08/06/2003"
	},
	{
		"name": "DELHI",
		"latitude": "41-56-0 N",
		"longitude": "87-47-10 W",
		"state": "ILLINOIS",
		"artcc": "ZAU",
		"type": "RP",
		"updated": "OBK*VOR/DME*158.77/18.79"
	},
	{
		"name": "DELLS",
		"latitude": "40-4-18.23 N",
		"longitude": "86-23-32.97 W",
		"state": "INDIANA",
		"artcc": "ZAU",
		"type": "RNAV",
		"updated": "02/09/2018"
	},
	{
		"name": "DENAM",
		"latitude": "41-9-34.64 N",
		"longitude": "86-44-21.35 W",
		"state": "INDIANA",
		"artcc": "ZAU",
		"type": "RP",
		"updated": "EON*VORTAC*095.54/48.08"
	},
	{
		"name": "DENNT",
		"latitude": "41-25-9 N",
		"longitude": "87-43-29 W",
		"state": "ILLINOIS",
		"artcc": "ZAU",
		"type": "RNAV",
		"updated": "11/20/2007"
	},
	{
		"name": "DENOC",
		"latitude": "43-4-10.95 N",
		"longitude": "85-18-12.31 W",
		"state": "MICHIGAN",
		"artcc": "ZAU",
		"type": "RP",
		"updated": "VIO*VOR/DME*030.63/19.00"
	},
	{
		"name": "DEPLE",
		"latitude": "43-12-22.1 N",
		"longitude": "90-31-50.76 W",
		"state": "WISCONSIN",
		"artcc": "ZAU",
		"type": "RNAV",
		"updated": "04/28/2015"
	},
	{
		"name": "DERRE",
		"latitude": "42-33-9.96 N",
		"longitude": "85-6-51.01 W",
		"state": "MICHIGAN",
		"artcc": "ZAU",
		"type": "RNAV",
		"updated": "02/20/2018"
	},
	{
		"name": "DESAY",
		"latitude": "43-14-31.37 N",
		"longitude": "90-20-59.01 W",
		"state": "WISCONSIN",
		"artcc": "ZAU",
		"type": "RP",
		"updated": "LNR*VOR/DME*251.77/10.00"
	},
	{
		"name": "DESGE",
		"latitude": "42-50-55.51 N",
		"longitude": "89-1-45.65 W",
		"state": "WISCONSIN",
		"artcc": "ZAU",
		"type": "RNAV",
		"updated": "03/19/2003"
	},
	{
		"name": "DETIE",
		"latitude": "42-21-33.64 N",
		"longitude": "88-21-48.38 W",
		"state": "ILLINOIS",
		"artcc": "ZAU",
		"type": "RNAV",
		"updated": "03/31/2014"
	},
	{
		"name": "DEVON",
		"latitude": "41-59-0.88 N",
		"longitude": "88-9-40.43 W",
		"state": "ILLINOIS",
		"artcc": "ZAU",
		"type": "RP",
		"updated": "JAV*LD*272.98/12.31"
	},
	{
		"name": "DEWAR",
		"latitude": "42-32-9.49 N",
		"longitude": "92-9-28.86 W",
		"state": "IOWA",
		"artcc": "ZAU",
		"type": "RP",
		"updated": "CID*VOR/DME*332.01/42.28"
	},
	{
		"name": "DEYAP",
		"latitude": "42-46-23.82 N",
		"longitude": "87-47-43.7 W",
		"state": "WISCONSIN",
		"artcc": "ZAU",
		"type": "RNAV",
		"updated": "08/06/2003"
	},
	{
		"name": "DEYFE",
		"latitude": "41-28-14.25 N",
		"longitude": "85-9-55.31 W",
		"state": "INDIANA",
		"artcc": "ZAU",
		"type": "RNAV",
		"updated": "07/30/2013"
	},
	{
		"name": "DEYZO",
		"latitude": "42-50-59.76 N",
		"longitude": "86-6-11.8 W",
		"state": "MICHIGAN",
		"artcc": "ZAU",
		"type": "CN",
		"updated": "02/16/2001"
	},
	{
		"name": "DIBBL",
		"latitude": "41-15-1.08 N",
		"longitude": "88-24-52.39 W",
		"state": "ILLINOIS",
		"artcc": "ZAU",
		"type": "RNAV",
		"updated": "05/30/2017"
	},
	{
		"name": "DIBSE",
		"latitude": "42-27-58.15 N",
		"longitude": "88-12-46.06 W",
		"state": "ILLINOIS",
		"artcc": "ZAU",
		"type": "RNAV",
		"updated": "01/04/2001"
	},
	{
		"name": "DICAY",
		"latitude": "43-5-24.34 N",
		"longitude": "87-59-3.38 W",
		"state": "WISCONSIN",
		"artcc": "ZAU",
		"type": "RNAV",
		"updated": "08/06/2003"
	},
	{
		"name": "DIGPE",
		"latitude": "43-20-36.63 N",
		"longitude": "89-45-32.19 W",
		"state": "WISCONSIN",
		"artcc": "ZAU",
		"type": "RNAV",
		"updated": "10/05/2007"
	},
	{
		"name": "DIKHU",
		"latitude": "42-30-42.55 N",
		"longitude": "88-9-49.08 W",
		"state": "WISCONSIN",
		"artcc": "ZAU",
		"type": "RNAV",
		"updated": "06/22/2009"
	},
	{
		"name": "DIMDE",
		"latitude": "42-13-7.74 N",
		"longitude": "85-45-50.72 W",
		"state": "MICHIGAN",
		"artcc": "ZAU",
		"type": "RNAV",
		"updated": "01/31/2011"
	},
	{
		"name": "DINYE",
		"latitude": "41-38-15.47 N",
		"longitude": "85-45-36.81 W",
		"state": "INDIANA",
		"artcc": "ZAU",
		"type": "RNAV",
		"updated": "05/25/2005"
	},
	{
		"name": "DIPSY",
		"latitude": "41-15-56.08 N",
		"longitude": "89-45-30.67 W",
		"state": "ILLINOIS",
		"artcc": "ZAU",
		"type": "RP",
		"updated": "BDF*VORTAC*309.46/10.00"
	},
	{
		"name": "DITCA",
		"latitude": "42-44-50.45 N",
		"longitude": "85-43-0.14 W",
		"state": "MICHIGAN",
		"artcc": "ZAU",
		"type": "RNAV",
		"updated": "02/26/2018"
	},
	{
		"name": "DITKE",
		"latitude": "40-44-30.65 N",
		"longitude": "91-1-16.08 W",
		"state": "ILLINOIS",
		"artcc": "ZAU",
		"type": "RNAV",
		"updated": "07/10/2013"
	},
	{
		"name": "DIVCE",
		"latitude": "43-18-32.62 N",
		"longitude": "89-11-46.9 W",
		"state": "WISCONSIN",
		"artcc": "ZAU",
		"type": "RP",
		"updated": "DLL*VORTAC*117.13"
	},
	{
		"name": "DIVGE",
		"latitude": "42-12-19.9 N",
		"longitude": "90-42-42.47 W",
		"state": "IOWA",
		"artcc": "ZAU",
		"type": "RNAV",
		"updated": "01/03/2009"
	},
	{
		"name": "DIYAS",
		"latitude": "43-12-47.71 N",
		"longitude": "90-2-17.3 W",
		"state": "WISCONSIN",
		"artcc": "ZAU",
		"type": "RNAV",
		"updated": "04/16/2008"
	},
	{
		"name": "DIYEG",
		"latitude": "40-15-13.22 N",
		"longitude": "86-25-41.8 W",
		"state": "INDIANA",
		"artcc": "ZAU",
		"type": "RNAV",
		"updated": "02/14/2011"
	},
	{
		"name": "DLLAN",
		"latitude": "42-37-15.89 N",
		"longitude": "87-58-17.5 W",
		"state": "WISCONSIN",
		"artcc": "ZAU",
		"type": "RNAV",
		"updated": "05/06/2013"
	},
	{
		"name": "DMAAC",
		"latitude": "41-54-7.12 N",
		"longitude": "86-18-55.03 W",
		"state": "MICHIGAN",
		"artcc": "ZAU",
		"type": "CN",
		"updated": "06/06/2001"
	},
	{
		"name": "DMLZU",
		"latitude": "42-25-27.04 N",
		"longitude": "85-4-28.14 W",
		"state": "MICHIGAN",
		"artcc": "ZAU",
		"type": "CN",
		"updated": "02/20/2001"
	},
	{
		"name": "DMZKV",
		"latitude": "42-25-24.45 N",
		"longitude": "89-16-28.67 W",
		"state": "ILLINOIS",
		"artcc": "ZAU",
		"type": "CN",
		"updated": "09/04/2010"
	},
	{
		"name": "DNICK",
		"latitude": "40-36-43 N",
		"longitude": "87-32-42 W",
		"state": "ILLINOIS",
		"artcc": "ZAU",
		"type": "RNAV",
		"updated": "07/31/2017"
	},
	{
		"name": "DNIKA",
		"latitude": "42-37-15.39 N",
		"longitude": "87-49-3.41 W",
		"state": "WISCONSIN",
		"artcc": "ZAU",
		"type": "RNAV",
		"updated": "05/06/2013"
	},
	{
		"name": "DOBER",
		"latitude": "43-7-52.73 N",
		"longitude": "89-25-8.68 W",
		"state": "WISCONSIN",
		"artcc": "ZAU",
		"type": "RP",
		"updated": "MSN*VORTAC*253.94/3.58"
	},
	{
		"name": "DOBXE",
		"latitude": "43-20-40.94 N",
		"longitude": "90-23-40.02 W",
		"state": "WISCONSIN",
		"artcc": "ZAU",
		"type": "RNAV",
		"updated": "05/24/2016"
	},
	{
		"name": "DOCEN",
		"latitude": "43-45-49.79 N",
		"longitude": "88-33-33.54 W",
		"state": "WISCONSIN",
		"artcc": "ZAU",
		"type": "RNAV",
		"updated": "07/31/2003"
	},
	{
		"name": "DOCES",
		"latitude": "40-7-2.75 N",
		"longitude": "89-21-57.37 W",
		"state": "ILLINOIS",
		"artcc": "ZAU",
		"type": "RP",
		"updated": "AXC*VORTAC*311.24"
	},
	{
		"name": "DODGE",
		"latitude": "43-26-35.81 N",
		"longitude": "88-34-38.13 W",
		"state": "WISCONSIN",
		"artcc": "ZAU",
		"type": "RP",
		"updated": "BAE*VOR/DME*324.85"
	},
	{
		"name": "DOHIR",
		"latitude": "43-38-21.62 N",
		"longitude": "88-48-32.42 W",
		"state": "WISCONSIN",
		"artcc": "ZAU",
		"type": "WP",
		"updated": "11/02/1998"
	},
	{
		"name": "DOHJU",
		"latitude": "43-1-2.09 N",
		"longitude": "88-30-22.87 W",
		"state": "WISCONSIN",
		"artcc": "ZAU",
		"type": "RNAV",
		"updated": "01/20/2009"
	},
	{
		"name": "DOOGY",
		"latitude": "42-0-9.34 N",
		"longitude": "88-9-40.57 W",
		"state": "ILLINOIS",
		"artcc": "ZAU",
		"type": "RP",
		"updated": "OBK*VOR/DME*217.58"
	},
	{
		"name": "DORAH",
		"latitude": "43-55-6.82 N",
		"longitude": "90-23-35.85 W",
		"state": "WISCONSIN",
		"artcc": "ZAU",
		"type": "MR",
		"updated": "VOK*TACAN*256.00/6.00"
	},
	{
		"name": "DORPE",
		"latitude": "41-21-48.39 N",
		"longitude": "91-40-13.07 W",
		"state": "IOWA",
		"artcc": "ZAU",
		"type": "RNAV",
		"updated": "02/18/2016"
	},
	{
		"name": "DOSAY",
		"latitude": "40-42-39.14 N",
		"longitude": "86-25-8.32 W",
		"state": "INDIANA",
		"artcc": "ZAU",
		"type": "RNAV",
		"updated": "03/18/2011"
	},
	{
		"name": "DOSYA",
		"latitude": "43-14-57.24 N",
		"longitude": "85-52-51.33 W",
		"state": "MICHIGAN",
		"artcc": "ZAU",
		"type": "RNAV",
		"updated": "08/16/2007"
	},
	{
		"name": "DOTIW",
		"latitude": "43-0-2.81 N",
		"longitude": "88-46-50.41 W",
		"state": "WISCONSIN",
		"artcc": "ZAU",
		"type": "RNAV",
		"updated": "01/23/2007"
	},
	{
		"name": "DOTIZ",
		"latitude": "43-7-41.62 N",
		"longitude": "85-1-7.73 W",
		"state": "MICHIGAN",
		"artcc": "ZAU",
		"type": "RNAV",
		"updated": "04/17/2018"
	},
	{
		"name": "DOVQU",
		"latitude": "41-18-16.68 N",
		"longitude": "85-18-53.71 W",
		"state": "INDIANA",
		"artcc": "ZAU",
		"type": "RNAV",
		"updated": "09/05/2006"
	},
	{
		"name": "DOVTE",
		"latitude": "43-8-22.06 N",
		"longitude": "85-12-27.94 W",
		"state": "MICHIGAN",
		"artcc": "ZAU",
		"type": "RNAV",
		"updated": "04/17/2018"
	},
	{
		"name": "DOVWE",
		"latitude": "41-11-33.51 N",
		"longitude": "91-18-34.08 W",
		"state": "IOWA",
		"artcc": "ZAU",
		"type": "RNAV",
		"updated": "07/31/2006"
	},
	{
		"name": "DOWEL",
		"latitude": "41-26-23.23 N",
		"longitude": "90-59-10.31 W",
		"state": "IOWA",
		"artcc": "ZAU",
		"type": "WP",
		"updated": "MZV*VOR/DME*289.48/17.26"
	},
	{
		"name": "DOWER",
		"latitude": "41-16-20.75 N",
		"longitude": "84-51-40.59 W",
		"state": "INDIANA",
		"artcc": "ZAU",
		"type": "RNAV",
		"updated": "09/20/2001"
	},
	{
		"name": "DOYAG",
		"latitude": "43-37-54.09 N",
		"longitude": "88-53-30.28 W",
		"state": "WISCONSIN",
		"artcc": "ZAU",
		"type": "RP",
		"updated": "OSH*VORTAC*212.25/26.00"
	},
	{
		"name": "DRAHN",
		"latitude": "43-7-52.45 N",
		"longitude": "88-59-55.51 W",
		"state": "WISCONSIN",
		"artcc": "ZAU",
		"type": "RP",
		"updated": "MSN*VORTAC*090.00/15.00"
	},
	{
		"name": "DRAMS",
		"latitude": "40-49-33.23 N",
		"longitude": "90-35-53.78 W",
		"state": "ILLINOIS",
		"artcc": "ZAU",
		"type": "RNAV",
		"updated": "08/27/2013"
	},
	{
		"name": "DREAR",
		"latitude": "43-8-17.19 N",
		"longitude": "89-2-59.7 W",
		"state": "WISCONSIN",
		"artcc": "ZAU",
		"type": "RP",
		"updated": "BAE*VOR/DME*270.43/33.66"
	},
	{
		"name": "DREGS",
		"latitude": "40-19-0 N",
		"longitude": "87-36-27 W",
		"state": "ILLINOIS",
		"artcc": "ZAU",
		"type": "RNAV",
		"updated": "11/19/2012"
	},
	{
		"name": "DREWD",
		"latitude": "42-32-53.36 N",
		"longitude": "88-23-45.72 W",
		"state": "WISCONSIN",
		"artcc": "ZAU",
		"type": "RNAV",
		"updated": "03/31/2014"
	},
	{
		"name": "DRNAA",
		"latitude": "41-32-8.09 N",
		"longitude": "86-18-50.66 W",
		"state": "INDIANA",
		"artcc": "ZAU",
		"type": "RNAV",
		"updated": "06/28/2009"
	},
	{
		"name": "DROOL",
		"latitude": "41-52-58.86 N",
		"longitude": "85-10-4.89 W",
		"state": "MICHIGAN",
		"artcc": "ZAU",
		"type": "RP",
		"updated": "LFD*VOR/DME*244.30/21.00"
	},
	{
		"name": "DUFEE",
		"latitude": "42-6-44.9 N",
		"longitude": "87-3-48 W",
		"state": "MICHIGAN",
		"artcc": "ZAU",
		"type": "RNAV",
		"updated": "01/26/2007"
	},
	{
		"name": "DUKBE",
		"latitude": "42-6-3.66 N",
		"longitude": "88-11-2.99 W",
		"state": "ILLINOIS",
		"artcc": "ZAU",
		"type": "RNAV",
		"updated": "05/04/2011"
	},
	{
		"name": "DULAP",
		"latitude": "40-55-9.5 N",
		"longitude": "89-41-27.56 W",
		"state": "ILLINOIS",
		"artcc": "ZAU",
		"type": "RP",
		"updated": "PNT*VOR/DME*275.00"
	},
	{
		"name": "DULTE",
		"latitude": "41-49-30.55 N",
		"longitude": "87-48-29.92 W",
		"state": "ILLINOIS",
		"artcc": "ZAU",
		"type": "RNAV",
		"updated": "03/06/2009"
	},
	{
		"name": "DULVE",
		"latitude": "43-49-54.08 N",
		"longitude": "89-58-3.9 W",
		"state": "WISCONSIN",
		"artcc": "ZAU",
		"type": "RNAV",
		"updated": "04/19/2017"
	},
	{
		"name": "DUMRE",
		"latitude": "42-19-34.39 N",
		"longitude": "88-4-43.16 W",
		"state": "ILLINOIS",
		"artcc": "ZAU",
		"type": "RNAV",
		"updated": "01/04/2001"
	},
	{
		"name": "DUPGE",
		"latitude": "41-53-25.3 N",
		"longitude": "88-21-0.6 W",
		"state": "ILLINOIS",
		"artcc": "ZAU",
		"type": "RP",
		"updated": "ORD*VOR/DME*251.83"
	},
	{
		"name": "DURDE",
		"latitude": "43-8-53.69 N",
		"longitude": "85-21-33.89 W",
		"state": "MICHIGAN",
		"artcc": "ZAU",
		"type": "RNAV",
		"updated": "04/17/2018"
	},
	{
		"name": "DUSAY",
		"latitude": "42-50-5.86 N",
		"longitude": "87-43-9.56 W",
		"state": "WISCONSIN",
		"artcc": "ZAU",
		"type": "RNAV",
		"updated": "08/06/2003"
	},
	{
		"name": "DUSEY",
		"latitude": "40-33-45.29 N",
		"longitude": "85-36-25.47 W",
		"state": "INDIANA",
		"artcc": "ZAU",
		"type": "RNAV",
		"updated": "08/16/2004"
	},
	{
		"name": "DUTYS",
		"latitude": "43-7-50.18 N",
		"longitude": "89-20-5.82 W",
		"state": "WISCONSIN",
		"artcc": "ZAU",
		"type": "RP",
		"updated": "DLL*VORTAC*140.00"
	},
	{
		"name": "DUYAV",
		"latitude": "41-38-12.9 N",
		"longitude": "86-15-49.27 W",
		"state": "INDIANA",
		"artcc": "ZAU",
		"type": "RNAV",
		"updated": "05/25/2005"
	},
	{
		"name": "DUYEC",
		"latitude": "43-10-59.16 N",
		"longitude": "88-11-27.03 W",
		"state": "WISCONSIN",
		"artcc": "ZAU",
		"type": "RNAV",
		"updated": "10/24/2011"
	},
	{
		"name": "DUYEY",
		"latitude": "42-50-0.66 N",
		"longitude": "87-54-37.65 W",
		"state": "WISCONSIN",
		"artcc": "ZAU",
		"type": "RNAV",
		"updated": "08/06/2003"
	},
	{
		"name": "DWANE",
		"latitude": "41-39-3 N",
		"longitude": "87-44-5.07 W",
		"state": "ILLINOIS",
		"artcc": "ZAU",
		"type": "RNAV",
		"updated": "11/19/2012"
	},
	{
		"name": "DWEEB",
		"latitude": "41-51-57 N",
		"longitude": "86-49-46 W",
		"state": "MICHIGAN",
		"artcc": "ZAU",
		"type": "RNAV",
		"updated": "09/30/2008"
	}
]
