	{
		"name": "EARLE",
		"latitude": "40-25-34.58 N",
		"longitude": "87-3-7.06 W",
		"state": "INDIANA",
		"artcc": "ZAU",
		"type": "RNAV",
		"updated": "07/11/2017",
	},
	{
		"name": "EARND",
		"latitude": "41-25-31 N",
		"longitude": "87-34-20 W",
		"state": "ILLINOIS",
		"artcc": "ZAU",
		"type": "RNAV",
		"updated": "01/29/2015",
	},
	{
		"name": "EATUN",
		"latitude": "43-6-59.47 N",
		"longitude": "85-34-0.35 W",
		"state": "MICHIGAN",
		"artcc": "ZAU",
		"type": "RP",
		"updated": "VIO*VOR/DME*355.20",
	},
	{
		"name": "EBABE",
		"latitude": "42-57-29.55 N",
		"longitude": "85-39-59.3 W",
		"state": "MICHIGAN",
		"artcc": "ZAU",
		"type": "RNAV",
		"updated": "02/18/2011",
	},
	{
		"name": "EBACO",
		"latitude": "40-49-47.86 N",
		"longitude": "85-22-57.91 W",
		"state": "INDIANA",
		"artcc": "ZAU",
		"type": "RNAV",
		"updated": "08/07/2008",
	},
	{
		"name": "EBAKE",
		"latitude": "42-16-45.7 N",
		"longitude": "87-3-48 W",
		"state": "MICHIGAN",
		"artcc": "ZAU",
		"type": "RNAV",
		"updated": "01/26/2007",
	},
	{
		"name": "EBENS",
		"latitude": "41-59-1.16 N",
		"longitude": "87-39-9.08 W",
		"state": "ILLINOIS",
		"artcc": "ZAU",
		"type": "RP",
		"updated": "IAC*LD*093.00/10.46",
	},
	{
		"name": "EBGIN",
		"latitude": "41-30-52.96 N",
		"longitude": "87-12-46.42 W",
		"state": "INDIANA",
		"artcc": "ZAU",
		"type": "RNAV",
		"updated": "04/12/2006",
	},
	{
		"name": "EBORE",
		"latitude": "41-0-1.46 N",
		"longitude": "93-14-2.89 W",
		"state": "IOWA",
		"artcc": "ZAU",
		"type": "RNAV",
		"updated": "10/22/2009",
	},
	{
		"name": "EBSUH",
		"latitude": "41-44-45.82 N",
		"longitude": "93-5-55.03 W",
		"state": "IOWA",
		"artcc": "ZAU",
		"type": "RNAV",
		"updated": "09/04/2014",
	},
	{
		"name": "ECAVU",
		"latitude": "42-38-24.49 N",
		"longitude": "85-17-52.02 W",
		"state": "MICHIGAN",
		"artcc": "ZAU",
		"type": "RNAV",
		"updated": "02/15/2018",
	},
	{
		"name": "ECEBI",
		"latitude": "41-40-6.45 N",
		"longitude": "85-58-59.27 W",
		"state": "INDIANA",
		"artcc": "ZAU",
		"type": "RNAV",
		"updated": "05/25/2005",
	},
	{
		"name": "EDAGE",
		"latitude": "41-28-6.28 N",
		"longitude": "90-55-25.43 W",
		"state": "IOWA",
		"artcc": "ZAU",
		"type": "RNAV",
		"updated": "07/31/2006",
	},
	{
		"name": "EDAKE",
		"latitude": "42-23-27.25 N",
		"longitude": "88-15-40.37 W",
		"state": "ILLINOIS",
		"artcc": "ZAU",
		"type": "RNAV",
		"updated": "01/04/2001",
	},
	{
		"name": "EDALE",
		"latitude": "41-52-47.98 N",
		"longitude": "89-7-33.48 W",
		"state": "ILLINOIS",
		"artcc": "ZAU",
		"type": "RNAV",
		"updated": "11/02/2015",
	},
	{
		"name": "EDAVE",
		"latitude": "41-54-47.73 N",
		"longitude": "89-0-13.95 W",
		"state": "ILLINOIS",
		"artcc": "ZAU",
		"type": "RNAV",
		"updated": "11/02/2015",
	},
	{
		"name": "EDBIY",
		"latitude": "41-6-18.2 N",
		"longitude": "85-6-21.96 W",
		"state": "INDIANA",
		"artcc": "ZAU",
		"type": "RNAV",
		"updated": "09/29/2014",
	},
	{
		"name": "EDCEJ",
		"latitude": "41-53-34.85 N",
		"longitude": "85-9-48.82 W",
		"state": "MICHIGAN",
		"artcc": "ZAU",
		"type": "RNAV",
		"updated": "02/22/2008",
	},
	{
		"name": "EDENN",
		"latitude": "43-40-35.96 N",
		"longitude": "88-27-26.87 W",
		"state": "WISCONSIN",
		"artcc": "ZAU",
		"type": "RP",
		"updated": "DLL*VORTAC*079.00",
	},
	{
		"name": "EDENS",
		"latitude": "41-6-59.01 N",
		"longitude": "90-2-54.7 W",
		"state": "ILLINOIS",
		"artcc": "ZAU",
		"type": "RNAV",
		"updated": "05/25/2016",
	},
	{
		"name": "EDMEW",
		"latitude": "40-16-18.41 N",
		"longitude": "86-10-11.81 W",
		"state": "INDIANA",
		"artcc": "ZAU",
		"type": "RP",
		"updated": "OKK*VORTAC*203.52/16.18",
	},
	{
		"name": "EDOGE",
		"latitude": "42-40-58.12 N",
		"longitude": "85-23-16.5 W",
		"state": "MICHIGAN",
		"artcc": "ZAU",
		"type": "RNAV",
		"updated": "09/13/2011",
	},
	{
		"name": "EDXUR",
		"latitude": "41-28-32.36 N",
		"longitude": "85-24-6.48 W",
		"state": "INDIANA",
		"artcc": "ZAU",
		"type": "RNAV",
		"updated": "07/30/2013",
	},
	{
		"name": "EDZIV",
		"latitude": "43-45-43.18 N",
		"longitude": "89-46-38.02 W",
		"state": "WISCONSIN",
		"artcc": "ZAU",
		"type": "RNAV",
		"updated": "04/10/2002",
	},
	{
		"name": "EEDEE",
		"latitude": "43-56-23.21 N",
		"longitude": "90-13-28.94 W",
		"state": "WISCONSIN",
		"artcc": "ZAU",
		"type": "MR",
		"updated": "VOK*TACAN*097.00/1.50",
	},
	{
		"name": "EEJAY",
		"latitude": "41-42-43.61 N",
		"longitude": "86-26-24.08 W",
		"state": "INDIANA",
		"artcc": "ZAU",
		"type": "RNAV",
		"updated": "11/19/2002",
	},
	{
		"name": "EERAE",
		"latitude": "40-41-0 N",
		"longitude": "92-42-0 W",
		"state": "IOWA",
		"artcc": "ZAU",
		"type": "RNAV",
		"updated": "08/26/2013",
	},
	{
		"name": "EGACA",
		"latitude": "43-20-10.95 N",
		"longitude": "88-44-16.85 W",
		"state": "WISCONSIN",
		"artcc": "ZAU",
		"type": "RNAV",
		"updated": "06/16/2008",
	},
	{
		"name": "EGADY",
		"latitude": "42-46-49.71 N",
		"longitude": "88-29-31.68 W",
		"state": "WISCONSIN",
		"artcc": "ZAU",
		"type": "RNAV",
		"updated": "08/01/2011",
	},
	{
		"name": "EGEVE",
		"latitude": "41-0-26.33 N",
		"longitude": "92-56-9.18 W",
		"state": "IOWA",
		"artcc": "ZAU",
		"type": "RNAV",
		"updated": "05/24/2011",
	},
	{
		"name": "EGGED",
		"latitude": "42-56-15.15 N",
		"longitude": "87-38-39.94 W",
		"state": "WISCONSIN",
		"artcc": "ZAU",
		"type": "RNAV",
		"updated": "11/06/2013",
	},
	{
		"name": "EGLUQ",
		"latitude": "41-49-57.35 N",
		"longitude": "87-40-28.35 W",
		"state": "ILLINOIS",
		"artcc": "ZAU",
		"type": "RNAV",
		"updated": "07/18/2013",
	},
	{
		"name": "EGROW",
		"latitude": "40-33-37.75 N",
		"longitude": "88-52-30.62 W",
		"state": "ILLINOIS",
		"artcc": "ZAU",
		"type": "RP",
		"updated": "LHJ*LD*N CRS/4.62",
	},
	{
		"name": "EHAQY",
		"latitude": "40-51-32.83 N",
		"longitude": "85-40-34.18 W",
		"state": "INDIANA",
		"artcc": "ZAU",
		"type": "RNAV",
		"updated": "12/31/2002",
	},
	{
		"name": "EHEJE",
		"latitude": "42-15-34.18 N",
		"longitude": "87-36-18.98 W",
		"state": "ILLINOIS",
		"artcc": "ZAU",
		"type": "CN",
		"updated": "03/29/2011",
	},
	{
		"name": "EHPEK",
		"latitude": "42-13-15.7 N",
		"longitude": "92-4-56.75 W",
		"state": "IOWA",
		"artcc": "ZAU",
		"type": "RNAV",
		"updated": "02/18/2010",
	},
	{
		"name": "EHUHY",
		"latitude": "42-14-13.66 N",
		"longitude": "88-5-48.22 W",
		"state": "ILLINOIS",
		"artcc": "ZAU",
		"type": "RNAV",
		"updated": "04/11/2000",
	},
	{
		"name": "EHULY",
		"latitude": "43-22-41.14 N",
		"longitude": "88-13-45.76 W",
		"state": "WISCONSIN",
		"artcc": "ZAU",
		"type": "RNAV",
		"updated": "02/15/2010",
	},
	{
		"name": "EJAJY",
		"latitude": "40-42-43.93 N",
		"longitude": "86-15-7.52 W",
		"state": "INDIANA",
		"artcc": "ZAU",
		"type": "RP",
		"updated": "03/18/2011",
	},
	{
		"name": "EJGUD",
		"latitude": "42-17-38.24 N",
		"longitude": "91-45-58.42 W",
		"state": "IOWA",
		"artcc": "ZAU",
		"type": "RNAV",
		"updated": "02/18/2010",
	},
	{
		"name": "EJIYU",
		"latitude": "41-6-38.43 N",
		"longitude": "90-18-33.02 W",
		"state": "ILLINOIS",
		"artcc": "ZAU",
		"type": "RNAV",
		"updated": "05/15/2012",
	},
	{
		"name": "EJIZU",
		"latitude": "43-27-0.36 N",
		"longitude": "88-10-50.61 W",
		"state": "WISCONSIN",
		"artcc": "ZAU",
		"type": "RNAV",
		"updated": "02/15/2010",
	},
	{
		"name": "EJKAX",
		"latitude": "40-51-47.89 N",
		"longitude": "92-59-34.99 W",
		"state": "IOWA",
		"artcc": "ZAU",
		"type": "RNAV",
		"updated": "04/04/2010",
	},
	{
		"name": "EKEXE",
		"latitude": "41-46-17.14 N",
		"longitude": "87-40-13.97 W",
		"state": "ILLINOIS",
		"artcc": "ZAU",
		"type": "CN",
		"updated": "01/12/2006",
	},
	{
		"name": "EKQOR",
		"latitude": "40-23-18.95 N",
		"longitude": "85-52-27.97 W",
		"state": "INDIANA",
		"artcc": "ZAU",
		"type": "RNAV",
		"updated": "08/02/2013",
	},
	{
		"name": "EKYOR",
		"latitude": "42-12-58.04 N",
		"longitude": "85-41-48.02 W",
		"state": "MICHIGAN",
		"artcc": "ZAU",
		"type": "RNAV",
		"updated": "01/31/2011",
	},
	{
		"name": "ELANR",
		"latitude": "41-12-6 N",
		"longitude": "87-32-0 W",
		"state": "ILLINOIS",
		"artcc": "ZAU",
		"type": "RNAV",
		"updated": "05/29/2014",
	},
	{
		"name": "ELCUC",
		"latitude": "42-7-2.06 N",
		"longitude": "88-23-44.39 W",
		"state": "ILLINOIS",
		"artcc": "ZAU",
		"type": "RP",
		"updated": "DPA*VOR/DME*349.51/13.76",
	},
	{
		"name": "ELGIJ",
		"latitude": "43-18-40.28 N",
		"longitude": "89-21-15.24 W",
		"state": "WISCONSIN",
		"artcc": "ZAU",
		"type": "RP",
		"updated": "MSN*VORTAC*353.35/10.00",
	},
	{
		"name": "ELLYN",
		"latitude": "41-47-16.52 N",
		"longitude": "88-7-36.97 W",
		"state": "ILLINOIS",
		"artcc": "ZAU",
		"type": "RNAV",
		"updated": "01/24/2017",
	},
	{
		"name": "ELOKE",
		"latitude": "40-21-22.8 N",
		"longitude": "86-8-9.14 W",
		"state": "INDIANA",
		"artcc": "ZAU",
		"type": "RNAV",
		"updated": "04/26/2016",
	},
	{
		"name": "ELUNE",
		"latitude": "42-52-31.52 N",
		"longitude": "90-54-53.48 W",
		"state": "WISCONSIN",
		"artcc": "ZAU",
		"type": "RNAV",
		"updated": "09/16/2002",
	},
	{
		"name": "ELUYE",
		"latitude": "41-43-13.04 N",
		"longitude": "86-15-51.16 W",
		"state": "INDIANA",
		"artcc": "ZAU",
		"type": "RNAV",
		"updated": "05/25/2005",
	},
	{
		"name": "ELWUD",
		"latitude": "41-55-31.47 N",
		"longitude": "90-39-37.73 W",
		"state": "IOWA",
		"artcc": "ZAU",
		"type": "WP",
		"updated": "CVA*VORTAC*324.67/15.24",
	},
	{
		"name": "EMAKY",
		"latitude": "41-10-17.17 N",
		"longitude": "84-53-11.37 W",
		"state": "INDIANA",
		"artcc": "ZAU",
		"type": "RNAV",
		"updated": "05/05/2016",
	},
	{
		"name": "EMEWO",
		"latitude": "42-52-14.94 N",
		"longitude": "88-11-45.45 W",
		"state": "WISCONSIN",
		"artcc": "ZAU",
		"type": "RNAV",
		"updated": "09/08/2011",
	},
	{
		"name": "EMMLY",
		"latitude": "40-27-0 N",
		"longitude": "87-20-0 W",
		"state": "INDIANA",
		"artcc": "ZAU",
		"type": "RNAV",
		"updated": "01/12/2015",
	},
	{
		"name": "EMQIB",
		"latitude": "41-20-59.01 N",
		"longitude": "91-6-46.35 W",
		"state": "IOWA",
		"artcc": "ZAU",
		"type": "RNAV",
		"updated": "08/25/2014",
	},
	{
		"name": "EMTEE",
		"latitude": "40-0-19.12 N",
		"longitude": "88-0-17.92 W",
		"state": "ILLINOIS",
		"artcc": "ZAU",
		"type": "RP",
		"updated": "RBS*VOR/DME*166.00",
	},
	{
		"name": "ENAME",
		"latitude": "41-43-38.79 N",
		"longitude": "89-58-16.18 W",
		"state": "ILLINOIS",
		"artcc": "ZAU",
		"type": "RP",
		"updated": "CVA*VORTAC*083.00/23.04",
	},
	{
		"name": "ENDEE",
		"latitude": "41-22-26.6 N",
		"longitude": "88-30-32.3 W",
		"state": "ILLINOIS",
		"artcc": "ZAU",
		"type": "RNAV",
		"updated": "05/06/2013",
	},
	{
		"name": "ENEGY",
		"latitude": "43-0-49.52 N",
		"longitude": "85-1-54 W",
		"state": "MICHIGAN",
		"artcc": "ZAU",
		"type": "RNAV",
		"updated": "04/17/2018",
	},
	{
		"name": "ENEXE",
		"latitude": "43-38-13.58 N",
		"longitude": "86-22-37.3 W",
		"state": "MICHIGAN",
		"artcc": "ZAU",
		"type": "RNAV",
		"updated": "11/04/2015",
	},
	{
		"name": "ENKOW",
		"latitude": "42-37-57.49 N",
		"longitude": "87-12-15.98 W",
		"state": "WISCONSIN",
		"artcc": "ZAU",
		"type": "CN",
		"updated": "12/04/2014",
	},
	{
		"name": "ENOYE",
		"latitude": "40-7-59.17 N",
		"longitude": "88-30-10.19 W",
		"state": "ILLINOIS",
		"artcc": "ZAU",
		"type": "RP",
		"updated": "CMI*VORTAC*296.58/12.00",
	},
	{
		"name": "ENRUW",
		"latitude": "42-30-12.16 N",
		"longitude": "85-33-28.56 W",
		"state": "MICHIGAN",
		"artcc": "ZAU",
		"type": "RNAV",
		"updated": "12/21/2009",
	},
	{
		"name": "EPABE",
		"latitude": "41-44-32.33 N",
		"longitude": "88-27-11.12 W",
		"state": "ILLINOIS",
		"artcc": "ZAU",
		"type": "RP",
		"updated": "DPA*VOR/DME*205.51",
	},
	{
		"name": "EPEKE",
		"latitude": "41-56-31.77 N",
		"longitude": "84-46-31.24 W",
		"state": "MICHIGAN",
		"artcc": "ZOB",
		"type": "RNAV",
		"updated": "02/22/2008",
	},
	{
		"name": "EPEPE",
		"latitude": "40-43-41.87 N",
		"longitude": "89-48-39.19 W",
		"state": "ILLINOIS",
		"artcc": "ZAU",
		"type": "RNAV",
		"updated": "08/22/2005",
	},
	{
		"name": "EQAZI",
		"latitude": "41-18-51.66 N",
		"longitude": "92-55-12.91 W",
		"state": "IOWA",
		"artcc": "ZAU",
		"type": "RNAV",
		"updated": "10/06/2008",
	},
	{
		"name": "EQIRU",
		"latitude": "41-38-8.37 N",
		"longitude": "92-54-5.25 W",
		"state": "IOWA",
		"artcc": "ZAU",
		"type": "RNAV",
		"updated": "10/06/2008",
	},
	{
		"name": "EQQED",
		"latitude": "43-25-5.42 N",
		"longitude": "89-47-32.43 W",
		"state": "WISCONSIN",
		"artcc": "ZAU",
		"type": "RP",
		"updated": "DLL*LE*S CRS/6.90",
	},
	{
		"name": "ERACK",
		"latitude": "41-21-32.28 N",
		"longitude": "87-21-32.01 W",
		"state": "INDIANA",
		"artcc": "ZAU",
		"type": "RNAV",
		"updated": "10/08/2015",
	},
	{
		"name": "ERAGE",
		"latitude": "43-49-6.62 N",
		"longitude": "88-0-20.62 W",
		"state": "WISCONSIN",
		"artcc": "ZAU",
		"type": "RP",
		"updated": "OSH*VORTAC*111.18/26.00",
	},
	{
		"name": "ERNEY",
		"latitude": "40-42-13.64 N",
		"longitude": "87-16-39.67 W",
		"state": "INDIANA",
		"artcc": "ZAU",
		"type": "RP",
		"updated": "DNV*VORTAC*026.00",
	},
	{
		"name": "ERNNY",
		"latitude": "42-20-19.39 N",
		"longitude": "87-32-3.06 W",
		"state": "ILLINOIS",
		"artcc": "ZAU",
		"type": "RP",
		"updated": "ORD*VOR/DME*036.03/26.77",
	},
	{
		"name": "ERZEH",
		"latitude": "41-57-39.01 N",
		"longitude": "85-28-18.11 W",
		"state": "MICHIGAN",
		"artcc": "ZAU",
		"type": "RNAV",
		"updated": "06/19/2000",
	},
	{
		"name": "ESEVE",
		"latitude": "43-12-42.64 N",
		"longitude": "90-19-3.1 W",
		"state": "WISCONSIN",
		"artcc": "ZAU",
		"type": "RNAV",
		"updated": "04/16/2008",
	},
	{
		"name": "ESILE",
		"latitude": "41-42-27.29 N",
		"longitude": "84-49-20.72 W",
		"state": "INDIANA",
		"artcc": "ZAU",
		"type": "RNAV",
		"updated": "02/26/2018",
	},
	{
		"name": "ESOGE",
		"latitude": "42-46-12.73 N",
		"longitude": "88-49-46.66 W",
		"state": "WISCONSIN",
		"artcc": "ZAU",
		"type": "RNAV",
		"updated": "03/19/2003",
	},
	{
		"name": "ESSPO",
		"latitude": "41-34-54.25 N",
		"longitude": "87-14-38.7 W",
		"state": "INDIANA",
		"artcc": "ZAU",
		"type": "RNAV",
		"updated": "09/30/2008",
	},
	{
		"name": "ESSSS",
		"latitude": "42-0-5.76 N",
		"longitude": "88-26-30.94 W",
		"state": "ILLINOIS",
		"artcc": "ZAU",
		"type": "RP",
		"updated": "SAJ*LD*272.99/22.90",
	},
	{
		"name": "ESYIJ",
		"latitude": "41-6-17.38 N",
		"longitude": "87-48-50.69 W",
		"state": "ILLINOIS",
		"artcc": "ZAU",
		"type": "RNAV",
		"updated": "03/22/2013",
	},
	{
		"name": "ETEVE",
		"latitude": "43-2-51.43 N",
		"longitude": "91-13-9.89 W",
		"state": "IOWA",
		"artcc": "ZAU",
		"type": "RNAV",
		"updated": "09/16/2002",
	},
	{
		"name": "ETHNL",
		"latitude": "41-38-15.39 N",
		"longitude": "86-19-1.31 W",
		"state": "INDIANA",
		"artcc": "ZAU",
		"type": "RNAV",
		"updated": "06/28/2009",
	},
	{
		"name": "ETKUC",
		"latitude": "40-34-56.78 N",
		"longitude": "91-7-18.54 W",
		"state": "ILLINOIS",
		"artcc": "ZAU",
		"type": "RNAV",
		"updated": "03/23/2009",
	},
	{
		"name": "ETUVE",
		"latitude": "41-31-39.26 N",
		"longitude": "85-31-3.42 W",
		"state": "INDIANA",
		"artcc": "ZAU",
		"type": "RP",
		"updated": "GSH*VORTAC*/23.00",
	},
	{
		"name": "EVEPY",
		"latitude": "41-43-56.49 N",
		"longitude": "87-38-26.19 W",
		"state": "ILLINOIS",
		"artcc": "ZAU",
		"type": "RNAV",
		"updated": "07/11/2011",
	},
	{
		"name": "EVERY",
		"latitude": "40-28-51.77 N",
		"longitude": "89-45-54.99 W",
		"state": "ILLINOIS",
		"artcc": "ZAU",
		"type": "RP",
		"updated": "BMI*VOR/DME*267.29",
	},
	{
		"name": "EVMOQ",
		"latitude": "42-35-26.98 N",
		"longitude": "92-16-27.55 W",
		"state": "IOWA",
		"artcc": "ZAU",
		"type": "RNAV",
		"updated": "12/13/2001",
	},
	{
		"name": "EVOTE",
		"latitude": "41-57-3.63 N",
		"longitude": "85-13-48.61 W",
		"state": "MICHIGAN",
		"artcc": "ZAU",
		"type": "RP",
		"updated": "GIJ*VORTAC*077.00/50.00",
	},
	{
		"name": "EVRSN",
		"latitude": "41-56-41.18 N",
		"longitude": "87-57-16.62 W",
		"state": "ILLINOIS",
		"artcc": "ZAU",
		"type": "RNAV",
		"updated": "05/25/2012",
	},
	{
		"name": "EWAWI",
		"latitude": "43-18-12.7 N",
		"longitude": "88-39-43.37 W",
		"state": "WISCONSIN",
		"artcc": "ZAU",
		"type": "RP",
		"updated": "BAE*VOR/DME*302.18/20.00",
	},
	{
		"name": "EWEDI",
		"latitude": "41-5-38.74 N",
		"longitude": "92-31-43.71 W",
		"state": "IOWA",
		"artcc": "ZAU",
		"type": "RP",
		"updated": "OTM*VOR/DME*287.00/10.00",
	},
	{
		"name": "EWGUF",
		"latitude": "42-38-54.45 N",
		"longitude": "92-23-10.21 W",
		"state": "IOWA",
		"artcc": "ZAU",
		"type": "RNAV",
		"updated": "12/13/2001",
	},
	{
		"name": "EWITT",
		"latitude": "40-12-18.43 N",
		"longitude": "88-48-13.87 W",
		"state": "ILLINOIS",
		"artcc": "ZAU",
		"type": "RP",
		"updated": "RBS*VOR/DME*230.61/37.01",
	},
	{
		"name": "EXARR",
		"latitude": "42-51-0 N",
		"longitude": "87-26-40 W",
		"state": "WISCONSIN",
		"artcc": "ZAU",
		"type": "RNAV",
		"updated": "01/28/2014",
	},
	{
		"name": "EXCAP",
		"latitude": "41-52-53.57 N",
		"longitude": "86-43-58.34 W",
		"state": "MICHIGAN",
		"artcc": "ZAU",
		"type": "RP",
		"updated": "GIJ*VORTAC*290.16/19.79",
	},
	{
		"name": "EXEKE",
		"latitude": "41-50-56.8 N",
		"longitude": "87-50-16.39 W",
		"state": "ILLINOIS",
		"artcc": "ZAU",
		"type": "RNAV",
		"updated": "09/25/2002",
	},
	{
		"name": "EXEMP",
		"latitude": "43-57-27.03 N",
		"longitude": "88-14-9.78 W",
		"state": "WISCONSIN",
		"artcc": "ZAU",
		"type": "RP",
		"updated": "OSH*VORTAC*096.00/14.00",
	},
	{
		"name": "EXIDE",
		"latitude": "43-4-54.58 N",
		"longitude": "89-16-38.83 W",
		"state": "WISCONSIN",
		"artcc": "ZAU",
		"type": "RNAV",
		"updated": "10/17/2005",
	},
	{
		"name": "EXPEN",
		"latitude": "41-38-14.68 N",
		"longitude": "93-25-58.48 W",
		"state": "IOWA",
		"artcc": "ZAU",
		"type": "RP",
		"updated": "TNU*VOR/DME*236.01/17.00",
	},
	{
		"name": "EXSAT",
		"latitude": "40-31-31.23 N",
		"longitude": "87-10-23.64 W",
		"state": "INDIANA",
		"artcc": "ZAU",
		"type": "RNAV",
		"updated": "02/23/2007",
	},
	{
		"name": "EXSOP",
		"latitude": "41-12-8.28 N",
		"longitude": "86-22-55.61 W",
		"state": "INDIANA",
		"artcc": "ZAU",
		"type": "RNAV",
		"updated": "02/23/2016",
	},
	{
		"name": "EXUGE",
		"latitude": "41-51-32.34 N",
		"longitude": "90-21-31.91 W",
		"state": "IOWA",
		"artcc": "ZAU",
		"type": "RNAV",
		"updated": "06/06/2012",
	},
	{
		"name": "EXUKE",
		"latitude": "42-44-28.8 N",
		"longitude": "92-13-14.12 W",
		"state": "IOWA",
		"artcc": "ZAU",
		"type": "RNAV",
		"updated": "12/04/2000",
	},
	{
		"name": "EYDUF",
		"latitude": "42-54-43.29 N",
		"longitude": "90-12-4.64 W",
		"state": "WISCONSIN",
		"artcc": "ZAU",
		"type": "RNAV",
		"updated": "07/09/2012",
	},
	{
		"name": "EYEZI",
		"latitude": "41-37-28.57 N",
		"longitude": "85-19-41.44 W",
		"state": "INDIANA",
		"artcc": "ZAU",
		"type": "RNAV",
		"updated": "09/25/2009",
	},
	{
		"name": "EYING",
		"latitude": "41-35-49.5 N",
		"longitude": "86-55-58.68 W",
		"state": "INDIANA",
		"artcc": "ZAU",
		"type": "RNAV",
		"updated": "11/18/2016",
	},
	{
		"name": "EYLAR",
		"latitude": "43-56-24.07 N",
		"longitude": "90-5-2.69 W",
		"state": "WISCONSIN",
		"artcc": "ZAU",
		"type": "RNAV",
		"updated": "06/30/2003",
	},
	{
		"name": "EYOLU",
		"latitude": "42-7-39.3 N",
		"longitude": "85-31-40.16 W",
		"state": "MICHIGAN",
		"artcc": "ZAU",
		"type": "RNAV",
		"updated": "07/19/2007",
	},
	{
		"name": "EYPUB",
		"latitude": "43-28-24.74 N",
		"longitude": "88-25-3.97 W",
		"state": "WISCONSIN",
		"artcc": "ZAU",
		"type": "RNAV",
		"updated": "02/17/2010",
	},
	{
		"name": "EYUCE",
		"latitude": "42-41-28.5 N",
		"longitude": "92-37-52.72 W",
		"state": "IOWA",
		"artcc": "ZAU",
		"type": "RP",
		"updated": "ALO*LD*E CRS/14.00",
	},
	{
		"name": "EYVAC",
		"latitude": "42-29-40.12 N",
		"longitude": "90-23-40.89 W",
		"state": "ILLINOIS",
		"artcc": "ZAU",
		"type": "RNAV",
		"updated": "06/28/2009",
	},
	{
		"name": "EZAYE",
		"latitude": "43-6-40.26 N",
		"longitude": "85-58-0.9 W",
		"state": "MICHIGAN",
		"artcc": "ZAU",
		"type": "RNAV",
		"updated": "04/06/2009",
	},
	{
		"name": "EZRAH",
		"latitude": "41-39-3 N",
		"longitude": "87-38-6.86 W",
		"state": "ILLINOIS",
		"artcc": "ZAU",
		"type": "RNAV",
		"updated": "11/19/2012",
	},
	{
		"name": "EZZRA",
		"latitude": "41-15-41.18 N",
		"longitude": "89-27-25.14 W",
		"state": "ILLINOIS",
		"artcc": "ZAU",
		"type": "RNAV",
		"updated": "08/19/2015",
	},
