	{
		"name": "FABIO",
		"latitude": "42-12-28 N",
		"longitude": "87-28-21 W",
		"state": "ILLINOIS",
		"artcc": "ZAU",
		"type": "RP",
		"updated": "OBK*VOR/DME*094.04/21.39",
	},
	{
		"name": "FABKU",
		"latitude": "41-48-13.18 N",
		"longitude": "86-15-53.05 W",
		"state": "MICHIGAN",
		"artcc": "ZAU",
		"type": "RNAV",
		"updated": "05/25/2005",
	},
	{
		"name": "FABLU",
		"latitude": "40-59-37.26 N",
		"longitude": "92-45-37.93 W",
		"state": "IOWA",
		"artcc": "ZAU",
		"type": "RP",
		"updated": "OTM*VOR/DME*258.00/19.86",
	},
	{
		"name": "FABOL",
		"latitude": "40-53-6.94 N",
		"longitude": "91-21-16.9 W",
		"state": "IOWA",
		"artcc": "ZAU",
		"type": "RNAV",
		"updated": "07/09/2013",
	},
	{
		"name": "FABUG",
		"latitude": "41-49-1.62 N",
		"longitude": "88-16-45.17 W",
		"state": "ILLINOIS",
		"artcc": "ZAU",
		"type": "RNAV",
		"updated": "10/24/2007",
	},
	{
		"name": "FACEL",
		"latitude": "41-50-58.58 N",
		"longitude": "87-50-34.09 W",
		"state": "ILLINOIS",
		"artcc": "ZAU",
		"type": "RP",
		"updated": "MDW*LD*NW CRS/5.03",
	},
	{
		"name": "FAHEY",
		"latitude": "42-58-30.64 N",
		"longitude": "87-46-9.1 W",
		"state": "WISCONSIN",
		"artcc": "ZAU",
		"type": "RP",
		"updated": "PXY*LE*073.66/7.14",
	},
	{
		"name": "FALKN",
		"latitude": "42-35-33.73 N",
		"longitude": "89-32-20.6 W",
		"state": "WISCONSIN",
		"artcc": "ZAU",
		"type": "RNAV",
		"updated": "03/24/2009",
	},
	{
		"name": "FALNO",
		"latitude": "43-0-4.77 N",
		"longitude": "91-2-58.13 W",
		"state": "WISCONSIN",
		"artcc": "ZAU",
		"type": "RNAV",
		"updated": "09/16/2002",
	},
	{
		"name": "FALOM",
		"latitude": "40-41-31.61 N",
		"longitude": "89-43-54.75 W",
		"state": "ILLINOIS",
		"artcc": "ZAU",
		"type": "RNAV",
		"updated": "02/02/2006",
	},
	{
		"name": "FALRA",
		"latitude": "42-24-7.06 N",
		"longitude": "88-22-21.21 W",
		"state": "ILLINOIS",
		"artcc": "ZAU",
		"type": "RNAV",
		"updated": "01/04/2001",
	},
	{
		"name": "FALSU",
		"latitude": "42-46-55.26 N",
		"longitude": "85-29-48.98 W",
		"state": "MICHIGAN",
		"artcc": "ZAU",
		"type": "RNAV",
		"updated": "05/11/2009",
	},
	{
		"name": "FAMEM",
		"latitude": "41-8-4.77 N",
		"longitude": "90-12-12.84 W",
		"state": "ILLINOIS",
		"artcc": "ZAU",
		"type": "RNAV",
		"updated": "05/15/2012",
	},
	{
		"name": "FANEK",
		"latitude": "41-43-27.79 N",
		"longitude": "87-39-45.49 W",
		"state": "ILLINOIS",
		"artcc": "ZAU",
		"type": "RNAV",
		"updated": "09/25/2002",
	},
	{
		"name": "FANGU",
		"latitude": "42-5-33.8 N",
		"longitude": "89-6-10.79 W",
		"state": "ILLINOIS",
		"artcc": "ZAU",
		"type": "RNAV",
		"updated": "11/24/2010",
	},
	{
		"name": "FANZI",
		"latitude": "42-41-38.83 N",
		"longitude": "88-8-48.26 W",
		"state": "WISCONSIN",
		"artcc": "ZAU",
		"type": "RNAV",
		"updated": "04/01/2014",
	},
	{
		"name": "FAPKO",
		"latitude": "43-42-33.81 N",
		"longitude": "90-29-36.88 W",
		"state": "WISCONSIN",
		"artcc": "ZAU",
		"type": "RP",
		"updated": "DLL*VORTAC*283.90/33.20",
	},
	{
		"name": "FAPSA",
		"latitude": "40-47-17.19 N",
		"longitude": "89-55-3.09 W",
		"state": "ILLINOIS",
		"artcc": "ZAU",
		"type": "RNAV",
		"updated": "08/24/2005",
	},
	{
		"name": "FAPUP",
		"latitude": "43-9-22.71 N",
		"longitude": "88-48-19.61 W",
		"state": "WISCONSIN",
		"artcc": "ZAU",
		"type": "RNAV",
		"updated": "03/19/2003",
	},
	{
		"name": "FARCE",
		"latitude": "41-38-16.16 N",
		"longitude": "90-17-25.73 W",
		"state": "ILLINOIS",
		"artcc": "ZAU",
		"type": "RNAV",
		"updated": "08/19/2015",
	},
	{
		"name": "FAREM",
		"latitude": "40-56-2.83 N",
		"longitude": "85-57-45.24 W",
		"state": "INDIANA",
		"artcc": "ZAU",
		"type": "RNAV",
		"updated": "08/07/2008",
	},
	{
		"name": "FARIV",
		"latitude": "42-26-13.71 N",
		"longitude": "88-6-48.94 W",
		"state": "ILLINOIS",
		"artcc": "ZAU",
		"type": "RNAV",
		"updated": "06/19/2009",
	},
	{
		"name": "FARMM",
		"latitude": "42-20-9.58 N",
		"longitude": "88-21-33.92 W",
		"state": "ILLINOIS",
		"artcc": "ZAU",
		"type": "RP",
		"updated": "DPA*VOR/DME*357.12",
	},
	{
		"name": "FARNI",
		"latitude": "41-57-10.4 N",
		"longitude": "85-0-1.3 W",
		"state": "MICHIGAN",
		"artcc": "ZAU",
		"type": "RNAV",
		"updated": "02/22/2008",
	},
	{
		"name": "FARON",
		"latitude": "42-59-40.92 N",
		"longitude": "90-53-9.77 W",
		"state": "WISCONSIN",
		"artcc": "ZAU",
		"type": "RP",
		"updated": "DBQ*VORTAC*343.65/36.43",
	},
	{
		"name": "FARVI",
		"latitude": "42-16-11.031 N",
		"longitude": "91-56-42.57 W",
		"state": "IOWA",
		"artcc": "ZAU",
		"type": "RP",
		"updated": "CID*VOR/DME*337.79/24.00",
	},
	{
		"name": "FASOB",
		"latitude": "40-12-28.05 N",
		"longitude": "88-8-43.9 W",
		"state": "ILLINOIS",
		"artcc": "ZAU",
		"type": "RP",
		"updated": "CMI*VORTAC*027.00/12.00",
	},
	{
		"name": "FATOG",
		"latitude": "42-55-5.92 N",
		"longitude": "85-16-30.35 W",
		"state": "MICHIGAN",
		"artcc": "ZAU",
		"type": "RNAV",
		"updated": "05/20/2009",
	},
	{
		"name": "FATOX",
		"latitude": "40-48-4.34 N",
		"longitude": "87-11-45.47 W",
		"state": "INDIANA",
		"artcc": "ZAU",
		"type": "RP",
		"updated": "FWA*VORTAC*270.00",
	},
	{
		"name": "FAVOM",
		"latitude": "43-13-36.32 N",
		"longitude": "89-24-26.59 W",
		"state": "WISCONSIN",
		"artcc": "ZAU",
		"type": "RNAV",
		"updated": "03/24/2009",
	},
	{
		"name": "FAXAG",
		"latitude": "40-0-44.7 N",
		"longitude": "86-10-53.41 W",
		"state": "INDIANA",
		"artcc": "ZAU",
		"type": "RP",
		"updated": "VHP*VORTAC*034.86/14.64",
	},
	{
		"name": "FEBAG",
		"latitude": "41-38-45.89 N",
		"longitude": "87-5-36.65 W",
		"state": "INDIANA",
		"artcc": "ZAU",
		"type": "RNAV",
		"updated": "04/12/2006",
	},
	{
		"name": "FEBEK",
		"latitude": "42-43-35.44 N",
		"longitude": "90-18-47.06 W",
		"state": "WISCONSIN",
		"artcc": "ZAU",
		"type": "RNAV",
		"updated": "06/28/2009",
	},
	{
		"name": "FEBLI",
		"latitude": "42-15-1.58 N",
		"longitude": "85-37-59.38 W",
		"state": "MICHIGAN",
		"artcc": "ZAU",
		"type": "RNAV",
		"updated": "01/31/2011",
	},
	{
		"name": "FEDIV",
		"latitude": "41-43-15.61 N",
		"longitude": "85-45-36.39 W",
		"state": "INDIANA",
		"artcc": "ZAU",
		"type": "RNAV",
		"updated": "05/26/2005",
	},
	{
		"name": "FEGFO",
		"latitude": "42-3-13.24 N",
		"longitude": "92-10-45.87 W",
		"state": "IOWA",
		"artcc": "ZAU",
		"type": "RNAV",
		"updated": "02/09/2018",
	},
	{
		"name": "FEKAR",
		"latitude": "42-51-24.02 N",
		"longitude": "87-54-23.42 W",
		"state": "WISCONSIN",
		"artcc": "ZAU",
		"type": "RNAV",
		"updated": "08/06/2003",
	},
	{
		"name": "FELAX",
		"latitude": "41-30-40.94 N",
		"longitude": "85-16-0.38 W",
		"state": "INDIANA",
		"artcc": "ZAU",
		"type": "RNAV",
		"updated": "10/30/2001",
	},
	{
		"name": "FELIL",
		"latitude": "43-0-28.91 N",
		"longitude": "89-20-51.04 W",
		"state": "WISCONSIN",
		"artcc": "ZAU",
		"type": "RNAV",
		"updated": "06/13/2011",
	},
	{
		"name": "FELYN",
		"latitude": "43-5-4.64 N",
		"longitude": "85-47-28.01 W",
		"state": "MICHIGAN",
		"artcc": "ZAU",
		"type": "RNAV",
		"updated": "04/06/2009",
	},
	{
		"name": "FEMHA",
		"latitude": "42-31-8.68 N",
		"longitude": "92-30-43.6 W",
		"state": "IOWA",
		"artcc": "ZAU",
		"type": "RNAV",
		"updated": "02/09/2018",
	},
	{
		"name": "FEMIT",
		"latitude": "41-58-14.38 N",
		"longitude": "91-58-23.28 W",
		"state": "IOWA",
		"artcc": "ZAU",
		"type": "RNAV",
		"updated": "03/14/2007",
	},
	{
		"name": "FENAB",
		"latitude": "42-45-41.27 N",
		"longitude": "85-58-2.58 W",
		"state": "MICHIGAN",
		"artcc": "ZAU",
		"type": "RP",
		"updated": "BIV*LD*E CRS/6.97",
	},
	{
		"name": "FENCK",
		"latitude": "41-45-27.21 N",
		"longitude": "87-41-8.64 W",
		"state": "ILLINOIS",
		"artcc": "ZAU",
		"type": "RNAV",
		"updated": "05/06/2013",
	},
	{
		"name": "FERLI",
		"latitude": "42-51-51.84 N",
		"longitude": "85-39-1.06 W",
		"state": "MICHIGAN",
		"artcc": "ZAU",
		"type": "RNAV",
		"updated": "07/08/2009",
	},
	{
		"name": "FERLL",
		"latitude": "41-56-9.27 N",
		"longitude": "88-30-42.32 W",
		"state": "ILLINOIS",
		"artcc": "ZAU",
		"type": "RP",
		"updated": "BYW*LD*271.36/27.83",
	},
	{
		"name": "FETAD",
		"latitude": "43-28-21.54 N",
		"longitude": "89-58-58.38 W",
		"state": "WISCONSIN",
		"artcc": "ZAU",
		"type": "RNAV",
		"updated": "01/19/2012",
	},
	{
		"name": "FETIX",
		"latitude": "43-0-33.77 N",
		"longitude": "87-40-18.58 W",
		"state": "WISCONSIN",
		"artcc": "ZAU",
		"type": "RNAV",
		"updated": "08/06/2003",
	},
	{
		"name": "FETKO",
		"latitude": "42-58-58.17 N",
		"longitude": "90-58-52.79 W",
		"state": "WISCONSIN",
		"artcc": "ZAU",
		"type": "WP",
		"updated": "11/02/1998",
	},
	{
		"name": "FEVAC",
		"latitude": "43-20-30 N",
		"longitude": "90-27-13.28 W",
		"state": "WISCONSIN",
		"artcc": "ZAU",
		"type": "RNAV",
		"updated": "05/24/2016",
	},
	{
		"name": "FEVAX",
		"latitude": "41-40-14.28 N",
		"longitude": "86-4-34.62 W",
		"state": "INDIANA",
		"artcc": "ZAU",
		"type": "RNAV",
		"updated": "02/24/2011",
	},
	{
		"name": "FEVIX",
		"latitude": "41-27-5.94 N",
		"longitude": "86-44-18.09 W",
		"state": "INDIANA",
		"artcc": "ZAU",
		"type": "RNAV",
		"updated": "12/12/2007",
	},
	{
		"name": "FEXIK",
		"latitude": "40-24-1.08 N",
		"longitude": "88-35-54.99 W",
		"state": "ILLINOIS",
		"artcc": "ZAU",
		"type": "RP",
		"updated": "RBS*VOR/DME*239.46",
	},
	{
		"name": "FEYNE",
		"latitude": "43-37-7.69 N",
		"longitude": "88-38-58.96 W",
		"state": "WISCONSIN",
		"artcc": "ZAU",
		"type": "WP",
		"updated": "11/02/1998",
	},
	{
		"name": "FEZTY",
		"latitude": "43-18-19.29 N",
		"longitude": "88-53-27.34 W",
		"state": "WISCONSIN",
		"artcc": "ZAU",
		"type": "RNAV",
		"updated": "05/24/2016",
	},
	{
		"name": "FIBSO",
		"latitude": "43-9-16.83 N",
		"longitude": "87-58-26.16 W",
		"state": "WISCONSIN",
		"artcc": "ZAU",
		"type": "RNAV",
		"updated": "08/06/2003",
	},
	{
		"name": "FIBVU",
		"latitude": "43-14-18.41 N",
		"longitude": "88-46-45.88 W",
		"state": "WISCONSIN",
		"artcc": "ZAU",
		"type": "RNAV",
		"updated": "03/16/2007",
	},
	{
		"name": "FIDAK",
		"latitude": "41-58-8.78 N",
		"longitude": "87-51-8.81 W",
		"state": "ILLINOIS",
		"artcc": "ZAU",
		"type": "RNAV",
		"updated": "03/22/2013",
	},
	{
		"name": "FIDET",
		"latitude": "40-46-25.72 N",
		"longitude": "92-47-38.31 W",
		"state": "IOWA",
		"artcc": "ZAU",
		"type": "RNAV",
		"updated": "05/24/2011",
	},
	{
		"name": "FIDNA",
		"latitude": "41-32-11.97 N",
		"longitude": "85-50-46.62 W",
		"state": "INDIANA",
		"artcc": "ZAU",
		"type": "RNAV",
		"updated": "05/25/2005",
	},
	{
		"name": "FIDNO",
		"latitude": "42-54-26.41 N",
		"longitude": "88-2-51.42 W",
		"state": "WISCONSIN",
		"artcc": "ZAU",
		"type": "RP",
		"updated": "GMF*LD*SW CRS/5.79",
	},
	{
		"name": "FIDPA",
		"latitude": "44-0-26.16 N",
		"longitude": "90-22-22.24 W",
		"state": "WISCONSIN",
		"artcc": "ZAU",
		"type": "RNAV",
		"updated": "11/03/2015",
	},
	{
		"name": "FIGAD",
		"latitude": "43-59-28.58 N",
		"longitude": "88-31-14.37 W",
		"state": "WISCONSIN",
		"artcc": "ZAU",
		"type": "RNAV",
		"updated": "03/24/2008",
	},
	{
		"name": "FIGIS",
		"latitude": "43-9-27.38 N",
		"longitude": "90-58-45.27 W",
		"state": "WISCONSIN",
		"artcc": "ZAU",
		"type": "RNAV",
		"updated": "07/21/2007",
	},
	{
		"name": "FIKIT",
		"latitude": "42-59-26.98 N",
		"longitude": "87-42-16.19 W",
		"state": "WISCONSIN",
		"artcc": "ZAU",
		"type": "RNAV",
		"updated": "01/08/2014",
	},
	{
		"name": "FIKOS",
		"latitude": "41-23-28.36 N",
		"longitude": "90-24-16.91 W",
		"state": "ILLINOIS",
		"artcc": "ZAU",
		"type": "RNAV",
		"updated": "08/07/2009",
	},
	{
		"name": "FIKRI",
		"latitude": "41-25-4.65 N",
		"longitude": "92-35-47.57 W",
		"state": "IOWA",
		"artcc": "ZAU",
		"type": "RNAV",
		"updated": "07/11/2005",
	},
	{
		"name": "FIKUP",
		"latitude": "42-58-32.96 N",
		"longitude": "87-55-47.79 W",
		"state": "WISCONSIN",
		"artcc": "ZAU",
		"type": "RNAV",
		"updated": "08/06/2003",
	},
	{
		"name": "FILAG",
		"latitude": "43-27-5.21 N",
		"longitude": "85-19-1.07 W",
		"state": "MICHIGAN",
		"artcc": "ZAU",
		"type": "RNAV",
		"updated": "07/15/2015",
	},
	{
		"name": "FINKO",
		"latitude": "43-12-39.21 N",
		"longitude": "90-27-23.57 W",
		"state": "WISCONSIN",
		"artcc": "ZAU",
		"type": "RNAV",
		"updated": "04/16/2008",
	},
	{
		"name": "FINZR",
		"latitude": "41-39-4.97 N",
		"longitude": "88-15-1.71 W",
		"state": "ILLINOIS",
		"artcc": "ZAU",
		"type": "RP",
		"updated": "DPA*VOR/DME*160.62",
	},
	{
		"name": "FIPEX",
		"latitude": "41-29-11.69 N",
		"longitude": "87-38-57.22 W",
		"state": "ILLINOIS",
		"artcc": "ZAU",
		"type": "RNAV",
		"updated": "01/22/2007",
	},
	{
		"name": "FIRDU",
		"latitude": "42-35-12.63 N",
		"longitude": "89-4-47.01 W",
		"state": "WISCONSIN",
		"artcc": "ZAU",
		"type": "RNAV",
		"updated": "04/06/2010",
	},
	{
		"name": "FIREP",
		"latitude": "41-26-39.01 N",
		"longitude": "89-9-14.44 W",
		"state": "ILLINOIS",
		"artcc": "ZAU",
		"type": "RNAV",
		"updated": "09/08/2015",
	},
	{
		"name": "FIRNA",
		"latitude": "40-36-57 N",
		"longitude": "87-5-19 W",
		"state": "INDIANA",
		"artcc": "ZAU",
		"type": "RP",
		"updated": "BVT*VORTAC*345.17/3.69",
	},
	{
		"name": "FIRPA",
		"latitude": "41-30-25.76 N",
		"longitude": "90-36-23.05 W",
		"state": "IOWA",
		"artcc": "ZAU",
		"type": "RNAV",
		"updated": "08/07/2009",
	},
	{
		"name": "FISHR",
		"latitude": "40-37-51.17 N",
		"longitude": "89-33-38.69 W",
		"state": "ILLINOIS",
		"artcc": "ZAU",
		"type": "RP",
		"updated": "PIA*VORTAC*101.48/11.00",
	},
	{
		"name": "FISKE",
		"latitude": "43-57-19.67 N",
		"longitude": "88-40-47 W",
		"state": "WISCONSIN",
		"artcc": "ZAU",
		"type": "RP",
		"updated": "OSH*VORTAC*246.68/5.76",
	},
	{
		"name": "FISSK",
		"latitude": "41-2-57 N",
		"longitude": "86-25-58 W",
		"state": "INDIANA",
		"artcc": "ZAU",
		"type": "RNAV",
		"updated": "01/18/2007",
	},
	{
		"name": "FISUL",
		"latitude": "41-20-41.47 N",
		"longitude": "88-50-46.09 W",
		"state": "ILLINOIS",
		"artcc": "ZAU",
		"type": "RNAV",
		"updated": "07/27/2009",
	},
	{
		"name": "FITAR",
		"latitude": "41-57-26.32 N",
		"longitude": "87-34-56 W",
		"state": "ILLINOIS",
		"artcc": "ZAU",
		"type": "RP",
		"updated": "VQX*LD*093.88/13.91",
	},
	{
		"name": "FITGU",
		"latitude": "42-50-40.23 N",
		"longitude": "87-32-50.19 W",
		"state": "WISCONSIN",
		"artcc": "ZAU",
		"type": "RNAV",
		"updated": "09/08/2011",
	},
	{
		"name": "FITSA",
		"latitude": "43-22-18.2 N",
		"longitude": "87-50-35.82 W",
		"state": "WISCONSIN",
		"artcc": "ZAU",
		"type": "RNAV",
		"updated": "02/17/2010",
	},
	{
		"name": "FIVIX",
		"latitude": "43-28-3.24 N",
		"longitude": "88-1-32.46 W",
		"state": "WISCONSIN",
		"artcc": "ZAU",
		"type": "RNAV",
		"updated": "02/16/2010",
	},
	{
		"name": "FIVLO",
		"latitude": "43-2-2.17 N",
		"longitude": "85-56-56.56 W",
		"state": "MICHIGAN",
		"artcc": "ZAU",
		"type": "RP",
		"updated": "MKG*VORTAC*154.90/9.04",
	},
	{
		"name": "FIVMU",
		"latitude": "40-29-25.88 N",
		"longitude": "86-15-14.44 W",
		"state": "INDIANA",
		"artcc": "ZAU",
		"type": "RNAV",
		"updated": "07/26/2012",
	},
	{
		"name": "FIXAB",
		"latitude": "41-13-18.48 N",
		"longitude": "93-4-4.23 W",
		"state": "IOWA",
		"artcc": "ZAU",
		"type": "RNAV",
		"updated": "03/04/2010",
	},
	{
		"name": "FIXAX",
		"latitude": "42-36-4.81 N",
		"longitude": "87-59-17.83 W",
		"state": "WISCONSIN",
		"artcc": "ZAU",
		"type": "RP",
		"updated": "BUU*VOR/DME*111.71",
	},
	{
		"name": "FIXIV",
		"latitude": "41-34-50.14 N",
		"longitude": "86-51-45.91 W",
		"state": "INDIANA",
		"artcc": "ZAU",
		"type": "RNAV",
		"updated": "08/07/2012",
	},
	{
		"name": "FIYER",
		"latitude": "42-23-51.97 N",
		"longitude": "87-19-16.21 W",
		"state": "ILLINOIS",
		"artcc": "ZAU",
		"type": "RNAV",
		"updated": "02/23/2018",
	},
	{
		"name": "FLABE",
		"latitude": "41-27-9.15 N",
		"longitude": "87-15-39.9 W",
		"state": "INDIANA",
		"artcc": "ZAU",
		"type": "RNAV",
		"updated": "12/17/2007",
	},
	{
		"name": "FLAMS",
		"latitude": "43-28-15.59 N",
		"longitude": "88-13-59.74 W",
		"state": "WISCONSIN",
		"artcc": "ZAU",
		"type": "RP",
		"updated": "BAE*VOR/DME*004.00",
	},
	{
		"name": "FLLYN",
		"latitude": "41-57-13.2 N",
		"longitude": "88-2-15.13 W",
		"state": "ILLINOIS",
		"artcc": "ZAU",
		"type": "RP",
		"updated": "OBK*VOR/DME*195.47",
	},
	{
		"name": "FNBAR",
		"latitude": "41-17-5 N",
		"longitude": "89-14-28 W",
		"state": "ILLINOIS",
		"artcc": "ZAU",
		"type": "RNAV",
		"updated": "08/27/2013",
	},
	{
		"name": "FNGRS",
		"latitude": "40-37-3.8 N",
		"longitude": "85-16-18 W",
		"state": "INDIANA",
		"artcc": "ZID",
		"type": "RNAV",
		"updated": "09/24/2001",
	},
	{
		"name": "FNUCH",
		"latitude": "42-16-47.81 N",
		"longitude": "87-34-56.27 W",
		"state": "ILLINOIS",
		"artcc": "ZAU",
		"type": "RP",
		"updated": "ORD*VOR/DME*/22.69",
	},
	{
		"name": "FOBID",
		"latitude": "40-19-47.66 N",
		"longitude": "86-54-54.7 W",
		"state": "INDIANA",
		"artcc": "ZAU",
		"type": "RNAV",
		"updated": "09/10/2012",
	},
	{
		"name": "FOBIM",
		"latitude": "40-43-22.16 N",
		"longitude": "89-39-39.09 W",
		"state": "ILLINOIS",
		"artcc": "ZAU",
		"type": "RNAV",
		"updated": "04/24/2018",
	},
	{
		"name": "FOBOR",
		"latitude": "42-40-21.14 N",
		"longitude": "88-13-45.09 W",
		"state": "WISCONSIN",
		"artcc": "ZAU",
		"type": "RNAV",
		"updated": "08/01/2013",
	},
	{
		"name": "FODAT",
		"latitude": "40-47-5.59 N",
		"longitude": "89-40-57.36 W",
		"state": "ILLINOIS",
		"artcc": "ZAU",
		"type": "RNAV",
		"updated": "02/02/2006",
	},
	{
		"name": "FODBU",
		"latitude": "40-38-22.52 N",
		"longitude": "88-14-16.94 W",
		"state": "ILLINOIS",
		"artcc": "ZAU",
		"type": "RNAV",
		"updated": "05/19/2010",
	},
	{
		"name": "FODRU",
		"latitude": "42-24-23.18 N",
		"longitude": "85-40-0.42 W",
		"state": "MICHIGAN",
		"artcc": "ZAU",
		"type": "RNAV",
		"updated": "02/18/2011",
	},
	{
		"name": "FOGAS",
		"latitude": "42-34-34.95 N",
		"longitude": "88-58-53.5 W",
		"state": "WISCONSIN",
		"artcc": "ZAU",
		"type": "RP",
		"updated": "RFD*VOR/DME*023.63",
	},
	{
		"name": "FOGAT",
		"latitude": "43-37-10.85 N",
		"longitude": "86-33-36.69 W",
		"state": "MICHIGAN",
		"artcc": "ZAU",
		"type": "RNAV",
		"updated": "11/04/2015",
	},
	{
		"name": "FOGBI",
		"latitude": "42-55-23.79 N",
		"longitude": "88-1-33.19 W",
		"state": "WISCONSIN",
		"artcc": "ZAU",
		"type": "RNAV",
		"updated": "08/06/2003",
	},
	{
		"name": "FOLAD",
		"latitude": "43-18-56.99 N",
		"longitude": "86-2-15.79 W",
		"state": "MICHIGAN",
		"artcc": "ZAU",
		"type": "RNAV",
		"updated": "03/11/2014",
	},
	{
		"name": "FOLBU",
		"latitude": "42-28-8.72 N",
		"longitude": "87-37-27.51 W",
		"state": "ILLINOIS",
		"artcc": "ZAU",
		"type": "RNAV",
		"updated": "05/31/2005",
	},
	{
		"name": "FOMAG",
		"latitude": "43-29-38.44 N",
		"longitude": "89-46-9.53 W",
		"state": "WISCONSIN",
		"artcc": "ZAU",
		"type": "RNAV",
		"updated": "10/05/2007",
	},
	{
		"name": "FONAB",
		"latitude": "43-38-50.81 N",
		"longitude": "87-38-59.61 W",
		"state": "WISCONSIN",
		"artcc": "ZAU",
		"type": "RNAV",
		"updated": "09/23/2004",
	},
	{
		"name": "FONDY",
		"latitude": "43-34-31.13 N",
		"longitude": "88-29-11.12 W",
		"state": "WISCONSIN",
		"artcc": "ZAU",
		"type": "RNAV",
		"updated": "04/17/2006",
	},
	{
		"name": "FONER",
		"latitude": "41-53-9.26 N",
		"longitude": "91-50-22.31 W",
		"state": "IOWA",
		"artcc": "ZAU",
		"type": "RP",
		"updated": "CID*VOR/DME*262.68/2.41",
	},
	{
		"name": "FONFO",
		"latitude": "42-32-13.81 N",
		"longitude": "85-46-13.22 W",
		"state": "MICHIGAN",
		"artcc": "ZAU",
		"type": "RP",
		"updated": "PMM*VOR/DME*073.78/15.50",
	},
	{
		"name": "FONUV",
		"latitude": "43-20-18.87 N",
		"longitude": "89-11-9.07 W",
		"state": "WISCONSIN",
		"artcc": "ZAU",
		"type": "RNAV",
		"updated": "06/13/2012",
	},
	{
		"name": "FOOTE",
		"latitude": "40-21-51.55 N",
		"longitude": "85-32-6.6 W",
		"state": "INDIANA",
		"artcc": "ZID",
		"type": "RP",
		"updated": "FWA*VORTAC*209.38",
	},
	{
		"name": "FORCE",
		"latitude": "40-45-14.48 N",
		"longitude": "85-37-29.86 W",
		"state": "INDIANA",
		"artcc": "ZAU",
		"type": "RP",
		"updated": "MZZ*VOR/DME*012.00",
	},
	{
		"name": "FORTZ",
		"latitude": "41-53-42 N",
		"longitude": "87-58-6.47 W",
		"state": "ILLINOIS",
		"artcc": "ZAU",
		"type": "RNAV",
		"updated": "05/25/2012",
	},
	{
		"name": "FORVO",
		"latitude": "42-49-8.74 N",
		"longitude": "88-57-6.19 W",
		"state": "WISCONSIN",
		"artcc": "ZAU",
		"type": "RNAV",
		"updated": "04/06/2010",
	},
	{
		"name": "FOSDO",
		"latitude": "42-10-34.4 N",
		"longitude": "85-38-11.91 W",
		"state": "MICHIGAN",
		"artcc": "ZAU",
		"type": "RNAV",
		"updated": "03/01/2011",
	},
	{
		"name": "FOTTR",
		"latitude": "41-58-57.25 N",
		"longitude": "88-26-30.08 W",
		"state": "ILLINOIS",
		"artcc": "ZAU",
		"type": "RP",
		"updated": "JAV*LD*272.98/24.86",
	},
	{
		"name": "FOVGA",
		"latitude": "41-45-10.09 N",
		"longitude": "87-42-23.82 W",
		"state": "ILLINOIS",
		"artcc": "ZAU",
		"type": "RNAV",
		"updated": "07/21/2006",
	},
	{
		"name": "FOVOJ",
		"latitude": "42-17-35.86 N",
		"longitude": "88-3-41.9 W",
		"state": "ILLINOIS",
		"artcc": "ZAU",
		"type": "RP",
		"updated": "OBK*VOR/DME*313.19/6.52",
	},
	{
		"name": "FOVON",
		"latitude": "41-46-35.97 N",
		"longitude": "89-32-44.65 W",
		"state": "ILLINOIS",
		"artcc": "ZAU",
		"type": "RNAV",
		"updated": "10/15/2008",
	},
	{
		"name": "FOWFY",
		"latitude": "43-14-33.53 N",
		"longitude": "85-0-18.34 W",
		"state": "MICHIGAN",
		"artcc": "ZAU",
		"type": "RNAV",
		"updated": "04/17/2018",
	},
	{
		"name": "FOXUN",
		"latitude": "41-59-37.47 N",
		"longitude": "86-15-31.11 W",
		"state": "MICHIGAN",
		"artcc": "ZAU",
		"type": "RNAV",
		"updated": "06/05/2010",
	},
	{
		"name": "FREDM",
		"latitude": "40-42-58.69 N",
		"longitude": "86-21-52.65 W",
		"state": "INDIANA",
		"artcc": "ZAU",
		"type": "MR",
		"updated": "OKK*VORTAC*309.00/18.00",
	},
	{
		"name": "FRIDG",
		"latitude": "40-45-43.8 N",
		"longitude": "85-47-1.2 W",
		"state": "INDIANA",
		"artcc": "ZAU",
		"type": "RNAV",
		"updated": "12/13/2013",
	},
	{
		"name": "FROWN",
		"latitude": "40-33-10.04 N",
		"longitude": "86-1-40.15 W",
		"state": "INDIANA",
		"artcc": "ZAU",
		"type": "RP",
		"updated": "MZZ*VOR/DME*285.71",
	},
	{
		"name": "FRTZZ",
		"latitude": "42-0-2.77 N",
		"longitude": "88-13-4.17 W",
		"state": "ILLINOIS",
		"artcc": "ZAU",
		"type": "RNAV",
		"updated": "05/05/2011",
	},
	{
		"name": "FRUIT",
		"latitude": "41-40-54.56 N",
		"longitude": "92-36-55.55 W",
		"state": "IOWA",
		"artcc": "ZAU",
		"type": "RP",
		"updated": "TNU*VOR/DME*102.26/23.00",
	},
	{
		"name": "FUDDD",
		"latitude": "40-31-21.86 N",
		"longitude": "90-54-44.7 W",
		"state": "ILLINOIS",
		"artcc": "ZAU",
		"type": "RNAV",
		"updated": "08/19/2015",
	},
	{
		"name": "FUWQO",
		"latitude": "40-41-3.11 N",
		"longitude": "91-7-22.31 W",
		"state": "IOWA",
		"artcc": "ZAU",
		"type": "RNAV",
		"updated": "03/19/2009",
	},
	{
		"name": "FYTTE",
		"latitude": "42-22-48.22 N",
		"longitude": "88-40-4.05 W",
		"state": "ILLINOIS",
		"artcc": "ZAU",
		"type": "RNAV",
		"updated": "08/28/2014",
	},
