	{
		"name": "GABCE",
		"latitude": "42-52-13.11 N",
		"longitude": "85-35-53.51 W",
		"state": "MICHIGAN",
		"artcc": "ZAU",
		"type": "RNAV",
		"updated": "05/21/2009",
	},
	{
		"name": "GAGGA",
		"latitude": "41-33-32 N",
		"longitude": "87-42-33 W",
		"state": "ILLINOIS",
		"artcc": "ZAU",
		"type": "RNAV",
		"updated": "05/06/2013",
	},
	{
		"name": "GAGGE",
		"latitude": "43-20-40.25 N",
		"longitude": "90-27-46.27 W",
		"state": "WISCONSIN",
		"artcc": "ZAU",
		"type": "RNAV",
		"updated": "04/28/2015",
	},
	{
		"name": "GAGME",
		"latitude": "41-40-11.42 N",
		"longitude": "87-31-1.6 W",
		"state": "INDIANA",
		"artcc": "ZAU",
		"type": "RNAV",
		"updated": "02/02/2018",
	},
	{
		"name": "GALRE",
		"latitude": "41-5-31.69 N",
		"longitude": "86-34-11.29 W",
		"state": "INDIANA",
		"artcc": "ZAU",
		"type": "RNAV",
		"updated": "02/23/2016",
	},
	{
		"name": "GANAD",
		"latitude": "41-27-49.26 N",
		"longitude": "91-39-47.31 W",
		"state": "IOWA",
		"artcc": "ZAU",
		"type": "RNAV",
		"updated": "02/18/2016",
	},
	{
		"name": "GAPGE",
		"latitude": "42-21-36.38 N",
		"longitude": "90-42-57.68 W",
		"state": "IOWA",
		"artcc": "ZAU",
		"type": "RP",
		"updated": "DBQ*VORTAC*183.10/2.50",
	},
	{
		"name": "GAPYE",
		"latitude": "42-56-2.75 N",
		"longitude": "88-5-28.5 W",
		"state": "WISCONSIN",
		"artcc": "ZAU",
		"type": "RNAV",
		"updated": "08/06/2003",
	},
	{
		"name": "GAREN",
		"latitude": "41-17-27.73 N",
		"longitude": "85-4-4.03 W",
		"state": "INDIANA",
		"artcc": "ZAU",
		"type": "RP",
		"updated": "GSH*VORTAC*107.63/45.57",
	},
	{
		"name": "GARTT",
		"latitude": "42-47-54.49 N",
		"longitude": "89-12-2.74 W",
		"state": "WISCONSIN",
		"artcc": "ZAU",
		"type": "RP",
		"updated": "BAE*VOR/DME*243.00",
	},
	{
		"name": "GATBE",
		"latitude": "42-17-17.59 N",
		"longitude": "86-19-19.01 W",
		"state": "MICHIGAN",
		"artcc": "ZAU",
		"type": "RNAV",
		"updated": "02/16/2011",
	},
	{
		"name": "GATLY",
		"latitude": "41-36-5.43 N",
		"longitude": "88-19-1.56 W",
		"state": "ILLINOIS",
		"artcc": "ZAU",
		"type": "RP",
		"updated": "DPA*VOR/DME*173.09/17.39",
	},
	{
		"name": "GATNE",
		"latitude": "43-17-4.78 N",
		"longitude": "89-20-5.08 W",
		"state": "WISCONSIN",
		"artcc": "ZAU",
		"type": "RP",
		"updated": "DLL*VORTAC*127.26",
	},
	{
		"name": "GAUSS",
		"latitude": "42-51-2.85 N",
		"longitude": "87-57-6.25 W",
		"state": "WISCONSIN",
		"artcc": "ZAU",
		"type": "RNAV",
		"updated": "11/06/2013",
	},
	{
		"name": "GAVSE",
		"latitude": "42-40-52.84 N",
		"longitude": "87-41-53.62 W",
		"state": "WISCONSIN",
		"artcc": "ZAU",
		"type": "RNAV",
		"updated": "06/22/2009",
	},
	{
		"name": "GAYLE",
		"latitude": "43-29-37.61 N",
		"longitude": "87-0-13.07 W",
		"state": "MICHIGAN",
		"artcc": "ZAU",
		"type": "RP",
		"updated": "FAH*VOR/DME*115.84",
	},
	{
		"name": "GECET",
		"latitude": "41-48-15.75 N",
		"longitude": "85-45-35.97 W",
		"state": "MICHIGAN",
		"artcc": "ZAU",
		"type": "RNAV",
		"updated": "05/25/2005",
	},
	{
		"name": "GEEBE",
		"latitude": "41-58-48.21 N",
		"longitude": "85-12-49.28 W",
		"state": "MICHIGAN",
		"artcc": "ZAU",
		"type": "RP",
		"updated": "LFD*VOR/DME*261.31/20.66",
	},
	{
		"name": "GEMMS",
		"latitude": "41-58-59.38 N",
		"longitude": "88-18-5.1 W",
		"state": "ILLINOIS",
		"artcc": "ZAU",
		"type": "RP",
		"updated": "JAV*LD*W CRS/18.58",
	},
	{
		"name": "GENBE",
		"latitude": "42-24-17.13 N",
		"longitude": "88-15-44.61 W",
		"state": "ILLINOIS",
		"artcc": "ZAU",
		"type": "RNAV",
		"updated": "01/04/2001",
	},
	{
		"name": "GENSO",
		"latitude": "41-21-44.35 N",
		"longitude": "90-14-53.18 W",
		"state": "ILLINOIS",
		"artcc": "ZAU",
		"type": "RP",
		"updated": "CVA*VORTAC*148.88/23.31",
	},
	{
		"name": "GENZU",
		"latitude": "42-35-12.97 N",
		"longitude": "89-18-28.78 W",
		"state": "WISCONSIN",
		"artcc": "ZAU",
		"type": "RP",
		"updated": "JVL*VOR/DME*278.00/9.15",
	},
	{
		"name": "GERIE",
		"latitude": "42-22-30.85 N",
		"longitude": "89-22-58.84 W",
		"state": "ILLINOIS",
		"artcc": "ZAU",
		"type": "RP",
		"updated": "RFD*VOR/DME*316.72",
	},
	{
		"name": "GERLE",
		"latitude": "42-53-32 N",
		"longitude": "87-48-17.13 W",
		"state": "WISCONSIN",
		"artcc": "ZAU",
		"type": "RNAV",
		"updated": "08/06/2003",
	},
	{
		"name": "GERMN",
		"latitude": "41-42-6.6 N",
		"longitude": "87-15-6.58 W",
		"state": "INDIANA",
		"artcc": "ZAU",
		"type": "RNAV",
		"updated": "05/28/2014",
	},
	{
		"name": "GESLE",
		"latitude": "43-6-39.15 N",
		"longitude": "90-27-18.59 W",
		"state": "WISCONSIN",
		"artcc": "ZAU",
		"type": "RNAV",
		"updated": "04/16/2008",
	},
	{
		"name": "GETCH",
		"latitude": "43-10-7.15 N",
		"longitude": "86-3-3.06 W",
		"state": "MICHIGAN",
		"artcc": "ZAU",
		"type": "RNAV",
		"updated": "10/02/2017",
	},
	{
		"name": "GEYEB",
		"latitude": "42-45-26.09 N",
		"longitude": "92-33-44.08 W",
		"state": "IOWA",
		"artcc": "ZAU",
		"type": "RNAV",
		"updated": "07/31/2006",
	},
	{
		"name": "GIBER",
		"latitude": "43-7-17.69 N",
		"longitude": "85-10-22.52 W",
		"state": "MICHIGAN",
		"artcc": "ZAU",
		"type": "RP",
		"updated": "MKG*VORTAC*095.00/38.17",
	},
	{
		"name": "GIBNS",
		"latitude": "41-55-7.98 N",
		"longitude": "88-57-38.08 W",
		"state": "ILLINOIS",
		"artcc": "ZAU",
		"type": "RNAV",
		"updated": "08/19/2015",
	},
	{
		"name": "GIBON",
		"latitude": "41-39-16.89 N",
		"longitude": "89-59-42.14 W",
		"state": "ILLINOIS",
		"artcc": "ZAU",
		"type": "RP",
		"updated": "BDF*VORTAC*328.36",
	},
	{
		"name": "GICSE",
		"latitude": "40-31-11.01 N",
		"longitude": "90-41-53.51 W",
		"state": "ILLINOIS",
		"artcc": "ZAU",
		"type": "RNAV",
		"updated": "01/09/2013",
	},
	{
		"name": "GIDPE",
		"latitude": "42-7-33.64 N",
		"longitude": "86-9-35.08 W",
		"state": "MICHIGAN",
		"artcc": "ZAU",
		"type": "RNAV",
		"updated": "11/07/2011",
	},
	{
		"name": "GIDVE",
		"latitude": "41-41-41.09 N",
		"longitude": "88-18-57.71 W",
		"state": "ILLINOIS",
		"artcc": "ZAU",
		"type": "RNAV",
		"updated": "01/09/2013",
	},
	{
		"name": "GIKIW",
		"latitude": "41-42-5.78 N",
		"longitude": "92-16-21.53 W",
		"state": "IOWA",
		"artcc": "ZAU",
		"type": "RNAV",
		"updated": "03/12/2012",
	},
	{
		"name": "GIKLE",
		"latitude": "41-46-9.63 N",
		"longitude": "87-59-4.66 W",
		"state": "ILLINOIS",
		"artcc": "ZAU",
		"type": "RNAV",
		"updated": "03/10/2009",
	},
	{
		"name": "GILDY",
		"latitude": "40-20-3.25 N",
		"longitude": "86-13-59.15 W",
		"state": "INDIANA",
		"artcc": "ZAU",
		"type": "RNAV",
		"updated": "11/18/2016",
	},
	{
		"name": "GILKE",
		"latitude": "41-49-47.59 N",
		"longitude": "84-58-25.72 W",
		"state": "MICHIGAN",
		"artcc": "ZOB",
		"type": "RNAV",
		"updated": "10/30/2001",
	},
	{
		"name": "GILMY",
		"latitude": "42-6-52.48 N",
		"longitude": "89-6-0.76 W",
		"state": "ILLINOIS",
		"artcc": "ZAU",
		"type": "RP",
		"updated": "PLL*VOR/DME*061.63",
	},
	{
		"name": "GIRLS",
		"latitude": "43-36-35.9 N",
		"longitude": "90-16-58.9 W",
		"state": "WISCONSIN",
		"artcc": "ZAU",
		"type": "MR",
		"updated": "VOK*TACAN*180.00/20.00",
	},
	{
		"name": "GIRYE",
		"latitude": "43-27-35.74 N",
		"longitude": "89-47-0.68 W",
		"state": "WISCONSIN",
		"artcc": "ZAU",
		"type": "RNAV",
		"updated": "01/28/2016",
	},
	{
		"name": "GISPE",
		"latitude": "43-7-0.79 N",
		"longitude": "88-42-18.6 W",
		"state": "WISCONSIN",
		"artcc": "ZAU",
		"type": "RNAV",
		"updated": "03/19/2003",
	},
	{
		"name": "GIVEC",
		"latitude": "42-34-6.89 N",
		"longitude": "91-56-57.01 W",
		"state": "IOWA",
		"artcc": "ZAU",
		"type": "RNAV",
		"updated": "01/23/2018",
	},
	{
		"name": "GIVGE",
		"latitude": "42-52-27.58 N",
		"longitude": "90-11-27.78 W",
		"state": "WISCONSIN",
		"artcc": "ZAU",
		"type": "RNAV",
		"updated": "07/09/2012",
	},
	{
		"name": "GIWFY",
		"latitude": "42-45-43.61 N",
		"longitude": "89-1-4.62 W",
		"state": "WISCONSIN",
		"artcc": "ZAU",
		"type": "RNAV",
		"updated": "04/01/2014",
	},
	{
		"name": "GIZCY",
		"latitude": "41-54-50.19 N",
		"longitude": "91-9-4.02 W",
		"state": "IOWA",
		"artcc": "ZAU",
		"type": "RP",
		"updated": "CID*VOR/DME*081.60/28.48",
	},
	{
		"name": "GLAKE",
		"latitude": "44-2-16.96 N",
		"longitude": "90-15-55.84 W",
		"state": "WISCONSIN",
		"artcc": "ZAU",
		"type": "RNAV",
		"updated": "11/03/2015",
	},
	{
		"name": "GLARS",
		"latitude": "42-37-9.83 N",
		"longitude": "89-32-19.92 W",
		"state": "WISCONSIN",
		"artcc": "ZAU",
		"type": "RP",
		"updated": "RFD*VOR/DME*327.00/28.00",
	},
	{
		"name": "GLAWE",
		"latitude": "42-51-51.84 N",
		"longitude": "85-39-1.06 W",
		"state": "MICHIGAN",
		"artcc": "ZAU",
		"type": "RP",
		"updated": "VIO*VOR/DME*308.61",
	},
	{
		"name": "GLEAM",
		"latitude": "41-39-35.61 N",
		"longitude": "87-34-35.83 W",
		"state": "ILLINOIS",
		"artcc": "ZAU",
		"type": "RP",
		"updated": "CGT*VORTAC*356.55",
	},
	{
		"name": "GLGHR",
		"latitude": "42-53-5.34 N",
		"longitude": "85-28-8.6 W",
		"state": "MICHIGAN",
		"artcc": "ZAU",
		"type": "RP",
		"updated": "VIO*VOR/DME*015.86",
	},
	{
		"name": "GLOMS",
		"latitude": "41-24-37.73 N",
		"longitude": "91-51-13.61 W",
		"state": "IOWA",
		"artcc": "ZAU",
		"type": "RNAV",
		"updated": "02/18/2016",
	},
	{
		"name": "GOBZU",
		"latitude": "41-22-40.2 N",
		"longitude": "87-34-8.49 W",
		"state": "ILLINOIS",
		"artcc": "ZAU",
		"type": "RNAV",
		"updated": "01/20/2009",
	},
	{
		"name": "GOCEY",
		"latitude": "41-42-23.27 N",
		"longitude": "86-11-23.95 W",
		"state": "INDIANA",
		"artcc": "ZAU",
		"type": "RNAV",
		"updated": "05/31/2005",
	},
	{
		"name": "GODEC",
		"latitude": "43-33-39.33 N",
		"longitude": "88-28-36.64 W",
		"state": "WISCONSIN",
		"artcc": "ZAU",
		"type": "RP",
		"updated": "FLD*LE*181.99/13.20",
	},
	{
		"name": "GOEAR",
		"latitude": "40-13-51.84 N",
		"longitude": "86-7-36.65 W",
		"state": "INDIANA",
		"artcc": "ZAU",
		"type": "RNAV",
		"updated": "02/09/2018",
	},
	{
		"name": "GOETH",
		"latitude": "40-43-58.32 N",
		"longitude": "86-2-34.3 W",
		"state": "INDIANA",
		"artcc": "ZAU",
		"type": "MR",
		"updated": "GUS*VORTAC*045.25/7.25",
	},
	{
		"name": "GOGME",
		"latitude": "40-43-15.44 N",
		"longitude": "89-58-57.12 W",
		"state": "ILLINOIS",
		"artcc": "ZAU",
		"type": "RNAV",
		"updated": "08/22/2005",
	},
	{
		"name": "GOLDN",
		"latitude": "42-18-32.5 N",
		"longitude": "90-42-42.8 W",
		"state": "IOWA",
		"artcc": "ZAU",
		"type": "RP",
		"updated": "FUQ*LD*S CRS/6.20",
	},
	{
		"name": "GOMAH",
		"latitude": "41-54-29.23 N",
		"longitude": "90-24-21.08 W",
		"state": "IOWA",
		"artcc": "ZAU",
		"type": "RNAV",
		"updated": "06/06/2012",
	},
	{
		"name": "GOMPE",
		"latitude": "43-12-12.25 N",
		"longitude": "88-6-12.28 W",
		"state": "WISCONSIN",
		"artcc": "ZAU",
		"type": "RNAV",
		"updated": "09/08/2011",
	},
	{
		"name": "GOOZY",
		"latitude": "41-56-47.92 N",
		"longitude": "88-13-53.21 W",
		"state": "ILLINOIS",
		"artcc": "ZAU",
		"type": "RP",
		"updated": "BYW*LD*271.36/15.26",
	},
	{
		"name": "GOPAC",
		"latitude": "42-49-0.26 N",
		"longitude": "88-24-57.07 W",
		"state": "WISCONSIN",
		"artcc": "ZAU",
		"type": "RNAV",
		"updated": "04/01/2014",
	},
	{
		"name": "GOPBE",
		"latitude": "43-24-30.88 N",
		"longitude": "88-50-22.66 W",
		"state": "WISCONSIN",
		"artcc": "ZAU",
		"type": "RNAV",
		"updated": "03/16/2007",
	},
	{
		"name": "GOROJ",
		"latitude": "43-5-40.18 N",
		"longitude": "88-27-49.15 W",
		"state": "WISCONSIN",
		"artcc": "ZAU",
		"type": "RNAV",
		"updated": "01/20/2009",
	},
	{
		"name": "GORRY",
		"latitude": "43-21-50.7 N",
		"longitude": "88-1-43.49 W",
		"state": "WISCONSIN",
		"artcc": "ZAU",
		"type": "RP",
		"updated": "BAE*VOR/DME*035.00",
	},
	{
		"name": "GOTHC",
		"latitude": "42-5-42.96 N",
		"longitude": "90-57-22.72 W",
		"state": "IOWA",
		"artcc": "ZAU",
		"type": "RNAV",
		"updated": "09/23/2011",
	},
	{
		"name": "GOTNE",
		"latitude": "40-57-40.58 N",
		"longitude": "86-2-52.95 W",
		"state": "INDIANA",
		"artcc": "ZAU",
		"type": "RNAV",
		"updated": "05/02/2013",
	},
	{
		"name": "GOYEV",
		"latitude": "40-44-35.47 N",
		"longitude": "86-9-5.53 W",
		"state": "INDIANA",
		"artcc": "ZAU",
		"type": "RNAV",
		"updated": "11/20/2006",
	},
	{
		"name": "GRABI",
		"latitude": "41-15-2.38 N",
		"longitude": "84-54-22.07 W",
		"state": "INDIANA",
		"artcc": "ZAU",
		"type": "RP",
		"updated": "GSH*VORTAC*107.63",
	},
	{
		"name": "GRABL",
		"latitude": "41-58-58.9 N",
		"longitude": "87-26-31.05 W",
		"state": "ILLINOIS",
		"artcc": "ZAU",
		"type": "RP",
		"updated": "OBK*VOR/DME*123.96/26.88",
	},
	{
		"name": "GRADS",
		"latitude": "42-39-55.94 N",
		"longitude": "86-6-21.11 W",
		"state": "MICHIGAN",
		"artcc": "ZAU",
		"type": "RP",
		"updated": "VIO*VOR/DME*259.10",
	},
	{
		"name": "GRAFY",
		"latitude": "41-40-9.25 N",
		"longitude": "91-26-18.82 W",
		"state": "IOWA",
		"artcc": "ZAU",
		"type": "RNAV",
		"updated": "11/25/2008",
	},
	{
		"name": "GRANJ",
		"latitude": "40-7-1.89 N",
		"longitude": "88-22-29.43 W",
		"state": "ILLINOIS",
		"artcc": "ZAU",
		"type": "RNAV",
		"updated": "08/13/2010",
	},
	{
		"name": "GRATE",
		"latitude": "43-59-43.14 N",
		"longitude": "88-45-24.86 W",
		"state": "WISCONSIN",
		"artcc": "ZAU",
		"type": "RP",
		"updated": "OSH*VORTAC*270.00/8.71",
	},
	{
		"name": "GREAS",
		"latitude": "42-56-27.84 N",
		"longitude": "88-32-42.46 W",
		"state": "WISCONSIN",
		"artcc": "ZAU",
		"type": "RP",
		"updated": "BAE*VOR/DME*225.51/15.59",
	},
	{
		"name": "GREGG",
		"latitude": "40-50-12.96 N",
		"longitude": "89-59-50.62 W",
		"state": "ILLINOIS",
		"artcc": "ZAU",
		"type": "RP",
		"updated": "BDF*VORTAC*224.00",
	},
	{
		"name": "GRELL",
		"latitude": "42-38-59.04 N",
		"longitude": "92-5-5.4 W",
		"state": "IOWA",
		"artcc": "ZAU",
		"type": "RP",
		"updated": "ALO*VOR/DME*062.00/15.00",
	},
	{
		"name": "GRFFN",
		"latitude": "42-58-3.56 N",
		"longitude": "85-32-9.63 W",
		"state": "MICHIGAN",
		"artcc": "ZAU",
		"type": "RP",
		"updated": "VIO*VOR/DME*355.02/10.99",
	},
	{
		"name": "GRIDZ",
		"latitude": "40-57-59.18 N",
		"longitude": "87-16-56.05 W",
		"state": "INDIANA",
		"artcc": "ZAU",
		"type": "RNAV",
		"updated": "05/26/2016",
	},
	{
		"name": "GRIFT",
		"latitude": "42-17-28.14 N",
		"longitude": "88-53-41.42 W",
		"state": "ILLINOIS",
		"artcc": "ZAU",
		"type": "RP",
		"updated": "RFD*VOR/DME*072.73/14.12",
	},
	{
		"name": "GROGS",
		"latitude": "41-13-46.32 N",
		"longitude": "85-57-20.47 W",
		"state": "INDIANA",
		"artcc": "ZAU",
		"type": "RNAV",
		"updated": "11/18/2015",
	},
	{
		"name": "GROWL",
		"latitude": "40-5-0.04 N",
		"longitude": "89-42-38.84 W",
		"state": "ILLINOIS",
		"artcc": "ZAU",
		"type": "RP",
		"updated": "AXC*VORTAC*295.00",
	},
	{
		"name": "GRUBB",
		"latitude": "43-13-27.31 N",
		"longitude": "85-20-23.49 W",
		"state": "MICHIGAN",
		"artcc": "ZAU",
		"type": "RNAV",
		"updated": "09/22/2014",
	},
	{
		"name": "GRUSS",
		"latitude": "41-11-37.37 N",
		"longitude": "85-14-17.71 W",
		"state": "INDIANA",
		"artcc": "ZAU",
		"type": "RNAV",
		"updated": "11/17/2010",
	},
	{
		"name": "GUERN",
		"latitude": "41-40-35.42 N",
		"longitude": "92-14-2.23 W",
		"state": "IOWA",
		"artcc": "ZAU",
		"type": "RP",
		"updated": "CID*VOR/DME*232.98/23.77",
	},
	{
		"name": "GUGBE",
		"latitude": "41-4-49.22 N",
		"longitude": "89-29-24.51 W",
		"state": "ILLINOIS",
		"artcc": "ZAU",
		"type": "RNAV",
		"updated": "02/03/2014",
	},
	{
		"name": "GUGGE",
		"latitude": "43-0-46.02 N",
		"longitude": "87-59-7.62 W",
		"state": "WISCONSIN",
		"artcc": "ZAU",
		"type": "RNAV",
		"updated": "08/06/2003",
	},
	{
		"name": "GUIDO",
		"latitude": "40-17-25.43 N",
		"longitude": "87-51-48.43 W",
		"state": "ILLINOIS",
		"artcc": "ZAU",
		"type": "RP",
		"updated": "OBK*VOR/DME*179.99/115.87",
	},
	{
		"name": "GUKGE",
		"latitude": "41-43-14.5 N",
		"longitude": "86-7-41.72 W",
		"state": "INDIANA",
		"artcc": "ZAU",
		"type": "RNAV",
		"updated": "05/25/2005",
	},
	{
		"name": "GUMUQ",
		"latitude": "41-13-16.55 N",
		"longitude": "85-18-47.81 W",
		"state": "INDIANA",
		"artcc": "ZAU",
		"type": "RNAV",
		"updated": "08/16/2006",
	},
	{
		"name": "GUNIE",
		"latitude": "43-46-6.67 N",
		"longitude": "90-32-49.14 W",
		"state": "WISCONSIN",
		"artcc": "ZAU",
		"type": "MW",
		"updated": "09/29/2011",
	},
	{
		"name": "GUNTH",
		"latitude": "43-56-13.91 N",
		"longitude": "90-24-31.02 W",
		"state": "WISCONSIN",
		"artcc": "ZAU",
		"type": "MW",
		"updated": "09/10/2009",
	},
	{
		"name": "GURNN",
		"latitude": "43-30-26.14 N",
		"longitude": "87-49-36.77 W",
		"state": "WISCONSIN",
		"artcc": "ZAU",
		"type": "RNAV",
		"updated": "08/27/2013",
	},
	{
		"name": "GUTPE",
		"latitude": "43-17-6.14 N",
		"longitude": "85-59-46.63 W",
		"state": "MICHIGAN",
		"artcc": "ZAU",
		"type": "RP",
		"updated": "CJH*LD*060.39/13.58",
	},
	{
		"name": "GUZBY",
		"latitude": "43-5-25.18 N",
		"longitude": "89-20-40.89 W",
		"state": "WISCONSIN",
		"artcc": "ZAU",
		"type": "RNAV",
		"updated": "03/24/2009",
	},
	{
		"name": "GUZIK",
		"latitude": "40-48-24 N",
		"longitude": "92-0-16 W",
		"state": "IOWA",
		"artcc": "ZAU",
		"type": "RNAV",
		"updated": "09/24/2012",
	},
