[
	{
		"name": "HAADN",
		"latitude": "41-34-53.03 N",
		"longitude": "87-22-52.46 W",
		"state": "INDIANA",
		"artcc": "ZAU",
		"type": "RNAV",
		"updated": "05/28/2014"
	},
	{
		"name": "HAAKK",
		"latitude": "42-8-0 N",
		"longitude": "85-2-0 W",
		"state": "MICHIGAN",
		"artcc": "ZAU",
		"type": "RP",
		"updated": "LFD*VOR/DME*294.62/12.71"
	},
	{
		"name": "HAAYQ",
		"latitude": "40-17-11.74 N",
		"longitude": "89-12-50.83 W",
		"state": "ILLINOIS",
		"artcc": "ZAU",
		"type": "RNAV",
		"updated": "05/25/2016"
	},
	{
		"name": "HABKO",
		"latitude": "42-58-10.45 N",
		"longitude": "85-32-9.29 W",
		"state": "MICHIGAN",
		"artcc": "ZAU",
		"type": "RNAV",
		"updated": "05/20/2009"
	},
	{
		"name": "HADAK",
		"latitude": "42-24-27.21 N",
		"longitude": "88-8-51.79 W",
		"state": "ILLINOIS",
		"artcc": "ZAU",
		"type": "RNAV",
		"updated": "01/04/2001"
	},
	{
		"name": "HADGI",
		"latitude": "41-43-18.74 N",
		"longitude": "87-50-11.08 W",
		"state": "ILLINOIS",
		"artcc": "ZAU",
		"type": "RNAV",
		"updated": "09/25/2002"
	},
	{
		"name": "HADPA",
		"latitude": "43-4-38.56 N",
		"longitude": "88-36-18.05 W",
		"state": "WISCONSIN",
		"artcc": "ZAU",
		"type": "RNAV",
		"updated": "03/19/2003"
	},
	{
		"name": "HADUN",
		"latitude": "40-39-10.9 N",
		"longitude": "85-53-46.69 W",
		"state": "INDIANA",
		"artcc": "ZAU",
		"type": "RNAV",
		"updated": "10/25/2011"
	},
	{
		"name": "HAGBO",
		"latitude": "43-7-13.46 N",
		"longitude": "90-48-28.68 W",
		"state": "WISCONSIN",
		"artcc": "ZAU",
		"type": "RNAV",
		"updated": "07/21/2007"
	},
	{
		"name": "HAGIN",
		"latitude": "43-9-27.23 N",
		"longitude": "87-36-22.31 W",
		"state": "WISCONSIN",
		"artcc": "ZAU",
		"type": "RNAV",
		"updated": "09/08/2011"
	},
	{
		"name": "HAGOK",
		"latitude": "42-26-58.21 N",
		"longitude": "85-33-28.64 W",
		"state": "MICHIGAN",
		"artcc": "ZAU",
		"type": "RNAV",
		"updated": "02/18/2011"
	},
	{
		"name": "HAKAV",
		"latitude": "40-33-57.25 N",
		"longitude": "90-41-58.56 W",
		"state": "ILLINOIS",
		"artcc": "ZAU",
		"type": "RP",
		"updated": "BRL*VOR/DME*127.35/14.00"
	},
	{
		"name": "HAKAX",
		"latitude": "42-37-32.12 N",
		"longitude": "90-22-53.71 W",
		"state": "WISCONSIN",
		"artcc": "ZAU",
		"type": "RNAV",
		"updated": "06/28/2009"
	},
	{
		"name": "HAKBO",
		"latitude": "41-40-0.2 N",
		"longitude": "87-34-55.15 W",
		"state": "ILLINOIS",
		"artcc": "ZAU",
		"type": "RNAV",
		"updated": "09/25/2002"
	},
	{
		"name": "HAKES",
		"latitude": "42-2-25.06 N",
		"longitude": "92-52-32.42 W",
		"state": "IOWA",
		"artcc": "ZAU",
		"type": "RP",
		"updated": "JWJ*VOR/DME*159.80"
	},
	{
		"name": "HALBU",
		"latitude": "40-51-18.81 N",
		"longitude": "89-51-8.59 W",
		"state": "ILLINOIS",
		"artcc": "ZAU",
		"type": "RNAV",
		"updated": "08/22/2005"
	},
	{
		"name": "HALIE",
		"latitude": "41-30-57.85 N",
		"longitude": "87-9-31.95 W",
		"state": "INDIANA",
		"artcc": "ZAU",
		"type": "RP",
		"updated": "EON*VORTAC*060.42"
	},
	{
		"name": "HAMKO",
		"latitude": "41-35-52.36 N",
		"longitude": "88-25-21.99 W",
		"state": "ILLINOIS",
		"artcc": "ZAU",
		"type": "RNAV",
		"updated": "04/07/2017"
	},
	{
		"name": "HAMTA",
		"latitude": "41-32-56.93 N",
		"longitude": "85-28-56.34 W",
		"state": "INDIANA",
		"artcc": "ZAU",
		"type": "RNAV",
		"updated": "05/05/2016"
	},
	{
		"name": "HAMTN",
		"latitude": "43-40-49.53 N",
		"longitude": "89-24-42.46 W",
		"state": "WISCONSIN",
		"artcc": "ZAU",
		"type": "RP",
		"updated": "DLL*VORTAC*059.99"
	},
	{
		"name": "HAMTO",
		"latitude": "40-59-56 N",
		"longitude": "85-59-25 W",
		"state": "INDIANA",
		"artcc": "ZAU",
		"type": "RP",
		"updated": "OXI*VOR/DME*122.76/35.60"
	},
	{
		"name": "HANEK",
		"latitude": "42-57-46.78 N",
		"longitude": "88-25-13.3 W",
		"state": "WISCONSIN",
		"artcc": "ZAU",
		"type": "WP",
		"updated": "11/21/2000"
	},
	{
		"name": "HANKS",
		"latitude": "42-7-44.72 N",
		"longitude": "89-47-46.77 W",
		"state": "ILLINOIS",
		"artcc": "ZAU",
		"type": "RNAV",
		"updated": "06/27/2007"
	},
	{
		"name": "HANNI",
		"latitude": "41-30-11.37 N",
		"longitude": "87-21-32.31 W",
		"state": "INDIANA",
		"artcc": "ZAU",
		"type": "RNAV",
		"updated": "08/27/2013"
	},
	{
		"name": "HANOD",
		"latitude": "41-54-23.28 N",
		"longitude": "87-55-7.85 W",
		"state": "ILLINOIS",
		"artcc": "ZAU",
		"type": "RNAV",
		"updated": "09/25/2002"
	},
	{
		"name": "HANSO",
		"latitude": "41-57-25.94 N",
		"longitude": "87-30-43.51 W",
		"state": "ILLINOIS",
		"artcc": "ZAU",
		"type": "RP",
		"updated": "VQX*LD*093.88/17.05"
	},
	{
		"name": "HAPEX",
		"latitude": "41-38-52.84 N",
		"longitude": "88-12-15.87 W",
		"state": "ILLINOIS",
		"artcc": "ZAU",
		"type": "RNAV",
		"updated": "03/29/2018"
	},
	{
		"name": "HAPIG",
		"latitude": "42-54-36.85 N",
		"longitude": "85-14-24.31 W",
		"state": "MICHIGAN",
		"artcc": "ZAU",
		"type": "RNAV",
		"updated": "05/22/2009"
	},
	{
		"name": "HAPLU",
		"latitude": "41-14-14.4 N",
		"longitude": "84-53-57.47 W",
		"state": "INDIANA",
		"artcc": "ZAU",
		"type": "RNAV",
		"updated": "05/05/2016"
	},
	{
		"name": "HAPOX",
		"latitude": "43-23-9.07 N",
		"longitude": "89-45-42.68 W",
		"state": "WISCONSIN",
		"artcc": "ZAU",
		"type": "RNAV",
		"updated": "10/05/2007"
	},
	{
		"name": "HAPUR",
		"latitude": "42-0-58.45 N",
		"longitude": "86-1-4.63 W",
		"state": "MICHIGAN",
		"artcc": "ZAU",
		"type": "RP",
		"updated": "ELX*VOR/DME*148.63/9.00"
	},
	{
		"name": "HAREE",
		"latitude": "42-0-8.58 N",
		"longitude": "87-34-55.37 W",
		"state": "ILLINOIS",
		"artcc": "ZAU",
		"type": "RP",
		"updated": "OBK*VOR/DME*130.39"
	},
	{
		"name": "HARGU",
		"latitude": "42-58-47.72 N",
		"longitude": "88-4-40.22 W",
		"state": "WISCONSIN",
		"artcc": "ZAU",
		"type": "RNAV",
		"updated": "11/06/2013"
	},
	{
		"name": "HARIE",
		"latitude": "41-37-52.06 N",
		"longitude": "88-12-41.4 W",
		"state": "ILLINOIS",
		"artcc": "ZAU",
		"type": "RP",
		"updated": "DPA*VOR/DME*156.13"
	},
	{
		"name": "HARIR",
		"latitude": "42-44-57.68 N",
		"longitude": "87-55-42.67 W",
		"state": "WISCONSIN",
		"artcc": "ZAU",
		"type": "RNAV",
		"updated": "08/06/2003"
	},
	{
		"name": "HARIS",
		"latitude": "41-11-25.62 N",
		"longitude": "85-3-53.8 W",
		"state": "INDIANA",
		"artcc": "ZAU",
		"type": "RNAV",
		"updated": "09/29/2014"
	},
	{
		"name": "HARRL",
		"latitude": "41-47-5.51 N",
		"longitude": "88-5-54.03 W",
		"state": "ILLINOIS",
		"artcc": "ZAU",
		"type": "RP",
		"updated": "DPA*VOR/DME*117.17"
	},
	{
		"name": "HARRT",
		"latitude": "41-46-39.22 N",
		"longitude": "87-22-52.45 W",
		"state": "ILLINOIS",
		"artcc": "ZAU",
		"type": "RP",
		"updated": "GIJ*VORTAC*271.00/47.72"
	},
	{
		"name": "HASAL",
		"latitude": "42-18-15.85 N",
		"longitude": "89-29-23.92 W",
		"state": "ILLINOIS",
		"artcc": "ZAU",
		"type": "RP",
		"updated": "RFD*VOR/DME*289.15"
	},
	{
		"name": "HASTE",
		"latitude": "42-40-15.43 N",
		"longitude": "85-10-2.5 W",
		"state": "MICHIGAN",
		"artcc": "ZAU",
		"type": "RP",
		"updated": "PMM*VOR/DME*073.18/43.40"
	},
	{
		"name": "HATNY",
		"latitude": "41-41-15.68 N",
		"longitude": "90-39-18.58 W",
		"state": "IOWA",
		"artcc": "ZAU",
		"type": "WP",
		"updated": "10/23/2008"
	},
	{
		"name": "HAUCK",
		"latitude": "42-58-17.32 N",
		"longitude": "85-2-41.29 W",
		"state": "MICHIGAN",
		"artcc": "ZAU",
		"type": "RNAV",
		"updated": "07/31/2017"
	},
	{
		"name": "HAUNT",
		"latitude": "41-58-39.63 N",
		"longitude": "90-11-2.97 W",
		"state": "ILLINOIS",
		"artcc": "ZAU",
		"type": "RP",
		"updated": "CVA*VORTAC*035.64/21.00"
	},
	{
		"name": "HAUPO",
		"latitude": "41-20-32 N",
		"longitude": "86-32-24 W",
		"state": "INDIANA",
		"artcc": "ZAU",
		"type": "RNAV",
		"updated": "09/30/2008"
	},
	{
		"name": "HAVLI",
		"latitude": "41-40-0 N",
		"longitude": "91-33-31.96 W",
		"state": "IOWA",
		"artcc": "ZAU",
		"type": "RNAV",
		"updated": "01/25/2005"
	},
	{
		"name": "HAWKN",
		"latitude": "43-18-0.15 N",
		"longitude": "88-16-23.44 W",
		"state": "WISCONSIN",
		"artcc": "ZAU",
		"type": "RP",
		"updated": "BAE*VOR/DME*000.55/11.00"
	},
	{
		"name": "HAXEP",
		"latitude": "43-23-57.46 N",
		"longitude": "88-10-52.46 W",
		"state": "WISCONSIN",
		"artcc": "ZAU",
		"type": "RNAV",
		"updated": "02/16/2010"
	},
	{
		"name": "HAXOM",
		"latitude": "41-56-17.04 N",
		"longitude": "87-33-43.49 W",
		"state": "ILLINOIS",
		"artcc": "ZAU",
		"type": "RNAV",
		"updated": "09/25/2002"
	},
	{
		"name": "HAXUT",
		"latitude": "42-54-23.72 N",
		"longitude": "88-6-26.57 W",
		"state": "WISCONSIN",
		"artcc": "ZAU",
		"type": "RNAV",
		"updated": "11/06/2013"
	},
	{
		"name": "HAZIL",
		"latitude": "41-57-57.1 N",
		"longitude": "87-39-8.47 W",
		"state": "ILLINOIS",
		"artcc": "ZAU",
		"type": "RP",
		"updated": "VZE*LD*092.89/12.69"
	},
	{
		"name": "HAZKU",
		"latitude": "40-48-32.41 N",
		"longitude": "85-33-33.3 W",
		"state": "INDIANA",
		"artcc": "ZAU",
		"type": "RP",
		"updated": "FWA*VORTAC*245.00/19.73"
	},
	{
		"name": "HEALY",
		"latitude": "41-45-55.48 N",
		"longitude": "88-7-16.44 W",
		"state": "ILLINOIS",
		"artcc": "ZAU",
		"type": "RNAV",
		"updated": "05/25/2012"
	},
	{
		"name": "HEBEL",
		"latitude": "42-27-16.11 N",
		"longitude": "85-21-37.38 W",
		"state": "MICHIGAN",
		"artcc": "ZAU",
		"type": "RP",
		"updated": "PMM*VOR/DME*090.95/33.07"
	},
	{
		"name": "HEBKU",
		"latitude": "41-54-26.96 N",
		"longitude": "87-55-28.06 W",
		"state": "ILLINOIS",
		"artcc": "ZAU",
		"type": "RP",
		"updated": "DPA*VOR/DME*084.78"
	},
	{
		"name": "HEBOD",
		"latitude": "40-45-44.32 N",
		"longitude": "92-41-32.99 W",
		"state": "IOWA",
		"artcc": "ZAU",
		"type": "RNAV",
		"updated": "05/24/2011"
	},
	{
		"name": "HECMU",
		"latitude": "40-37-47.63 N",
		"longitude": "86-10-30.67 W",
		"state": "INDIANA",
		"artcc": "ZAU",
		"type": "RP",
		"updated": "GUS*VORTAC*232.00/1.40"
	},
	{
		"name": "HEDOC",
		"latitude": "41-13-37.93 N",
		"longitude": "89-49-19.41 W",
		"state": "ILLINOIS",
		"artcc": "ZAU",
		"type": "RNAV",
		"updated": "08/19/2015"
	},
	{
		"name": "HEDOT",
		"latitude": "42-13-35.51 N",
		"longitude": "87-45-0.11 W",
		"state": "ILLINOIS",
		"artcc": "ZAU",
		"type": "WP",
		"updated": "11/21/2000"
	},
	{
		"name": "HEDUT",
		"latitude": "42-39-30.84 N",
		"longitude": "85-55-51.81 W",
		"state": "MICHIGAN",
		"artcc": "ZAU",
		"type": "RNAV",
		"updated": "12/21/2009"
	},
	{
		"name": "HEFER",
		"latitude": "41-32-24.34 N",
		"longitude": "87-39-3.22 W",
		"state": "ILLINOIS",
		"artcc": "ZAU",
		"type": "RNAV",
		"updated": "05/03/2007"
	},
	{
		"name": "HEGBI",
		"latitude": "41-48-25.25 N",
		"longitude": "88-16-43.36 W",
		"state": "ILLINOIS",
		"artcc": "ZAU",
		"type": "RNAV",
		"updated": "01/09/2013"
	},
	{
		"name": "HEGUD",
		"latitude": "41-45-23.98 N",
		"longitude": "86-9-13.41 W",
		"state": "INDIANA",
		"artcc": "ZAU",
		"type": "RNAV",
		"updated": "02/24/2011"
	},
	{
		"name": "HEKRO",
		"latitude": "40-44-17.79 N",
		"longitude": "89-42-23.43 W",
		"state": "ILLINOIS",
		"artcc": "ZAU",
		"type": "RNAV",
		"updated": "02/02/2006"
	},
	{
		"name": "HELAB",
		"latitude": "41-48-14.17 N",
		"longitude": "91-58-33.79 W",
		"state": "IOWA",
		"artcc": "ZAU",
		"type": "RNAV",
		"updated": "03/14/2007"
	},
	{
		"name": "HELEG",
		"latitude": "41-48-39.44 N",
		"longitude": "89-25-4.32 W",
		"state": "ILLINOIS",
		"artcc": "ZAU",
		"type": "RNAV",
		"updated": "10/09/2008"
	},
	{
		"name": "HEMMY",
		"latitude": "40-41-26.54 N",
		"longitude": "90-54-11.09 W",
		"state": "ILLINOIS",
		"artcc": "ZAU",
		"type": "RNAV",
		"updated": "07/10/2013"
	},
	{
		"name": "HEMTI",
		"latitude": "43-56-8.5 N",
		"longitude": "87-38-6.84 W",
		"state": "WISCONSIN",
		"artcc": "ZAU",
		"type": "RNAV",
		"updated": "08/21/2003"
	},
	{
		"name": "HEMUL",
		"latitude": "42-52-58.93 N",
		"longitude": "88-52-33.7 W",
		"state": "WISCONSIN",
		"artcc": "ZAU",
		"type": "RNAV",
		"updated": "03/19/2003"
	},
	{
		"name": "HENIS",
		"latitude": "43-2-36.45 N",
		"longitude": "88-45-32.33 W",
		"state": "WISCONSIN",
		"artcc": "ZAU",
		"type": "RNAV",
		"updated": "03/19/2003"
	},
	{
		"name": "HEPAX",
		"latitude": "40-2-5.1 N",
		"longitude": "88-52-41.8 W",
		"state": "ILLINOIS",
		"artcc": "ZAU",
		"type": "RNAV",
		"updated": "08/24/2005"
	},
	{
		"name": "HERGA",
		"latitude": "41-11-17.61 N",
		"longitude": "92-26-40.46 W",
		"state": "IOWA",
		"artcc": "ZAU",
		"type": "RNAV",
		"updated": "08/21/2009"
	},
	{
		"name": "HERLU",
		"latitude": "41-37-25.32 N",
		"longitude": "85-33-3.06 W",
		"state": "INDIANA",
		"artcc": "ZAU",
		"type": "RNAV",
		"updated": "09/24/2009"
	},
	{
		"name": "HERRS",
		"latitude": "43-11-40.57 N",
		"longitude": "89-20-46.76 W",
		"state": "WISCONSIN",
		"artcc": "ZAU",
		"type": "RP",
		"updated": "MSN*VORTAC*351.44/3.00"
	},
	{
		"name": "HERUL",
		"latitude": "42-59-52.45 N",
		"longitude": "87-52-56.41 W",
		"state": "WISCONSIN",
		"artcc": "ZAU",
		"type": "RNAV",
		"updated": "08/06/2003"
	},
	{
		"name": "HERVY",
		"latitude": "41-46-38.1 N",
		"longitude": "88-54-26.51 W",
		"state": "ILLINOIS",
		"artcc": "ZAU",
		"type": "RP",
		"updated": "DPA*VOR/DME*253.00/25.90"
	},
	{
		"name": "HERWK",
		"latitude": "41-11-18.47 N",
		"longitude": "88-29-54.41 W",
		"state": "ILLINOIS",
		"artcc": "ZAU",
		"type": "RNAV",
		"updated": "05/25/2016"
	},
	{
		"name": "HESAN",
		"latitude": "42-31-13.56 N",
		"longitude": "89-18-33.62 W",
		"state": "WISCONSIN",
		"artcc": "ZAU",
		"type": "RNAV",
		"updated": "04/06/2010"
	},
	{
		"name": "HESMO",
		"latitude": "40-41-10.35 N",
		"longitude": "85-38-7.63 W",
		"state": "INDIANA",
		"artcc": "ZAU",
		"type": "RNAV",
		"updated": "06/24/2016"
	},
	{
		"name": "HETAM",
		"latitude": "42-3-2.42 N",
		"longitude": "92-25-49.92 W",
		"state": "IOWA",
		"artcc": "ZAU",
		"type": "RNAV",
		"updated": "03/12/2012"
	},
	{
		"name": "HETUP",
		"latitude": "43-59-35.27 N",
		"longitude": "88-49-44.69 W",
		"state": "WISCONSIN",
		"artcc": "ZAU",
		"type": "RNAV",
		"updated": "07/12/2013"
	},
	{
		"name": "HEVDA",
		"latitude": "41-28-10.56 N",
		"longitude": "85-7-11.31 W",
		"state": "INDIANA",
		"artcc": "ZAU",
		"type": "RNAV",
		"updated": "07/30/2013"
	},
	{
		"name": "HEVEM",
		"latitude": "42-42-28.8 N",
		"longitude": "88-22-14.05 W",
		"state": "WISCONSIN",
		"artcc": "ZAU",
		"type": "RNAV",
		"updated": "08/01/2013"
	},
	{
		"name": "HEVEP",
		"latitude": "40-52-47.1 N",
		"longitude": "86-24-1.88 W",
		"state": "INDIANA",
		"artcc": "ZAU",
		"type": "RNAV",
		"updated": "05/05/2016"
	},
	{
		"name": "HEVMI",
		"latitude": "43-14-53.47 N",
		"longitude": "86-6-32.28 W",
		"state": "MICHIGAN",
		"artcc": "ZAU",
		"type": "RNAV",
		"updated": "08/16/2007"
	},
	{
		"name": "HEVPI",
		"latitude": "41-5-14.53 N",
		"longitude": "92-25-28.68 W",
		"state": "IOWA",
		"artcc": "ZAU",
		"type": "RNAV",
		"updated": "06/01/2006"
	},
	{
		"name": "HEVRA",
		"latitude": "41-1-54.04 N",
		"longitude": "92-23-30.19 W",
		"state": "IOWA",
		"artcc": "ZAU",
		"type": "RNAV",
		"updated": "07/11/2005"
	},
	{
		"name": "HEVUS",
		"latitude": "43-15-56.64 N",
		"longitude": "89-14-28.74 W",
		"state": "WISCONSIN",
		"artcc": "ZAU",
		"type": "RNAV",
		"updated": "06/13/2012"
	},
	{
		"name": "HEVYD",
		"latitude": "41-17-51 N",
		"longitude": "85-4-21.95 W",
		"state": "INDIANA",
		"artcc": "ZAU",
		"type": "RNAV",
		"updated": "03/27/2018"
	},
	{
		"name": "HEWRI",
		"latitude": "41-41-10.93 N",
		"longitude": "91-22-20.82 W",
		"state": "IOWA",
		"artcc": "ZAU",
		"type": "RNAV",
		"updated": "11/25/2008"
	},
	{
		"name": "HHHUL",
		"latitude": "42-3-32.75 N",
		"longitude": "88-2-59.25 W",
		"state": "ILLINOIS",
		"artcc": "ZAU",
		"type": "RNAV",
		"updated": "04/01/2014"
	},
	{
		"name": "HIATT",
		"latitude": "41-28-29.03 N",
		"longitude": "85-21-23.64 W",
		"state": "INDIANA",
		"artcc": "ZAU",
		"type": "RNAV",
		"updated": "07/30/2013"
	},
	{
		"name": "HIBAK",
		"latitude": "41-55-25.09 N",
		"longitude": "88-35-13.42 W",
		"state": "ILLINOIS",
		"artcc": "ZAU",
		"type": "RNAV",
		"updated": "07/20/2009"
	},
	{
		"name": "HIBAT",
		"latitude": "40-26-26.36 N",
		"longitude": "86-14-55.11 W",
		"state": "INDIANA",
		"artcc": "ZAU",
		"type": "RNAV",
		"updated": "02/25/2015"
	},
	{
		"name": "HIBEG",
		"latitude": "41-30-58.15 N",
		"longitude": "90-30-57.12 W",
		"state": "ILLINOIS",
		"artcc": "ZAU",
		"type": "RNAV",
		"updated": "01/30/2011"
	},
	{
		"name": "HIBEV",
		"latitude": "41-32-42.16 N",
		"longitude": "86-48-57.2 W",
		"state": "INDIANA",
		"artcc": "ZAU",
		"type": "RNAV",
		"updated": "09/29/2014"
	},
	{
		"name": "HIBIB",
		"latitude": "40-18-48.19 N",
		"longitude": "86-51-12.56 W",
		"state": "INDIANA",
		"artcc": "ZAU",
		"type": "RNAV",
		"updated": "09/29/2014"
	},
	{
		"name": "HIBKA",
		"latitude": "41-37-12.33 N",
		"longitude": "91-37-38.1 W",
		"state": "IOWA",
		"artcc": "ZAU",
		"type": "RNAV",
		"updated": "11/25/2008"
	},
	{
		"name": "HIBUN",
		"latitude": "43-14-16.23 N",
		"longitude": "87-58-45.41 W",
		"state": "WISCONSIN",
		"artcc": "ZAU",
		"type": "RNAV",
		"updated": "02/16/2010"
	},
	{
		"name": "HIDEM",
		"latitude": "41-46-52.47 N",
		"longitude": "86-5-36.86 W",
		"state": "MICHIGAN",
		"artcc": "ZAU",
		"type": "RNAV",
		"updated": "11/18/2016"
	},
	{
		"name": "HIFBA",
		"latitude": "41-18-29.37 N",
		"longitude": "84-56-50.7 W",
		"state": "INDIANA",
		"artcc": "ZAU",
		"type": "RNAV",
		"updated": "08/16/2006"
	},
	{
		"name": "HIGEK",
		"latitude": "42-23-42.67 N",
		"longitude": "87-54-25.43 W",
		"state": "ILLINOIS",
		"artcc": "ZAU",
		"type": "RP",
		"updated": "OBK*VOR/DME*012.81/10.61"
	},
	{
		"name": "HIGUH",
		"latitude": "42-18-4.84 N",
		"longitude": "88-0-4.06 W",
		"state": "ILLINOIS",
		"artcc": "ZAU",
		"type": "RNAV",
		"updated": "01/03/2012"
	},
	{
		"name": "HIHRY",
		"latitude": "41-36-54.53 N",
		"longitude": "88-19-13.05 W",
		"state": "ILLINOIS",
		"artcc": "ZAU",
		"type": "RNAV",
		"updated": "08/27/2013"
	},
	{
		"name": "HIKUW",
		"latitude": "42-54-1.59 N",
		"longitude": "90-17-5.36 W",
		"state": "WISCONSIN",
		"artcc": "ZAU",
		"type": "RNAV",
		"updated": "07/09/2012"
	},
	{
		"name": "HILLS",
		"latitude": "41-37-25.4 N",
		"longitude": "87-31-34.18 W",
		"state": "ILLINOIS",
		"artcc": "ZAU",
		"type": "RP",
		"updated": "CGT*VORTAC*014.67"
	},
	{
		"name": "HILLZ",
		"latitude": "41-45-5.17 N",
		"longitude": "90-23-23.84 W",
		"state": "IOWA",
		"artcc": "ZAU",
		"type": "RP",
		"updated": "FNO*LD*209.65/6.29"
	},
	{
		"name": "HILND",
		"latitude": "41-41-0.6 N",
		"longitude": "87-48-19.92 W",
		"state": "ILLINOIS",
		"artcc": "ZAU",
		"type": "RNAV",
		"updated": "05/20/2013"
	},
	{
		"name": "HILRO",
		"latitude": "43-39-6 N",
		"longitude": "90-13-29.56 W",
		"state": "WISCONSIN",
		"artcc": "ZAU",
		"type": "RP",
		"updated": "DLL*VORTAC*284.00/21.20"
	},
	{
		"name": "HIMGO",
		"latitude": "42-5-27.84 N",
		"longitude": "87-30-31.89 W",
		"state": "ILLINOIS",
		"artcc": "ZAU",
		"type": "RNAV",
		"updated": "08/24/2015"
	},
	{
		"name": "HIMLI",
		"latitude": "41-9-25.83 N",
		"longitude": "87-52-59.27 W",
		"state": "ILLINOIS",
		"artcc": "ZAU",
		"type": "RNAV",
		"updated": "03/22/2013"
	},
	{
		"name": "HIMLO",
		"latitude": "40-29-14.47 N",
		"longitude": "89-47-41.31 W",
		"state": "ILLINOIS",
		"artcc": "ZAU",
		"type": "RNAV",
		"updated": "07/29/2008"
	},
	{
		"name": "HINCK",
		"latitude": "41-49-28.62 N",
		"longitude": "88-40-33.37 W",
		"state": "ILLINOIS",
		"artcc": "ZAU",
		"type": "RP",
		"updated": "DPA*VOR/DME*253.00/15.13"
	},
	{
		"name": "HINGI",
		"latitude": "40-45-17.5 N",
		"longitude": "86-8-17.73 W",
		"state": "INDIANA",
		"artcc": "ZAU",
		"type": "RP",
		"updated": "OKK*VORTAC*349.96/14.10"
	},
	{
		"name": "HINSN",
		"latitude": "41-47-37.4 N",
		"longitude": "87-44-27.15 W",
		"state": "ILLINOIS",
		"artcc": "ZAU",
		"type": "RNAV",
		"updated": "12/03/2013"
	},
	{
		"name": "HIPOP",
		"latitude": "42-51-39.09 N",
		"longitude": "85-47-11.78 W",
		"state": "MICHIGAN",
		"artcc": "ZAU",
		"type": "RNAV",
		"updated": "05/22/2009"
	},
	{
		"name": "HIPUB",
		"latitude": "40-6-53.42 N",
		"longitude": "88-22-18.79 W",
		"state": "ILLINOIS",
		"artcc": "ZAU",
		"type": "RNAV",
		"updated": "10/14/2008"
	},
	{
		"name": "HIREX",
		"latitude": "43-10-11.68 N",
		"longitude": "89-22-12.54 W",
		"state": "WISCONSIN",
		"artcc": "ZAU",
		"type": "RNAV",
		"updated": "03/28/2011"
	},
	{
		"name": "HIRIL",
		"latitude": "41-0-55.66 N",
		"longitude": "87-54-26.57 W",
		"state": "ILLINOIS",
		"artcc": "ZAU",
		"type": "RNAV",
		"updated": "03/22/2013"
	},
	{
		"name": "HIRIR",
		"latitude": "43-57-28.84 N",
		"longitude": "88-32-42.72 W",
		"state": "WISCONSIN",
		"artcc": "ZAU",
		"type": "RP",
		"updated": "OSH*VORTAC*164.55/2.00"
	},
	{
		"name": "HIRUM",
		"latitude": "43-23-5.85 N",
		"longitude": "90-19-29.63 W",
		"state": "WISCONSIN",
		"artcc": "ZAU",
		"type": "RP",
		"updated": "LNR*VOR/DME*302.97/10.00"
	},
	{
		"name": "HISKO",
		"latitude": "41-49-27.13 N",
		"longitude": "87-48-25.1 W",
		"state": "ILLINOIS",
		"artcc": "ZAU",
		"type": "RNAV",
		"updated": "03/22/2009"
	},
	{
		"name": "HISUB",
		"latitude": "43-41-58.94 N",
		"longitude": "88-14-54.86 W",
		"state": "WISCONSIN",
		"artcc": "ZAU",
		"type": "RP",
		"updated": "BAE*VOR/DME*000.55/35.00"
	},
	{
		"name": "HITAX",
		"latitude": "40-24-22.92 N",
		"longitude": "86-8-9.14 W",
		"state": "INDIANA",
		"artcc": "ZAU",
		"type": "RNAV",
		"updated": "04/26/2016"
	},
	{
		"name": "HITOB",
		"latitude": "41-50-19.09 N",
		"longitude": "87-49-38.29 W",
		"state": "ILLINOIS",
		"artcc": "ZAU",
		"type": "RP",
		"updated": "MDW*LD*317.55/4.09"
	},
	{
		"name": "HITOM",
		"latitude": "41-55-1.77 N",
		"longitude": "86-19-2.75 W",
		"state": "MICHIGAN",
		"artcc": "ZAU",
		"type": "RNAV",
		"updated": "06/29/2017"
	},
	{
		"name": "HITPO",
		"latitude": "43-3-30.34 N",
		"longitude": "86-27-43.77 W",
		"state": "MICHIGAN",
		"artcc": "ZAU",
		"type": "RNAV",
		"updated": "04/05/2018"
	},
	{
		"name": "HITVU",
		"latitude": "40-7-39.81 N",
		"longitude": "88-21-42.19 W",
		"state": "ILLINOIS",
		"artcc": "ZAU",
		"type": "RP",
		"updated": "CMI*VORTAC*321.80/6.84"
	},
	{
		"name": "HIVAX",
		"latitude": "41-31-1.04 N",
		"longitude": "87-26-27.78 W",
		"state": "INDIANA",
		"artcc": "ZAU",
		"type": "RP",
		"updated": "CGT*VORTAC*083.90/5.90"
	},
	{
		"name": "HIWAY",
		"latitude": "41-10-42.15 N",
		"longitude": "85-16-2 W",
		"state": "INDIANA",
		"artcc": "ZAU",
		"type": "RP",
		"updated": "OLK*VOR*114.44"
	},
	{
		"name": "HIXEG",
		"latitude": "41-12-16.57 N",
		"longitude": "90-0-32.88 W",
		"state": "ILLINOIS",
		"artcc": "ZAU",
		"type": "RNAV",
		"updated": "07/29/2013"
	},
	{
		"name": "HIXEM",
		"latitude": "43-27-11.08 N",
		"longitude": "85-12-27.76 W",
		"state": "MICHIGAN",
		"artcc": "ZAU",
		"type": "RNAV",
		"updated": "07/15/2015"
	},
	{
		"name": "HLMIT",
		"latitude": "40-38-52.64 N",
		"longitude": "87-6-39.22 W",
		"state": "INDIANA",
		"artcc": "ZAU",
		"type": "RNAV",
		"updated": "05/26/2016"
	},
	{
		"name": "HOBAD",
		"latitude": "41-34-20.15 N",
		"longitude": "85-20-33.28 W",
		"state": "INDIANA",
		"artcc": "ZAU",
		"type": "RNAV",
		"updated": "10/30/2001"
	},
	{
		"name": "HOBAR",
		"latitude": "41-32-30.52 N",
		"longitude": "87-12-31.13 W",
		"state": "INDIANA",
		"artcc": "ZAU",
		"type": "RP",
		"updated": "JOT*VOR/DME*087.95/50.00"
	},
	{
		"name": "HOBAX",
		"latitude": "41-46-2.98 N",
		"longitude": "89-34-45.42 W",
		"state": "ILLINOIS",
		"artcc": "ZAU",
		"type": "RNAV",
		"updated": "07/27/2009"
	},
	{
		"name": "HOBDI",
		"latitude": "40-14-25.4 N",
		"longitude": "90-9-54.72 W",
		"state": "ILLINOIS",
		"artcc": "ZAU",
		"type": "RNAV",
		"updated": "07/27/2009"
	},
	{
		"name": "HOBEL",
		"latitude": "41-44-34.81 N",
		"longitude": "87-41-34.43 W",
		"state": "ILLINOIS",
		"artcc": "ZAU",
		"type": "RP",
		"updated": "MXT*LD*137.57/4.23"
	},
	{
		"name": "HOBGO",
		"latitude": "43-41-18.89 N",
		"longitude": "89-57-30.5 W",
		"state": "WISCONSIN",
		"artcc": "ZAU",
		"type": "RNAV",
		"updated": "07/09/2012"
	},
	{
		"name": "HOBIG",
		"latitude": "43-13-25.16 N",
		"longitude": "89-16-4.54 W",
		"state": "WISCONSIN",
		"artcc": "ZAU",
		"type": "RP",
		"updated": "DLL*VORTAC*128.98"
	},
	{
		"name": "HOBLT",
		"latitude": "41-36-20.81 N",
		"longitude": "88-10-45.91 W",
		"state": "ILLINOIS",
		"artcc": "ZAU",
		"type": "RP",
		"updated": "LOT*LE*269.73/4.46"
	},
	{
		"name": "HOBPU",
		"latitude": "42-29-14.73 N",
		"longitude": "92-36-58.79 W",
		"state": "IOWA",
		"artcc": "ZAU",
		"type": "RNAV",
		"updated": "02/09/2018"
	},
	{
		"name": "HODAT",
		"latitude": "43-38-47.99 N",
		"longitude": "86-16-30.49 W",
		"state": "MICHIGAN",
		"artcc": "ZAU",
		"type": "RNAV",
		"updated": "11/04/2015"
	},
	{
		"name": "HODRA",
		"latitude": "41-32-2.75 N",
		"longitude": "90-38-50.58 W",
		"state": "IOWA",
		"artcc": "ZAU",
		"type": "RNAV",
		"updated": "01/30/2011"
	},
	{
		"name": "HODUG",
		"latitude": "40-41-38.27 N",
		"longitude": "89-44-44.72 W",
		"state": "ILLINOIS",
		"artcc": "ZAU",
		"type": "RNAV",
		"updated": "04/24/2018"
	},
	{
		"name": "HOGIE",
		"latitude": "41-46-23 N",
		"longitude": "88-11-50.46 W",
		"state": "ILLINOIS",
		"artcc": "ZAU",
		"type": "RNAV",
		"updated": "05/05/2011"
	},
	{
		"name": "HOGMI",
		"latitude": "42-53-31.22 N",
		"longitude": "87-38-54.45 W",
		"state": "WISCONSIN",
		"artcc": "ZAU",
		"type": "RP",
		"updated": "BAE*VOR/DME*113.51"
	},
	{
		"name": "HOKIX",
		"latitude": "43-58-36.28 N",
		"longitude": "88-8-57.93 W",
		"state": "WISCONSIN",
		"artcc": "ZAU",
		"type": "RNAV",
		"updated": "09/15/2011"
	},
	{
		"name": "HOKUD",
		"latitude": "43-10-50.16 N",
		"longitude": "89-25-27.69 W",
		"state": "WISCONSIN",
		"artcc": "ZAU",
		"type": "RNAV",
		"updated": "05/24/2016"
	},
	{
		"name": "HOLLY",
		"latitude": "42-37-7.5 N",
		"longitude": "92-11-22.7 W",
		"state": "IOWA",
		"artcc": "ZAU",
		"type": "RP",
		"updated": "ALO*VOR/DME*062.00/10.00"
	},
	{
		"name": "HOMNY",
		"latitude": "43-31-2.22 N",
		"longitude": "88-39-40.15 W",
		"state": "WISCONSIN",
		"artcc": "ZAU",
		"type": "RNAV",
		"updated": "06/16/2008"
	},
	{
		"name": "HOMUT",
		"latitude": "43-37-49.94 N",
		"longitude": "86-26-47.12 W",
		"state": "MICHIGAN",
		"artcc": "ZAU",
		"type": "RNAV",
		"updated": "11/04/2015"
	},
	{
		"name": "HONHU",
		"latitude": "43-47-30.61 N",
		"longitude": "90-4-59.13 W",
		"state": "WISCONSIN",
		"artcc": "ZAU",
		"type": "RNAV",
		"updated": "05/24/2016"
	},
	{
		"name": "HONPA",
		"latitude": "41-5-27.61 N",
		"longitude": "92-18-51.51 W",
		"state": "IOWA",
		"artcc": "ZAU",
		"type": "RNAV",
		"updated": "07/11/2005"
	},
	{
		"name": "HONSE",
		"latitude": "42-50-0.65 N",
		"longitude": "85-30-27.43 W",
		"state": "MICHIGAN",
		"artcc": "ZAU",
		"type": "RP",
		"updated": "VIO*VOR/DME*354.58/2.85"
	},
	{
		"name": "HONUR",
		"latitude": "42-51-50.11 N",
		"longitude": "87-53-52.69 W",
		"state": "WISCONSIN",
		"artcc": "ZAU",
		"type": "RNAV",
		"updated": "11/06/2013"
	},
	{
		"name": "HOONS",
		"latitude": "40-54-8.66 N",
		"longitude": "85-17-24.29 W",
		"state": "INDIANA",
		"artcc": "ZAU",
		"type": "RP",
		"updated": "OLK*VOR*158.45"
	},
	{
		"name": "HOPES",
		"latitude": "43-44-25.08 N",
		"longitude": "89-29-32.91 W",
		"state": "WISCONSIN",
		"artcc": "ZAU",
		"type": "RNAV",
		"updated": "01/12/2017"
	},
	{
		"name": "HOPIR",
		"latitude": "42-8-54.78 N",
		"longitude": "88-40-21.04 W",
		"state": "ILLINOIS",
		"artcc": "ZAU",
		"type": "RNAV",
		"updated": "10/17/2005"
	},
	{
		"name": "HOPSS",
		"latitude": "42-42-19.25 N",
		"longitude": "88-16-47.79 W",
		"state": "WISCONSIN",
		"artcc": "ZAU",
		"type": "RNAV",
		"updated": "08/27/2013"
	},
	{
		"name": "HORAH",
		"latitude": "41-23-36.32 N",
		"longitude": "89-9-11.42 W",
		"state": "ILLINOIS",
		"artcc": "ZAU",
		"type": "RNAV",
		"updated": "09/08/2015"
	},
	{
		"name": "HOSAV",
		"latitude": "41-55-23.2 N",
		"longitude": "88-22-54.6 W",
		"state": "ILLINOIS",
		"artcc": "ZAU",
		"type": "RNAV",
		"updated": "05/20/2010"
	},
	{
		"name": "HOSEN",
		"latitude": "41-37-16.84 N",
		"longitude": "87-25-18.14 W",
		"state": "INDIANA",
		"artcc": "ZAU",
		"type": "RNAV",
		"updated": "04/12/2006"
	},
	{
		"name": "HOSIX",
		"latitude": "41-22-34.26 N",
		"longitude": "87-55-29.47 W",
		"state": "ILLINOIS",
		"artcc": "ZAU",
		"type": "RNAV",
		"updated": "01/20/2009"
	},
	{
		"name": "HOSLA",
		"latitude": "43-47-29.98 N",
		"longitude": "87-53-29.17 W",
		"state": "WISCONSIN",
		"artcc": "ZAU",
		"type": "RNAV",
		"updated": "09/23/2004"
	},
	{
		"name": "HOSLI",
		"latitude": "43-10-8.55 N",
		"longitude": "86-2-17.46 W",
		"state": "MICHIGAN",
		"artcc": "ZAU",
		"type": "RNAV",
		"updated": "03/11/2014"
	},
	{
		"name": "HOSSA",
		"latitude": "42-0-25.32 N",
		"longitude": "85-4-12.23 W",
		"state": "MICHIGAN",
		"artcc": "ZAU",
		"type": "RNAV",
		"updated": "03/29/2018"
	},
	{
		"name": "HOTIR",
		"latitude": "42-19-41.99 N",
		"longitude": "85-33-19.64 W",
		"state": "MICHIGAN",
		"artcc": "ZAU",
		"type": "RNAV",
		"updated": "02/18/2011"
	},
	{
		"name": "HOTNA",
		"latitude": "42-51-39.97 N",
		"longitude": "87-48-27.71 W",
		"state": "WISCONSIN",
		"artcc": "ZAU",
		"type": "WP",
		"updated": "11/21/2000"
	},
	{
		"name": "HOTPU",
		"latitude": "42-0-11.45 N",
		"longitude": "89-0-7.77 W",
		"state": "ILLINOIS",
		"artcc": "ZAU",
		"type": "RNAV",
		"updated": "04/12/2001"
	},
	{
		"name": "HOTRA",
		"latitude": "41-14-27.56 N",
		"longitude": "86-39-43.86 W",
		"state": "INDIANA",
		"artcc": "ZAU",
		"type": "RNAV",
		"updated": "08/07/2008"
	},
	{
		"name": "HOTTS",
		"latitude": "40-51-35.96 N",
		"longitude": "91-23-22.43 W",
		"state": "IOWA",
		"artcc": "ZAU",
		"type": "RNAV",
		"updated": "03/27/2018"
	},
	{
		"name": "HOVEP",
		"latitude": "43-5-24.06 N",
		"longitude": "87-52-13.11 W",
		"state": "WISCONSIN",
		"artcc": "ZAU",
		"type": "RNAV",
		"updated": "08/06/2003"
	},
	{
		"name": "HOVRA",
		"latitude": "41-15-27.44 N",
		"longitude": "90-56-22.09 W",
		"state": "ILLINOIS",
		"artcc": "ZAU",
		"type": "RNAV",
		"updated": "08/25/2014"
	},
	{
		"name": "HOVUB",
		"latitude": "41-54-58.56 N",
		"longitude": "88-17-38.43 W",
		"state": "ILLINOIS",
		"artcc": "ZAU",
		"type": "RP",
		"updated": "DPA*VOR/DME*056.29"
	},
	{
		"name": "HOXON",
		"latitude": "42-42-23.74 N",
		"longitude": "86-22-32.54 W",
		"state": "MICHIGAN",
		"artcc": "ZAU",
		"type": "RNAV",
		"updated": "03/16/2007"
	},
	{
		"name": "HOXUR",
		"latitude": "42-37-30.76 N",
		"longitude": "92-42-0.83 W",
		"state": "IOWA",
		"artcc": "ZAU",
		"type": "RNAV",
		"updated": "07/31/2006"
	},
	{
		"name": "HUBAN",
		"latitude": "42-56-6.85 N",
		"longitude": "87-58-37.3 W",
		"state": "WISCONSIN",
		"artcc": "ZAU",
		"type": "RNAV",
		"updated": "08/06/2003"
	},
	{
		"name": "HUBLI",
		"latitude": "40-8-16.97 N",
		"longitude": "86-5-39.57 W",
		"state": "INDIANA",
		"artcc": "ZAU",
		"type": "RNAV",
		"updated": "12/08/2008"
	},
	{
		"name": "HUBOP",
		"latitude": "40-20-18.41 N",
		"longitude": "86-8-27.04 W",
		"state": "INDIANA",
		"artcc": "ZAU",
		"type": "RP",
		"updated": "OKK*VORTAC*203.51/11.97"
	},
	{
		"name": "HUDAK",
		"latitude": "40-36-0.28 N",
		"longitude": "90-10-6.91 W",
		"state": "ILLINOIS",
		"artcc": "ZAU",
		"type": "RNAV",
		"updated": "07/27/2009"
	},
	{
		"name": "HUDUM",
		"latitude": "41-15-19.77 N",
		"longitude": "91-38-45.11 W",
		"state": "IOWA",
		"artcc": "ZAU",
		"type": "RNAV",
		"updated": "02/18/2016"
	},
	{
		"name": "HUFYE",
		"latitude": "43-26-33.24 N",
		"longitude": "88-56-8.51 W",
		"state": "WISCONSIN",
		"artcc": "ZAU",
		"type": "RNAV",
		"updated": "01/23/2007"
	},
	{
		"name": "HUGSU",
		"latitude": "40-37-17.15 N",
		"longitude": "90-4-21.23 W",
		"state": "ILLINOIS",
		"artcc": "ZAU",
		"type": "RNAV",
		"updated": "01/09/2013"
	},
	{
		"name": "HUGUD",
		"latitude": "40-38-1.41 N",
		"longitude": "88-43-44.32 W",
		"state": "ILLINOIS",
		"artcc": "ZAU",
		"type": "RNAV",
		"updated": "12/22/2008"
	},
	{
		"name": "HUKPO",
		"latitude": "40-37-10.42 N",
		"longitude": "90-55-4.73 W",
		"state": "ILLINOIS",
		"artcc": "ZAU",
		"type": "RNAV",
		"updated": "01/09/2013"
	},
	{
		"name": "HUKVU",
		"latitude": "43-21-57.8 N",
		"longitude": "90-43-49.96 W",
		"state": "WISCONSIN",
		"artcc": "ZAU",
		"type": "RNAV",
		"updated": "07/31/2017"
	},
	{
		"name": "HULAM",
		"latitude": "41-49-23.62 N",
		"longitude": "87-41-18.87 W",
		"state": "ILLINOIS",
		"artcc": "ZAU",
		"type": "RNAV",
		"updated": "01/12/2006"
	},
	{
		"name": "HULIB",
		"latitude": "41-16-14.79 N",
		"longitude": "85-56-57.16 W",
		"state": "INDIANA",
		"artcc": "ZAU",
		"type": "RNAV",
		"updated": "08/13/2010"
	},
	{
		"name": "HULLS",
		"latitude": "41-39-24 N",
		"longitude": "86-47-36 W",
		"state": "INDIANA",
		"artcc": "ZAU",
		"type": "RNAV",
		"updated": "09/30/2008"
	},
	{
		"name": "HULOL",
		"latitude": "40-16-20.96 N",
		"longitude": "86-49-51.49 W",
		"state": "INDIANA",
		"artcc": "ZAU",
		"type": "RNAV",
		"updated": "07/10/2013"
	},
	{
		"name": "HULOT",
		"latitude": "42-32-19.31 N",
		"longitude": "90-53-27.91 W",
		"state": "IOWA",
		"artcc": "ZAU",
		"type": "RNAV",
		"updated": "07/31/2006"
	},
	{
		"name": "HULOX",
		"latitude": "42-55-46.63 N",
		"longitude": "87-57-23.46 W",
		"state": "WISCONSIN",
		"artcc": "ZAU",
		"type": "RP",
		"updated": "GMF*LD*253.65/1.56"
	},
	{
		"name": "HUMBI",
		"latitude": "43-21-58.69 N",
		"longitude": "88-1-30.25 W",
		"state": "WISCONSIN",
		"artcc": "ZAU",
		"type": "RNAV",
		"updated": "02/15/2010"
	},
	{
		"name": "HUMUL",
		"latitude": "40-46-43.39 N",
		"longitude": "89-3-38.37 W",
		"state": "ILLINOIS",
		"artcc": "ZAU",
		"type": "RP",
		"updated": "BMI*VOR/DME*338.73"
	},
	{
		"name": "HUMVI",
		"latitude": "40-34-44.57 N",
		"longitude": "86-33-41.85 W",
		"state": "INDIANA",
		"artcc": "ZAU",
		"type": "RNAV",
		"updated": "11/18/2016"
	},
	{
		"name": "HUNKA",
		"latitude": "42-31-57.23 N",
		"longitude": "88-17-13.51 W",
		"state": "WISCONSIN",
		"artcc": "ZAU",
		"type": "RNAV",
		"updated": "08/27/2013"
	},
	{
		"name": "HUNYO",
		"latitude": "41-47-1.76 N",
		"longitude": "93-6-32.32 W",
		"state": "IOWA",
		"artcc": "ZAU",
		"type": "WP",
		"updated": "03/06/1996"
	},
	{
		"name": "HUPAD",
		"latitude": "40-17-26.62 N",
		"longitude": "88-59-21 W",
		"state": "ILLINOIS",
		"artcc": "ZAU",
		"type": "RP",
		"updated": "CMI*VORTAC*292.32"
	},
	{
		"name": "HUPED",
		"latitude": "40-44-14.61 N",
		"longitude": "86-3-11.54 W",
		"state": "INDIANA",
		"artcc": "ZAU",
		"type": "MR",
		"updated": "GUS*VORTAC*041.00"
	},
	{
		"name": "HURGU",
		"latitude": "41-40-51.55 N",
		"longitude": "86-0-29.29 W",
		"state": "INDIANA",
		"artcc": "ZAU",
		"type": "RNAV",
		"updated": "11/18/2016"
	},
	{
		"name": "HURST",
		"latitude": "43-56-9.68 N",
		"longitude": "90-12-12.57 W",
		"state": "WISCONSIN",
		"artcc": "ZAU",
		"type": "RP",
		"updated": "DLL*VORTAC*317.53/30.00"
	},
	{
		"name": "HUSBO",
		"latitude": "41-39-26.12 N",
		"longitude": "90-32-24.68 W",
		"state": "IOWA",
		"artcc": "ZAU",
		"type": "RP",
		"updated": "CVA*VORTAC*215.76/4.00"
	},
	{
		"name": "HUTGU",
		"latitude": "44-1-29.01 N",
		"longitude": "88-23-42.27 W",
		"state": "WISCONSIN",
		"artcc": "ZAU",
		"type": "RNAV",
		"updated": "09/15/2011"
	},
	{
		"name": "HUUNT",
		"latitude": "43-2-14.62 N",
		"longitude": "85-54-50.52 W",
		"state": "MICHIGAN",
		"artcc": "ZAU",
		"type": "RNAV",
		"updated": "04/06/2009"
	},
	{
		"name": "HUVED",
		"latitude": "43-4-9.78 N",
		"longitude": "88-6-56.66 W",
		"state": "WISCONSIN",
		"artcc": "ZAU",
		"type": "RNAV",
		"updated": "11/06/2013"
	},
	{
		"name": "HUWFA",
		"latitude": "42-57-39.22 N",
		"longitude": "89-2-48.74 W",
		"state": "WISCONSIN",
		"artcc": "ZAU",
		"type": "RNAV",
		"updated": "05/24/2016"
	},
	{
		"name": "HUXID",
		"latitude": "43-22-48.02 N",
		"longitude": "88-5-26.77 W",
		"state": "WISCONSIN",
		"artcc": "ZAU",
		"type": "RNAV",
		"updated": "10/24/2011"
	},
	{
		"name": "HUXUR",
		"latitude": "41-15-26.83 N",
		"longitude": "88-52-14.39 W",
		"state": "ILLINOIS",
		"artcc": "ZAU",
		"type": "RNAV",
		"updated": "07/27/2009"
	},
	{
		"name": "HUZVU",
		"latitude": "43-58-57.59 N",
		"longitude": "89-12-47.06 W",
		"state": "WISCONSIN",
		"artcc": "ZAU",
		"type": "RNAV",
		"updated": "06/27/2012"
	},
	{
		"name": "HYYDE",
		"latitude": "43-11-10.9 N",
		"longitude": "88-51-10.5 W",
		"state": "WISCONSIN",
		"artcc": "ZAU",
		"type": "RNAV",
		"updated": "05/07/2013"
	},
	{
		"name": "HZLET",
		"latitude": "42-12-42.1 N",
		"longitude": "88-12-41.97 W",
		"state": "ILLINOIS",
		"artcc": "ZAU",
		"type": "RP",
		"updated": "DPA*VOR/DME*015.76"
	}
]
