	{
		"name": "IANNA",
		"latitude": "42-30-25.47 N",
		"longitude": "93-4-54.79 W",
		"state": "IOWA",
		"artcc": "ZAU",
		"type": "RNAV",
		"updated": "08/26/2013",
	},
	{
		"name": "IBEBY",
		"latitude": "42-0-13 N",
		"longitude": "86-22-38.71 W",
		"state": "MICHIGAN",
		"artcc": "ZAU",
		"type": "RNAV",
		"updated": "02/24/2011",
	},
	{
		"name": "IBJIH",
		"latitude": "41-50-52.96 N",
		"longitude": "85-17-7.9 W",
		"state": "MICHIGAN",
		"artcc": "ZAU",
		"type": "RNAV",
		"updated": "02/22/2008",
	},
	{
		"name": "IBUCK",
		"latitude": "43-56-34.67 N",
		"longitude": "89-54-46.88 W",
		"state": "WISCONSIN",
		"artcc": "ZAU",
		"type": "MR",
		"updated": "DLL*VORTAC*341.61/24.40",
	},
	{
		"name": "IBUDE",
		"latitude": "41-36-39.4 N",
		"longitude": "85-31-7.12 W",
		"state": "INDIANA",
		"artcc": "ZAU",
		"type": "RNAV",
		"updated": "03/27/2008",
	},
	{
		"name": "ICIZE",
		"latitude": "41-14-3.33 N",
		"longitude": "92-47-0.9 W",
		"state": "IOWA",
		"artcc": "ZAU",
		"type": "RNAV",
		"updated": "10/06/2008",
	},
	{
		"name": "ICUMU",
		"latitude": "43-26-49.11 N",
		"longitude": "88-4-21.69 W",
		"state": "WISCONSIN",
		"artcc": "ZAU",
		"type": "RNAV",
		"updated": "02/15/2010",
	},
	{
		"name": "ICWAR",
		"latitude": "41-31-42.39 N",
		"longitude": "91-20-5.14 W",
		"state": "IOWA",
		"artcc": "ZAU",
		"type": "RNAV",
		"updated": "11/25/2008",
	},
	{
		"name": "IDOPE",
		"latitude": "41-35-21.98 N",
		"longitude": "90-45-1.37 W",
		"state": "IOWA",
		"artcc": "ZAU",
		"type": "RNAV",
		"updated": "08/07/2009",
	},
	{
		"name": "IDUBE",
		"latitude": "42-50-29.75 N",
		"longitude": "90-13-35.83 W",
		"state": "WISCONSIN",
		"artcc": "ZAU",
		"type": "RNAV",
		"updated": "06/28/2009",
	},
	{
		"name": "IDUDE",
		"latitude": "41-44-19.15 N",
		"longitude": "87-29-21.11 W",
		"state": "ILLINOIS",
		"artcc": "ZAU",
		"type": "RNAV",
		"updated": "09/25/2002",
	},
	{
		"name": "IDXOH",
		"latitude": "40-56-32.82 N",
		"longitude": "85-40-19.95 W",
		"state": "INDIANA",
		"artcc": "ZAU",
		"type": "RNAV",
		"updated": "12/31/2002",
	},
	{
		"name": "IFYAZ",
		"latitude": "43-38-19.25 N",
		"longitude": "89-29-13.76 W",
		"state": "WISCONSIN",
		"artcc": "ZAU",
		"type": "RNAV",
		"updated": "01/12/2017",
	},
	{
		"name": "IGECY",
		"latitude": "41-36-6.87 N",
		"longitude": "87-46-4.24 W",
		"state": "ILLINOIS",
		"artcc": "ZAU",
		"type": "RP",
		"updated": "EON*VORTAC*001.00/19.95",
	},
	{
		"name": "IGEDY",
		"latitude": "43-19-6.94 N",
		"longitude": "88-16-40.05 W",
		"state": "WISCONSIN",
		"artcc": "ZAU",
		"type": "RNAV",
		"updated": "10/24/2011",
	},
	{
		"name": "IGFIR",
		"latitude": "42-34-11.22 N",
		"longitude": "87-42-20.93 W",
		"state": "WISCONSIN",
		"artcc": "ZAU",
		"type": "RNAV",
		"updated": "12/21/2009",
	},
	{
		"name": "IGOGY",
		"latitude": "42-39-40.01 N",
		"longitude": "89-41-27.01 W",
		"state": "WISCONSIN",
		"artcc": "ZAU",
		"type": "RNAV",
		"updated": "03/24/2009",
	},
	{
		"name": "IGPIH",
		"latitude": "43-45-55.65 N",
		"longitude": "90-3-0.28 W",
		"state": "WISCONSIN",
		"artcc": "ZAU",
		"type": "RNAV",
		"updated": "07/09/2012",
	},
	{
		"name": "IGVEW",
		"latitude": "43-53-3.51 N",
		"longitude": "88-17-13.47 W",
		"state": "WISCONSIN",
		"artcc": "ZAU",
		"type": "RNAV",
		"updated": "07/12/2013",
	},
	{
		"name": "IHEDU",
		"latitude": "43-27-49.98 N",
		"longitude": "88-3-15.23 W",
		"state": "WISCONSIN",
		"artcc": "ZAU",
		"type": "CN",
		"updated": "10/01/2001",
	},
	{
		"name": "IJBIJ",
		"latitude": "42-19-9.07 N",
		"longitude": "88-6-59.42 W",
		"state": "ILLINOIS",
		"artcc": "ZAU",
		"type": "RNAV",
		"updated": "04/26/2000",
	},
	{
		"name": "IJCIL",
		"latitude": "40-40-6.78 N",
		"longitude": "86-14-23.02 W",
		"state": "INDIANA",
		"artcc": "ZAU",
		"type": "RNAV",
		"updated": "08/05/2013",
	},
	{
		"name": "IJELO",
		"latitude": "42-49-59.26 N",
		"longitude": "88-7-5.89 W",
		"state": "WISCONSIN",
		"artcc": "ZAU",
		"type": "RNAV",
		"updated": "08/01/2011",
	},
	{
		"name": "IJEMI",
		"latitude": "43-13-22.5 N",
		"longitude": "88-37-30.77 W",
		"state": "WISCONSIN",
		"artcc": "ZAU",
		"type": "RNAV",
		"updated": "01/20/2009",
	},
	{
		"name": "IJEPU",
		"latitude": "41-12-12.79 N",
		"longitude": "86-50-41.04 W",
		"state": "INDIANA",
		"artcc": "ZAU",
		"type": "RNAV",
		"updated": "02/23/2016",
	},
	{
		"name": "IJHUH",
		"latitude": "42-56-22.38 N",
		"longitude": "85-18-6.62 W",
		"state": "MICHIGAN",
		"artcc": "ZAU",
		"type": "RNAV",
		"updated": "08/25/2000",
	},
	{
		"name": "IJIGU",
		"latitude": "42-13-23.23 N",
		"longitude": "92-8-54.87 W",
		"state": "IOWA",
		"artcc": "ZAU",
		"type": "RNAV",
		"updated": "02/18/2010",
	},
	{
		"name": "IJITY",
		"latitude": "43-6-54.1 N",
		"longitude": "88-49-20.1 W",
		"state": "WISCONSIN",
		"artcc": "ZAU",
		"type": "RNAV",
		"updated": "01/20/2009",
	},
	{
		"name": "IJJUB",
		"latitude": "41-57-33.79 N",
		"longitude": "85-49-40.69 W",
		"state": "MICHIGAN",
		"artcc": "ZAU",
		"type": "RNAV",
		"updated": "06/19/2000",
	},
	{
		"name": "IJYEP",
		"latitude": "41-57-39.82 N",
		"longitude": "85-21-35.99 W",
		"state": "MICHIGAN",
		"artcc": "ZAU",
		"type": "RNAV",
		"updated": "06/19/2000",
	},
	{
		"name": "IKLIW",
		"latitude": "42-39-8.05 N",
		"longitude": "88-8-1.22 W",
		"state": "WISCONSIN",
		"artcc": "ZAU",
		"type": "RNAV",
		"updated": "01/02/2003",
	},
	{
		"name": "IKUDY",
		"latitude": "42-8-9.82 N",
		"longitude": "92-57-28.52 W",
		"state": "IOWA",
		"artcc": "ZAU",
		"type": "RNAV",
		"updated": "08/25/2014",
	},
	{
		"name": "ILEBY",
		"latitude": "40-57-15.59 N",
		"longitude": "88-20-55.46 W",
		"state": "ILLINOIS",
		"artcc": "ZAU",
		"type": "RNAV",
		"updated": "06/02/2008",
	},
	{
		"name": "ILETY",
		"latitude": "42-18-28.24 N",
		"longitude": "91-13-18.09 W",
		"state": "IOWA",
		"artcc": "ZAU",
		"type": "RNAV",
		"updated": "06/20/2011",
	},
	{
		"name": "ILIAD",
		"latitude": "40-45-37 N",
		"longitude": "89-54-24 W",
		"state": "ILLINOIS",
		"artcc": "ZAU",
		"type": "RNAV",
		"updated": "05/06/2013",
	},
	{
		"name": "ILIUM",
		"latitude": "42-0-7.78 N",
		"longitude": "88-18-5.68 W",
		"state": "ILLINOIS",
		"artcc": "ZAU",
		"type": "RP",
		"updated": "SAJ*LD*272.99/16.62",
	},
	{
		"name": "ILJAZ",
		"latitude": "43-27-14.31 N",
		"longitude": "85-8-39.46 W",
		"state": "MICHIGAN",
		"artcc": "ZAU",
		"type": "RNAV",
		"updated": "07/15/2015",
	},
	{
		"name": "ILOBE",
		"latitude": "42-27-7.17 N",
		"longitude": "90-12-59.93 W",
		"state": "ILLINOIS",
		"artcc": "ZAU",
		"type": "RP",
		"updated": "DBQ*VORTAC*077.95/22.09",
	},
	{
		"name": "ILRAY",
		"latitude": "40-23-51.11 N",
		"longitude": "86-49-1.75 W",
		"state": "INDIANA",
		"artcc": "ZAU",
		"type": "RNAV",
		"updated": "02/23/2007",
	},
	{
		"name": "ILTON",
		"latitude": "41-29-57.12 N",
		"longitude": "84-59-12.68 W",
		"state": "INDIANA",
		"artcc": "ZOB",
		"type": "RP",
		"updated": "GSH*VORTAC*091.55/46.95",
	},
	{
		"name": "IMDIW",
		"latitude": "42-33-55.83 N",
		"longitude": "92-3-30.39 W",
		"state": "IOWA",
		"artcc": "ZAU",
		"type": "RNAV",
		"updated": "12/13/2001",
	},
	{
		"name": "IMMES",
		"latitude": "43-11-0.37 N",
		"longitude": "89-32-28.83 W",
		"state": "WISCONSIN",
		"artcc": "ZAU",
		"type": "RP",
		"updated": "DLL*VORTAC*153.11/24.09",
	},
	{
		"name": "IMOGE",
		"latitude": "41-39-10.38 N",
		"longitude": "92-38-55.29 W",
		"state": "IOWA",
		"artcc": "ZAU",
		"type": "RNAV",
		"updated": "03/26/2008",
	},
	{
		"name": "INBYE",
		"latitude": "43-15-10.62 N",
		"longitude": "86-6-45.39 W",
		"state": "MICHIGAN",
		"artcc": "ZAU",
		"type": "RNAV",
		"updated": "03/11/2014",
	},
	{
		"name": "INDET",
		"latitude": "42-30-43.1 N",
		"longitude": "91-53-2.26 W",
		"state": "IOWA",
		"artcc": "ZAU",
		"type": "RP",
		"updated": "CID*VOR/DME*348.36",
	},
	{
		"name": "INEXE",
		"latitude": "41-11-34.98 N",
		"longitude": "85-34-4.2 W",
		"state": "INDIANA",
		"artcc": "ZAU",
		"type": "RNAV",
		"updated": "08/13/2010",
	},
	{
		"name": "INKEN",
		"latitude": "41-31-13.55 N",
		"longitude": "86-46-20.78 W",
		"state": "INDIANA",
		"artcc": "ZAU",
		"type": "RP",
		"updated": "GSH*VORTAC*270.00/34.00",
	},
	{
		"name": "INNUK",
		"latitude": "41-37-30.84 N",
		"longitude": "86-5-48.05 W",
		"state": "INDIANA",
		"artcc": "ZAU",
		"type": "RNAV",
		"updated": "11/18/2016",
	},
	{
		"name": "INODY",
		"latitude": "41-11-0.49 N",
		"longitude": "85-5-17.67 W",
		"state": "INDIANA",
		"artcc": "ZAU",
		"type": "RNAV",
		"updated": "11/17/2010",
	},
	{
		"name": "INSAW",
		"latitude": "42-26-29.09 N",
		"longitude": "87-46-18.53 W",
		"state": "ILLINOIS",
		"artcc": "ZAU",
		"type": "RNAV",
		"updated": "06/19/2009",
	},
	{
		"name": "IOWAA",
		"latitude": "41-38-46.33 N",
		"longitude": "93-27-10 W",
		"state": "IOWA",
		"artcc": "ZAU",
		"type": "RNAV",
		"updated": "12/14/2017",
	},
	{
		"name": "IPIGY",
		"latitude": "42-45-6.99 N",
		"longitude": "88-4-48.58 W",
		"state": "WISCONSIN",
		"artcc": "ZAU",
		"type": "RNAV",
		"updated": "06/22/2009",
	},
	{
		"name": "IQOCI",
		"latitude": "40-45-19.14 N",
		"longitude": "90-33-36.15 W",
		"state": "ILLINOIS",
		"artcc": "ZAU",
		"type": "RNAV",
		"updated": "05/15/2012",
	},
	{
		"name": "IQYEL",
		"latitude": "42-33-52.26 N",
		"longitude": "92-39-33.17 W",
		"state": "IOWA",
		"artcc": "ZAU",
		"type": "RNAV",
		"updated": "12/13/2001",
	},
	{
		"name": "IRITE",
		"latitude": "43-7-32.08 N",
		"longitude": "88-0-41.47 W",
		"state": "WISCONSIN",
		"artcc": "ZAU",
		"type": "RP",
		"updated": "BAE*VOR/DME*085.41/12.00",
	},
	{
		"name": "IROCI",
		"latitude": "41-43-42.26 N",
		"longitude": "89-43-28.17 W",
		"state": "ILLINOIS",
		"artcc": "ZAU",
		"type": "RNAV",
		"updated": "10/15/2008",
	},
	{
		"name": "IROCK",
		"latitude": "41-31-8.73 N",
		"longitude": "86-54-18.71 W",
		"state": "INDIANA",
		"artcc": "ZAU",
		"type": "RP",
		"updated": "CGT*VORTAC*086.74/30.04",
	},
	{
		"name": "IROLZ",
		"latitude": "43-16-13.67 N",
		"longitude": "90-32-18.42 W",
		"state": "WISCONSIN",
		"artcc": "ZAU",
		"type": "RNAV",
		"updated": "05/24/2016",
	},
	{
		"name": "IRONY",
		"latitude": "42-54-20.43 N",
		"longitude": "88-3-15.72 W",
		"state": "WISCONSIN",
		"artcc": "ZAU",
		"type": "RNAV",
		"updated": "11/06/2013",
	},
	{
		"name": "IRPUY",
		"latitude": "43-41-50.61 N",
		"longitude": "88-51-57.55 W",
		"state": "WISCONSIN",
		"artcc": "ZAU",
		"type": "WP",
		"updated": "11/02/1998",
	},
	{
		"name": "IRUHE",
		"latitude": "42-58-53.52 N",
		"longitude": "88-57-37.88 W",
		"state": "WISCONSIN",
		"artcc": "ZAU",
		"type": "RNAV",
		"updated": "05/24/2016",
	},
	{
		"name": "ISBIY",
		"latitude": "40-4-32.68 N",
		"longitude": "86-15-7.1 W",
		"state": "INDIANA",
		"artcc": "ZAU",
		"type": "RNAV",
		"updated": "02/14/2011",
	},
	{
		"name": "ISINY",
		"latitude": "42-55-30.41 N",
		"longitude": "90-43-45.95 W",
		"state": "WISCONSIN",
		"artcc": "ZAU",
		"type": "RP",
		"updated": "LNR*VOR/DME*230.00/34.31",
	},
	{
		"name": "ISMUZ",
		"latitude": "43-5-41.87 N",
		"longitude": "89-20-41.77 W",
		"state": "WISCONSIN",
		"artcc": "ZAU",
		"type": "RP",
		"updated": "MSN*VORTAC*181.40/3.00",
	},
	{
		"name": "ISOSE",
		"latitude": "40-48-25.31 N",
		"longitude": "92-44-30.67 W",
		"state": "IOWA",
		"artcc": "ZAU",
		"type": "RNAV",
		"updated": "05/24/2011",
	},
	{
		"name": "ISOSY",
		"latitude": "41-2-7.45 N",
		"longitude": "86-27-30.81 W",
		"state": "INDIANA",
		"artcc": "ZAU",
		"type": "RNAV",
		"updated": "05/04/2010",
	},
	{
		"name": "ISUYO",
		"latitude": "41-42-30.11 N",
		"longitude": "86-3-21.25 W",
		"state": "INDIANA",
		"artcc": "ZAU",
		"type": "RNAV",
		"updated": "05/31/2005",
	},
	{
		"name": "ITAME",
		"latitude": "41-25-41.15 N",
		"longitude": "87-14-15.9 W",
		"state": "INDIANA",
		"artcc": "ZAU",
		"type": "RNAV",
		"updated": "09/20/2001",
	},
	{
		"name": "ITELE",
		"latitude": "41-5-33.57 N",
		"longitude": "86-50-41.52 W",
		"state": "INDIANA",
		"artcc": "ZAU",
		"type": "RNAV",
		"updated": "02/23/2016",
	},
	{
		"name": "ITIKE",
		"latitude": "42-32-34.4 N",
		"longitude": "85-57-6.99 W",
		"state": "MICHIGAN",
		"artcc": "ZAU",
		"type": "RNAV",
		"updated": "12/21/2009",
	},
	{
		"name": "ITUBE",
		"latitude": "43-34-24.04 N",
		"longitude": "88-9-3.26 W",
		"state": "WISCONSIN",
		"artcc": "ZAU",
		"type": "WP",
		"updated": "11/21/2000",
	},
	{
		"name": "IVALY",
		"latitude": "42-57-19.2 N",
		"longitude": "88-11-20.68 W",
		"state": "WISCONSIN",
		"artcc": "ZAU",
		"type": "RNAV",
		"updated": "06/10/2011",
	},
	{
		"name": "IVDAW",
		"latitude": "41-16-17.51 N",
		"longitude": "85-54-5.33 W",
		"state": "INDIANA",
		"artcc": "ZAU",
		"type": "RNAV",
		"updated": "08/13/2010",
	},
	{
		"name": "IVECA",
		"latitude": "43-19-2.94 N",
		"longitude": "88-41-29.16 W",
		"state": "WISCONSIN",
		"artcc": "ZAU",
		"type": "RNAV",
		"updated": "10/24/2011",
	},
	{
		"name": "IVOCE",
		"latitude": "42-30-6.55 N",
		"longitude": "92-18-0.26 W",
		"state": "IOWA",
		"artcc": "ZAU",
		"type": "RP",
		"updated": "ALO*LD*SE CRS/4.57",
	},
	{
		"name": "IVUNY",
		"latitude": "41-16-33.15 N",
		"longitude": "85-9-32.32 W",
		"state": "INDIANA",
		"artcc": "ZAU",
		"type": "RNAV",
		"updated": "11/17/2010",
	},
	{
		"name": "IWCOB",
		"latitude": "42-55-35.91 N",
		"longitude": "85-41-45.96 W",
		"state": "MICHIGAN",
		"artcc": "ZAU",
		"type": "RNAV",
		"updated": "02/18/2011",
	},
	{
		"name": "IWEWY",
		"latitude": "41-0-5.48 N",
		"longitude": "92-39-57.97 W",
		"state": "IOWA",
		"artcc": "ZAU",
		"type": "RP",
		"updated": "OTM*VOR/DME*258.00/15.54",
	},
	{
		"name": "IWNUM",
		"latitude": "40-31-10.67 N",
		"longitude": "90-36-27.85 W",
		"state": "ILLINOIS",
		"artcc": "ZAU",
		"type": "RNAV",
		"updated": "01/09/2013",
	},
	{
		"name": "IXIWU",
		"latitude": "41-47-12.99 N",
		"longitude": "90-43-41.76 W",
		"state": "IOWA",
		"artcc": "ZAU",
		"type": "CN",
		"updated": "01/30/2011",
	},
	{
		"name": "IXOBE",
		"latitude": "41-23-43.15 N",
		"longitude": "91-11-56.71 W",
		"state": "IOWA",
		"artcc": "ZAU",
		"type": "RNAV",
		"updated": "08/28/2014",
	},
	{
		"name": "IXODY",
		"latitude": "42-8-3.25 N",
		"longitude": "90-47-31.69 W",
		"state": "IOWA",
		"artcc": "ZAU",
		"type": "RNAV",
		"updated": "06/26/2013",
	},
	{
		"name": "IYEKA",
		"latitude": "41-10-23.87 N",
		"longitude": "85-0-9.86 W",
		"state": "INDIANA",
		"artcc": "ZAU",
		"type": "RNAV",
		"updated": "09/06/2002",
	},
	{
		"name": "IYLEK",
		"latitude": "42-0-6.91 N",
		"longitude": "87-26-30.08 W",
		"state": "ILLINOIS",
		"artcc": "ZAU",
		"type": "RP",
		"updated": "ABU*LD*093.01/21.85",
	},
	{
		"name": "IZAHO",
		"latitude": "43-17-14.28 N",
		"longitude": "88-11-58.68 W",
		"state": "WISCONSIN",
		"artcc": "ZAU",
		"type": "RNAV",
		"updated": "04/27/2011",
	},
	{
		"name": "IZARD",
		"latitude": "41-47-13.06 N",
		"longitude": "87-29-51.69 W",
		"state": "ILLINOIS",
		"artcc": "ZAU",
		"type": "RNAV",
		"updated": "08/27/2013",
	},
	{
		"name": "IZBUF",
		"latitude": "41-15-49.11 N",
		"longitude": "91-22-2.54 W",
		"state": "IOWA",
		"artcc": "ZAU",
		"type": "RNAV",
		"updated": "07/31/2006",
	},
