	{
		"name": "JABAS",
		"latitude": "41-22-27.94 N",
		"longitude": "86-25-24.96 W",
		"state": "INDIANA",
		"artcc": "ZAU",
		"type": "RNAV",
		"updated": "11/18/2015",
	},
	{
		"name": "JABDA",
		"latitude": "42-16-55.04 N",
		"longitude": "86-35-51.56 W",
		"state": "MICHIGAN",
		"artcc": "ZAU",
		"type": "RNAV",
		"updated": "06/29/2017",
	},
	{
		"name": "JABOL",
		"latitude": "43-29-53.31 N",
		"longitude": "89-39-17.88 W",
		"state": "WISCONSIN",
		"artcc": "ZAU",
		"type": "WP",
		"updated": "10/17/2007",
	},
	{
		"name": "JABRI",
		"latitude": "41-52-50.45 N",
		"longitude": "87-28-52.02 W",
		"state": "ILLINOIS",
		"artcc": "ZAU",
		"type": "RNAV",
		"updated": "09/25/2002",
	},
	{
		"name": "JADIS",
		"latitude": "41-55-44.03 N",
		"longitude": "88-46-13.17 W",
		"state": "ILLINOIS",
		"artcc": "ZAU",
		"type": "RNAV",
		"updated": "09/26/2003",
	},
	{
		"name": "JADLI",
		"latitude": "41-17-14.94 N",
		"longitude": "92-34-41.46 W",
		"state": "IOWA",
		"artcc": "ZAU",
		"type": "RNAV",
		"updated": "08/21/2009",
	},
	{
		"name": "JADNI",
		"latitude": "43-56-10.54 N",
		"longitude": "87-41-23.77 W",
		"state": "WISCONSIN",
		"artcc": "ZAU",
		"type": "RNAV",
		"updated": "11/04/2009",
	},
	{
		"name": "JADUX",
		"latitude": "42-57-23.87 N",
		"longitude": "90-8-59.73 W",
		"state": "WISCONSIN",
		"artcc": "ZAU",
		"type": "RNAV",
		"updated": "07/09/2012",
	},
	{
		"name": "JAGEP",
		"latitude": "43-59-30.85 N",
		"longitude": "88-36-40.96 W",
		"state": "WISCONSIN",
		"artcc": "ZAU",
		"type": "RNAV",
		"updated": "07/12/2013",
	},
	{
		"name": "JAKES",
		"latitude": "42-50-40.71 N",
		"longitude": "85-49-22.79 W",
		"state": "MICHIGAN",
		"artcc": "ZAU",
		"type": "RP",
		"updated": "VIO*VOR/DME*287.68/14.81",
	},
	{
		"name": "JAKKS",
		"latitude": "40-9-51.25 N",
		"longitude": "86-52-30.44 W",
		"state": "INDIANA",
		"artcc": "ZAU",
		"type": "RP",
		"updated": "TTH*VORTAC*021.00",
	},
	{
		"name": "JAKSA",
		"latitude": "42-50-38.05 N",
		"longitude": "89-2-42.67 W",
		"state": "WISCONSIN",
		"artcc": "ZAU",
		"type": "RNAV",
		"updated": "05/07/2013",
	},
	{
		"name": "JALAN",
		"latitude": "42-51-14.57 N",
		"longitude": "90-7-6.53 W",
		"state": "WISCONSIN",
		"artcc": "ZAU",
		"type": "RNAV",
		"updated": "07/09/2012",
	},
	{
		"name": "JALIR",
		"latitude": "41-42-8.76 N",
		"longitude": "84-59-36.58 W",
		"state": "INDIANA",
		"artcc": "ZOB",
		"type": "RNAV",
		"updated": "10/30/2001",
	},
	{
		"name": "JALOX",
		"latitude": "43-8-49.79 N",
		"longitude": "89-48-10.96 W",
		"state": "WISCONSIN",
		"artcc": "ZAU",
		"type": "RNAV",
		"updated": "10/13/2005",
	},
	{
		"name": "JALTA",
		"latitude": "43-32-33.29 N",
		"longitude": "90-47-13.14 W",
		"state": "WISCONSIN",
		"artcc": "ZAU",
		"type": "RNAV",
		"updated": "01/15/2004",
	},
	{
		"name": "JALUG",
		"latitude": "42-48-42.37 N",
		"longitude": "90-41-53.67 W",
		"state": "WISCONSIN",
		"artcc": "ZAU",
		"type": "RNAV",
		"updated": "06/28/2009",
	},
	{
		"name": "JAMEK",
		"latitude": "43-40-54.01 N",
		"longitude": "87-56-15.92 W",
		"state": "WISCONSIN",
		"artcc": "ZAU",
		"type": "RNAV",
		"updated": "10/25/2012",
	},
	{
		"name": "JAMIS",
		"latitude": "41-11-9.38 N",
		"longitude": "93-28-31.55 W",
		"state": "IOWA",
		"artcc": "ZAU",
		"type": "RP",
		"updated": "DSM*VORTAC*145.52/17.00",
	},
	{
		"name": "JAMMS",
		"latitude": "41-47-11.56 N",
		"longitude": "91-16-4.46 W",
		"state": "IOWA",
		"artcc": "ZAU",
		"type": "RP",
		"updated": "CID*VOR/DME*099.44/24.00",
	},
	{
		"name": "JAMTI",
		"latitude": "41-3-39.63 N",
		"longitude": "92-59-17.36 W",
		"state": "IOWA",
		"artcc": "ZAU",
		"type": "RNAV",
		"updated": "05/24/2011",
	},
	{
		"name": "JANGA",
		"latitude": "40-50-4 N",
		"longitude": "91-14-9.88 W",
		"state": "IOWA",
		"artcc": "ZAU",
		"type": "RNAV",
		"updated": "07/09/2013",
	},
	{
		"name": "JANKO",
		"latitude": "42-11-4.71 N",
		"longitude": "87-41-19.62 W",
		"state": "ILLINOIS",
		"artcc": "ZAU",
		"type": "RNAV",
		"updated": "07/19/2007",
	},
	{
		"name": "JANSI",
		"latitude": "42-53-56.52 N",
		"longitude": "88-4-53.13 W",
		"state": "WISCONSIN",
		"artcc": "ZAU",
		"type": "RNAV",
		"updated": "11/06/2013",
	},
	{
		"name": "JANUG",
		"latitude": "41-31-30.04 N",
		"longitude": "85-49-40.14 W",
		"state": "INDIANA",
		"artcc": "ZAU",
		"type": "RNAV",
		"updated": "03/27/2008",
	},
	{
		"name": "JANUN",
		"latitude": "42-48-49.35 N",
		"longitude": "90-18-50.99 W",
		"state": "WISCONSIN",
		"artcc": "ZAU",
		"type": "RNAV",
		"updated": "07/09/2012",
	},
	{
		"name": "JAPRO",
		"latitude": "43-13-19.21 N",
		"longitude": "89-16-28.34 W",
		"state": "WISCONSIN",
		"artcc": "ZAU",
		"type": "RNAV",
		"updated": "06/13/2012",
	},
	{
		"name": "JAREB",
		"latitude": "42-54-52.27 N",
		"longitude": "88-51-11.21 W",
		"state": "WISCONSIN",
		"artcc": "ZAU",
		"type": "RNAV",
		"updated": "03/19/2003",
	},
	{
		"name": "JARKE",
		"latitude": "40-4-47.06 N",
		"longitude": "88-24-4.36 W",
		"state": "ILLINOIS",
		"artcc": "ZAU",
		"type": "RP",
		"updated": "RBS*VOR/DME*197.94/32.00",
	},
	{
		"name": "JAROS",
		"latitude": "42-55-20.74 N",
		"longitude": "90-21-50.64 W",
		"state": "WISCONSIN",
		"artcc": "ZAU",
		"type": "RNAV",
		"updated": "07/09/2012",
	},
	{
		"name": "JAROT",
		"latitude": "40-51-6.83 N",
		"longitude": "85-27-54.55 W",
		"state": "INDIANA",
		"artcc": "ZAU",
		"type": "RP",
		"updated": "FWA*VORTAC*244.92/14.73",
	},
	{
		"name": "JASOL",
		"latitude": "41-31-47.08 N",
		"longitude": "87-19-27.43 W",
		"state": "INDIANA",
		"artcc": "ZAU",
		"type": "WP",
		"updated": "01/22/2007",
	},
	{
		"name": "JASOT",
		"latitude": "41-22-41.46 N",
		"longitude": "87-26-2.69 W",
		"state": "INDIANA",
		"artcc": "ZAU",
		"type": "RNAV",
		"updated": "01/20/2009",
	},
	{
		"name": "JATEX",
		"latitude": "44-1-40.11 N",
		"longitude": "88-41-4.05 W",
		"state": "WISCONSIN",
		"artcc": "ZAU",
		"type": "WP",
		"updated": "11/21/2000",
	},
	{
		"name": "JAVAS",
		"latitude": "40-45-56.25 N",
		"longitude": "92-47-19.8 W",
		"state": "IOWA",
		"artcc": "ZAU",
		"type": "RP",
		"updated": "LMN*VOR/DME*072.00/55.00",
	},
	{
		"name": "JAVMO",
		"latitude": "41-12-53.38 N",
		"longitude": "91-35-29.69 W",
		"state": "IOWA",
		"artcc": "ZAU",
		"type": "RNAV",
		"updated": "02/22/2016",
	},
	{
		"name": "JAVNI",
		"latitude": "41-49-0.05 N",
		"longitude": "89-34-19.4 W",
		"state": "ILLINOIS",
		"artcc": "ZAU",
		"type": "RNAV",
		"updated": "04/14/2009",
	},
	{
		"name": "JAVON",
		"latitude": "41-57-25.41 N",
		"longitude": "87-26-31.03 W",
		"state": "ILLINOIS",
		"artcc": "ZAU",
		"type": "RP",
		"updated": "VQX*LD*093.88/20.18",
	},
	{
		"name": "JAVPO",
		"latitude": "42-46-47.04 N",
		"longitude": "85-49-43.14 W",
		"state": "MICHIGAN",
		"artcc": "ZAU",
		"type": "RP",
		"updated": "MKG*VORTAC*159.26",
	},
	{
		"name": "JAYAR",
		"latitude": "41-21-10.31 N",
		"longitude": "88-39-14.46 W",
		"state": "ILLINOIS",
		"artcc": "ZAU",
		"type": "RP",
		"updated": "PNT*VOR/DME*003.43/32.08",
	},
	{
		"name": "JAYBE",
		"latitude": "42-38-39.36 N",
		"longitude": "88-38-19.6 W",
		"state": "WISCONSIN",
		"artcc": "ZAU",
		"type": "RP",
		"updated": "BAE*VOR/DME*207.00/32.37",
	},
	{
		"name": "JAYEX",
		"latitude": "42-59-0 N",
		"longitude": "90-14-0 W",
		"state": "WISCONSIN",
		"artcc": "ZAU",
		"type": "RNAV",
		"updated": "01/28/2014",
	},
	{
		"name": "JAYMR",
		"latitude": "41-41-29.26 N",
		"longitude": "86-54-38.1 W",
		"state": "INDIANA",
		"artcc": "ZAU",
		"type": "RP",
		"updated": "OXI*VOR/DME*332.09",
	},
	{
		"name": "JBAGS",
		"latitude": "42-31-22.69 N",
		"longitude": "90-19-0.57 W",
		"state": "WISCONSIN",
		"artcc": "ZAU",
		"type": "RNAV",
		"updated": "05/07/2013",
	},
	{
		"name": "JCUBS",
		"latitude": "42-41-39.75 N",
		"longitude": "85-23-9.96 W",
		"state": "MICHIGAN",
		"artcc": "ZAU",
		"type": "RP",
		"updated": "VIO*VOR/DME*142.43/7.40",
	},
	{
		"name": "JEAAN",
		"latitude": "41-44-18.61 N",
		"longitude": "88-2-34.59 W",
		"state": "ILLINOIS",
		"artcc": "ZAU",
		"type": "RNAV",
		"updated": "05/06/2013",
	},
	{
		"name": "JEBIS",
		"latitude": "43-17-30.06 N",
		"longitude": "85-29-39.7 W",
		"state": "MICHIGAN",
		"artcc": "ZAU",
		"type": "RNAV",
		"updated": "04/07/2009",
	},
	{
		"name": "JEDAG",
		"latitude": "41-31-35.49 N",
		"longitude": "90-6-38.9 W",
		"state": "ILLINOIS",
		"artcc": "ZAU",
		"type": "RNAV",
		"updated": "01/05/2012",
	},
	{
		"name": "JEDEM",
		"latitude": "43-19-31.59 N",
		"longitude": "88-20-54.88 W",
		"state": "WISCONSIN",
		"artcc": "ZAU",
		"type": "RNAV",
		"updated": "02/14/2010",
	},
	{
		"name": "JEGIM",
		"latitude": "42-32-0.67 N",
		"longitude": "92-21-18.92 W",
		"state": "IOWA",
		"artcc": "ZAU",
		"type": "RNAV",
		"updated": "08/21/2006",
	},
	{
		"name": "JEGPU",
		"latitude": "40-47-32.25 N",
		"longitude": "84-56-13.06 W",
		"state": "INDIANA",
		"artcc": "ZAU",
		"type": "RP",
		"updated": "FWA*LD*140.76/17.26",
	},
	{
		"name": "JEKUM",
		"latitude": "40-26-38.99 N",
		"longitude": "86-10-59.93 W",
		"state": "INDIANA",
		"artcc": "ZAU",
		"type": "RNAV",
		"updated": "07/26/2012",
	},
	{
		"name": "JELAL",
		"latitude": "41-34-47.3 N",
		"longitude": "86-46-4.77 W",
		"state": "INDIANA",
		"artcc": "ZAU",
		"type": "RNAV",
		"updated": "08/07/2012",
	},
	{
		"name": "JELEL",
		"latitude": "41-14-31.08 N",
		"longitude": "91-40-44.18 W",
		"state": "IOWA",
		"artcc": "ZAU",
		"type": "RNAV",
		"updated": "02/22/2016",
	},
	{
		"name": "JELLS",
		"latitude": "40-0-47.39 N",
		"longitude": "86-39-17.02 W",
		"state": "INDIANA",
		"artcc": "ZAU",
		"type": "RP",
		"updated": "TTH*VORTAC*039.00",
	},
	{
		"name": "JELMO",
		"latitude": "42-52-35.53 N",
		"longitude": "85-38-56.78 W",
		"state": "MICHIGAN",
		"artcc": "ZAU",
		"type": "RNAV",
		"updated": "05/21/2009",
	},
	{
		"name": "JEMOB",
		"latitude": "40-29-9.64 N",
		"longitude": "86-23-57.52 W",
		"state": "INDIANA",
		"artcc": "ZAU",
		"type": "MR",
		"updated": "GUS*VORTAC*232.00",
	},
	{
		"name": "JEMUD",
		"latitude": "21-19-30.73 N",
		"longitude": "158-4-6.41 W",
		"state": "HAWAII",
		"artcc": "ZAU",
		"type": "RNAV",
		"updated": "02/23/2017",
	},
	{
		"name": "JEMUT",
		"latitude": "40-21-37.46 N",
		"longitude": "86-49-52.08 W",
		"state": "INDIANA",
		"artcc": "ZAU",
		"type": "RNAV",
		"updated": "09/10/2012",
	},
	{
		"name": "JENFO",
		"latitude": "42-35-52.97 N",
		"longitude": "87-58-45.43 W",
		"state": "WISCONSIN",
		"artcc": "ZAU",
		"type": "RNAV",
		"updated": "12/21/2009",
	},
	{
		"name": "JENLI",
		"latitude": "40-35-26.86 N",
		"longitude": "85-26-25.05 W",
		"state": "INDIANA",
		"artcc": "ZID",
		"type": "RNAV",
		"updated": "08/16/2004",
	},
	{
		"name": "JENTI",
		"latitude": "40-22-53.68 N",
		"longitude": "88-8-38.1 W",
		"state": "ILLINOIS",
		"artcc": "ZAU",
		"type": "RNAV",
		"updated": "08/19/2015",
	},
	{
		"name": "JEPFE",
		"latitude": "40-17-57.06 N",
		"longitude": "86-42-19.33 W",
		"state": "INDIANA",
		"artcc": "ZAU",
		"type": "RNAV",
		"updated": "02/23/2007",
	},
	{
		"name": "JEPSA",
		"latitude": "42-58-59.1 N",
		"longitude": "87-46-49.95 W",
		"state": "WISCONSIN",
		"artcc": "ZAU",
		"type": "RNAV",
		"updated": "08/06/2003",
	},
	{
		"name": "JEREX",
		"latitude": "40-17-47 N",
		"longitude": "86-5-22 W",
		"state": "INDIANA",
		"artcc": "ZAU",
		"type": "RP",
		"updated": "VHP*VORTAC*022.48/31.59",
	},
	{
		"name": "JERKO",
		"latitude": "42-14-57.21 N",
		"longitude": "86-21-52.14 W",
		"state": "MICHIGAN",
		"artcc": "ZAU",
		"type": "RNAV",
		"updated": "02/16/2011",
	},
	{
		"name": "JERKY",
		"latitude": "41-40-53.87 N",
		"longitude": "89-25-47 W",
		"state": "ILLINOIS",
		"artcc": "ZAU",
		"type": "RNAV",
		"updated": "08/22/2013",
	},
	{
		"name": "JERNU",
		"latitude": "41-39-40.52 N",
		"longitude": "87-54-46.24 W",
		"state": "ILLINOIS",
		"artcc": "ZAU",
		"type": "RNAV",
		"updated": "09/25/2002",
	},
	{
		"name": "JERRY",
		"latitude": "41-41-32.7 N",
		"longitude": "88-19-24.84 W",
		"state": "ILLINOIS",
		"artcc": "ZAU",
		"type": "RNAV",
		"updated": "12/21/2009",
	},
	{
		"name": "JESDI",
		"latitude": "40-4-18.05 N",
		"longitude": "88-14-24.72 W",
		"state": "ILLINOIS",
		"artcc": "ZAU",
		"type": "RNAV",
		"updated": "08/11/2010",
	},
	{
		"name": "JESIB",
		"latitude": "43-32-26.72 N",
		"longitude": "88-21-0.23 W",
		"state": "WISCONSIN",
		"artcc": "ZAU",
		"type": "RNAV",
		"updated": "02/14/2010",
	},
	{
		"name": "JESIM",
		"latitude": "41-36-11.19 N",
		"longitude": "85-26-50.23 W",
		"state": "INDIANA",
		"artcc": "ZAU",
		"type": "RNAV",
		"updated": "05/05/2016",
	},
	{
		"name": "JESKO",
		"latitude": "42-41-24.21 N",
		"longitude": "89-8-36.96 W",
		"state": "WISCONSIN",
		"artcc": "ZAU",
		"type": "RNAV",
		"updated": "04/06/2010",
	},
	{
		"name": "JESOG",
		"latitude": "41-27-37.22 N",
		"longitude": "88-0-7.13 W",
		"state": "ILLINOIS",
		"artcc": "ZAU",
		"type": "RP",
		"updated": "RBS*VOR/DME*005.91/53.20",
	},
	{
		"name": "JESTU",
		"latitude": "43-54-41.94 N",
		"longitude": "90-13-30.66 W",
		"state": "WISCONSIN",
		"artcc": "ZAU",
		"type": "RNAV",
		"updated": "07/09/2012",
	},
	{
		"name": "JESUB",
		"latitude": "41-41-47.57 N",
		"longitude": "88-4-9.04 W",
		"state": "ILLINOIS",
		"artcc": "ZAU",
		"type": "RNAV",
		"updated": "04/27/2010",
	},
	{
		"name": "JETBO",
		"latitude": "41-44-55.05 N",
		"longitude": "86-37-7.84 W",
		"state": "INDIANA",
		"artcc": "ZAU",
		"type": "RNAV",
		"updated": "11/18/2016",
	},
	{
		"name": "JETIB",
		"latitude": "40-53-17.95 N",
		"longitude": "87-45-41.27 W",
		"state": "ILLINOIS",
		"artcc": "ZAU",
		"type": "RNAV",
		"updated": "03/22/2013",
	},
	{
		"name": "JETKI",
		"latitude": "41-37-27.14 N",
		"longitude": "85-26-22.25 W",
		"state": "INDIANA",
		"artcc": "ZAU",
		"type": "RNAV",
		"updated": "09/24/2009",
	},
	{
		"name": "JETRU",
		"latitude": "42-13-51.63 N",
		"longitude": "87-59-13.37 W",
		"state": "ILLINOIS",
		"artcc": "ZAU",
		"type": "RNAV",
		"updated": "05/31/2005",
	},
	{
		"name": "JETTR",
		"latitude": "41-2-28.6 N",
		"longitude": "86-3-47.63 W",
		"state": "INDIANA",
		"artcc": "ZAU",
		"type": "RNAV",
		"updated": "08/07/2008",
	},
	{
		"name": "JEVOP",
		"latitude": "41-6-40.75 N",
		"longitude": "92-27-19.46 W",
		"state": "IOWA",
		"artcc": "ZAU",
		"type": "RP",
		"updated": "OTM*VOR/DME*304.03/7.67",
	},
	{
		"name": "JEXLO",
		"latitude": "41-47-55.69 N",
		"longitude": "86-13-35.71 W",
		"state": "MICHIGAN",
		"artcc": "ZAU",
		"type": "RNAV",
		"updated": "11/18/2016",
	},
	{
		"name": "JHONN",
		"latitude": "42-0-4.51 N",
		"longitude": "88-30-43.54 W",
		"state": "ILLINOIS",
		"artcc": "ZAU",
		"type": "RP",
		"updated": "SAJ*LD*272.99/26.04",
	},
	{
		"name": "JIBBB",
		"latitude": "41-50-4.97 N",
		"longitude": "87-40-52 W",
		"state": "ILLINOIS",
		"artcc": "ZAU",
		"type": "RNAV",
		"updated": "06/13/2014",
	},
	{
		"name": "JIBOR",
		"latitude": "42-50-25.45 N",
		"longitude": "90-5-30.5 W",
		"state": "WISCONSIN",
		"artcc": "ZAU",
		"type": "RP",
		"updated": "DBQ*VORTAC*041.88",
	},
	{
		"name": "JIBUL",
		"latitude": "41-51-24.12 N",
		"longitude": "88-41-11.59 W",
		"state": "ILLINOIS",
		"artcc": "ZAU",
		"type": "RNAV",
		"updated": "07/20/2009",
	},
	{
		"name": "JIDIP",
		"latitude": "41-45-40.7 N",
		"longitude": "86-10-0.63 W",
		"state": "INDIANA",
		"artcc": "ZAU",
		"type": "RNAV",
		"updated": "11/18/2016",
	},
	{
		"name": "JIDNA",
		"latitude": "41-16-4.62 N",
		"longitude": "86-6-40.24 W",
		"state": "INDIANA",
		"artcc": "ZAU",
		"type": "RNAV",
		"updated": "08/13/2010",
	},
	{
		"name": "JIGRO",
		"latitude": "41-42-33.13 N",
		"longitude": "89-47-42.92 W",
		"state": "ILLINOIS",
		"artcc": "ZAU",
		"type": "RNAV",
		"updated": "10/10/2008",
	},
	{
		"name": "JIGTA",
		"latitude": "42-45-34.11 N",
		"longitude": "88-34-38.4 W",
		"state": "WISCONSIN",
		"artcc": "ZAU",
		"type": "RNAV",
		"updated": "08/01/2013",
	},
	{
		"name": "JIJLU",
		"latitude": "42-36-3.12 N",
		"longitude": "90-20-52.46 W",
		"state": "WISCONSIN",
		"artcc": "ZAU",
		"type": "RP",
		"updated": "DBQ*VORTAC*049.15/20.00",
	},
	{
		"name": "JILLY",
		"latitude": "40-43-49.9 N",
		"longitude": "88-31-0.23 W",
		"state": "ILLINOIS",
		"artcc": "ZAU",
		"type": "RP",
		"updated": "EON*VORTAC*223.80/46.17",
	},
	{
		"name": "JILLZ",
		"latitude": "41-11-16.3 N",
		"longitude": "88-58-5.04 W",
		"state": "ILLINOIS",
		"artcc": "ZAU",
		"type": "RNAV",
		"updated": "08/19/2015",
	},
	{
		"name": "JILYN",
		"latitude": "41-59-34.26 N",
		"longitude": "87-59-10.55 W",
		"state": "ILLINOIS",
		"artcc": "ZAU",
		"type": "RNAV",
		"updated": "11/19/2012",
	},
	{
		"name": "JIMIR",
		"latitude": "40-49-40.32 N",
		"longitude": "89-37-1.79 W",
		"state": "ILLINOIS",
		"artcc": "ZAU",
		"type": "RNAV",
		"updated": "09/10/2013",
	},
	{
		"name": "JIMMO",
		"latitude": "41-31-11.08 N",
		"longitude": "88-7-36.25 W",
		"state": "ILLINOIS",
		"artcc": "ZAU",
		"type": "RP",
		"updated": "JOT*VOR/DME*098.43",
	},
	{
		"name": "JINUB",
		"latitude": "40-22-7.93 N",
		"longitude": "88-57-22.38 W",
		"state": "ILLINOIS",
		"artcc": "ZAU",
		"type": "RNAV",
		"updated": "02/22/2007",
	},
	{
		"name": "JINUL",
		"latitude": "40-37-54.8 N",
		"longitude": "89-43-4.62 W",
		"state": "ILLINOIS",
		"artcc": "ZAU",
		"type": "RP",
		"updated": "RNX*LD*NE CRS/3.12",
	},
	{
		"name": "JINYO",
		"latitude": "41-50-36.16 N",
		"longitude": "88-44-48.06 W",
		"state": "ILLINOIS",
		"artcc": "ZAU",
		"type": "RP",
		"updated": "DJK*LD*S CRS/6.68",
	},
	{
		"name": "JIPDA",
		"latitude": "42-16-1.31 N",
		"longitude": "90-31-25.3 W",
		"state": "IOWA",
		"artcc": "ZAU",
		"type": "RNAV",
		"updated": "07/31/2006",
	},
	{
		"name": "JIPID",
		"latitude": "40-42-42.4 N",
		"longitude": "86-18-32.02 W",
		"state": "INDIANA",
		"artcc": "ZAU",
		"type": "RNAV",
		"updated": "03/28/2011",
	},
	{
		"name": "JIPTI",
		"latitude": "42-5-8.33 N",
		"longitude": "92-52-5.85 W",
		"state": "IOWA",
		"artcc": "ZAU",
		"type": "RNAV",
		"updated": "08/25/2014",
	},
	{
		"name": "JIPUS",
		"latitude": "40-2-18.96 N",
		"longitude": "86-50-37.16 W",
		"state": "INDIANA",
		"artcc": "ZAU",
		"type": "RNAV",
		"updated": "10/05/2016",
	},
	{
		"name": "JIQKU",
		"latitude": "42-24-37.14 N",
		"longitude": "92-34-24.79 W",
		"state": "IOWA",
		"artcc": "ZAU",
		"type": "RNAV",
		"updated": "12/13/2001",
	},
	{
		"name": "JIRKA",
		"latitude": "40-41-16.99 N",
		"longitude": "86-9-24.68 W",
		"state": "INDIANA",
		"artcc": "ZAU",
		"type": "RNAV",
		"updated": "11/20/2006",
	},
	{
		"name": "JISIS",
		"latitude": "40-50-36.91 N",
		"longitude": "90-29-52.88 W",
		"state": "ILLINOIS",
		"artcc": "ZAU",
		"type": "RP",
		"updated": "GBG*VOR/DME*/6.32",
	},
	{
		"name": "JISUD",
		"latitude": "41-6-37.46 N",
		"longitude": "85-12-22.93 W",
		"state": "INDIANA",
		"artcc": "ZAU",
		"type": "RNAV",
		"updated": "11/17/2010",
	},
	{
		"name": "JITID",
		"latitude": "40-28-7.2 N",
		"longitude": "90-4-36.08 W",
		"state": "ILLINOIS",
		"artcc": "ZAU",
		"type": "RNAV",
		"updated": "01/09/2013",
	},
	{
		"name": "JITNU",
		"latitude": "42-49-45.54 N",
		"longitude": "88-2-21.91 W",
		"state": "WISCONSIN",
		"artcc": "ZAU",
		"type": "RNAV",
		"updated": "11/06/2013",
	},
	{
		"name": "JITOK",
		"latitude": "41-41-36.8 N",
		"longitude": "88-7-56.83 W",
		"state": "ILLINOIS",
		"artcc": "ZAU",
		"type": "RP",
		"updated": "JOT*VOR/DME*041.42/12.16",
	},
	{
		"name": "JITSA",
		"latitude": "41-32-45.16 N",
		"longitude": "89-9-18.11 W",
		"state": "ILLINOIS",
		"artcc": "ZAU",
		"type": "RNAV",
		"updated": "01/19/2006",
	},
	{
		"name": "JITUV",
		"latitude": "41-43-8.73 N",
		"longitude": "88-41-14.29 W",
		"state": "ILLINOIS",
		"artcc": "ZAU",
		"type": "RNAV",
		"updated": "08/07/2008",
	},
	{
		"name": "JITVI",
		"latitude": "41-8-55.91 N",
		"longitude": "87-10-56.81 W",
		"state": "INDIANA",
		"artcc": "ZAU",
		"type": "RNAV",
		"updated": "03/27/2012",
	},
	{
		"name": "JIVBU",
		"latitude": "40-47-20.62 N",
		"longitude": "85-26-5.66 W",
		"state": "INDIANA",
		"artcc": "ZAU",
		"type": "RP",
		"updated": "FWA*VORTAC*/16.00",
	},
	{
		"name": "JIYUB",
		"latitude": "42-41-38.57 N",
		"longitude": "85-50-11.69 W",
		"state": "MICHIGAN",
		"artcc": "ZAU",
		"type": "RNAV",
		"updated": "02/26/2001",
	},
	{
		"name": "JJANN",
		"latitude": "41-58-29.05 N",
		"longitude": "85-59-2.9 W",
		"state": "MICHIGAN",
		"artcc": "ZAU",
		"type": "RP",
		"updated": "ELX*VOR/DME*148.63/11.91",
	},
	{
		"name": "JJUDD",
		"latitude": "42-40-51.85 N",
		"longitude": "85-28-33.8 W",
		"state": "MICHIGAN",
		"artcc": "ZAU",
		"type": "RP",
		"updated": "VIO*VOR/DME*175.65/6.40",
	},
	{
		"name": "JODER",
		"latitude": "42-33-8.67 N",
		"longitude": "88-56-50.88 W",
		"state": "WISCONSIN",
		"artcc": "ZAU",
		"type": "RP",
		"updated": "RFD*VOR/DME*028.65",
	},
	{
		"name": "JODET",
		"latitude": "41-51-45.49 N",
		"longitude": "89-37-14.18 W",
		"state": "ILLINOIS",
		"artcc": "ZAU",
		"type": "RNAV",
		"updated": "07/27/2009",
	},
	{
		"name": "JODUN",
		"latitude": "41-15-8.2 N",
		"longitude": "92-38-36.02 W",
		"state": "IOWA",
		"artcc": "ZAU",
		"type": "RNAV",
		"updated": "06/01/2006",
	},
	{
		"name": "JODYS",
		"latitude": "41-15-31.2 N",
		"longitude": "89-9-7.79 W",
		"state": "ILLINOIS",
		"artcc": "ZAU",
		"type": "RP",
		"updated": "BDF*VORTAC*072.90",
	},
	{
		"name": "JOEBB",
		"latitude": "41-28-17.19 N",
		"longitude": "93-12-59.4 W",
		"state": "IOWA",
		"artcc": "ZAU",
		"type": "RNAV",
		"updated": "03/04/2010",
	},
	{
		"name": "JOEBO",
		"latitude": "41-58-57.83 N",
		"longitude": "87-22-18.56 W",
		"state": "ILLINOIS",
		"artcc": "ZAU",
		"type": "RP",
		"updated": "IAC*LD*093.00/23.02",
	},
	{
		"name": "JOGBA",
		"latitude": "40-22-38.39 N",
		"longitude": "85-34-4.32 W",
		"state": "INDIANA",
		"artcc": "ZID",
		"type": "RNAV",
		"updated": "07/21/2006",
	},
	{
		"name": "JOGBO",
		"latitude": "42-0-9.44 N",
		"longitude": "87-53-26.69 W",
		"state": "ILLINOIS",
		"artcc": "ZAU",
		"type": "RNAV",
		"updated": "02/09/2018",
	},
	{
		"name": "JOGIV",
		"latitude": "41-38-44.89 N",
		"longitude": "87-30-52.1 W",
		"state": "INDIANA",
		"artcc": "ZAU",
		"type": "RNAV",
		"updated": "01/12/2006",
	},
	{
		"name": "JOGRI",
		"latitude": "43-10-28.92 N",
		"longitude": "89-20-23.43 W",
		"state": "WISCONSIN",
		"artcc": "ZAU",
		"type": "RP",
		"updated": "DSZ*LD*004.94",
	},
	{
		"name": "JOHUJ",
		"latitude": "42-12-38.45 N",
		"longitude": "91-46-17.25 W",
		"state": "IOWA",
		"artcc": "ZAU",
		"type": "RNAV",
		"updated": "02/18/2010",
	},
	{
		"name": "JOKBI",
		"latitude": "41-12-19.99 N",
		"longitude": "90-4-41.62 W",
		"state": "ILLINOIS",
		"artcc": "ZAU",
		"type": "RNAV",
		"updated": "07/29/2013",
	},
	{
		"name": "JOKKR",
		"latitude": "42-0-5.83 N",
		"longitude": "87-22-17.46 W",
		"state": "ILLINOIS",
		"artcc": "ZAU",
		"type": "RP",
		"updated": "ABU*LD*093.01/24.99",
	},
	{
		"name": "JOKOP",
		"latitude": "40-4-29.9 N",
		"longitude": "88-14-44.35 W",
		"state": "ILLINOIS",
		"artcc": "ZAU",
		"type": "RP",
		"updated": "CMI*VORTAC*027.00/2.80",
	},
	{
		"name": "JOLAT",
		"latitude": "41-47-16.09 N",
		"longitude": "90-43-44.2 W",
		"state": "IOWA",
		"artcc": "ZAU",
		"type": "RNAV",
		"updated": "01/30/2011",
	},
	{
		"name": "JOLIX",
		"latitude": "41-24-57.7 N",
		"longitude": "91-2-16.23 W",
		"state": "ILLINOIS",
		"artcc": "ZAU",
		"type": "RP",
		"updated": "MZV*VOR/DME*282.66",
	},
	{
		"name": "JOLNI",
		"latitude": "42-22-57.33 N",
		"longitude": "88-49-19.96 W",
		"state": "ILLINOIS",
		"artcc": "ZAU",
		"type": "RNAV",
		"updated": "04/25/2012",
	},
	{
		"name": "JOLON",
		"latitude": "42-5-49.85 N",
		"longitude": "88-10-53.92 W",
		"state": "ILLINOIS",
		"artcc": "ZAU",
		"type": "RNAV",
		"updated": "01/09/2013",
	},
	{
		"name": "JOMEX",
		"latitude": "43-24-15.2 N",
		"longitude": "85-18-30.07 W",
		"state": "MICHIGAN",
		"artcc": "ZAU",
		"type": "WP",
		"updated": "11/21/2000",
	},
	{
		"name": "JOMOR",
		"latitude": "44-8-47.95 N",
		"longitude": "89-21-33 W",
		"state": "WISCONSIN",
		"artcc": "ZAU",
		"type": "RNAV",
		"updated": "03/15/2011",
	},
	{
		"name": "JONES",
		"latitude": "41-56-7.17 N",
		"longitude": "85-27-8.83 W",
		"state": "MICHIGAN",
		"artcc": "ZAU",
		"type": "RP",
		"updated": "LFD*VOR/DME*261.30/31.68",
	},
	{
		"name": "JONSN",
		"latitude": "43-36-48.95 N",
		"longitude": "85-49-16.51 W",
		"state": "MICHIGAN",
		"artcc": "ZAU",
		"type": "RP",
		"updated": "PMM*VOR/DME*010.21/70.00",
	},
	{
		"name": "JOPUX",
		"latitude": "42-27-59.89 N",
		"longitude": "90-47-35.41 W",
		"state": "IOWA",
		"artcc": "ZAU",
		"type": "RNAV",
		"updated": "07/31/2006",
	},
	{
		"name": "JORJO",
		"latitude": "41-53-4.14 N",
		"longitude": "87-59-18.78 W",
		"state": "ILLINOIS",
		"artcc": "ZAU",
		"type": "RNAV",
		"updated": "11/19/2012",
	},
	{
		"name": "JORMO",
		"latitude": "42-26-11.18 N",
		"longitude": "88-55-53.36 W",
		"state": "ILLINOIS",
		"artcc": "ZAU",
		"type": "RNAV",
		"updated": "11/16/2010",
	},
	{
		"name": "JOSKO",
		"latitude": "40-23-54 N",
		"longitude": "85-46-21.47 W",
		"state": "INDIANA",
		"artcc": "ZAU",
		"type": "RP",
		"updated": "MZZ*VOR/DME*/7.12",
	},
	{
		"name": "JOTIM",
		"latitude": "41-50-12.02 N",
		"longitude": "92-16-54.11 W",
		"state": "IOWA",
		"artcc": "ZAU",
		"type": "RNAV",
		"updated": "03/12/2012",
	},
	{
		"name": "JOTOM",
		"latitude": "40-20-20.16 N",
		"longitude": "90-11-16.41 W",
		"state": "ILLINOIS",
		"artcc": "ZAU",
		"type": "RNAV",
		"updated": "07/27/2009",
	},
	{
		"name": "JOTRO",
		"latitude": "41-28-6.91 N",
		"longitude": "85-4-31.76 W",
		"state": "INDIANA",
		"artcc": "ZOB",
		"type": "RNAV",
		"updated": "07/31/2013",
	},
	{
		"name": "JOTUR",
		"latitude": "43-47-45.2 N",
		"longitude": "90-5-11.15 W",
		"state": "WISCONSIN",
		"artcc": "ZAU",
		"type": "RNAV",
		"updated": "07/09/2012",
	},
	{
		"name": "JOVEB",
		"latitude": "43-27-52.28 N",
		"longitude": "89-46-57.19 W",
		"state": "WISCONSIN",
		"artcc": "ZAU",
		"type": "RP",
		"updated": "DLL*LE*189.76/4.09",
	},
	{
		"name": "JOVEV",
		"latitude": "40-45-30.02 N",
		"longitude": "86-3-15.16 W",
		"state": "INDIANA",
		"artcc": "ZAU",
		"type": "RNAV",
		"updated": "03/22/2006",
	},
	{
		"name": "JOVIV",
		"latitude": "40-24-15.29 N",
		"longitude": "86-49-53 W",
		"state": "INDIANA",
		"artcc": "ZAU",
		"type": "RNAV",
		"updated": "07/10/2013",
	},
	{
		"name": "JOVON",
		"latitude": "40-27-24.58 N",
		"longitude": "86-23-49.11 W",
		"state": "INDIANA",
		"artcc": "ZAU",
		"type": "RNAV",
		"updated": "08/28/2007",
	},
	{
		"name": "JOVOS",
		"latitude": "41-57-49.81 N",
		"longitude": "91-57-54.79 W",
		"state": "IOWA",
		"artcc": "ZAU",
		"type": "RNAV",
		"updated": "01/25/2005",
	},
	{
		"name": "JOVQU",
		"latitude": "43-8-40.02 N",
		"longitude": "85-17-36.46 W",
		"state": "MICHIGAN",
		"artcc": "ZAU",
		"type": "RNAV",
		"updated": "04/17/2018",
	},
	{
		"name": "JOXIV",
		"latitude": "40-2-47.97 N",
		"longitude": "88-17-13.9 W",
		"state": "ILLINOIS",
		"artcc": "ZAU",
		"type": "RP",
		"updated": "CMI*VORTAC*321.80/0.89",
	},
	{
		"name": "JOXUD",
		"latitude": "40-8-25.7 N",
		"longitude": "86-17-23.37 W",
		"state": "INDIANA",
		"artcc": "ZAU",
		"type": "RNAV",
		"updated": "07/10/2013",
	},
	{
		"name": "JPAUL",
		"latitude": "41-15-3.15 N",
		"longitude": "90-10-22.74 W",
		"state": "ILLINOIS",
		"artcc": "ZAU",
		"type": "RP",
		"updated": "CVA*VORTAC*148.88/30.81",
	},
	{
		"name": "JUBAD",
		"latitude": "42-57-48.89 N",
		"longitude": "85-51-40.59 W",
		"state": "MICHIGAN",
		"artcc": "ZAU",
		"type": "RNAV",
		"updated": "04/07/2009",
	},
	{
		"name": "JUBDI",
		"latitude": "41-1-11.94 N",
		"longitude": "90-0-39.69 W",
		"state": "ILLINOIS",
		"artcc": "ZAU",
		"type": "RNAV",
		"updated": "07/30/2013",
	},
	{
		"name": "JUBLA",
		"latitude": "41-59-37.11 N",
		"longitude": "86-23-45.93 W",
		"state": "MICHIGAN",
		"artcc": "ZAU",
		"type": "RNAV",
		"updated": "06/05/2010",
	},
	{
		"name": "JUDUS",
		"latitude": "40-56-53.34 N",
		"longitude": "88-35-27.65 W",
		"state": "ILLINOIS",
		"artcc": "ZAU",
		"type": "RP",
		"updated": "PNT*VOR/DME*037.38/10.00",
	},
	{
		"name": "JUDVI",
		"latitude": "42-1-16.87 N",
		"longitude": "88-39-44.15 W",
		"state": "ILLINOIS",
		"artcc": "ZAU",
		"type": "RNAV",
		"updated": "08/07/2008",
	},
	{
		"name": "JUGER",
		"latitude": "41-41-0.52 N",
		"longitude": "88-45-2.91 W",
		"state": "ILLINOIS",
		"artcc": "ZAU",
		"type": "RNAV",
		"updated": "05/15/2003",
	},
	{
		"name": "JUGIG",
		"latitude": "41-18-32.93 N",
		"longitude": "84-48-51.94 W",
		"state": "INDIANA",
		"artcc": "ZAU",
		"type": "RNAV",
		"updated": "08/16/2006",
	},
	{
		"name": "JUGIT",
		"latitude": "42-12-19.44 N",
		"longitude": "90-49-26.13 W",
		"state": "IOWA",
		"artcc": "ZAU",
		"type": "RNAV",
		"updated": "01/03/2009",
	},
	{
		"name": "JUGUG",
		"latitude": "41-58-23.04 N",
		"longitude": "89-15-6.38 W",
		"state": "ILLINOIS",
		"artcc": "ZAU",
		"type": "RNAV",
		"updated": "11/16/2010",
	},
	{
		"name": "JUHCI",
		"latitude": "40-54-36.9 N",
		"longitude": "91-29-9.76 W",
		"state": "IOWA",
		"artcc": "ZAU",
		"type": "RNAV",
		"updated": "08/11/2010",
	},
	{
		"name": "JUKAX",
		"latitude": "40-29-10.54 N",
		"longitude": "89-55-40.78 W",
		"state": "ILLINOIS",
		"artcc": "ZAU",
		"type": "RNAV",
		"updated": "07/29/2008",
	},
	{
		"name": "JUKIC",
		"latitude": "41-58-45.03 N",
		"longitude": "88-44-56.98 W",
		"state": "ILLINOIS",
		"artcc": "ZAU",
		"type": "RNAV",
		"updated": "08/27/2013",
	},
	{
		"name": "JUKIM",
		"latitude": "40-39-37.06 N",
		"longitude": "90-3-49.32 W",
		"state": "ILLINOIS",
		"artcc": "ZAU",
		"type": "RNAV",
		"updated": "07/27/2009",
	},
	{
		"name": "JUKLO",
		"latitude": "41-46-53.09 N",
		"longitude": "90-22-1.94 W",
		"state": "IOWA",
		"artcc": "ZAU",
		"type": "RNAV",
		"updated": "11/07/2008",
	},
	{
		"name": "JULEL",
		"latitude": "40-19-56.53 N",
		"longitude": "88-40-40.99 W",
		"state": "ILLINOIS",
		"artcc": "ZAU",
		"type": "RNAV",
		"updated": "12/22/2008",
	},
	{
		"name": "JULIP",
		"latitude": "40-17-22.26 N",
		"longitude": "87-31-47.13 W",
		"state": "ILLINOIS",
		"artcc": "ZAU",
		"type": "RP",
		"updated": "DNV*VORTAC*099.50",
	},
	{
		"name": "JULOX",
		"latitude": "42-9-59.18 N",
		"longitude": "88-47-49.91 W",
		"state": "ILLINOIS",
		"artcc": "ZAU",
		"type": "RP",
		"updated": "RFD*VOR/DME*100.05",
	},
	{
		"name": "JUMIV",
		"latitude": "42-8-24.69 N",
		"longitude": "88-24-0.98 W",
		"state": "ILLINOIS",
		"artcc": "ZAU",
		"type": "RP",
		"updated": "DPA*VOR/DME*349.51/15.15",
	},
	{
		"name": "JUMLO",
		"latitude": "41-19-45.91 N",
		"longitude": "88-57-46.13 W",
		"state": "ILLINOIS",
		"artcc": "ZAU",
		"type": "RNAV",
		"updated": "07/27/2009",
	},
	{
		"name": "JUMPN",
		"latitude": "41-49-2.22 N",
		"longitude": "89-3-28.81 W",
		"state": "ILLINOIS",
		"artcc": "ZAU",
		"type": "RNAV",
		"updated": "08/19/2015",
	},
	{
		"name": "JUMVI",
		"latitude": "42-24-34.91 N",
		"longitude": "85-35-57.15 W",
		"state": "MICHIGAN",
		"artcc": "ZAU",
		"type": "RNAV",
		"updated": "02/18/2011",
	},
	{
		"name": "JUMVO",
		"latitude": "43-55-55.82 N",
		"longitude": "88-33-25.67 W",
		"state": "WISCONSIN",
		"artcc": "ZAU",
		"type": "RNAV",
		"updated": "07/12/2013",
	},
	{
		"name": "JUNAN",
		"latitude": "40-50-2.12 N",
		"longitude": "85-57-0.01 W",
		"state": "INDIANA",
		"artcc": "ZAU",
		"type": "MR",
		"updated": "GUS*VORTAC*041.00",
	},
	{
		"name": "JUNCO",
		"latitude": "41-27-52.32 N",
		"longitude": "90-44-41.07 W",
		"state": "IOWA",
		"artcc": "ZAU",
		"type": "RP",
		"updated": "CVA*VORTAC*214.90/18.78",
	},
	{
		"name": "JUNDA",
		"latitude": "42-58-56.56 N",
		"longitude": "85-18-33.95 W",
		"state": "MICHIGAN",
		"artcc": "ZAU",
		"type": "WP",
		"updated": "11/21/2000",
	},
	{
		"name": "JUNED",
		"latitude": "43-14-55 N",
		"longitude": "86-10-50.76 W",
		"state": "MICHIGAN",
		"artcc": "ZAU",
		"type": "RNAV",
		"updated": "03/12/2014",
	},
	{
		"name": "JUNKS",
		"latitude": "41-27-5.05 N",
		"longitude": "86-41-34.1 W",
		"state": "INDIANA",
		"artcc": "ZAU",
		"type": "RP",
		"updated": "OXI*VOR/DME*345.80/8.00",
	},
	{
		"name": "JUNRI",
		"latitude": "41-38-29.97 N",
		"longitude": "90-33-58.07 W",
		"state": "IOWA",
		"artcc": "ZAU",
		"type": "RNAV",
		"updated": "01/30/2011",
	},
	{
		"name": "JUNUP",
		"latitude": "42-13-56.73 N",
		"longitude": "89-5-6.56 W",
		"state": "ILLINOIS",
		"artcc": "ZAU",
		"type": "RNAV",
		"updated": "11/16/2010",
	},
	{
		"name": "JUPAV",
		"latitude": "41-17-0.89 N",
		"longitude": "85-4-20.21 W",
		"state": "INDIANA",
		"artcc": "ZAU",
		"type": "RP",
		"updated": "FWA*VORTAC*022.00/19.00",
	},
	{
		"name": "JUPER",
		"latitude": "42-36-3.34 N",
		"longitude": "89-29-3.8 W",
		"state": "WISCONSIN",
		"artcc": "ZAU",
		"type": "RP",
		"updated": "JVL*VOR/DME*275.84/17.00",
	},
	{
		"name": "JUPIR",
		"latitude": "41-49-42.11 N",
		"longitude": "87-52-41.04 W",
		"state": "ILLINOIS",
		"artcc": "ZAU",
		"type": "RNAV",
		"updated": "05/16/2013",
	},
	{
		"name": "JUPKU",
		"latitude": "41-36-19.61 N",
		"longitude": "91-28-57.06 W",
		"state": "IOWA",
		"artcc": "ZAU",
		"type": "RNAV",
		"updated": "11/25/2008",
	},
	{
		"name": "JURIS",
		"latitude": "42-28-24.9 N",
		"longitude": "90-48-9.34 W",
		"state": "IOWA",
		"artcc": "ZAU",
		"type": "RP",
		"updated": "DBQ*LD*310.93",
	},
	{
		"name": "JURIT",
		"latitude": "40-35-38.39 N",
		"longitude": "85-49-8.42 W",
		"state": "INDIANA",
		"artcc": "ZAU",
		"type": "RNAV",
		"updated": "06/16/2010",
	},
	{
		"name": "JURSI",
		"latitude": "42-7-54.51 N",
		"longitude": "92-57-18.41 W",
		"state": "IOWA",
		"artcc": "ZAU",
		"type": "RP",
		"updated": "JWJ*VOR/DME*299.70/2.40",
	},
	{
		"name": "JURUV",
		"latitude": "41-39-31.93 N",
		"longitude": "86-9-9.15 W",
		"state": "INDIANA",
		"artcc": "ZAU",
		"type": "RNAV",
		"updated": "11/18/2016",
	},
	{
		"name": "JUSAS",
		"latitude": "40-32-17.52 N",
		"longitude": "88-7-41.27 W",
		"state": "ILLINOIS",
		"artcc": "ZAU",
		"type": "RNAV",
		"updated": "05/19/2010",
	},
	{
		"name": "JUSBI",
		"latitude": "40-42-23.76 N",
		"longitude": "89-29-45.05 W",
		"state": "ILLINOIS",
		"artcc": "ZAU",
		"type": "RNAV",
		"updated": "04/24/2018",
	},
	{
		"name": "JUSRO",
		"latitude": "42-30-33.21 N",
		"longitude": "86-3-2.5 W",
		"state": "MICHIGAN",
		"artcc": "ZAU",
		"type": "RNAV",
		"updated": "03/01/2011",
	},
	{
		"name": "JUTAX",
		"latitude": "42-44-16 N",
		"longitude": "87-55-49.75 W",
		"state": "WISCONSIN",
		"artcc": "ZAU",
		"type": "RNAV",
		"updated": "10/27/2009",
	},
	{
		"name": "JUTGI",
		"latitude": "43-12-13.54 N",
		"longitude": "88-50-1.81 W",
		"state": "WISCONSIN",
		"artcc": "ZAU",
		"type": "RNAV",
		"updated": "01/20/2009",
	},
	{
		"name": "JUTSI",
		"latitude": "40-25-56.61 N",
		"longitude": "90-20-12.59 W",
		"state": "ILLINOIS",
		"artcc": "ZAU",
		"type": "RNAV",
		"updated": "01/09/2013",
	},
	{
		"name": "JUTUS",
		"latitude": "41-52-51.16 N",
		"longitude": "91-26-29.34 W",
		"state": "IOWA",
		"artcc": "ZAU",
		"type": "RNAV",
		"updated": "03/14/2007",
	},
	{
		"name": "JUVMI",
		"latitude": "43-0-38.03 N",
		"longitude": "88-7-0.01 W",
		"state": "WISCONSIN",
		"artcc": "ZAU",
		"type": "RP",
		"updated": "BAE*VOR/DME*128.79",
	},
	{
		"name": "JUVOD",
		"latitude": "41-28-8.5 N",
		"longitude": "90-54-7.58 W",
		"state": "IOWA",
		"artcc": "ZAU",
		"type": "RNAV",
		"updated": "01/30/2011",
	},
	{
		"name": "JUVSU",
		"latitude": "41-17-21.74 N",
		"longitude": "89-56-21.87 W",
		"state": "ILLINOIS",
		"artcc": "ZAU",
		"type": "RNAV",
		"updated": "07/30/2013",
	},
	{
		"name": "JYBEE",
		"latitude": "42-24-16.53 N",
		"longitude": "86-35-39.03 W",
		"state": "MICHIGAN",
		"artcc": "ZAU",
		"type": "RP",
		"updated": "MKG*VORTAC*209.31/52.00",
	},
