[
	{
		"name": "KABBE",
		"latitude": "43-9-18.86 N",
		"longitude": "88-35-55.38 W",
		"state": "WISCONSIN",
		"artcc": "ZAU",
		"type": "RP",
		"updated": "BAE*VOR/DME*277.57/14.00"
	},
	{
		"name": "KABDE",
		"latitude": "41-7-47.04 N",
		"longitude": "85-21-43.36 W",
		"state": "INDIANA",
		"artcc": "ZAU",
		"type": "RP",
		"updated": "FWA*VORTAC*318.90/12.00"
	},
	{
		"name": "KAINR",
		"latitude": "42-25-48.12 N",
		"longitude": "87-4-3.04 W",
		"state": "ILLINOIS",
		"artcc": "ZAU",
		"type": "RNAV",
		"updated": "10/06/2017"
	},
	{
		"name": "KAIPE",
		"latitude": "41-56-0.45 N",
		"longitude": "88-59-48.42 W",
		"state": "ILLINOIS",
		"artcc": "ZAU",
		"type": "RNAV",
		"updated": "11/16/2010"
	},
	{
		"name": "KAJJY",
		"latitude": "42-24-49 N",
		"longitude": "88-8-26.17 W",
		"state": "ILLINOIS",
		"artcc": "ZAU",
		"type": "RNAV",
		"updated": "04/01/2014"
	},
	{
		"name": "KALEY",
		"latitude": "40-41-36.77 N",
		"longitude": "85-52-28.71 W",
		"state": "INDIANA",
		"artcc": "ZAU",
		"type": "RP",
		"updated": "MZZ*VOR/DME*326.42"
	},
	{
		"name": "KALKY",
		"latitude": "41-4-5.45 N",
		"longitude": "90-45-38.04 W",
		"state": "ILLINOIS",
		"artcc": "ZAU",
		"type": "RP",
		"updated": "BRL*VOR/DME*014.94/22.00"
	},
	{
		"name": "KALZO",
		"latitude": "41-58-0.95 N",
		"longitude": "88-26-29.9 W",
		"state": "ILLINOIS",
		"artcc": "ZAU",
		"type": "RP",
		"updated": "MED*LD*272.86/25.22"
	},
	{
		"name": "KAMBL",
		"latitude": "41-3-51.01 N",
		"longitude": "90-42-32.62 W",
		"state": "ILLINOIS",
		"artcc": "ZAU",
		"type": "RNAV",
		"updated": "09/09/2015"
	},
	{
		"name": "KAMMA",
		"latitude": "43-7-2.55 N",
		"longitude": "88-17-6.83 W",
		"state": "WISCONSIN",
		"artcc": "ZAU",
		"type": "RNAV",
		"updated": "01/13/2015"
	},
	{
		"name": "KANLE",
		"latitude": "41-50-45.77 N",
		"longitude": "87-59-44.36 W",
		"state": "ILLINOIS",
		"artcc": "ZAU",
		"type": "RNAV",
		"updated": "09/25/2002"
	},
	{
		"name": "KAPPA",
		"latitude": "40-37-46.7 N",
		"longitude": "88-55-14.06 W",
		"state": "ILLINOIS",
		"artcc": "ZAU",
		"type": "RP",
		"updated": "RBS*VOR/DME*273.00"
	},
	{
		"name": "KAREY",
		"latitude": "41-46-17.66 N",
		"longitude": "88-21-11.73 W",
		"state": "ILLINOIS",
		"artcc": "ZAU",
		"type": "RNAV",
		"updated": "05/05/2011"
	},
	{
		"name": "KATYE",
		"latitude": "42-24-36.64 N",
		"longitude": "89-8-25.54 W",
		"state": "ILLINOIS",
		"artcc": "ZAU",
		"type": "RNAV",
		"updated": "04/05/2010"
	},
	{
		"name": "KAVLY",
		"latitude": "42-54-28.92 N",
		"longitude": "90-30-47.62 W",
		"state": "WISCONSIN",
		"artcc": "ZAU",
		"type": "RNAV",
		"updated": "06/28/2009"
	},
	{
		"name": "KAWDO",
		"latitude": "43-27-1.74 N",
		"longitude": "85-22-42.55 W",
		"state": "MICHIGAN",
		"artcc": "ZAU",
		"type": "RNAV",
		"updated": "07/15/2015"
	},
	{
		"name": "KAYES",
		"latitude": "41-26-48.3 N",
		"longitude": "90-22-32.57 W",
		"state": "ILLINOIS",
		"artcc": "ZAU",
		"type": "RP",
		"updated": "CVA*VORTAC*158.81"
	},
	{
		"name": "KAYTO",
		"latitude": "41-43-55.78 N",
		"longitude": "87-34-58.88 W",
		"state": "ILLINOIS",
		"artcc": "ZAU",
		"type": "RNAV",
		"updated": "08/27/2013"
	},
	{
		"name": "KEBEY",
		"latitude": "41-40-28.07 N",
		"longitude": "89-55-21.93 W",
		"state": "ILLINOIS",
		"artcc": "ZAU",
		"type": "RNAV",
		"updated": "10/14/2008"
	},
	{
		"name": "KEDZI",
		"latitude": "41-44-29.22 N",
		"longitude": "87-41-22.88 W",
		"state": "ILLINOIS",
		"artcc": "ZAU",
		"type": "RP",
		"updated": "MXT*LD*SE CRS/4.42"
	},
	{
		"name": "KEEEL",
		"latitude": "41-50-44.19 N",
		"longitude": "87-38-49.51 W",
		"state": "ILLINOIS",
		"artcc": "ZAU",
		"type": "RNAV",
		"updated": "07/18/2013"
	},
	{
		"name": "KEGDE",
		"latitude": "41-15-6.48 N",
		"longitude": "87-55-34.26 W",
		"state": "ILLINOIS",
		"artcc": "ZAU",
		"type": "RNAV",
		"updated": "03/22/2013"
	},
	{
		"name": "KEGLE",
		"latitude": "41-46-39.82 N",
		"longitude": "87-25-17.21 W",
		"state": "INDIANA",
		"artcc": "ZAU",
		"type": "RNAV",
		"updated": "04/12/2006"
	},
	{
		"name": "KEGNE",
		"latitude": "41-57-24.72 N",
		"longitude": "87-22-18.58 W",
		"state": "ILLINOIS",
		"artcc": "ZAU",
		"type": "RP",
		"updated": "VQX*LD*093.88/23.32"
	},
	{
		"name": "KEJDO",
		"latitude": "41-1-31.89 N",
		"longitude": "88-24-21.69 W",
		"state": "ILLINOIS",
		"artcc": "ZAU",
		"type": "RNAV",
		"updated": "06/17/2008"
	},
	{
		"name": "KEKSE",
		"latitude": "43-31-11.66 N",
		"longitude": "87-54-21.09 W",
		"state": "WISCONSIN",
		"artcc": "ZAU",
		"type": "RNAV",
		"updated": "02/14/2010"
	},
	{
		"name": "KELSI",
		"latitude": "41-26-20.37 N",
		"longitude": "88-59-29.04 W",
		"state": "ILLINOIS",
		"artcc": "ZAU",
		"type": "RP",
		"updated": "RFD*VOR/DME*167.75/48.09"
	},
	{
		"name": "KELTS",
		"latitude": "41-7-27.23 N",
		"longitude": "89-16-10.22 W",
		"state": "ILLINOIS",
		"artcc": "ZAU",
		"type": "RNAV",
		"updated": "08/27/2013"
	},
	{
		"name": "KEMPZ",
		"latitude": "41-32-44.27 N",
		"longitude": "87-51-37.14 W",
		"state": "ILLINOIS",
		"artcc": "ZAU",
		"type": "RNAV",
		"updated": "05/06/2013"
	},
	{
		"name": "KENIL",
		"latitude": "42-6-52.14 N",
		"longitude": "87-42-27.93 W",
		"state": "ILLINOIS",
		"artcc": "ZAU",
		"type": "RP",
		"updated": "ORD*VOR/DME*/11.64"
	},
	{
		"name": "KENLA",
		"latitude": "40-53-46.65 N",
		"longitude": "87-31-46.72 W",
		"state": "ILLINOIS",
		"artcc": "ZAU",
		"type": "RP",
		"updated": "RBS*VOR/DME*054.70/34.55"
	},
	{
		"name": "KENNS",
		"latitude": "40-3-51.58 N",
		"longitude": "89-8-36.9 W",
		"state": "ILLINOIS",
		"artcc": "ZAU",
		"type": "RP",
		"updated": "AXC*VORTAC*323.00"
	},
	{
		"name": "KENNY",
		"latitude": "42-1-53.49 N",
		"longitude": "89-6-38.82 W",
		"state": "ILLINOIS",
		"artcc": "ZAU",
		"type": "RP",
		"updated": "PLL*VOR/DME*074.80"
	},
	{
		"name": "KENTS",
		"latitude": "43-14-56.29 N",
		"longitude": "85-37-29.54 W",
		"state": "MICHIGAN",
		"artcc": "ZAU",
		"type": "RP",
		"updated": "MKG*VORTAC*076.00"
	},
	{
		"name": "KENUF",
		"latitude": "42-40-12.32 N",
		"longitude": "87-59-54.59 W",
		"state": "WISCONSIN",
		"artcc": "ZAU",
		"type": "RNAV",
		"updated": "06/22/2009"
	},
	{
		"name": "KERBE",
		"latitude": "41-49-56.83 N",
		"longitude": "88-4-41.26 W",
		"state": "ILLINOIS",
		"artcc": "ZAU",
		"type": "RNAV",
		"updated": "01/24/2017"
	},
	{
		"name": "KETME",
		"latitude": "43-6-19.12 N",
		"longitude": "89-37-43.44 W",
		"state": "WISCONSIN",
		"artcc": "ZAU",
		"type": "RNAV",
		"updated": "10/05/2007"
	},
	{
		"name": "KEWDE",
		"latitude": "42-7-13.32 N",
		"longitude": "87-45-36.48 W",
		"state": "ILLINOIS",
		"artcc": "ZAU",
		"type": "RNAV",
		"updated": "02/09/2018"
	},
	{
		"name": "KEYVE",
		"latitude": "41-27-9 N",
		"longitude": "87-5-38.74 W",
		"state": "INDIANA",
		"artcc": "ZAU",
		"type": "RNAV",
		"updated": "12/12/2007"
	},
	{
		"name": "KEZRI",
		"latitude": "41-35-57.72 N",
		"longitude": "93-7-6.03 W",
		"state": "IOWA",
		"artcc": "ZAU",
		"type": "RNAV",
		"updated": "10/06/2008"
	},
	{
		"name": "KG63K",
		"latitude": "40-30-0 N",
		"longitude": "90-0-0 W",
		"state": "ILLINOIS",
		"artcc": "ZAU",
		"type": "NRS",
		"updated": "04/06/2004"
	},
	{
		"name": "KG63M",
		"latitude": "40-30-0 N",
		"longitude": "88-0-0 W",
		"state": "ILLINOIS",
		"artcc": "ZAU",
		"type": "NRS",
		"updated": "04/06/2004"
	},
	{
		"name": "KG63O",
		"latitude": "40-30-0 N",
		"longitude": "86-0-0 W",
		"state": "INDIANA",
		"artcc": "ZAU",
		"type": "NRS",
		"updated": "04/06/2004"
	},
	{
		"name": "KG66I",
		"latitude": "41-0-0 N",
		"longitude": "92-0-0 W",
		"state": "IOWA",
		"artcc": "ZAU",
		"type": "NRS",
		"updated": "04/06/2004"
	},
	{
		"name": "KG66K",
		"latitude": "41-0-0 N",
		"longitude": "90-0-0 W",
		"state": "ILLINOIS",
		"artcc": "ZAU",
		"type": "NRS",
		"updated": "04/06/2004"
	},
	{
		"name": "KG66M",
		"latitude": "41-0-0 N",
		"longitude": "88-0-0 W",
		"state": "ILLINOIS",
		"artcc": "ZAU",
		"type": "NRS",
		"updated": "04/06/2004"
	},
	{
		"name": "KG66O",
		"latitude": "41-0-0 N",
		"longitude": "86-0-0 W",
		"state": "INDIANA",
		"artcc": "ZAU",
		"type": "NRS",
		"updated": "04/06/2004"
	},
	{
		"name": "KG69I",
		"latitude": "41-30-0 N",
		"longitude": "92-0-0 W",
		"state": "IOWA",
		"artcc": "ZAU",
		"type": "NRS",
		"updated": "04/06/2004"
	},
	{
		"name": "KG69K",
		"latitude": "41-30-0 N",
		"longitude": "90-0-0 W",
		"state": "ILLINOIS",
		"artcc": "ZAU",
		"type": "NRS",
		"updated": "04/06/2004"
	},
	{
		"name": "KG69M",
		"latitude": "41-30-0 N",
		"longitude": "88-0-0 W",
		"state": "ILLINOIS",
		"artcc": "ZAU",
		"type": "NRS",
		"updated": "04/06/2004"
	},
	{
		"name": "KG69O",
		"latitude": "41-30-0 N",
		"longitude": "86-0-0 W",
		"state": "INDIANA",
		"artcc": "ZAU",
		"type": "NRS",
		"updated": "04/06/2004"
	},
	{
		"name": "KG72I",
		"latitude": "42-0-0 N",
		"longitude": "92-0-0 W",
		"state": "IOWA",
		"artcc": "ZAU",
		"type": "NRS",
		"updated": "04/06/2004"
	},
	{
		"name": "KG72K",
		"latitude": "42-0-0 N",
		"longitude": "90-0-0 W",
		"state": "ILLINOIS",
		"artcc": "ZAU",
		"type": "NRS",
		"updated": "04/06/2004"
	},
	{
		"name": "KG72M",
		"latitude": "42-0-0 N",
		"longitude": "88-0-0 W",
		"state": "ILLINOIS",
		"artcc": "ZAU",
		"type": "NRS",
		"updated": "04/06/2004"
	},
	{
		"name": "KG72O",
		"latitude": "42-0-0 N",
		"longitude": "86-0-0 W",
		"state": "MICHIGAN",
		"artcc": "ZAU",
		"type": "NRS",
		"updated": "04/06/2004"
	},
	{
		"name": "KG75I",
		"latitude": "42-30-0 N",
		"longitude": "92-0-0 W",
		"state": "IOWA",
		"artcc": "ZAU",
		"type": "NRS",
		"updated": "04/06/2004"
	},
	{
		"name": "KG75K",
		"latitude": "42-30-0 N",
		"longitude": "90-0-0 W",
		"state": "ILLINOIS",
		"artcc": "ZAU",
		"type": "NRS",
		"updated": "04/06/2004"
	},
	{
		"name": "KG75M",
		"latitude": "42-30-0 N",
		"longitude": "88-0-0 W",
		"state": "WISCONSIN",
		"artcc": "ZAU",
		"type": "NRS",
		"updated": "04/06/2004"
	},
	{
		"name": "KG75O",
		"latitude": "42-30-0 N",
		"longitude": "86-0-0 W",
		"state": "MICHIGAN",
		"artcc": "ZAU",
		"type": "NRS",
		"updated": "04/06/2004"
	},
	{
		"name": "KG78K",
		"latitude": "43-0-0 N",
		"longitude": "90-0-0 W",
		"state": "WISCONSIN",
		"artcc": "ZAU",
		"type": "NRS",
		"updated": "04/06/2004"
	},
	{
		"name": "KG78M",
		"latitude": "43-0-0 N",
		"longitude": "88-0-0 W",
		"state": "WISCONSIN",
		"artcc": "ZAU",
		"type": "NRS",
		"updated": "04/06/2004"
	},
	{
		"name": "KG78O",
		"latitude": "43-0-0 N",
		"longitude": "86-0-0 W",
		"state": "MICHIGAN",
		"artcc": "ZAU",
		"type": "NRS",
		"updated": "04/06/2004"
	},
	{
		"name": "KG81K",
		"latitude": "43-30-0 N",
		"longitude": "90-0-0 W",
		"state": "WISCONSIN",
		"artcc": "ZAU",
		"type": "NRS",
		"updated": "04/06/2004"
	},
	{
		"name": "KG81M",
		"latitude": "43-30-0 N",
		"longitude": "88-0-0 W",
		"state": "WISCONSIN",
		"artcc": "ZAU",
		"type": "NRS",
		"updated": "04/06/2004"
	},
	{
		"name": "KG81O",
		"latitude": "43-30-0 N",
		"longitude": "86-0-0 W",
		"state": "MICHIGAN",
		"artcc": "ZAU",
		"type": "NRS",
		"updated": "04/06/2004"
	},
	{
		"name": "KG84K",
		"latitude": "44-0-0 N",
		"longitude": "90-0-0 W",
		"state": "WISCONSIN",
		"artcc": "ZAU",
		"type": "NRS",
		"updated": "04/06/2004"
	},
	{
		"name": "KG84M",
		"latitude": "44-0-0 N",
		"longitude": "88-0-0 W",
		"state": "WISCONSIN",
		"artcc": "ZAU",
		"type": "NRS",
		"updated": "04/06/2004"
	},
	{
		"name": "KIBBY",
		"latitude": "42-23-39.47 N",
		"longitude": "86-11-57.27 W",
		"state": "MICHIGAN",
		"artcc": "ZAU",
		"type": "RP",
		"updated": "PMM*VOR/DME*224.31/6.01"
	},
	{
		"name": "KICKR",
		"latitude": "42-46-31 N",
		"longitude": "92-48-41 W",
		"state": "IOWA",
		"artcc": "ZAU",
		"type": "RNAV",
		"updated": "11/14/2016"
	},
	{
		"name": "KIDCE",
		"latitude": "41-41-38.82 N",
		"longitude": "87-32-39 W",
		"state": "ILLINOIS",
		"artcc": "ZAU",
		"type": "RNAV",
		"updated": "01/12/2006"
	},
	{
		"name": "KIDTE",
		"latitude": "42-25-30.46 N",
		"longitude": "86-9-35.97 W",
		"state": "MICHIGAN",
		"artcc": "ZAU",
		"type": "RNAV",
		"updated": "03/01/2011"
	},
	{
		"name": "KIGIQ",
		"latitude": "40-52-39.97 N",
		"longitude": "92-34-18.39 W",
		"state": "IOWA",
		"artcc": "ZAU",
		"type": "RNAV",
		"updated": "06/24/2013"
	},
	{
		"name": "KIKVE",
		"latitude": "41-30-14.07 N",
		"longitude": "87-11-30.54 W",
		"state": "INDIANA",
		"artcc": "ZAU",
		"type": "RNAV",
		"updated": "06/30/2011"
	},
	{
		"name": "KILKE",
		"latitude": "41-8-39.47 N",
		"longitude": "91-29-51.53 W",
		"state": "IOWA",
		"artcc": "ZAU",
		"type": "RNAV",
		"updated": "02/22/2016"
	},
	{
		"name": "KILME",
		"latitude": "42-48-4.81 N",
		"longitude": "87-59-20.45 W",
		"state": "WISCONSIN",
		"artcc": "ZAU",
		"type": "RNAV",
		"updated": "06/22/2009"
	},
	{
		"name": "KILPY",
		"latitude": "41-24-26.29 N",
		"longitude": "87-31-26 W",
		"state": "INDIANA",
		"artcc": "ZAU",
		"type": "RNAV",
		"updated": "10/08/2015"
	},
	{
		"name": "KIMBY",
		"latitude": "42-4-35.36 N",
		"longitude": "85-51-51.26 W",
		"state": "MICHIGAN",
		"artcc": "ZAU",
		"type": "RNAV",
		"updated": "06/05/2010"
	},
	{
		"name": "KIMEE",
		"latitude": "43-9-34.4 N",
		"longitude": "89-26-7.57 W",
		"state": "WISCONSIN",
		"artcc": "ZAU",
		"type": "RP",
		"updated": "11/14/1994"
	},
	{
		"name": "KINIC",
		"latitude": "43-11-7.32 N",
		"longitude": "88-6-13.64 W",
		"state": "WISCONSIN",
		"artcc": "ZAU",
		"type": "RP",
		"updated": "BAE*VOR/DME*060.54"
	},
	{
		"name": "KIOWA",
		"latitude": "40-0-42.11 N",
		"longitude": "88-18-29.53 W",
		"state": "ILLINOIS",
		"artcc": "ZAU",
		"type": "RNAV",
		"updated": "03/30/2009"
	},
	{
		"name": "KIPAJ",
		"latitude": "41-46-23.85 N",
		"longitude": "85-14-10.25 W",
		"state": "MICHIGAN",
		"artcc": "ZAU",
		"type": "RNAV",
		"updated": "02/22/2008"
	},
	{
		"name": "KIYTE",
		"latitude": "42-8-54.06 N",
		"longitude": "88-48-25.01 W",
		"state": "ILLINOIS",
		"artcc": "ZAU",
		"type": "RNAV",
		"updated": "10/17/2005"
	},
	{
		"name": "KIZFU",
		"latitude": "41-18-21.75 N",
		"longitude": "85-10-55.65 W",
		"state": "INDIANA",
		"artcc": "ZAU",
		"type": "RNAV",
		"updated": "08/16/2006"
	},
	{
		"name": "KKOPA",
		"latitude": "40-10-49.65 N",
		"longitude": "86-49-59.19 W",
		"state": "INDIANA",
		"artcc": "ZAU",
		"type": "RNAV",
		"updated": "05/26/2016"
	},
	{
		"name": "KLARE",
		"latitude": "43-13-34.81 N",
		"longitude": "86-7-3.62 W",
		"state": "MICHIGAN",
		"artcc": "ZAU",
		"type": "RP",
		"updated": "MKG*VORTAC*315.94"
	},
	{
		"name": "KLUBS",
		"latitude": "41-46-42.42 N",
		"longitude": "88-6-6.97 W",
		"state": "ILLINOIS",
		"artcc": "ZAU",
		"type": "RP",
		"updated": "DPA*VOR/DME*119.00/13.00"
	},
	{
		"name": "KNARF",
		"latitude": "42-44-19.77 N",
		"longitude": "88-25-58.32 W",
		"state": "WISCONSIN",
		"artcc": "ZAU",
		"type": "RNAV",
		"updated": "04/01/2014"
	},
	{
		"name": "KNOBS",
		"latitude": "42-53-41.83 N",
		"longitude": "85-22-42.36 W",
		"state": "MICHIGAN",
		"artcc": "ZAU",
		"type": "RP",
		"updated": "VIO*VOR/DME*042.85"
	},
	{
		"name": "KNUTE",
		"latitude": "41-42-7.37 N",
		"longitude": "86-26-53.25 W",
		"state": "INDIANA",
		"artcc": "ZAU",
		"type": "RP",
		"updated": "GIJ*VORTAC*235.63"
	},
	{
		"name": "KOCES",
		"latitude": "40-34-3.33 N",
		"longitude": "89-15-57.21 W",
		"state": "ILLINOIS",
		"artcc": "ZAU",
		"type": "RP",
		"updated": "PIA*VORTAC*101.48/25.00"
	},
	{
		"name": "KODHY",
		"latitude": "41-24-28.8 N",
		"longitude": "85-32-32.86 W",
		"state": "INDIANA",
		"artcc": "ZAU",
		"type": "RP",
		"updated": "GSH*VORTAC*107.63/23.00"
	},
	{
		"name": "KODOW",
		"latitude": "42-29-26.03 N",
		"longitude": "87-40-51.15 W",
		"state": "ILLINOIS",
		"artcc": "ZAU",
		"type": "RNAV",
		"updated": "06/19/2009"
	},
	{
		"name": "KOENN",
		"latitude": "41-57-55.91 N",
		"longitude": "87-26-30.9 W",
		"state": "ILLINOIS",
		"artcc": "ZAU",
		"type": "RP",
		"updated": "VZE*LD*092.89/22.11"
	},
	{
		"name": "KOFLI",
		"latitude": "41-45-49.71 N",
		"longitude": "86-8-25.21 W",
		"state": "INDIANA",
		"artcc": "ZAU",
		"type": "CN",
		"updated": "06/06/2001"
	},
	{
		"name": "KOGEC",
		"latitude": "41-32-23.97 N",
		"longitude": "87-35-4.23 W",
		"state": "ILLINOIS",
		"artcc": "ZAU",
		"type": "RNAV",
		"updated": "05/03/2007"
	},
	{
		"name": "KOHLL",
		"latitude": "43-38-16.97 N",
		"longitude": "87-50-29.01 W",
		"state": "WISCONSIN",
		"artcc": "ZAU",
		"type": "RNAV",
		"updated": "08/20/2015"
	},
	{
		"name": "KOHYO",
		"latitude": "41-55-0.43 N",
		"longitude": "88-18-2.41 W",
		"state": "ILLINOIS",
		"artcc": "ZAU",
		"type": "RNAV",
		"updated": "05/10/2010"
	},
	{
		"name": "KOKNE",
		"latitude": "42-31-25.16 N",
		"longitude": "87-51-11.14 W",
		"state": "WISCONSIN",
		"artcc": "ZAU",
		"type": "RNAV",
		"updated": "06/22/2009"
	},
	{
		"name": "KOKTE",
		"latitude": "41-1-23.59 N",
		"longitude": "84-57-4.87 W",
		"state": "INDIANA",
		"artcc": "ZAU",
		"type": "RNAV",
		"updated": "11/17/2010"
	},
	{
		"name": "KOLBE",
		"latitude": "42-1-52.88 N",
		"longitude": "89-6-26.47 W",
		"state": "ILLINOIS",
		"artcc": "ZAU",
		"type": "RP",
		"updated": "PLL*VOR/DME*074.93"
	},
	{
		"name": "KOLGY",
		"latitude": "43-53-13.63 N",
		"longitude": "90-29-29.73 W",
		"state": "WISCONSIN",
		"artcc": "ZAU",
		"type": "RNAV",
		"updated": "06/24/2011"
	},
	{
		"name": "KOMEC",
		"latitude": "41-6-57.5 N",
		"longitude": "86-25-48.67 W",
		"state": "INDIANA",
		"artcc": "ZAU",
		"type": "RNAV",
		"updated": "08/07/2008"
	},
	{
		"name": "KOMKY",
		"latitude": "41-46-14.84 N",
		"longitude": "86-29-47.64 W",
		"state": "INDIANA",
		"artcc": "ZAU",
		"type": "CN",
		"updated": "10/04/2001"
	},
	{
		"name": "KONPE",
		"latitude": "43-52-32.9 N",
		"longitude": "88-2-16.62 W",
		"state": "WISCONSIN",
		"artcc": "ZAU",
		"type": "RNAV",
		"updated": "09/15/2011"
	},
	{
		"name": "KOOKS",
		"latitude": "41-10-37.65 N",
		"longitude": "89-7-31.28 W",
		"state": "ILLINOIS",
		"artcc": "ZAU",
		"type": "RNAV",
		"updated": "08/19/2015"
	},
	{
		"name": "KOOLL",
		"latitude": "41-0-31.67 N",
		"longitude": "90-47-21.04 W",
		"state": "ILLINOIS",
		"artcc": "ZAU",
		"type": "RP",
		"updated": "BRL*VOR/DME*014.94/18.21"
	},
	{
		"name": "KORNE",
		"latitude": "41-55-2.82 N",
		"longitude": "88-35-46.96 W",
		"state": "ILLINOIS",
		"artcc": "ZAU",
		"type": "RP",
		"updated": "DPA*VOR/DME*276.46/11.15"
	},
	{
		"name": "KORTT",
		"latitude": "40-53-8.81 N",
		"longitude": "89-18-56.64 W",
		"state": "ILLINOIS",
		"artcc": "ZAU",
		"type": "RP",
		"updated": "PIA*VORTAC*056.28/25.00"
	},
	{
		"name": "KOWDO",
		"latitude": "41-49-23.81 N",
		"longitude": "93-10-54.35 W",
		"state": "IOWA",
		"artcc": "ZAU",
		"type": "RNAV",
		"updated": "01/22/2007"
	},
	{
		"name": "KPACK",
		"latitude": "42-46-5.24 N",
		"longitude": "88-51-42.03 W",
		"state": "WISCONSIN",
		"artcc": "ZAU",
		"type": "RNAV",
		"updated": "04/01/2014"
	},
	{
		"name": "KRENA",
		"latitude": "42-22-29.57 N",
		"longitude": "88-29-58.04 W",
		"state": "ILLINOIS",
		"artcc": "ZAU",
		"type": "RP",
		"updated": "DPA*VOR/DME*345.13"
	},
	{
		"name": "KRONE",
		"latitude": "41-55-43.61 N",
		"longitude": "88-49-32.12 W",
		"state": "ILLINOIS",
		"artcc": "ZAU",
		"type": "RNAV",
		"updated": "08/07/2008"
	},
	{
		"name": "KRUBI",
		"latitude": "43-37-35.11 N",
		"longitude": "89-44-53.58 W",
		"state": "WISCONSIN",
		"artcc": "ZAU",
		"type": "RNAV",
		"updated": "01/27/2016"
	},
	{
		"name": "KUBBS",
		"latitude": "42-17-53.24 N",
		"longitude": "87-24-11.69 W",
		"state": "ILLINOIS",
		"artcc": "ZAU",
		"type": "RP",
		"updated": "OBK*VOR/DME*081.16/24.88"
	},
	{
		"name": "KUCTE",
		"latitude": "42-26-6.97 N",
		"longitude": "92-11-4.39 W",
		"state": "IOWA",
		"artcc": "ZAU",
		"type": "RP",
		"updated": "ALO*LD*124.79/11.07"
	},
	{
		"name": "KUJBI",
		"latitude": "41-13-32.78 N",
		"longitude": "84-48-48.33 W",
		"state": "INDIANA",
		"artcc": "ZAU",
		"type": "RNAV",
		"updated": "08/16/2006"
	},
	{
		"name": "KUKDE",
		"latitude": "40-24-15.22 N",
		"longitude": "86-52-17.47 W",
		"state": "INDIANA",
		"artcc": "ZAU",
		"type": "RNAV",
		"updated": "02/23/2007"
	},
	{
		"name": "KUKEY",
		"latitude": "41-8-32.4 N",
		"longitude": "84-7-40.2 W",
		"state": "OHIO",
		"artcc": "ZAU",
		"type": "RP",
		"updated": "OXI*VOR/DME*094.56/114.65"
	},
	{
		"name": "KULGE",
		"latitude": "41-53-26.24 N",
		"longitude": "88-38-14.63 W",
		"state": "ILLINOIS",
		"artcc": "ZAU",
		"type": "RNAV",
		"updated": "07/20/2009"
	},
	{
		"name": "KULHY",
		"latitude": "41-10-11.4 N",
		"longitude": "84-28-0.6 W",
		"state": "OHIO",
		"artcc": "ZAU",
		"type": "RP",
		"updated": "OXI*VOR/DME*094.56/99.20"
	},
	{
		"name": "KURKK",
		"latitude": "42-5-30.61 N",
		"longitude": "88-1-37.92 W",
		"state": "ILLINOIS",
		"artcc": "ZAU",
		"type": "RNAV",
		"updated": "10/26/2009"
	},
	{
		"name": "KUULA",
		"latitude": "41-57-25.04 N",
		"longitude": "88-2-15.52 W",
		"state": "ILLINOIS",
		"artcc": "ZAU",
		"type": "RP",
		"updated": "OBK*VOR/DME*195.65"
	},
	{
		"name": "KUVKE",
		"latitude": "41-16-13 N",
		"longitude": "85-58-38.9 W",
		"state": "INDIANA",
		"artcc": "ZAU",
		"type": "RNAV",
		"updated": "08/03/2010"
	},
	{
		"name": "KVENN",
		"latitude": "41-56-57.21 N",
		"longitude": "88-9-40.7 W",
		"state": "ILLINOIS",
		"artcc": "ZAU",
		"type": "RP",
		"updated": "BYW*LD*271.36/12.11"
	},
	{
		"name": "KYHOM",
		"latitude": "40-57-48.29 N",
		"longitude": "91-58-45.66 W",
		"state": "IOWA",
		"artcc": "ZAU",
		"type": "RNAV",
		"updated": "01/22/2007"
	},
	{
		"name": "KYLAA",
		"latitude": "41-57-50.61 N",
		"longitude": "88-22-17.38 W",
		"state": "ILLINOIS",
		"artcc": "ZAU",
		"type": "RP",
		"updated": "SXH*LD*272.86/19.50"
	}
]
