	{
		"name": "MABHA",
		"latitude": "41-17-58.57 N",
		"longitude": "85-3-58.17 W",
		"state": "INDIANA",
		"artcc": "ZAU",
		"type": "RP",
		"updated": "FWA*VORTAC*022.00/20.00",
	},
	{
		"name": "MABNE",
		"latitude": "40-8-31.25 N",
		"longitude": "88-12-5.64 W",
		"state": "ILLINOIS",
		"artcc": "ZAU",
		"type": "CN",
		"updated": "09/13/2001",
	},
	{
		"name": "MABTE",
		"latitude": "41-49-58.91 N",
		"longitude": "86-13-46 W",
		"state": "MICHIGAN",
		"artcc": "ZAU",
		"type": "RP",
		"updated": "GSH*VORTAC*333.93",
	},
	{
		"name": "MACES",
		"latitude": "40-0-13.25 N",
		"longitude": "86-43-22.62 W",
		"state": "INDIANA",
		"artcc": "ZAU",
		"type": "RP",
		"updated": "VHP*VORTAC*303.73/19.94",
	},
	{
		"name": "MACGY",
		"latitude": "42-40-50.26 N",
		"longitude": "91-58-47.72 W",
		"state": "IOWA",
		"artcc": "ZAU",
		"type": "CN",
		"updated": "06/21/2000",
	},
	{
		"name": "MACIN",
		"latitude": "40-32-27.36 N",
		"longitude": "89-27-33.88 W",
		"state": "ILLINOIS",
		"artcc": "ZAU",
		"type": "RP",
		"updated": "BDF*VORTAC*171.00",
	},
	{
		"name": "MACNE",
		"latitude": "40-51-16.48 N",
		"longitude": "86-15-3.46 W",
		"state": "INDIANA",
		"artcc": "ZAU",
		"type": "RNAV",
		"updated": "05/05/2016",
	},
	{
		"name": "MACWY",
		"latitude": "43-56-42.25 N",
		"longitude": "88-7-2.35 W",
		"state": "WISCONSIN",
		"artcc": "ZAU",
		"type": "RP",
		"updated": "OSH*VORTAC*096.00/19.20",
	},
	{
		"name": "MADDY",
		"latitude": "42-29-42.12 N",
		"longitude": "89-46-45.65 W",
		"state": "ILLINOIS",
		"artcc": "ZAU",
		"type": "RP",
		"updated": "RFD*VOR/DME*301.26",
	},
	{
		"name": "MADEZ",
		"latitude": "43-6-20.13 N",
		"longitude": "89-11-18.43 W",
		"state": "WISCONSIN",
		"artcc": "ZAU",
		"type": "CN",
		"updated": "09/13/2001",
	},
	{
		"name": "MADII",
		"latitude": "42-18-3.47 N",
		"longitude": "88-18-49.73 W",
		"state": "ILLINOIS",
		"artcc": "ZAU",
		"type": "RNAV",
		"updated": "08/27/2013",
	},
	{
		"name": "MADMY",
		"latitude": "42-29-53.65 N",
		"longitude": "88-58-11.16 W",
		"state": "WISCONSIN",
		"artcc": "ZAU",
		"type": "CN",
		"updated": "09/13/2001",
	},
	{
		"name": "MAFDE",
		"latitude": "41-26-45.02 N",
		"longitude": "85-55-59.02 W",
		"state": "INDIANA",
		"artcc": "ZAU",
		"type": "CN",
		"updated": "12/21/2015",
	},
	{
		"name": "MAFFY",
		"latitude": "40-25-12.06 N",
		"longitude": "86-56-24 W",
		"state": "INDIANA",
		"artcc": "ZAU",
		"type": "RP",
		"updated": "BVT*VORTAC*143.00/10.08",
	},
	{
		"name": "MAFIR",
		"latitude": "41-50-11.49 N",
		"longitude": "89-26-51.42 W",
		"state": "ILLINOIS",
		"artcc": "ZAU",
		"type": "CN",
		"updated": "07/05/2001",
	},
	{
		"name": "MAFIW",
		"latitude": "43-2-49.53 N",
		"longitude": "88-14-25.5 W",
		"state": "WISCONSIN",
		"artcc": "ZAU",
		"type": "RP",
		"updated": "BAE*VOR/DME*153.24/4.61",
	},
	{
		"name": "MAFWI",
		"latitude": "42-41-35.93 N",
		"longitude": "88-18-15.46 W",
		"state": "WISCONSIN",
		"artcc": "ZAU",
		"type": "RP",
		"updated": "BAE*VOR/DME*179.99/25.42",
	},
	{
		"name": "MAFXA",
		"latitude": "41-59-37.56 N",
		"longitude": "86-7-37.86 W",
		"state": "MICHIGAN",
		"artcc": "ZAU",
		"type": "RP",
		"updated": "ELX*VOR/DME*181.27",
	},
	{
		"name": "MAFZA",
		"latitude": "41-57-41.81 N",
		"longitude": "85-35-30.97 W",
		"state": "MICHIGAN",
		"artcc": "ZAU",
		"type": "RP",
		"updated": "AZO*VOR/DME*187.00/16.61",
	},
	{
		"name": "MAGID",
		"latitude": "41-10-24.29 N",
		"longitude": "86-37-17.92 W",
		"state": "INDIANA",
		"artcc": "ZAU",
		"type": "RP",
		"updated": "OXI*VOR/DME*172.00/9.00",
	},
	{
		"name": "MAGJA",
		"latitude": "43-12-57.4 N",
		"longitude": "90-10-44.05 W",
		"state": "WISCONSIN",
		"artcc": "ZAU",
		"type": "RP",
		"updated": "04/16/2008",
	},
	{
		"name": "MAGVT",
		"latitude": "41-31-55.45 N",
		"longitude": "87-32-6.19 W",
		"state": "ILLINOIS",
		"artcc": "ZAU",
		"type": "RP",
		"updated": "CGT*VORTAC*049.17/2.11",
	},
	{
		"name": "MAHET",
		"latitude": "40-34-15.97 N",
		"longitude": "90-4-12.53 W",
		"state": "ILLINOIS",
		"artcc": "ZAU",
		"type": "RP",
		"updated": "PIA*VORTAC*238.81/14.26",
	},
	{
		"name": "MAHIW",
		"latitude": "40-39-36.3 N",
		"longitude": "91-19-18.16 W",
		"state": "IOWA",
		"artcc": "ZAU",
		"type": "RP",
		"updated": "BRL*VOR/DME*253.26/18.46",
	},
	{
		"name": "MAHKY",
		"latitude": "43-31-35.86 N",
		"longitude": "89-58-48.81 W",
		"state": "WISCONSIN",
		"artcc": "ZAU",
		"type": "RP",
		"updated": "01/19/2012",
	},
	{
		"name": "MAHOK",
		"latitude": "40-0-27.23 N",
		"longitude": "88-33-29.09 W",
		"state": "ILLINOIS",
		"artcc": "ZAU",
		"type": "CN",
		"updated": "09/25/2001",
	},
	{
		"name": "MAHOM",
		"latitude": "40-42-40.73 N",
		"longitude": "86-22-0.55 W",
		"state": "INDIANA",
		"artcc": "ZAU",
		"type": "WP",
		"updated": "OKK*VORTAC*308.02/17.89",
	},
	{
		"name": "MAHPA",
		"latitude": "40-55-46.04 N",
		"longitude": "90-37-43.68 W",
		"state": "ILLINOIS",
		"artcc": "ZAU",
		"type": "CN",
		"updated": "09/13/2001",
	},
	{
		"name": "MAHPU",
		"latitude": "43-16-53.57 N",
		"longitude": "90-17-55.54 W",
		"state": "WISCONSIN",
		"artcc": "ZAU",
		"type": "CN",
		"updated": "09/25/2001",
	},
	{
		"name": "MAHRE",
		"latitude": "41-43-13.41 N",
		"longitude": "86-41-29.21 W",
		"state": "INDIANA",
		"artcc": "ZAU",
		"type": "RP",
		"updated": "OXI*VOR/DME*355.47",
	},
	{
		"name": "MAHWY",
		"latitude": "42-31-45.69 N",
		"longitude": "85-48-25.83 W",
		"state": "MICHIGAN",
		"artcc": "ZAU",
		"type": "CN",
		"updated": "02/21/2001",
	},
	{
		"name": "MAHXY",
		"latitude": "43-7-42.72 N",
		"longitude": "85-40-22.19 W",
		"state": "MICHIGAN",
		"artcc": "ZAU",
		"type": "RP",
		"updated": "MKG*VORTAC*099.50/16.28",
	},
	{
		"name": "MAJOH",
		"latitude": "42-44-24.91 N",
		"longitude": "92-30-17.17 W",
		"state": "IOWA",
		"artcc": "ZAU",
		"type": "CN",
		"updated": "06/09/2016",
	},
	{
		"name": "MAKAC",
		"latitude": "42-44-32.03 N",
		"longitude": "86-6-21.14 W",
		"state": "MICHIGAN",
		"artcc": "ZAU",
		"type": "CN",
		"updated": "02/21/2001",
	},
	{
		"name": "MAKTR",
		"latitude": "42-48-1.69 N",
		"longitude": "88-22-32.39 W",
		"state": "WISCONSIN",
		"artcc": "ZAU",
		"type": "RP",
		"updated": "BAE*VOR/DME*190.00/19.40",
	},
	{
		"name": "MALDS",
		"latitude": "42-57-59.32 N",
		"longitude": "88-48-48.73 W",
		"state": "WISCONSIN",
		"artcc": "ZAU",
		"type": "RP",
		"updated": "BAE*VOR/DME*247.00/24.97",
	},
	{
		"name": "MALLA",
		"latitude": "40-21-38.09 N",
		"longitude": "87-12-25.63 W",
		"state": "INDIANA",
		"artcc": "ZAU",
		"type": "RNAV",
		"updated": "02/23/2007",
	},
	{
		"name": "MALLR",
		"latitude": "41-53-4.6 N",
		"longitude": "91-43-48.22 W",
		"state": "IOWA",
		"artcc": "ZAU",
		"type": "CN",
		"updated": "09/12/2002",
	},
	{
		"name": "MALLY",
		"latitude": "42-7-37.75 N",
		"longitude": "86-18-48.17 W",
		"state": "MICHIGAN",
		"artcc": "ZAU",
		"type": "RP",
		"updated": "GIJ*VORTAC*000.60",
	},
	{
		"name": "MAMSE",
		"latitude": "43-13-29.33 N",
		"longitude": "86-13-38.21 W",
		"state": "MICHIGAN",
		"artcc": "ZAU",
		"type": "RNAV",
		"updated": "03/13/2014",
	},
	{
		"name": "MANTO",
		"latitude": "40-29-17.07 N",
		"longitude": "89-51-34.59 W",
		"state": "ILLINOIS",
		"artcc": "ZAU",
		"type": "RNAV",
		"updated": "PIA*VORTAC*190.88/11.91",
	},
	{
		"name": "MAPER",
		"latitude": "42-1-43.77 N",
		"longitude": "86-44-8.03 W",
		"state": "MICHIGAN",
		"artcc": "ZAU",
		"type": "RP",
		"updated": "ELX*VOR/DME*256.00/28.24",
	},
	{
		"name": "MAPKC",
		"latitude": "42-56-22.44 N",
		"longitude": "87-54-57.21 W",
		"state": "WISCONSIN",
		"artcc": "ZAU",
		"type": "CN",
		"updated": "05/09/2003",
	},
	{
		"name": "MAPPS",
		"latitude": "41-10-53.94 N",
		"longitude": "86-56-32.63 W",
		"state": "INDIANA",
		"artcc": "ZAU",
		"type": "RP",
		"updated": "EON*VORTAC*095.54/38.87",
	},
	{
		"name": "MARIS",
		"latitude": "41-31-31.03 N",
		"longitude": "85-52-21.53 W",
		"state": "INDIANA",
		"artcc": "ZAU",
		"type": "RP",
		"updated": "GSH*VORTAC*089.90/7.00",
	},
	{
		"name": "MARKM",
		"latitude": "42-47-7.42 N",
		"longitude": "89-45-1.18 W",
		"state": "WISCONSIN",
		"artcc": "ZAU",
		"type": "RNAV",
		"updated": "03/24/2009",
	},
	{
		"name": "MAROC",
		"latitude": "40-44-13.24 N",
		"longitude": "89-22-28.69 W",
		"state": "ILLINOIS",
		"artcc": "ZAU",
		"type": "RP",
		"updated": "BDF*VORTAC*159.00",
	},
	{
		"name": "MARVB",
		"latitude": "41-16-25.25 N",
		"longitude": "85-50-51.05 W",
		"state": "INDIANA",
		"artcc": "ZAU",
		"type": "CN",
		"updated": "03/17/2003",
	},
	{
		"name": "MATAG",
		"latitude": "41-36-11.8 N",
		"longitude": "92-56-44.1 W",
		"state": "IOWA",
		"artcc": "ZAU",
		"type": "RP",
		"updated": "TNU*VOR/DME*/13.09",
	},
	{
		"name": "MATBL",
		"latitude": "41-42-13.7 N",
		"longitude": "86-49-3.02 W",
		"state": "INDIANA",
		"artcc": "ZAU",
		"type": "RP",
		"updated": "GIJ*VORTAC*260.33/22.75",
	},
	{
		"name": "MATEY",
		"latitude": "42-12-23.52 N",
		"longitude": "85-35-45.83 W",
		"state": "MICHIGAN",
		"artcc": "ZAU",
		"type": "RNAV",
		"updated": "03/01/2011",
	},
	{
		"name": "MATVE",
		"latitude": "41-55-40.14 N",
		"longitude": "88-40-55.83 W",
		"state": "ILLINOIS",
		"artcc": "ZAU",
		"type": "RNAV",
		"updated": "07/20/2009",
	},
	{
		"name": "MAULT",
		"latitude": "42-25-36.61 N",
		"longitude": "87-37-23.68 W",
		"state": "ILLINOIS",
		"artcc": "ZAU",
		"type": "RNAV",
		"updated": "04/01/2014",
	},
	{
		"name": "MAVAE",
		"latitude": "41-49-50.63 N",
		"longitude": "89-32-8.01 W",
		"state": "ILLINOIS",
		"artcc": "ZAU",
		"type": "RNAV",
		"updated": "07/28/2009",
	},
	{
		"name": "MAVBC",
		"latitude": "42-55-52.61 N",
		"longitude": "87-53-51.69 W",
		"state": "WISCONSIN",
		"artcc": "ZAU",
		"type": "CN",
		"updated": "05/07/2003",
	},
	{
		"name": "MAXAY",
		"latitude": "40-45-45.49 N",
		"longitude": "90-33-17.66 W",
		"state": "ILLINOIS",
		"artcc": "ZAU",
		"type": "RP",
		"updated": "BRL*VOR/DME*076.97",
	},
	{
		"name": "MAXXX",
		"latitude": "43-45-34.14 N",
		"longitude": "90-15-32.57 W",
		"state": "WISCONSIN",
		"artcc": "ZAU",
		"type": "MR",
		"updated": "DLL*VORTAC*297.28/24.95",
	},
	{
		"name": "MAYIS",
		"latitude": "41-5-33.35 N",
		"longitude": "93-6-43.69 W",
		"state": "IOWA",
		"artcc": "ZAU",
		"type": "RNAV",
		"updated": "03/04/2010",
	},
	{
		"name": "MAYUR",
		"latitude": "41-43-22.77 N",
		"longitude": "86-12-35.23 W",
		"state": "INDIANA",
		"artcc": "ZAU",
		"type": "RNAV",
		"updated": "11/18/2016",
	},
	{
		"name": "MCITY",
		"latitude": "41-41-45.91 N",
		"longitude": "86-46-51.03 W",
		"state": "INDIANA",
		"artcc": "ZAU",
		"type": "RP",
		"updated": "OXI*VOR/DME*345.24",
	},
	{
		"name": "MCLEN",
		"latitude": "40-24-18.98 N",
		"longitude": "89-8-16.55 W",
		"state": "ILLINOIS",
		"artcc": "ZAU",
		"type": "RP",
		"updated": "BMI*VOR/DME*241.50",
	},
	{
		"name": "MEBOE",
		"latitude": "40-17-54.51 N",
		"longitude": "90-6-41.06 W",
		"state": "ILLINOIS",
		"artcc": "ZAU",
		"type": "RNAV",
		"updated": "07/28/2009",
	},
	{
		"name": "MEDAN",
		"latitude": "41-20-27.51 N",
		"longitude": "88-17-6.83 W",
		"state": "ILLINOIS",
		"artcc": "ZAU",
		"type": "RP",
		"updated": "EON*VORTAC*279.00/22.75",
	},
	{
		"name": "MEDLE",
		"latitude": "40-17-35.18 N",
		"longitude": "87-53-32.67 W",
		"state": "ILLINOIS",
		"artcc": "ZAU",
		"type": "RNAV",
		"updated": "08/19/2015",
	},
	{
		"name": "MEETS",
		"latitude": "42-9-28.76 N",
		"longitude": "89-12-48.29 W",
		"state": "ILLINOIS",
		"artcc": "ZAU",
		"type": "RNAV",
		"updated": "05/06/2013",
	},
	{
		"name": "MEGGZ",
		"latitude": "41-31-24.28 N",
		"longitude": "86-23-44.65 W",
		"state": "INDIANA",
		"artcc": "ZAU",
		"type": "RP",
		"updated": "GSH*VORTAC*269.76/16.58",
	},
	{
		"name": "MEITZ",
		"latitude": "41-23-30.87 N",
		"longitude": "88-38-53.19 W",
		"state": "ILLINOIS",
		"artcc": "ZAU",
		"type": "RP",
		"updated": "EON*VORTAC*279.00/39.43",
	},
	{
		"name": "MEMAW",
		"latitude": "41-57-56.46 N",
		"longitude": "87-30-43.41 W",
		"state": "ILLINOIS",
		"artcc": "ZAU",
		"type": "RP",
		"updated": "VZE*LD*092.89/18.97",
	},
	{
		"name": "MERBE",
		"latitude": "41-26-59.39 N",
		"longitude": "90-34-8.84 W",
		"state": "ILLINOIS",
		"artcc": "ZAU",
		"type": "RNAV",
		"updated": "03/13/2012",
	},
	{
		"name": "MERKY",
		"latitude": "40-30-59.16 N",
		"longitude": "89-1-49.71 W",
		"state": "ILLINOIS",
		"artcc": "ZAU",
		"type": "RP",
		"updated": "PNT*VOR/DME*213.67",
	},
	{
		"name": "METHN",
		"latitude": "41-39-26.64 N",
		"longitude": "86-2-44.19 W",
		"state": "INDIANA",
		"artcc": "ZAU",
		"type": "RNAV",
		"updated": "11/18/2016",
	},
	{
		"name": "METSE",
		"latitude": "40-45-7.18 N",
		"longitude": "88-47-1.1 W",
		"state": "ILLINOIS",
		"artcc": "ZAU",
		"type": "RNAV",
		"updated": "06/03/2008",
	},
	{
		"name": "MEXUX",
		"latitude": "41-35-58.95 N",
		"longitude": "91-16-36.65 W",
		"state": "IOWA",
		"artcc": "ZAU",
		"type": "RNAV",
		"updated": "02/09/2018",
	},
	{
		"name": "MIBPU",
		"latitude": "43-6-18.61 N",
		"longitude": "89-21-46.91 W",
		"state": "WISCONSIN",
		"artcc": "ZAU",
		"type": "RNAV",
		"updated": "06/13/2012",
	},
	{
		"name": "MIDOE",
		"latitude": "40-35-23.13 N",
		"longitude": "90-4-34.18 W",
		"state": "ILLINOIS",
		"artcc": "ZAU",
		"type": "RNAV",
		"updated": "07/28/2009",
	},
	{
		"name": "MIDWA",
		"latitude": "41-13-16.57 N",
		"longitude": "84-58-25.04 W",
		"state": "INDIANA",
		"artcc": "ZAU",
		"type": "RNAV",
		"updated": "05/05/2016",
	},
	{
		"name": "MIGGS",
		"latitude": "41-5-6.18 N",
		"longitude": "90-26-54.19 W",
		"state": "ILLINOIS",
		"artcc": "ZAU",
		"type": "RNAV",
		"updated": "08/19/2015",
	},
	{
		"name": "MIGNE",
		"latitude": "41-18-35.38 N",
		"longitude": "90-29-42.81 W",
		"state": "ILLINOIS",
		"artcc": "ZAU",
		"type": "RNAV",
		"updated": "09/10/2004",
	},
	{
		"name": "MIHAL",
		"latitude": "41-57-23.3 N",
		"longitude": "89-52-28.53 W",
		"state": "ILLINOIS",
		"artcc": "ZAU",
		"type": "RP",
		"updated": "DBQ*VORTAC*121.36",
	},
	{
		"name": "MIHWI",
		"latitude": "40-50-46.91 N",
		"longitude": "85-14-23.23 W",
		"state": "INDIANA",
		"artcc": "ZAU",
		"type": "RNAV",
		"updated": "12/31/2002",
	},
	{
		"name": "MIING",
		"latitude": "41-45-16.1 N",
		"longitude": "87-45-8.68 W",
		"state": "ILLINOIS",
		"artcc": "ZAU",
		"type": "RNAV",
		"updated": "05/28/2014",
	},
	{
		"name": "MILOS",
		"latitude": "40-24-11.64 N",
		"longitude": "85-46-3.12 W",
		"state": "INDIANA",
		"artcc": "ZAU",
		"type": "RP",
		"updated": "MZZ*VOR/DME*/6.75",
	},
	{
		"name": "MINCE",
		"latitude": "42-9-44.37 N",
		"longitude": "87-3-51.08 W",
		"state": "MICHIGAN",
		"artcc": "ZAU",
		"type": "RP",
		"updated": "OBK*VOR/DME*096.82/39.74",
	},
	{
		"name": "MINNR",
		"latitude": "41-49-4.32 N",
		"longitude": "89-33-47.66 W",
		"state": "ILLINOIS",
		"artcc": "ZAU",
		"type": "RNAV",
		"updated": "05/05/2011",
	},
	{
		"name": "MINNY",
		"latitude": "43-9-13.73 N",
		"longitude": "86-55-35.74 W",
		"state": "MICHIGAN",
		"artcc": "ZAU",
		"type": "RP",
		"updated": "MKG*VORTAC*270.00/39.00",
	},
	{
		"name": "MINOK",
		"latitude": "41-28-7.91 N",
		"longitude": "88-21-47.83 W",
		"state": "ILLINOIS",
		"artcc": "ZAU",
		"type": "RP",
		"updated": "EON*VORTAC*292.99",
	},
	{
		"name": "MIRGE",
		"latitude": "40-26-47.4 N",
		"longitude": "86-8-23.14 W",
		"state": "INDIANA",
		"artcc": "ZAU",
		"type": "RNAV",
		"updated": "02/25/2015",
	},
	{
		"name": "MIRKY",
		"latitude": "41-36-10.71 N",
		"longitude": "86-44-9.75 W",
		"state": "INDIANA",
		"artcc": "ZAU",
		"type": "RNAV",
		"updated": "09/29/2014",
	},
	{
		"name": "MISBY",
		"latitude": "40-23-30.3 N",
		"longitude": "86-48-58.39 W",
		"state": "INDIANA",
		"artcc": "ZAU",
		"type": "RNAV",
		"updated": "09/29/2014",
	},
	{
		"name": "MISHA",
		"latitude": "41-42-20.21 N",
		"longitude": "86-13-8.49 W",
		"state": "INDIANA",
		"artcc": "ZAU",
		"type": "RP",
		"updated": "GSH*VORTAC*321.61",
	},
	{
		"name": "MISHL",
		"latitude": "41-56-18.8 N",
		"longitude": "87-50-36.9 W",
		"state": "ILLINOIS",
		"artcc": "ZAU",
		"type": "RNAV",
		"updated": "07/19/2006",
	},
	{
		"name": "MITEE",
		"latitude": "42-42-5.72 N",
		"longitude": "90-16-45.99 W",
		"state": "WISCONSIN",
		"artcc": "ZAU",
		"type": "RNAV",
		"updated": "06/24/2016",
	},
	{
		"name": "MIXIN",
		"latitude": "41-36-57.36 N",
		"longitude": "93-22-18.86 W",
		"state": "IOWA",
		"artcc": "ZAU",
		"type": "RP",
		"updated": "DSM*VORTAC*042.29/16.43",
	},
	{
		"name": "MIZWO",
		"latitude": "43-22-46.29 N",
		"longitude": "88-30-16.98 W",
		"state": "WISCONSIN",
		"artcc": "ZAU",
		"type": "RNAV",
		"updated": "10/24/2011",
	},
	{
		"name": "MKITA",
		"latitude": "41-24-0 N",
		"longitude": "86-41-34 W",
		"state": "INDIANA",
		"artcc": "ZAU",
		"type": "RNAV",
		"updated": "09/30/2008",
	},
	{
		"name": "MLSEN",
		"latitude": "41-56-19.17 N",
		"longitude": "88-26-29.86 W",
		"state": "ILLINOIS",
		"artcc": "ZAU",
		"type": "RP",
		"updated": "BYW*LD*271.36/24.68",
	},
	{
		"name": "MMEGG",
		"latitude": "41-10-14.68 N",
		"longitude": "88-38-32.72 W",
		"state": "ILLINOIS",
		"artcc": "ZAU",
		"type": "RNAV",
		"updated": "08/19/2015",
	},
	{
		"name": "MNOSO",
		"latitude": "42-22-55.92 N",
		"longitude": "92-33-26.95 W",
		"state": "IOWA",
		"artcc": "ZAU",
		"type": "RNAV",
		"updated": "01/13/2015",
	},
	{
		"name": "MOBLE",
		"latitude": "41-56-44 N",
		"longitude": "87-3-48 W",
		"state": "MICHIGAN",
		"artcc": "ZAU",
		"type": "RNAV",
		"updated": "01/26/2007",
	},
	{
		"name": "MOBTE",
		"latitude": "40-45-36.74 N",
		"longitude": "92-50-36.41 W",
		"state": "IOWA",
		"artcc": "ZAU",
		"type": "RNAV",
		"updated": "05/24/2011",
	},
	{
		"name": "MOCEL",
		"latitude": "40-0-59.52 N",
		"longitude": "88-37-47.64 W",
		"state": "ILLINOIS",
		"artcc": "ZAU",
		"type": "RP",
		"updated": "BMI*VOR/DME*150.00",
	},
	{
		"name": "MODEM",
		"latitude": "41-43-40.9 N",
		"longitude": "84-53-50.18 W",
		"state": "INDIANA",
		"artcc": "ZOB",
		"type": "RP",
		"updated": "DXO*VOR/DME*253.50",
	},
	{
		"name": "MOGFY",
		"latitude": "41-11-53.39 N",
		"longitude": "92-59-57.1 W",
		"state": "IOWA",
		"artcc": "ZAU",
		"type": "RNAV",
		"updated": "10/06/2008",
	},
	{
		"name": "MOKRE",
		"latitude": "43-5-49.17 N",
		"longitude": "89-51-21.42 W",
		"state": "WISCONSIN",
		"artcc": "ZAU",
		"type": "RNAV",
		"updated": "10/05/2007",
	},
	{
		"name": "MOMLE",
		"latitude": "41-55-44.56 N",
		"longitude": "88-42-12 W",
		"state": "ILLINOIS",
		"artcc": "ZAU",
		"type": "RP",
		"updated": "DPA*VOR/DME*276.46/15.99",
	},
	{
		"name": "MONAH",
		"latitude": "43-3-45.93 N",
		"longitude": "89-20-45.44 W",
		"state": "WISCONSIN",
		"artcc": "ZAU",
		"type": "RP",
		"updated": "LNR*VOR/DME*111.64",
	},
	{
		"name": "MONKZ",
		"latitude": "41-53-3.59 N",
		"longitude": "87-48-6.47 W",
		"state": "ILLINOIS",
		"artcc": "ZAU",
		"type": "RNAV",
		"updated": "11/19/2012",
	},
	{
		"name": "MONNY",
		"latitude": "42-4-44.21 N",
		"longitude": "91-16-51.8 W",
		"state": "IOWA",
		"artcc": "ZAU",
		"type": "RNAV",
		"updated": "08/26/2013",
	},
	{
		"name": "MONON",
		"latitude": "40-50-0.54 N",
		"longitude": "86-55-6.36 W",
		"state": "INDIANA",
		"artcc": "ZAU",
		"type": "RP",
		"updated": "OKK*VORTAC*300.30",
	},
	{
		"name": "MOOPS",
		"latitude": "42-39-26.92 N",
		"longitude": "88-53-33.06 W",
		"state": "WISCONSIN",
		"artcc": "ZAU",
		"type": "RNAV",
		"updated": "08/28/2014",
	},
	{
		"name": "MOPER",
		"latitude": "41-25-52.54 N",
		"longitude": "87-47-12.4 W",
		"state": "ILLINOIS",
		"artcc": "ZAU",
		"type": "RP",
		"updated": "OBK*VOR/DME*173.07/47.97",
	},
	{
		"name": "MOPTE",
		"latitude": "41-19-1.23 N",
		"longitude": "90-22-46.97 W",
		"state": "ILLINOIS",
		"artcc": "ZAU",
		"type": "RNAV",
		"updated": "09/10/2004",
	},
	{
		"name": "MORKN",
		"latitude": "43-52-16.49 N",
		"longitude": "89-34-28.3 W",
		"state": "WISCONSIN",
		"artcc": "ZAU",
		"type": "MR",
		"updated": "VOK*TACAN*095.00/30.00",
	},
	{
		"name": "MORSE",
		"latitude": "41-44-49.41 N",
		"longitude": "91-31-45 W",
		"state": "IOWA",
		"artcc": "ZAU",
		"type": "RNAV",
		"updated": "01/25/2005",
	},
	{
		"name": "MOSCO",
		"latitude": "41-35-33.39 N",
		"longitude": "91-10-57.96 W",
		"state": "IOWA",
		"artcc": "ZAU",
		"type": "RP",
		"updated": "IOW*VOR/DME*072.03",
	},
	{
		"name": "MOTAN",
		"latitude": "43-24-36.64 N",
		"longitude": "86-24-9.35 W",
		"state": "MICHIGAN",
		"artcc": "ZAU",
		"type": "RP",
		"updated": "MKG*VORTAC*313.37/21.50",
	},
	{
		"name": "MOTIF",
		"latitude": "41-13-46.52 N",
		"longitude": "88-30-3.55 W",
		"state": "ILLINOIS",
		"artcc": "ZAU",
		"type": "RP",
		"updated": "EON*VORTAC*263.96/32.22",
	},
	{
		"name": "MOTRR",
		"latitude": "42-21-30.57 N",
		"longitude": "88-30-10.35 W",
		"state": "ILLINOIS",
		"artcc": "ZAU",
		"type": "RNAV",
		"updated": "08/28/2014",
	},
	{
		"name": "MOTTT",
		"latitude": "41-58-6.07 N",
		"longitude": "87-18-5.96 W",
		"state": "ILLINOIS",
		"artcc": "ZAU",
		"type": "RP",
		"updated": "TSL*LD*092.90/25.81",
	},
	{
		"name": "MOTVE",
		"latitude": "40-49-45.89 N",
		"longitude": "91-33-38.07 W",
		"state": "IOWA",
		"artcc": "ZAU",
		"type": "RNAV",
		"updated": "03/27/2018",
	},
	{
		"name": "MOVEE",
		"latitude": "41-34-57.52 N",
		"longitude": "86-17-50.26 W",
		"state": "INDIANA",
		"artcc": "ZAU",
		"type": "RNAV",
		"updated": "11/18/2016",
	},
	{
		"name": "MOVPE",
		"latitude": "41-19-43.07 N",
		"longitude": "88-52-6.29 W",
		"state": "ILLINOIS",
		"artcc": "ZAU",
		"type": "RNAV",
		"updated": "07/28/2009",
	},
	{
		"name": "MOWSE",
		"latitude": "42-8-46.38 N",
		"longitude": "89-40-54.36 W",
		"state": "ILLINOIS",
		"artcc": "ZAU",
		"type": "RNAV",
		"updated": "05/06/2013",
	},
	{
		"name": "MOXUE",
		"latitude": "42-44-33.59 N",
		"longitude": "87-34-38.64 W",
		"state": "WISCONSIN",
		"artcc": "ZAU",
		"type": "RNAV",
		"updated": "12/21/2009",
	},
	{
		"name": "MRKWL",
		"latitude": "41-9-23.88 N",
		"longitude": "89-9-4.16 W",
		"state": "ILLINOIS",
		"artcc": "ZAU",
		"type": "RP",
		"updated": "BDF*VORTAC*090.39",
	},
	{
		"name": "MRRTE",
		"latitude": "41-37-36.56 N",
		"longitude": "86-32-56.01 W",
		"state": "INDIANA",
		"artcc": "ZAU",
		"type": "RNAV",
		"updated": "11/19/2002",
	},
	{
		"name": "MSIPI",
		"latitude": "42-24-59.96 N",
		"longitude": "83-24-12.38 W",
		"state": "MICHIGAN",
		"artcc": "ZAU",
		"type": "RNAV",
		"updated": "11/30/2016",
	},
	{
		"name": "MSKTS",
		"latitude": "40-58-56.44 N",
		"longitude": "84-46-4.04 W",
		"state": "OHIO",
		"artcc": "ZAU",
		"type": "RNAV",
		"updated": "03/06/2018",
	},
	{
		"name": "MUGTE",
		"latitude": "40-11-0.58 N",
		"longitude": "88-6-46.78 W",
		"state": "ILLINOIS",
		"artcc": "ZAU",
		"type": "RNAV",
		"updated": "01/27/2015",
	},
	{
		"name": "MUMPR",
		"latitude": "42-14-36.9 N",
		"longitude": "88-20-59.29 W",
		"state": "ILLINOIS",
		"artcc": "ZAU",
		"type": "RNAV",
		"updated": "04/01/2014",
	},
	{
		"name": "MUNKY",
		"latitude": "43-14-51.92 N",
		"longitude": "85-13-32.74 W",
		"state": "MICHIGAN",
		"artcc": "ZAU",
		"type": "RP",
		"updated": "FNT*VORTAC*291.04/67.14",
	},
	{
		"name": "MUPUE",
		"latitude": "41-3-11.95 N",
		"longitude": "85-17-0.2 W",
		"state": "INDIANA",
		"artcc": "ZAU",
		"type": "RNAV",
		"updated": "02/13/2010",
	},
	{
		"name": "MURBE",
		"latitude": "43-51-47.11 N",
		"longitude": "87-49-57.49 W",
		"state": "WISCONSIN",
		"artcc": "ZAU",
		"type": "RNAV",
		"updated": "09/15/2011",
	},
	{
		"name": "MURRI",
		"latitude": "43-53-45.46 N",
		"longitude": "87-54-14.68 W",
		"state": "WISCONSIN",
		"artcc": "ZAU",
		"type": "RP",
		"updated": "FAH*VOR/DME*344.54",
	},
	{
		"name": "MUSKO",
		"latitude": "43-7-14.34 N",
		"longitude": "86-10-9.45 W",
		"state": "MICHIGAN",
		"artcc": "ZAU",
		"type": "RP",
		"updated": "MKG*VORTAC*243.99",
	},
	{
		"name": "MUSKY",
		"latitude": "42-9-11.83 N",
		"longitude": "86-56-13.65 W",
		"state": "MICHIGAN",
		"artcc": "ZAU",
		"type": "RP",
		"updated": "OBK*VOR/DME*096.82/45.43",
	},
	{
		"name": "MUTME",
		"latitude": "41-25-30.83 N",
		"longitude": "90-40-21.12 W",
		"state": "ILLINOIS",
		"artcc": "ZAU",
		"type": "RNAV",
		"updated": "09/10/2004",
	},
	{
		"name": "MYKIE",
		"latitude": "42-9-47.71 N",
		"longitude": "88-48-30.4 W",
		"state": "ILLINOIS",
		"artcc": "ZAU",
		"type": "RNAV",
		"updated": "05/06/2013",
	},
	{
		"name": "MYRRS",
		"latitude": "42-31-26.02 N",
		"longitude": "92-3-35.73 W",
		"state": "IOWA",
		"artcc": "ZAU",
		"type": "RNAV",
		"updated": "08/24/2015",
	},
	{
		"name": "MYTCH",
		"latitude": "42-44-25.04 N",
		"longitude": "89-44-10.43 W",
		"state": "WISCONSIN",
		"artcc": "ZAU",
		"type": "RP",
		"updated": "JVL*VOR/DME*288.59/30.00",
	},
