[
	{
		"name": "NABJI",
		"latitude": "41-23-33.08 N",
		"longitude": "84-48-55.56 W",
		"state": "INDIANA",
		"artcc": "ZAU",
		"type": "RNAV",
		"updated": "08/16/2006"
	},
	{
		"name": "NABYO",
		"latitude": "41-27-34.41 N",
		"longitude": "87-55-32.74 W",
		"state": "ILLINOIS",
		"artcc": "ZAU",
		"type": "RNAV",
		"updated": "01/20/2009"
	},
	{
		"name": "NACIB",
		"latitude": "41-47-30.2 N",
		"longitude": "86-3-28.53 W",
		"state": "MICHIGAN",
		"artcc": "ZAU",
		"type": "RNAV",
		"updated": "05/31/2005"
	},
	{
		"name": "NADVE",
		"latitude": "42-29-33.96 N",
		"longitude": "91-56-53.33 W",
		"state": "IOWA",
		"artcc": "ZAU",
		"type": "RP",
		"updated": "02/27/2012"
	},
	{
		"name": "NALDS",
		"latitude": "41-21-0.37 N",
		"longitude": "86-25-52.31 W",
		"state": "INDIANA",
		"artcc": "ZAU",
		"type": "RP",
		"updated": "OXI*VOR/DME*080.24/10.00"
	},
	{
		"name": "NANEE",
		"latitude": "40-52-2.81 N",
		"longitude": "88-50-25.56 W",
		"state": "ILLINOIS",
		"artcc": "ZAU",
		"type": "RNAV",
		"updated": "08/19/2015"
	},
	{
		"name": "NAPER",
		"latitude": "41-49-27.19 N",
		"longitude": "88-3-7.3 W",
		"state": "ILLINOIS",
		"artcc": "ZAU",
		"type": "RP",
		"updated": "DPA*VOR/DME*104.43"
	},
	{
		"name": "NASAL",
		"latitude": "41-28-55.64 N",
		"longitude": "92-38-27.56 W",
		"state": "IOWA",
		"artcc": "ZAU",
		"type": "RP",
		"updated": "CID*VOR/DME*232.98/45.49"
	},
	{
		"name": "NATRE",
		"latitude": "40-4-7.74 N",
		"longitude": "86-20-5.99 W",
		"state": "INDIANA",
		"artcc": "ZAU",
		"type": "RNAV",
		"updated": "02/17/2016"
	},
	{
		"name": "NATTY",
		"latitude": "41-2-38.25 N",
		"longitude": "84-56-17.28 W",
		"state": "INDIANA",
		"artcc": "ZAU",
		"type": "RP",
		"updated": "OLK*VOR*118.46"
	},
	{
		"name": "NAVOJ",
		"latitude": "40-33-51.41 N",
		"longitude": "86-15-34.77 W",
		"state": "INDIANA",
		"artcc": "ZAU",
		"type": "RNAV",
		"updated": "08/28/2007"
	},
	{
		"name": "NAYIL",
		"latitude": "41-40-8.73 N",
		"longitude": "90-40-10.88 W",
		"state": "IOWA",
		"artcc": "ZAU",
		"type": "RNAV",
		"updated": "08/07/2009"
	},
	{
		"name": "NAZVI",
		"latitude": "41-53-8.24 N",
		"longitude": "90-38-6.12 W",
		"state": "IOWA",
		"artcc": "ZAU",
		"type": "RNAV",
		"updated": "06/26/2013"
	},
	{
		"name": "NEATO",
		"latitude": "42-28-18.64 N",
		"longitude": "87-57-11.31 W",
		"state": "ILLINOIS",
		"artcc": "ZAU",
		"type": "RNAV",
		"updated": "05/06/2013"
	},
	{
		"name": "NEATT",
		"latitude": "42-8-36.5 N",
		"longitude": "85-31-18.57 W",
		"state": "MICHIGAN",
		"artcc": "ZAU",
		"type": "RP",
		"updated": "AZO*VOR/DME*167.00/5.78"
	},
	{
		"name": "NEBIC",
		"latitude": "41-30-35.02 N",
		"longitude": "90-49-51.14 W",
		"state": "IOWA",
		"artcc": "ZAU",
		"type": "RNAV",
		"updated": "08/07/2009"
	},
	{
		"name": "NECLY",
		"latitude": "41-46-14.91 N",
		"longitude": "88-25-33.24 W",
		"state": "ILLINOIS",
		"artcc": "ZAU",
		"type": "RNAV",
		"updated": "05/06/2011"
	},
	{
		"name": "NEETA",
		"latitude": "43-38-38.02 N",
		"longitude": "89-23-0.73 W",
		"state": "WISCONSIN",
		"artcc": "ZAU",
		"type": "MR",
		"updated": "MSN*VORTAC*353.35/30.00"
	},
	{
		"name": "NEGUE",
		"latitude": "42-12-19.96 N",
		"longitude": "90-35-58.81 W",
		"state": "IOWA",
		"artcc": "ZAU",
		"type": "RNAV",
		"updated": "01/03/2009"
	},
	{
		"name": "NEGUS",
		"latitude": "43-14-17.01 N",
		"longitude": "89-49-49.1 W",
		"state": "WISCONSIN",
		"artcc": "ZAU",
		"type": "RP",
		"updated": "DLL*VORTAC*185.86"
	},
	{
		"name": "NEHWY",
		"latitude": "42-38-34.1 N",
		"longitude": "92-6-2.47 W",
		"state": "IOWA",
		"artcc": "ZAU",
		"type": "RNAV",
		"updated": "12/13/2001"
	},
	{
		"name": "NELIY",
		"latitude": "41-21-30.4 N",
		"longitude": "92-40-26.71 W",
		"state": "IOWA",
		"artcc": "ZAU",
		"type": "RNAV",
		"updated": "07/11/2005"
	},
	{
		"name": "NENBE",
		"latitude": "43-21-5.77 N",
		"longitude": "90-15-27.81 W",
		"state": "WISCONSIN",
		"artcc": "ZAU",
		"type": "RNAV",
		"updated": "05/24/2016"
	},
	{
		"name": "NENUE",
		"latitude": "43-18-42.19 N",
		"longitude": "86-24-35.64 W",
		"state": "MICHIGAN",
		"artcc": "ZAU",
		"type": "RP",
		"updated": "MKG*VORTAC*298.87"
	},
	{
		"name": "NEPTS",
		"latitude": "41-58-2.99 N",
		"longitude": "87-3-10.84 W",
		"state": "MICHIGAN",
		"artcc": "ZAU",
		"type": "RP",
		"updated": "OXI*VOR/DME*335.00"
	},
	{
		"name": "NESTR",
		"latitude": "42-57-2.16 N",
		"longitude": "85-23-6.61 W",
		"state": "MICHIGAN",
		"artcc": "ZAU",
		"type": "RP",
		"updated": "VIO*VOR/DME*030.63/11.00"
	},
	{
		"name": "NETIY",
		"latitude": "40-58-58.89 N",
		"longitude": "86-7-31.08 W",
		"state": "INDIANA",
		"artcc": "ZAU",
		"type": "RNAV",
		"updated": "11/20/2006"
	},
	{
		"name": "NEVIS",
		"latitude": "42-24-20.78 N",
		"longitude": "92-32-20.88 W",
		"state": "IOWA",
		"artcc": "ZAU",
		"type": "RP",
		"updated": "CID*VOR/DME*308.00/45.79"
	},
	{
		"name": "NEWRK",
		"latitude": "41-33-58.05 N",
		"longitude": "88-34-16.03 W",
		"state": "ILLINOIS",
		"artcc": "ZAU",
		"type": "RP",
		"updated": "PNT*VOR/DME*006.30"
	},
	{
		"name": "NEWTT",
		"latitude": "41-3-32.66 N",
		"longitude": "88-4-35.91 W",
		"state": "ILLINOIS",
		"artcc": "ZAU",
		"type": "RP",
		"updated": "RBS*VOR/DME*005.91/28.90"
	},
	{
		"name": "NEWWT",
		"latitude": "43-8-37.11 N",
		"longitude": "85-23-22.46 W",
		"state": "MICHIGAN",
		"artcc": "ZAU",
		"type": "RNAV",
		"updated": "04/07/2009"
	},
	{
		"name": "NICIK",
		"latitude": "42-22-10.18 N",
		"longitude": "92-15-13.17 W",
		"state": "IOWA",
		"artcc": "ZAU",
		"type": "RNAV",
		"updated": "07/31/2006"
	},
	{
		"name": "NIDEE",
		"latitude": "41-50-5.99 N",
		"longitude": "87-49-55.01 W",
		"state": "ILLINOIS",
		"artcc": "ZAU",
		"type": "RNAV",
		"updated": "05/16/2013"
	},
	{
		"name": "NIDVE",
		"latitude": "41-55-21.99 N",
		"longitude": "85-20-5.96 W",
		"state": "MICHIGAN",
		"artcc": "ZAU",
		"type": "RNAV",
		"updated": "02/22/2008"
	},
	{
		"name": "NIDZU",
		"latitude": "43-46-58.64 N",
		"longitude": "90-14-14.27 W",
		"state": "WISCONSIN",
		"artcc": "ZAU",
		"type": "RNAV",
		"updated": "05/24/2016"
	},
	{
		"name": "NIGHT",
		"latitude": "41-50-18 N",
		"longitude": "91-46-25 W",
		"state": "IOWA",
		"artcc": "ZAU",
		"type": "RNAV",
		"updated": "08/26/2013"
	},
	{
		"name": "NIHDO",
		"latitude": "43-22-10.75 N",
		"longitude": "88-54-53.42 W",
		"state": "WISCONSIN",
		"artcc": "ZAU",
		"type": "RNAV",
		"updated": "05/24/2016"
	},
	{
		"name": "NIKRE",
		"latitude": "41-7-34.6 N",
		"longitude": "92-28-33.91 W",
		"state": "IOWA",
		"artcc": "ZAU",
		"type": "RNAV",
		"updated": "06/01/2006"
	},
	{
		"name": "NILES",
		"latitude": "41-46-41.46 N",
		"longitude": "87-35-2.61 W",
		"state": "ILLINOIS",
		"artcc": "ZAU",
		"type": "RP",
		"updated": "GIJ*VORTAC*271.00"
	},
	{
		"name": "NIMNM",
		"latitude": "42-37-30.28 N",
		"longitude": "85-37-4.46 W",
		"state": "MICHIGAN",
		"artcc": "ZAU",
		"type": "RNAV",
		"updated": "03/30/2018"
	},
	{
		"name": "NIMOE",
		"latitude": "41-26-41.9 N",
		"longitude": "85-55-32.41 W",
		"state": "INDIANA",
		"artcc": "ZAU",
		"type": "RNAV",
		"updated": "11/18/2015"
	},
	{
		"name": "NINIC",
		"latitude": "40-26-2.03 N",
		"longitude": "89-12-19.69 W",
		"state": "ILLINOIS",
		"artcc": "ZAU",
		"type": "RP",
		"updated": "BMI*VOR/DME*254.47"
	},
	{
		"name": "NIPSY",
		"latitude": "42-1-45.66 N",
		"longitude": "89-12-55.68 W",
		"state": "ILLINOIS",
		"artcc": "ZAU",
		"type": "RNAV",
		"updated": "05/06/2013"
	},
	{
		"name": "NIRGE",
		"latitude": "43-24-58.18 N",
		"longitude": "88-38-31.81 W",
		"state": "WISCONSIN",
		"artcc": "ZAU",
		"type": "RNAV",
		"updated": "10/24/2011"
	},
	{
		"name": "NIROE",
		"latitude": "40-42-57.2 N",
		"longitude": "85-44-19.42 W",
		"state": "INDIANA",
		"artcc": "ZAU",
		"type": "RNAV",
		"updated": "11/18/2016"
	},
	{
		"name": "NIRRA",
		"latitude": "41-57-23.6 N",
		"longitude": "88-9-39.38 W",
		"state": "ILLINOIS",
		"artcc": "ZAU",
		"type": "RP",
		"updated": "IZJ*LD*273.87/12.00"
	},
	{
		"name": "NITNE",
		"latitude": "43-55-50.58 N",
		"longitude": "90-19-34.26 W",
		"state": "WISCONSIN",
		"artcc": "ZAU",
		"type": "MR",
		"updated": "VOK*TACAN*256.00/3.00"
	},
	{
		"name": "NITTA",
		"latitude": "40-31-7.55 N",
		"longitude": "90-20-15.92 W",
		"state": "ILLINOIS",
		"artcc": "ZAU",
		"type": "RP",
		"updated": "PIA*VORTAC*244.95"
	},
	{
		"name": "NITWT",
		"latitude": "41-44-5 N",
		"longitude": "93-24-51 W",
		"state": "IOWA",
		"artcc": "ZAU",
		"type": "RNAV",
		"updated": "08/26/2013"
	},
	{
		"name": "NOAHE",
		"latitude": "42-6-22.78 N",
		"longitude": "89-2-33.46 W",
		"state": "ILLINOIS",
		"artcc": "ZAU",
		"type": "RP",
		"updated": "RFD*VOR/DME*134.60/10.00"
	},
	{
		"name": "NOBNY",
		"latitude": "43-31-58.58 N",
		"longitude": "85-59-50.6 W",
		"state": "MICHIGAN",
		"artcc": "ZAU",
		"type": "RNAV",
		"updated": "08/16/2007"
	},
	{
		"name": "NODCI",
		"latitude": "42-16-46.14 N",
		"longitude": "86-20-53.72 W",
		"state": "MICHIGAN",
		"artcc": "ZAU",
		"type": "RNAV",
		"updated": "03/01/2011"
	},
	{
		"name": "NODEE",
		"latitude": "41-50-27.76 N",
		"longitude": "89-29-35.34 W",
		"state": "ILLINOIS",
		"artcc": "ZAU",
		"type": "RNAV",
		"updated": "07/28/2009"
	},
	{
		"name": "NOFWO",
		"latitude": "40-53-25.12 N",
		"longitude": "91-13-6.23 W",
		"state": "IOWA",
		"artcc": "ZAU",
		"type": "RNAV",
		"updated": "03/27/2018"
	},
	{
		"name": "NOGGN",
		"latitude": "41-58-56.68 N",
		"longitude": "88-28-37.37 W",
		"state": "ILLINOIS",
		"artcc": "ZAU",
		"type": "RNAV",
		"updated": "10/26/2009"
	},
	{
		"name": "NOJTE",
		"latitude": "40-58-54.33 N",
		"longitude": "86-50-42 W",
		"state": "INDIANA",
		"artcc": "ZAU",
		"type": "RNAV",
		"updated": "02/23/2016"
	},
	{
		"name": "NOKIZ",
		"latitude": "41-36-42.61 N",
		"longitude": "87-58-27.93 W",
		"state": "ILLINOIS",
		"artcc": "ZAU",
		"type": "RNAV",
		"updated": "06/27/2007"
	},
	{
		"name": "NOKLY",
		"latitude": "42-35-24.97 N",
		"longitude": "90-12-36.59 W",
		"state": "WISCONSIN",
		"artcc": "ZAU",
		"type": "RNAV",
		"updated": "06/28/2009"
	},
	{
		"name": "NOLEN",
		"latitude": "42-11-28.79 N",
		"longitude": "87-40-52.51 W",
		"state": "ILLINOIS",
		"artcc": "ZAU",
		"type": "RP",
		"updated": "ORD*VOR/DME*/15.78"
	},
	{
		"name": "NOMES",
		"latitude": "41-31-21.81 N",
		"longitude": "86-30-4.56 W",
		"state": "INDIANA",
		"artcc": "ZAU",
		"type": "RP",
		"updated": "GSH*VORTAC*269.76/21.33"
	},
	{
		"name": "NOMPE",
		"latitude": "40-29-0.92 N",
		"longitude": "85-26-35.12 W",
		"state": "INDIANA",
		"artcc": "ZID",
		"type": "RNAV",
		"updated": "01/21/2015"
	},
	{
		"name": "NOONY",
		"latitude": "42-2-47.71 N",
		"longitude": "88-48-30.4 W",
		"state": "ILLINOIS",
		"artcc": "ZAU",
		"type": "RNAV",
		"updated": "05/06/2013"
	},
	{
		"name": "NOPGE",
		"latitude": "43-59-18.26 N",
		"longitude": "90-19-3.37 W",
		"state": "WISCONSIN",
		"artcc": "ZAU",
		"type": "RNAV",
		"updated": "07/09/2012"
	},
	{
		"name": "NOPIC",
		"latitude": "43-8-40.68 N",
		"longitude": "90-20-53.92 W",
		"state": "WISCONSIN",
		"artcc": "ZAU",
		"type": "RNAV",
		"updated": "04/28/2015"
	},
	{
		"name": "NORIS",
		"latitude": "40-36-46.41 N",
		"longitude": "90-9-36.26 W",
		"state": "ILLINOIS",
		"artcc": "ZAU",
		"type": "RP",
		"updated": "BDF*VORTAC*218.64/41.87"
	},
	{
		"name": "NORNA",
		"latitude": "41-42-28.72 N",
		"longitude": "86-5-1.75 W",
		"state": "INDIANA",
		"artcc": "ZAU",
		"type": "RP",
		"updated": "GSH*VORTAC*347.11"
	},
	{
		"name": "NORPY",
		"latitude": "42-10-26.15 N",
		"longitude": "90-23-22.45 W",
		"state": "IOWA",
		"artcc": "ZAU",
		"type": "RNAV",
		"updated": "04/02/2012"
	},
	{
		"name": "NOVAC",
		"latitude": "42-46-24.76 N",
		"longitude": "87-55-27.81 W",
		"state": "WISCONSIN",
		"artcc": "ZAU",
		"type": "RP",
		"updated": "MKE*LD*191.16/11.53"
	},
	{
		"name": "NOWSO",
		"latitude": "41-31-19.43 N",
		"longitude": "90-21-22.56 W",
		"state": "ILLINOIS",
		"artcc": "ZAU",
		"type": "RP",
		"updated": "CVA*VORTAC*148.88/12.56"
	},
	{
		"name": "NOYIL",
		"latitude": "43-37-37.52 N",
		"longitude": "89-44-53.07 W",
		"state": "WISCONSIN",
		"artcc": "ZAU",
		"type": "RNAV",
		"updated": "06/14/2013"
	},
	{
		"name": "NOYIS",
		"latitude": "40-59-57.56 N",
		"longitude": "85-12-40.99 W",
		"state": "INDIANA",
		"artcc": "ZAU",
		"type": "RP",
		"updated": "FWA*VORTAC*318.90/1.61"
	},
	{
		"name": "NOYJU",
		"latitude": "41-12-10.23 N",
		"longitude": "85-3-24.61 W",
		"state": "INDIANA",
		"artcc": "ZAU",
		"type": "RNAV",
		"updated": "11/04/2015"
	},
	{
		"name": "NRMAH",
		"latitude": "41-58-56.62 N",
		"longitude": "87-18-6.08 W",
		"state": "ILLINOIS",
		"artcc": "ZAU",
		"type": "RP",
		"updated": "IAC*LD*093.00/26.15"
	},
	{
		"name": "NUBUE",
		"latitude": "42-38-34.43 N",
		"longitude": "89-52-3.65 W",
		"state": "WISCONSIN",
		"artcc": "ZAU",
		"type": "RNAV",
		"updated": "03/24/2009"
	},
	{
		"name": "NUBVE",
		"latitude": "43-23-48.11 N",
		"longitude": "88-24-28.22 W",
		"state": "WISCONSIN",
		"artcc": "ZAU",
		"type": "RNAV",
		"updated": "02/14/2010"
	},
	{
		"name": "NUELG",
		"latitude": "41-59-5.9 N",
		"longitude": "88-39-21.51 W",
		"state": "ILLINOIS",
		"artcc": "ZAU",
		"type": "RP",
		"updated": "DPA*VOR/DME*290.61/14.82"
	},
	{
		"name": "NUFYO",
		"latitude": "43-50-17.37 N",
		"longitude": "89-34-21.11 W",
		"state": "WISCONSIN",
		"artcc": "ZAU",
		"type": "RNAV",
		"updated": "04/10/2002"
	},
	{
		"name": "NUHLE",
		"latitude": "43-8-50.77 N",
		"longitude": "88-4-5.6 W",
		"state": "WISCONSIN",
		"artcc": "ZAU",
		"type": "RNAV",
		"updated": "04/27/2011"
	},
	{
		"name": "NUHTO",
		"latitude": "41-43-33.49 N",
		"longitude": "85-26-24.89 W",
		"state": "INDIANA",
		"artcc": "ZAU",
		"type": "RNAV",
		"updated": "09/24/2009"
	},
	{
		"name": "NUKIE",
		"latitude": "41-7-53 N",
		"longitude": "86-49-15 W",
		"state": "INDIANA",
		"artcc": "ZAU",
		"type": "RP",
		"updated": "OXI*VOR/DME*214.24/13.82"
	},
	{
		"name": "NUMIZ",
		"latitude": "41-56-0.26 N",
		"longitude": "88-30-56.34 W",
		"state": "ILLINOIS",
		"artcc": "ZAU",
		"type": "RNAV",
		"updated": "05/10/2010"
	},
	{
		"name": "NUNAE",
		"latitude": "43-59-59.1 N",
		"longitude": "88-18-4.28 W",
		"state": "WISCONSIN",
		"artcc": "ZAU",
		"type": "RNAV",
		"updated": "05/18/2016"
	},
	{
		"name": "NUNEF",
		"latitude": "43-36-52.02 N",
		"longitude": "88-37-10.79 W",
		"state": "WISCONSIN",
		"artcc": "ZAU",
		"type": "RNAV",
		"updated": "06/16/2008"
	},
	{
		"name": "NUPGE",
		"latitude": "42-0-16.4 N",
		"longitude": "85-4-53.79 W",
		"state": "MICHIGAN",
		"artcc": "ZAU",
		"type": "RP",
		"updated": "LFD*VOR/DME*261.31/14.57"
	},
	{
		"name": "NUPOR",
		"latitude": "41-47-0.05 N",
		"longitude": "91-34-32.81 W",
		"state": "IOWA",
		"artcc": "ZAU",
		"type": "WP",
		"updated": "CID*VOR/DME*118.50/11.30"
	},
	{
		"name": "NUTGE",
		"latitude": "41-41-23.36 N",
		"longitude": "90-31-46.75 W",
		"state": "IOWA",
		"artcc": "ZAU",
		"type": "RNAV",
		"updated": "01/30/2011"
	},
	{
		"name": "NUTLE",
		"latitude": "42-0-20.12 N",
		"longitude": "89-41-47.54 W",
		"state": "ILLINOIS",
		"artcc": "ZAU",
		"type": "RNAV",
		"updated": "05/06/2013"
	},
	{
		"name": "NUTSE",
		"latitude": "40-18-15.39 N",
		"longitude": "90-4-6.6 W",
		"state": "ILLINOIS",
		"artcc": "ZAU",
		"type": "RNAV",
		"updated": "07/28/2009"
	},
	{
		"name": "NUVCI",
		"latitude": "40-39-58.23 N",
		"longitude": "90-4-16.87 W",
		"state": "ILLINOIS",
		"artcc": "ZAU",
		"type": "RNAV",
		"updated": "01/10/2013"
	},
	{
		"name": "NUVIC",
		"latitude": "41-31-7.94 N",
		"longitude": "86-39-44.56 W",
		"state": "INDIANA",
		"artcc": "ZAU",
		"type": "RNAV",
		"updated": "08/07/2008"
	},
	{
		"name": "NUVIE",
		"latitude": "40-1-44.33 N",
		"longitude": "86-10-54.51 W",
		"state": "INDIANA",
		"artcc": "ZAU",
		"type": "RNAV",
		"updated": "06/18/2012"
	},
	{
		"name": "NUVIY",
		"latitude": "40-0-10.29 N",
		"longitude": "88-13-44.67 W",
		"state": "ILLINOIS",
		"artcc": "ZAU",
		"type": "RNAV",
		"updated": "01/27/2015"
	},
	{
		"name": "NUXMU",
		"latitude": "43-4-20.76 N",
		"longitude": "89-14-37.24 W",
		"state": "WISCONSIN",
		"artcc": "ZAU",
		"type": "RNAV",
		"updated": "03/28/2011"
	},
	{
		"name": "NUXOE",
		"latitude": "40-33-47.24 N",
		"longitude": "90-2-59.39 W",
		"state": "ILLINOIS",
		"artcc": "ZAU",
		"type": "RNAV",
		"updated": "07/28/2009"
	},
	{
		"name": "NUYIB",
		"latitude": "41-38-13.36 N",
		"longitude": "91-32-55.88 W",
		"state": "IOWA",
		"artcc": "ZAU",
		"type": "RP",
		"updated": "IOW*VOR/DME*017.29/7.65"
	},
	{
		"name": "NYLEN",
		"latitude": "40-52-0 N",
		"longitude": "85-49-0 W",
		"state": "INDIANA",
		"artcc": "ZAU",
		"type": "RNAV",
		"updated": "08/27/2013"
	}
]
