	{
		"name": "OAKER",
		"latitude": "41-9-13.65 N",
		"longitude": "92-25-53.45 W",
		"state": "IOWA",
		"artcc": "ZAU",
		"type": "RP",
		"updated": "OTM*VOR/DME*321.38/8.88",
	},
	{
		"name": "OBENE",
		"latitude": "41-51-0.41 N",
		"longitude": "89-43-12.57 W",
		"state": "ILLINOIS",
		"artcc": "ZAU",
		"type": "RNAV",
		"updated": "08/26/2013",
	},
	{
		"name": "OBGOE",
		"latitude": "41-8-44.67 N",
		"longitude": "87-46-16.51 W",
		"state": "ILLINOIS",
		"artcc": "ZAU",
		"type": "RNAV",
		"updated": "03/21/2013",
	},
	{
		"name": "OBLUE",
		"latitude": "41-21-6.49 N",
		"longitude": "88-50-11.71 W",
		"state": "ILLINOIS",
		"artcc": "ZAU",
		"type": "RNAV",
		"updated": "07/28/2009",
	},
	{
		"name": "OBMUY",
		"latitude": "41-52-39.69 N",
		"longitude": "85-21-35.15 W",
		"state": "MICHIGAN",
		"artcc": "ZAU",
		"type": "RNAV",
		"updated": "06/19/2000",
	},
	{
		"name": "OBOLE",
		"latitude": "42-2-20.28 N",
		"longitude": "87-47-51.87 W",
		"state": "ILLINOIS",
		"artcc": "ZAU",
		"type": "RNAV",
		"updated": "11/27/2001",
	},
	{
		"name": "OBOPY",
		"latitude": "40-27-49.66 N",
		"longitude": "86-40-12.99 W",
		"state": "INDIANA",
		"artcc": "ZAU",
		"type": "RNAV",
		"updated": "02/23/2007",
	},
	{
		"name": "OBOTE",
		"latitude": "42-42-20.05 N",
		"longitude": "90-23-3.07 W",
		"state": "WISCONSIN",
		"artcc": "ZAU",
		"type": "RNAV",
		"updated": "06/28/2009",
	},
	{
		"name": "OCARA",
		"latitude": "43-12-15.19 N",
		"longitude": "89-44-57.8 W",
		"state": "WISCONSIN",
		"artcc": "ZAU",
		"type": "RNAV",
		"updated": "10/05/2007",
	},
	{
		"name": "OCAVE",
		"latitude": "41-27-9.11 N",
		"longitude": "87-7-37.16 W",
		"state": "INDIANA",
		"artcc": "ZAU",
		"type": "RNAV",
		"updated": "12/12/2007",
	},
	{
		"name": "OCCHO",
		"latitude": "41-9-29.21 N",
		"longitude": "89-24-59.21 W",
		"state": "ILLINOIS",
		"artcc": "ZAU",
		"type": "RNAV",
		"updated": "08/19/2015",
	},
	{
		"name": "OCEBE",
		"latitude": "42-53-5.97 N",
		"longitude": "87-48-37.1 W",
		"state": "WISCONSIN",
		"artcc": "ZAU",
		"type": "RNAV",
		"updated": "11/06/2013",
	},
	{
		"name": "OCEDO",
		"latitude": "41-17-34.16 N",
		"longitude": "87-57-0.67 W",
		"state": "ILLINOIS",
		"artcc": "ZAU",
		"type": "RP",
		"updated": "EON*VORTAC*278.98/7.33",
	},
	{
		"name": "OCIRU",
		"latitude": "41-58-38.06 N",
		"longitude": "88-40-59.66 W",
		"state": "ILLINOIS",
		"artcc": "ZAU",
		"type": "RNAV",
		"updated": "08/07/2008",
	},
	{
		"name": "OCKEL",
		"latitude": "40-16-42.93 N",
		"longitude": "86-43-12.22 W",
		"state": "INDIANA",
		"artcc": "ZAU",
		"type": "RP",
		"updated": "OKK*VORTAC*249.00",
	},
	{
		"name": "OCOSI",
		"latitude": "42-16-29.81 N",
		"longitude": "85-35-15.98 W",
		"state": "MICHIGAN",
		"artcc": "ZAU",
		"type": "RNAV",
		"updated": "01/31/2011",
	},
	{
		"name": "OCTOE",
		"latitude": "40-7-17.43 N",
		"longitude": "88-2-12.71 W",
		"state": "ILLINOIS",
		"artcc": "ZAU",
		"type": "RP",
		"updated": "RBS*VOR/DME*166.00/28.20",
	},
	{
		"name": "OCUCI",
		"latitude": "41-27-35.87 N",
		"longitude": "91-23-53.11 W",
		"state": "IOWA",
		"artcc": "ZAU",
		"type": "RNAV",
		"updated": "11/25/2008",
	},
	{
		"name": "OCURE",
		"latitude": "40-39-41.62 N",
		"longitude": "85-42-17.81 W",
		"state": "INDIANA",
		"artcc": "ZAU",
		"type": "RNAV",
		"updated": "06/24/2016",
	},
	{
		"name": "ODELE",
		"latitude": "43-9-20.02 N",
		"longitude": "85-29-18.13 W",
		"state": "MICHIGAN",
		"artcc": "ZAU",
		"type": "RNAV",
		"updated": "07/15/2005",
	},
	{
		"name": "ODELL",
		"latitude": "40-59-10.33 N",
		"longitude": "88-32-53.37 W",
		"state": "ILLINOIS",
		"artcc": "ZAU",
		"type": "RP",
		"updated": "RBS*VOR/DME*322.32",
	},
	{
		"name": "ODJIC",
		"latitude": "43-8-24.93 N",
		"longitude": "85-15-17.38 W",
		"state": "MICHIGAN",
		"artcc": "ZAU",
		"type": "RP",
		"updated": "VIO*VOR/DME*030.63/23.74",
	},
	{
		"name": "ODJIR",
		"latitude": "42-39-29.51 N",
		"longitude": "88-35-55.83 W",
		"state": "WISCONSIN",
		"artcc": "ZAU",
		"type": "RNAV",
		"updated": "08/03/2011",
	},
	{
		"name": "ODOWY",
		"latitude": "40-38-24.51 N",
		"longitude": "88-1-8.78 W",
		"state": "ILLINOIS",
		"artcc": "ZAU",
		"type": "RNAV",
		"updated": "05/19/2010",
	},
	{
		"name": "ODOYO",
		"latitude": "40-31-10.19 N",
		"longitude": "90-32-3.25 W",
		"state": "ILLINOIS",
		"artcc": "ZAU",
		"type": "RNAV",
		"updated": "01/10/2013",
	},
	{
		"name": "ODOZO",
		"latitude": "40-46-19.18 N",
		"longitude": "91-23-27.94 W",
		"state": "IOWA",
		"artcc": "ZAU",
		"type": "RNAV",
		"updated": "08/11/2010",
	},
	{
		"name": "OFAGO",
		"latitude": "42-48-35.39 N",
		"longitude": "89-15-50.69 W",
		"state": "WISCONSIN",
		"artcc": "ZAU",
		"type": "RNAV",
		"updated": "06/13/2011",
	},
	{
		"name": "OFIHO",
		"latitude": "43-17-12.25 N",
		"longitude": "90-26-20.56 W",
		"state": "WISCONSIN",
		"artcc": "ZAU",
		"type": "RNAV",
		"updated": "07/31/2017",
	},
	{
		"name": "OFKEQ",
		"latitude": "41-12-58.54 N",
		"longitude": "92-53-29.11 W",
		"state": "IOWA",
		"artcc": "ZAU",
		"type": "RNAV",
		"updated": "10/06/2008",
	},
	{
		"name": "OGALE",
		"latitude": "41-24-9 N",
		"longitude": "93-28-53 W",
		"state": "IOWA",
		"artcc": "ZAU",
		"type": "RNAV",
		"updated": "08/26/2013",
	},
	{
		"name": "OGECA",
		"latitude": "42-38-24.55 N",
		"longitude": "92-5-1.07 W",
		"state": "IOWA",
		"artcc": "ZAU",
		"type": "RNAV",
		"updated": "04/01/2014",
	},
	{
		"name": "OGJAJ",
		"latitude": "42-27-31.32 N",
		"longitude": "92-25-16.61 W",
		"state": "IOWA",
		"artcc": "ZAU",
		"type": "RNAV",
		"updated": "12/13/2001",
	},
	{
		"name": "OGREY",
		"latitude": "40-22-53.37 N",
		"longitude": "86-41-16.24 W",
		"state": "INDIANA",
		"artcc": "ZAU",
		"type": "RNAV",
		"updated": "02/23/2007",
	},
	{
		"name": "OGSIE",
		"latitude": "42-0-10.07 N",
		"longitude": "88-0-1.6 W",
		"state": "ILLINOIS",
		"artcc": "ZAU",
		"type": "RP",
		"updated": "OBK*VOR/DME*191.46",
	},
	{
		"name": "OGUYU",
		"latitude": "43-15-26.92 N",
		"longitude": "89-56-2.87 W",
		"state": "WISCONSIN",
		"artcc": "ZAU",
		"type": "RP",
		"updated": "LNR*VOR/DME*104.18/9.00",
	},
	{
		"name": "OHBEF",
		"latitude": "41-47-5.54 N",
		"longitude": "92-16-41.58 W",
		"state": "IOWA",
		"artcc": "ZAU",
		"type": "RNAV",
		"updated": "03/19/2012",
	},
	{
		"name": "OHEGI",
		"latitude": "43-44-4.23 N",
		"longitude": "88-29-6.79 W",
		"state": "WISCONSIN",
		"artcc": "ZAU",
		"type": "RP",
		"updated": "FLD*LE*181.99/2.78",
	},
	{
		"name": "OHGEE",
		"latitude": "40-49-6.04 N",
		"longitude": "93-8-24.11 W",
		"state": "IOWA",
		"artcc": "ZAU",
		"type": "RP",
		"updated": "IRK*VORTAC*322.68/48.05",
	},
	{
		"name": "OHLIE",
		"latitude": "42-43-32.94 N",
		"longitude": "90-11-50.75 W",
		"state": "WISCONSIN",
		"artcc": "ZAU",
		"type": "RNAV",
		"updated": "04/01/2014",
	},
	{
		"name": "OHOCY",
		"latitude": "41-14-12.77 N",
		"longitude": "85-3-38.72 W",
		"state": "INDIANA",
		"artcc": "ZAU",
		"type": "RNAV",
		"updated": "11/17/2010",
	},
	{
		"name": "OHURY",
		"latitude": "41-41-32.43 N",
		"longitude": "86-14-38.84 W",
		"state": "INDIANA",
		"artcc": "ZAU",
		"type": "RNAV",
		"updated": "11/18/2016",
	},
	{
		"name": "OJANA",
		"latitude": "43-38-8.3 N",
		"longitude": "85-59-53.8 W",
		"state": "MICHIGAN",
		"artcc": "ZAU",
		"type": "RNAV",
		"updated": "08/16/2007",
	},
	{
		"name": "OJHED",
		"latitude": "40-45-46.97 N",
		"longitude": "85-14-39.42 W",
		"state": "INDIANA",
		"artcc": "ZAU",
		"type": "RNAV",
		"updated": "12/31/2002",
	},
	{
		"name": "OKDOE",
		"latitude": "44-5-52.1 N",
		"longitude": "88-32-14.89 W",
		"state": "WISCONSIN",
		"artcc": "ZAU",
		"type": "RNAV",
		"updated": "10/15/2008",
	},
	{
		"name": "OKLIE",
		"latitude": "43-3-0.49 N",
		"longitude": "86-4-51.58 W",
		"state": "MICHIGAN",
		"artcc": "ZAU",
		"type": "RNAV",
		"updated": "09/25/2002",
	},
	{
		"name": "OKSEJ",
		"latitude": "42-43-12.31 N",
		"longitude": "92-8-34.93 W",
		"state": "IOWA",
		"artcc": "ZAU",
		"type": "RNAV",
		"updated": "12/13/2001",
	},
	{
		"name": "OLABE",
		"latitude": "41-48-26.99 N",
		"longitude": "90-20-50.51 W",
		"state": "IOWA",
		"artcc": "ZAU",
		"type": "RP",
		"updated": "FNO*LD*209.65/2.42",
	},
	{
		"name": "OLBOE",
		"latitude": "42-27-55.34 N",
		"longitude": "87-48-0.4 W",
		"state": "ILLINOIS",
		"artcc": "ZAU",
		"type": "RNAV",
		"updated": "05/31/2005",
	},
	{
		"name": "OLCER",
		"latitude": "40-49-30.29 N",
		"longitude": "85-55-24.81 W",
		"state": "INDIANA",
		"artcc": "ZAU",
		"type": "MR",
		"updated": "GUS*VORTAC*045.85/15.00",
	},
	{
		"name": "OLCYK",
		"latitude": "41-32-24.69 N",
		"longitude": "87-36-16.06 W",
		"state": "ILLINOIS",
		"artcc": "ZAU",
		"type": "RNAV",
		"updated": "05/02/2013",
	},
	{
		"name": "OLIDE",
		"latitude": "40-39-34.16 N",
		"longitude": "88-49-59.17 W",
		"state": "ILLINOIS",
		"artcc": "ZAU",
		"type": "RP",
		"updated": "RBS*VOR/DME*276.90",
	},
	{
		"name": "OLIGY",
		"latitude": "43-16-26.64 N",
		"longitude": "87-52-15.28 W",
		"state": "WISCONSIN",
		"artcc": "ZAU",
		"type": "RNAV",
		"updated": "04/27/2011",
	},
	{
		"name": "OLINN",
		"latitude": "41-54-47.84 N",
		"longitude": "88-48-30.4 W",
		"state": "ILLINOIS",
		"artcc": "ZAU",
		"type": "RNAV",
		"updated": "05/06/2013",
	},
	{
		"name": "OLLGA",
		"latitude": "41-56-28.92 N",
		"longitude": "88-22-17.38 W",
		"state": "ILLINOIS",
		"artcc": "ZAU",
		"type": "RP",
		"updated": "BYW*LD*271.36/21.54",
	},
	{
		"name": "OLLIS",
		"latitude": "41-6-11.28 N",
		"longitude": "93-21-51.44 W",
		"state": "IOWA",
		"artcc": "ZAU",
		"type": "RNAV",
		"updated": "02/27/2012",
	},
	{
		"name": "OLOXE",
		"latitude": "41-44-59.78 N",
		"longitude": "87-47-46.74 W",
		"state": "ILLINOIS",
		"artcc": "ZAU",
		"type": "RP",
		"updated": "HKH*LD*227.48/2.67",
	},
	{
		"name": "OMETY",
		"latitude": "43-25-4.95 N",
		"longitude": "90-55-24.69 W",
		"state": "WISCONSIN",
		"artcc": "ZAU",
		"type": "RNAV",
		"updated": "07/31/2017",
	},
	{
		"name": "OMOGE",
		"latitude": "43-3-47.95 N",
		"longitude": "87-52-29.63 W",
		"state": "WISCONSIN",
		"artcc": "ZAU",
		"type": "RP",
		"updated": "LJT*VOR/DME*113.27",
	},
	{
		"name": "OMONE",
		"latitude": "42-46-15.52 N",
		"longitude": "89-23-55.29 W",
		"state": "WISCONSIN",
		"artcc": "ZAU",
		"type": "RP",
		"updated": "JVL*VOR/DME*311.62/18.22",
	},
	{
		"name": "OMTOE",
		"latitude": "42-53-20.33 N",
		"longitude": "88-7-20.23 W",
		"state": "WISCONSIN",
		"artcc": "ZAU",
		"type": "RNAV",
		"updated": "08/06/2003",
	},
	{
		"name": "ONAMY",
		"latitude": "40-25-38.41 N",
		"longitude": "87-3-38.58 W",
		"state": "INDIANA",
		"artcc": "ZAU",
		"type": "RNAV",
		"updated": "02/23/2007",
	},
	{
		"name": "ONEID",
		"latitude": "41-4-31.66 N",
		"longitude": "90-18-40.66 W",
		"state": "ILLINOIS",
		"artcc": "ZAU",
		"type": "RP",
		"updated": "MZV*VOR/DME*129.72/20.88",
	},
	{
		"name": "ONTUE",
		"latitude": "43-13-47.64 N",
		"longitude": "86-6-37.14 W",
		"state": "MICHIGAN",
		"artcc": "ZAU",
		"type": "RP",
		"updated": "CJH*LD*060.39/7.58",
	},
	{
		"name": "ONWAD",
		"latitude": "40-41-21.78 N",
		"longitude": "86-6-54.24 W",
		"state": "INDIANA",
		"artcc": "ZAU",
		"type": "RP",
		"updated": "GUS*VORTAC*034.09",
	},
	{
		"name": "OOPLA",
		"latitude": "41-40-8.2 N",
		"longitude": "87-59-44.29 W",
		"state": "ILLINOIS",
		"artcc": "ZAU",
		"type": "RNAV",
		"updated": "05/16/2013",
	},
	{
		"name": "OPBEK",
		"latitude": "42-0-52.18 N",
		"longitude": "88-47-12.9 W",
		"state": "ILLINOIS",
		"artcc": "ZAU",
		"type": "RNAV",
		"updated": "07/20/2009",
	},
	{
		"name": "OPDUY",
		"latitude": "41-50-0.43 N",
		"longitude": "92-30-0.06 W",
		"state": "IOWA",
		"artcc": "ZAU",
		"type": "RP",
		"updated": "TNU*VOR/DME*080.58/27.49",
	},
	{
		"name": "OPECU",
		"latitude": "41-48-29.79 N",
		"longitude": "87-43-20.71 W",
		"state": "ILLINOIS",
		"artcc": "ZAU",
		"type": "RNAV",
		"updated": "01/12/2006",
	},
	{
		"name": "OPHAW",
		"latitude": "41-53-6.34 N",
		"longitude": "91-46-1.55 W",
		"state": "IOWA",
		"artcc": "ZAU",
		"type": "RP",
		"updated": "CID*VOR/DME*/0.85",
	},
	{
		"name": "OPIKE",
		"latitude": "41-55-44.81 N",
		"longitude": "88-27-42.82 W",
		"state": "ILLINOIS",
		"artcc": "ZAU",
		"type": "RNAV",
		"updated": "08/07/2008",
	},
	{
		"name": "OPOBY",
		"latitude": "41-5-10.15 N",
		"longitude": "85-3-25.01 W",
		"state": "INDIANA",
		"artcc": "ZAU",
		"type": "RNAV",
		"updated": "11/04/2015",
	},
	{
		"name": "OPOTE",
		"latitude": "40-28-46.19 N",
		"longitude": "89-18-48.25 W",
		"state": "ILLINOIS",
		"artcc": "ZAU",
		"type": "RP",
		"updated": "PNT*VOR/DME*229.46",
	},
	{
		"name": "OPPIE",
		"latitude": "40-8-28.69 N",
		"longitude": "86-50-36.64 W",
		"state": "INDIANA",
		"artcc": "ZAU",
		"type": "RNAV",
		"updated": "01/12/2015",
	},
	{
		"name": "OQAKY",
		"latitude": "40-50-59.01 N",
		"longitude": "85-20-58.22 W",
		"state": "INDIANA",
		"artcc": "ZAU",
		"type": "RNAV",
		"updated": "12/31/2002",
	},
	{
		"name": "OQXUQ",
		"latitude": "40-30-0.32 N",
		"longitude": "86-1-9.68 W",
		"state": "INDIANA",
		"artcc": "ZAU",
		"type": "RNAV",
		"updated": "08/05/2013",
	},
	{
		"name": "ORANJ",
		"latitude": "40-14-55.2 N",
		"longitude": "88-23-26.62 W",
		"state": "ILLINOIS",
		"artcc": "ZAU",
		"type": "RNAV",
		"updated": "08/17/2010",
	},
	{
		"name": "ORARE",
		"latitude": "42-0-33.73 N",
		"longitude": "90-30-10.7 W",
		"state": "IOWA",
		"artcc": "ZAU",
		"type": "RNAV",
		"updated": "06/06/2012",
	},
	{
		"name": "OREOS",
		"latitude": "41-54-0.76 N",
		"longitude": "89-12-33.43 W",
		"state": "ILLINOIS",
		"artcc": "ZAU",
		"type": "RNAV",
		"updated": "08/26/2013",
	},
	{
		"name": "OREVY",
		"latitude": "42-24-39.57 N",
		"longitude": "91-17-25.36 W",
		"state": "IOWA",
		"artcc": "ZAU",
		"type": "RNAV",
		"updated": "08/10/2011",
	},
	{
		"name": "ORIEN",
		"latitude": "43-1-20.45 N",
		"longitude": "85-3-18.93 W",
		"state": "MICHIGAN",
		"artcc": "ZAU",
		"type": "RP",
		"updated": "VIO*VOR/DME*057.89/24.07",
	},
	{
		"name": "ORMEE",
		"latitude": "43-53-31.19 N",
		"longitude": "88-3-38.48 W",
		"state": "WISCONSIN",
		"artcc": "ZAU",
		"type": "RNAV",
		"updated": "09/23/2004",
	},
	{
		"name": "OSBER",
		"latitude": "40-45-8.87 N",
		"longitude": "84-48-28.67 W",
		"state": "INDIANA",
		"artcc": "ZAU",
		"type": "RP",
		"updated": "FWA*VORTAC*134.02/22.00",
	},
	{
		"name": "OSEGO",
		"latitude": "42-27-30.61 N",
		"longitude": "85-35-51.38 W",
		"state": "MICHIGAN",
		"artcc": "ZAU",
		"type": "RP",
		"updated": "PMM*VOR/DME*090.98/22.53",
	},
	{
		"name": "OSHOB",
		"latitude": "41-5-27.88 N",
		"longitude": "85-14-15.11 W",
		"state": "INDIANA",
		"artcc": "ZAU",
		"type": "RNAV",
		"updated": "11/17/2010",
	},
	{
		"name": "OSIXE",
		"latitude": "40-27-7.88 N",
		"longitude": "86-1-51.09 W",
		"state": "INDIANA",
		"artcc": "ZAU",
		"type": "RNAV",
		"updated": "07/26/2012",
	},
	{
		"name": "OSJOG",
		"latitude": "40-16-21.22 N",
		"longitude": "86-26-29.83 W",
		"state": "INDIANA",
		"artcc": "ZAU",
		"type": "RNAV",
		"updated": "07/10/2013",
	},
	{
		"name": "OSLIE",
		"latitude": "41-39-38.96 N",
		"longitude": "86-39-21.64 W",
		"state": "INDIANA",
		"artcc": "ZAU",
		"type": "RNAV",
		"updated": "08/06/2012",
	},
	{
		"name": "OSOCI",
		"latitude": "40-28-12.35 N",
		"longitude": "86-46-43.83 W",
		"state": "INDIANA",
		"artcc": "ZAU",
		"type": "RNAV",
		"updated": "09/10/2012",
	},
	{
		"name": "OSWAB",
		"latitude": "40-16-21.62 N",
		"longitude": "86-40-42.77 W",
		"state": "INDIANA",
		"artcc": "ZAU",
		"type": "RNAV",
		"updated": "07/10/2013",
	},
	{
		"name": "OTALE",
		"latitude": "41-42-2.93 N",
		"longitude": "90-39-37.72 W",
		"state": "IOWA",
		"artcc": "ZAU",
		"type": "RP",
		"updated": "DBQ*VORTAC*173.02/42.08",
	},
	{
		"name": "OTATE",
		"latitude": "41-33-17.47 N",
		"longitude": "86-5-39.37 W",
		"state": "INDIANA",
		"artcc": "ZAU",
		"type": "RNAV",
		"updated": "11/18/2016",
	},
	{
		"name": "OTENS",
		"latitude": "41-39-59.6 N",
		"longitude": "84-47-0 W",
		"state": "MICHIGAN",
		"artcc": "ZAU",
		"type": "RP",
		"updated": "LFD*VOR/DME*186.97/23.76",
	},
	{
		"name": "OTEPY",
		"latitude": "43-4-58.36 N",
		"longitude": "88-3-44.2 W",
		"state": "WISCONSIN",
		"artcc": "ZAU",
		"type": "RNAV",
		"updated": "06/10/2011",
	},
	{
		"name": "OTLEE",
		"latitude": "42-45-49.46 N",
		"longitude": "88-52-1.55 W",
		"state": "WISCONSIN",
		"artcc": "ZAU",
		"type": "RNAV",
		"updated": "04/05/2010",
	},
	{
		"name": "OTRIW",
		"latitude": "43-2-21.22 N",
		"longitude": "89-20-59.16 W",
		"state": "WISCONSIN",
		"artcc": "ZAU",
		"type": "MR",
		"updated": "MSN*VORTAC*181.00/6.35",
	},
	{
		"name": "OTTEN",
		"latitude": "41-26-48.2 N",
		"longitude": "90-22-26.62 W",
		"state": "ILLINOIS",
		"artcc": "ZAU",
		"type": "RNAV",
		"updated": "01/05/2012",
	},
	{
		"name": "OTTNS",
		"latitude": "41-3-47.12 N",
		"longitude": "89-9-0.84 W",
		"state": "ILLINOIS",
		"artcc": "ZAU",
		"type": "RP",
		"updated": "PNT*VOR/DME*304.57",
	},
	{
		"name": "OVAPE",
		"latitude": "41-42-24.7 N",
		"longitude": "89-41-41.54 W",
		"state": "ILLINOIS",
		"artcc": "ZAU",
		"type": "RNAV",
		"updated": "05/06/2011",
	},
	{
		"name": "OWENA",
		"latitude": "41-20-41.23 N",
		"longitude": "89-11-38.13 W",
		"state": "ILLINOIS",
		"artcc": "ZAU",
		"type": "RP",
		"updated": "PNT*VOR/DME*323.51",
	},
	{
		"name": "OWOZA",
		"latitude": "42-43-8.47 N",
		"longitude": "88-12-4.63 W",
		"state": "WISCONSIN",
		"artcc": "ZAU",
		"type": "RNAV",
		"updated": "01/02/2003",
	},
	{
		"name": "OWYAL",
		"latitude": "43-2-34.46 N",
		"longitude": "88-6-7.51 W",
		"state": "WISCONSIN",
		"artcc": "ZAU",
		"type": "RNAV",
		"updated": "06/10/2011",
	},
	{
		"name": "OWYOS",
		"latitude": "41-16-6.98 N",
		"longitude": "91-40-37.29 W",
		"state": "IOWA",
		"artcc": "ZAU",
		"type": "RP",
		"updated": "IOW*VOR/DME*185.88/15.29",
	},
	{
		"name": "OXFAT",
		"latitude": "40-47-19.34 N",
		"longitude": "87-11-25.07 W",
		"state": "INDIANA",
		"artcc": "ZAU",
		"type": "RP",
		"updated": "OXI*VOR/DME*217.70",
	},
	{
		"name": "OXIWE",
		"latitude": "43-27-17.87 N",
		"longitude": "85-4-17.07 W",
		"state": "MICHIGAN",
		"artcc": "ZAU",
		"type": "RNAV",
		"updated": "07/15/2015",
	},
	{
		"name": "OXWUS",
		"latitude": "42-56-22.22 N",
		"longitude": "85-48-26.88 W",
		"state": "MICHIGAN",
		"artcc": "ZAU",
		"type": "RNAV",
		"updated": "02/18/2011",
	},
	{
		"name": "OYIDU",
		"latitude": "41-1-17.15 N",
		"longitude": "85-32-8.83 W",
		"state": "INDIANA",
		"artcc": "ZAU",
		"type": "RP",
		"updated": "FWA*VORTAC*285.25/16.00",
	},
	{
		"name": "OYIPI",
		"latitude": "41-3-11.94 N",
		"longitude": "86-7-18.86 W",
		"state": "INDIANA",
		"artcc": "ZAU",
		"type": "RNAV",
		"updated": "08/07/2008",
	},
	{
		"name": "OYKUH",
		"latitude": "41-0-41.31 N",
		"longitude": "92-32-41.47 W",
		"state": "IOWA",
		"artcc": "ZAU",
		"type": "RP",
		"updated": "OTM*VOR/DME*258.00/10.00",
	},
	{
		"name": "OYTOV",
		"latitude": "41-53-33.06 N",
		"longitude": "93-20-10.14 W",
		"state": "IOWA",
		"artcc": "ZAU",
		"type": "RNAV",
		"updated": "04/04/2010",
	},
	{
		"name": "OYUYA",
		"latitude": "41-52-3.81 N",
		"longitude": "90-18-5.42 W",
		"state": "IOWA",
		"artcc": "ZAU",
		"type": "RNAV",
		"updated": "06/06/2012",
	},
	{
		"name": "OZAUK",
		"latitude": "42-32-4.26 N",
		"longitude": "87-37-54.79 W",
		"state": "WISCONSIN",
		"artcc": "ZAU",
		"type": "RNAV",
		"updated": "04/01/2014",
	},
	{
		"name": "OZMIX",
		"latitude": "43-2-40.3 N",
		"longitude": "89-20-45.08 W",
		"state": "WISCONSIN",
		"artcc": "ZAU",
		"type": "RP",
		"updated": "MSN*LD*184.94",
	},
	{
		"name": "OZRAN",
		"latitude": "43-10-50.07 N",
		"longitude": "89-30-55.72 W",
		"state": "WISCONSIN",
		"artcc": "ZAU",
		"type": "RNAV",
		"updated": "05/24/2016",
	},
	{
		"name": "OZZEY",
		"latitude": "41-23-57 N",
		"longitude": "86-56-0.6 W",
		"state": "INDIANA",
		"artcc": "ZAU",
		"type": "RNAV",
		"updated": "01/18/2007",
	},
