	{
		"name": "PABVE",
		"latitude": "41-52-0.06 N",
		"longitude": "89-23-13.36 W",
		"state": "ILLINOIS",
		"artcc": "ZAU",
		"type": "RNAV",
		"updated": "07/28/2009",
	},
	{
		"name": "PACAF",
		"latitude": "41-57-16.54 N",
		"longitude": "89-56-29.61 W",
		"state": "ILLINOIS",
		"artcc": "ZAU",
		"type": "RP",
		"updated": "PLL*VOR/DME*265.11/18.69",
	},
	{
		"name": "PACOV",
		"latitude": "42-53-41.84 N",
		"longitude": "89-21-9.64 W",
		"state": "WISCONSIN",
		"artcc": "ZAU",
		"type": "RP",
		"updated": "JVL*VOR/DME*328.65/22.98",
	},
	{
		"name": "PADAE",
		"latitude": "40-19-7.07 N",
		"longitude": "89-57-40.29 W",
		"state": "ILLINOIS",
		"artcc": "ZAU",
		"type": "RNAV",
		"updated": "07/28/2009",
	},
	{
		"name": "PADBE",
		"latitude": "43-6-14.52 N",
		"longitude": "86-8-54.47 W",
		"state": "MICHIGAN",
		"artcc": "ZAU",
		"type": "RP",
		"updated": "MKG*LD*141.40/5.93",
	},
	{
		"name": "PADKE",
		"latitude": "41-39-25.46 N",
		"longitude": "87-29-31.08 W",
		"state": "INDIANA",
		"artcc": "ZAU",
		"type": "RNAV",
		"updated": "04/14/2015",
	},
	{
		"name": "PADLL",
		"latitude": "40-35-3.73 N",
		"longitude": "89-46-3.78 W",
		"state": "ILLINOIS",
		"artcc": "ZAU",
		"type": "RP",
		"updated": "PIA*VORTAC*164.72",
	},
	{
		"name": "PAITN",
		"latitude": "42-33-39.71 N",
		"longitude": "86-43-21.38 W",
		"state": "MICHIGAN",
		"artcc": "ZAU",
		"type": "RP",
		"updated": "VIO*VOR/DME*260.40/55.91",
	},
	{
		"name": "PAKLE",
		"latitude": "41-36-14.01 N",
		"longitude": "87-49-56.14 W",
		"state": "ILLINOIS",
		"artcc": "ZAU",
		"type": "RNAV",
		"updated": "09/25/2002",
	},
	{
		"name": "PALID",
		"latitude": "42-1-43.68 N",
		"longitude": "88-27-42.4 W",
		"state": "ILLINOIS",
		"artcc": "ZAU",
		"type": "RP",
		"updated": "DPA*VOR/DME*327.00/9.69",
	},
	{
		"name": "PALIE",
		"latitude": "42-1-9.86 N",
		"longitude": "87-52-19.9 W",
		"state": "ILLINOIS",
		"artcc": "ZAU",
		"type": "RP",
		"updated": "ORD*VOR/DME*/2.40",
	},
	{
		"name": "PAMME",
		"latitude": "42-11-57.91 N",
		"longitude": "87-56-50.06 W",
		"state": "ILLINOIS",
		"artcc": "ZAU",
		"type": "RP",
		"updated": "PWK*LS*N CRS",
	},
	{
		"name": "PANGG",
		"latitude": "41-31-30.03 N",
		"longitude": "86-4-20.39 W",
		"state": "INDIANA",
		"artcc": "ZAU",
		"type": "RNAV",
		"updated": "05/02/2013",
	},
	{
		"name": "PANSE",
		"latitude": "41-1-9.73 N",
		"longitude": "91-58-47.42 W",
		"state": "IOWA",
		"artcc": "ZAU",
		"type": "RNAV",
		"updated": "01/22/2007",
	},
	{
		"name": "PANUE",
		"latitude": "41-36-22.64 N",
		"longitude": "87-39-30.78 W",
		"state": "ILLINOIS",
		"artcc": "ZAU",
		"type": "RNAV",
		"updated": "09/25/2002",
	},
	{
		"name": "PAPME",
		"latitude": "40-7-32.8 N",
		"longitude": "87-38-56.78 W",
		"state": "ILLINOIS",
		"artcc": "ZAU",
		"type": "RNAV",
		"updated": "06/27/2007",
	},
	{
		"name": "PAPOW",
		"latitude": "42-28-3.16 N",
		"longitude": "89-19-14.46 W",
		"state": "ILLINOIS",
		"artcc": "ZAU",
		"type": "RP",
		"updated": "JVL*VOR/DME*237.49/10.99",
	},
	{
		"name": "PAPPI",
		"latitude": "42-16-11.9 N",
		"longitude": "87-36-25.93 W",
		"state": "ILLINOIS",
		"artcc": "ZAU",
		"type": "RP",
		"updated": "ORD*VOR/DME*036.03/21.52",
	},
	{
		"name": "PARKR",
		"latitude": "42-3-30.83 N",
		"longitude": "88-23-1.89 W",
		"state": "ILLINOIS",
		"artcc": "ZAU",
		"type": "RP",
		"updated": "DPA*VOR/DME*349.51/10.20",
	},
	{
		"name": "PARRS",
		"latitude": "40-44-26.52 N",
		"longitude": "89-43-20.23 W",
		"state": "ILLINOIS",
		"artcc": "ZAU",
		"type": "RNAV",
		"updated": "04/24/2018",
	},
	{
		"name": "PARTS",
		"latitude": "41-22-44.57 N",
		"longitude": "86-10-12.48 W",
		"state": "INDIANA",
		"artcc": "ZAU",
		"type": "RP",
		"updated": "GSH*VORTAC*216.26",
	},
	{
		"name": "PASER",
		"latitude": "42-40-44.34 N",
		"longitude": "87-54-10.87 W",
		"state": "WISCONSIN",
		"artcc": "ZAU",
		"type": "RP",
		"updated": "BUU*VOR/DME*092.88",
	},
	{
		"name": "PASEW",
		"latitude": "40-22-10.65 N",
		"longitude": "86-7-38.2 W",
		"state": "INDIANA",
		"artcc": "ZAU",
		"type": "RP",
		"updated": "OKK*VORTAC*203.52/10.00",
	},
	{
		"name": "PASQO",
		"latitude": "42-33-29.01 N",
		"longitude": "87-54-25.47 W",
		"state": "WISCONSIN",
		"artcc": "ZAU",
		"type": "RNAV",
		"updated": "12/21/2009",
	},
	{
		"name": "PASYO",
		"latitude": "42-44-1.81 N",
		"longitude": "89-10-30.22 W",
		"state": "WISCONSIN",
		"artcc": "ZAU",
		"type": "RP",
		"updated": "JVL*VOR/DME*340.70/10.99",
	},
	{
		"name": "PAVME",
		"latitude": "40-52-2.24 N",
		"longitude": "92-16-21.91 W",
		"state": "IOWA",
		"artcc": "ZAU",
		"type": "RP",
		"updated": "OTM*VOR/DME*160.00/10.00",
	},
	{
		"name": "PAWFX",
		"latitude": "41-43-2.99 N",
		"longitude": "86-5-25.92 W",
		"state": "INDIANA",
		"artcc": "ZAU",
		"type": "RNAV",
		"updated": "11/18/2016",
	},
	{
		"name": "PAWGI",
		"latitude": "42-4-37.23 N",
		"longitude": "86-23-46.63 W",
		"state": "MICHIGAN",
		"artcc": "ZAU",
		"type": "RNAV",
		"updated": "06/10/2010",
	},
	{
		"name": "PAYLO",
		"latitude": "42-1-19.04 N",
		"longitude": "91-53-6.35 W",
		"state": "IOWA",
		"artcc": "ZAU",
		"type": "RNAV",
		"updated": "01/25/2005",
	},
	{
		"name": "PAZIK",
		"latitude": "42-30-51.06 N",
		"longitude": "88-57-32.49 W",
		"state": "WISCONSIN",
		"artcc": "ZAU",
		"type": "CN",
		"updated": "10/01/2001",
	},
	{
		"name": "PBURG",
		"latitude": "42-1-50.48 N",
		"longitude": "91-2-18.22 W",
		"state": "IOWA",
		"artcc": "ZAU",
		"type": "RNAV",
		"updated": "06/20/2011",
	},
	{
		"name": "PCITY",
		"latitude": "41-18-0.8 N",
		"longitude": "90-14-50.49 W",
		"state": "ILLINOIS",
		"artcc": "ZAU",
		"type": "RNAV",
		"updated": "08/07/2009",
	},
	{
		"name": "PEALE",
		"latitude": "40-59-6.35 N",
		"longitude": "89-28-1.4 W",
		"state": "ILLINOIS",
		"artcc": "ZAU",
		"type": "RNAV",
		"updated": "08/19/2015",
	},
	{
		"name": "PEBIY",
		"latitude": "43-23-25.65 N",
		"longitude": "88-58-29.05 W",
		"state": "WISCONSIN",
		"artcc": "ZAU",
		"type": "RNAV",
		"updated": "03/16/2007",
	},
	{
		"name": "PECBI",
		"latitude": "41-56-28.49 N",
		"longitude": "88-14-2.1 W",
		"state": "ILLINOIS",
		"artcc": "ZAU",
		"type": "RNAV",
		"updated": "01/10/2013",
	},
	{
		"name": "PEDNY",
		"latitude": "42-40-12.63 N",
		"longitude": "89-8-56.01 W",
		"state": "WISCONSIN",
		"artcc": "ZAU",
		"type": "CN",
		"updated": "10/01/2001",
	},
	{
		"name": "PEDRE",
		"latitude": "40-29-47.32 N",
		"longitude": "89-59-2.9 W",
		"state": "ILLINOIS",
		"artcc": "ZAU",
		"type": "RNAV",
		"updated": "07/28/2009",
	},
	{
		"name": "PEENA",
		"latitude": "43-59-25.83 N",
		"longitude": "88-25-18.99 W",
		"state": "WISCONSIN",
		"artcc": "ZAU",
		"type": "RNAV",
		"updated": "07/12/2013",
	},
	{
		"name": "PEEPL",
		"latitude": "43-11-7.23 N",
		"longitude": "86-12-7.71 W",
		"state": "MICHIGAN",
		"artcc": "ZAU",
		"type": "RP",
		"updated": "CJH*LD*060.39/2.75",
	},
	{
		"name": "PEEPS",
		"latitude": "42-21-44.33 N",
		"longitude": "86-55-23.82 W",
		"state": "MICHIGAN",
		"artcc": "ZAU",
		"type": "RP",
		"updated": "PMM*VOR/DME*260.61",
	},
	{
		"name": "PEGAE",
		"latitude": "41-24-34.75 N",
		"longitude": "88-45-24.72 W",
		"state": "ILLINOIS",
		"artcc": "ZAU",
		"type": "RNAV",
		"updated": "07/28/2009",
	},
	{
		"name": "PEKAY",
		"latitude": "43-54-42.65 N",
		"longitude": "89-54-56.8 W",
		"state": "WISCONSIN",
		"artcc": "ZAU",
		"type": "MR",
		"updated": "VOK*TACAN*097.00/15.00",
	},
	{
		"name": "PEKDE",
		"latitude": "43-6-52.35 N",
		"longitude": "89-17-53.68 W",
		"state": "WISCONSIN",
		"artcc": "ZAU",
		"type": "RNAV",
		"updated": "03/28/2011",
	},
	{
		"name": "PEKUE",
		"latitude": "41-47-47.65 N",
		"longitude": "88-48-30.4 W",
		"state": "ILLINOIS",
		"artcc": "ZAU",
		"type": "RNAV",
		"updated": "05/06/2013",
	},
	{
		"name": "PELIY",
		"latitude": "41-42-20.09 N",
		"longitude": "92-43-45.65 W",
		"state": "IOWA",
		"artcc": "ZAU",
		"type": "RP",
		"updated": "TNU*VOR/DME*102.26/17.68",
	},
	{
		"name": "PEMOE",
		"latitude": "42-7-17.19 N",
		"longitude": "87-45-32.71 W",
		"state": "ILLINOIS",
		"artcc": "ZAU",
		"type": "RNAV",
		"updated": "07/19/2007",
	},
	{
		"name": "PEPAW",
		"latitude": "41-57-51.96 N",
		"longitude": "88-18-4.88 W",
		"state": "ILLINOIS",
		"artcc": "ZAU",
		"type": "RP",
		"updated": "SXH*LD*272.86/16.36",
	},
	{
		"name": "PEPRE",
		"latitude": "41-54-8.2 N",
		"longitude": "88-7-1.75 W",
		"state": "ILLINOIS",
		"artcc": "ZAU",
		"type": "RNAV",
		"updated": "05/10/2010",
	},
	{
		"name": "PEQHI",
		"latitude": "40-12-30.39 N",
		"longitude": "88-8-37.67 W",
		"state": "ILLINOIS",
		"artcc": "ZAU",
		"type": "RNAV",
		"updated": "08/19/2015",
	},
	{
		"name": "PETAH",
		"latitude": "41-53-7.86 N",
		"longitude": "88-9-0.21 W",
		"state": "ILLINOIS",
		"artcc": "ZAU",
		"type": "RNAV",
		"updated": "08/27/2013",
	},
	{
		"name": "PETTY",
		"latitude": "42-49-38.48 N",
		"longitude": "87-38-2.11 W",
		"state": "WISCONSIN",
		"artcc": "ZAU",
		"type": "RP",
		"updated": "BAE*VOR/DME*119.00/33.50",
	},
	{
		"name": "PHEEB",
		"latitude": "40-15-50.83 N",
		"longitude": "89-16-24.04 W",
		"state": "ILLINOIS",
		"artcc": "ZAU",
		"type": "RNAV",
		"updated": "08/19/2015",
	},
	{
		"name": "PHLLP",
		"latitude": "41-19-49.53 N",
		"longitude": "89-22-4.51 W",
		"state": "ILLINOIS",
		"artcc": "ZAU",
		"type": "RNAV",
		"updated": "08/27/2013",
	},
	{
		"name": "PHONO",
		"latitude": "41-23-12.03 N",
		"longitude": "86-35-19.87 W",
		"state": "INDIANA",
		"artcc": "ZAU",
		"type": "RNAV",
		"updated": "11/18/2015",
	},
	{
		"name": "PHRLY",
		"latitude": "42-43-30.57 N",
		"longitude": "87-30-5.93 W",
		"state": "WISCONSIN",
		"artcc": "ZAU",
		"type": "RNAV",
		"updated": "08/27/2013",
	},
	{
		"name": "PICRA",
		"latitude": "41-35-0.72 N",
		"longitude": "92-32-34.29 W",
		"state": "IOWA",
		"artcc": "ZAU",
		"type": "RNAV",
		"updated": "03/26/2008",
	},
	{
		"name": "PIDGE",
		"latitude": "41-27-38.28 N",
		"longitude": "88-25-10.27 W",
		"state": "ILLINOIS",
		"artcc": "ZAU",
		"type": "RNAV",
		"updated": "02/08/2017",
	},
	{
		"name": "PIGGG",
		"latitude": "41-45-5.66 N",
		"longitude": "89-9-41.17 W",
		"state": "ILLINOIS",
		"artcc": "ZAU",
		"type": "RNAV",
		"updated": "05/06/2013",
	},
	{
		"name": "PIKNY",
		"latitude": "41-32-40.9 N",
		"longitude": "86-50-14.37 W",
		"state": "INDIANA",
		"artcc": "ZAU",
		"type": "RNAV",
		"updated": "11/18/2016",
	},
	{
		"name": "PIKVE",
		"latitude": "41-20-21.77 N",
		"longitude": "89-35-37.56 W",
		"state": "ILLINOIS",
		"artcc": "ZAU",
		"type": "RNAV",
		"updated": "09/22/2009",
	},
	{
		"name": "PILAE",
		"latitude": "41-7-12.69 N",
		"longitude": "88-50-46.9 W",
		"state": "ILLINOIS",
		"artcc": "ZAU",
		"type": "RNAV",
		"updated": "07/28/2009",
	},
	{
		"name": "PILVE",
		"latitude": "42-12-42.23 N",
		"longitude": "86-18-15.53 W",
		"state": "MICHIGAN",
		"artcc": "ZAU",
		"type": "RNAV",
		"updated": "02/16/2011",
	},
	{
		"name": "PIMKE",
		"latitude": "40-19-7.46 N",
		"longitude": "89-11-12.97 W",
		"state": "ILLINOIS",
		"artcc": "ZAU",
		"type": "RNAV",
		"updated": "09/13/2005",
	},
	{
		"name": "PINHI",
		"latitude": "42-53-43.35 N",
		"longitude": "89-21-48.33 W",
		"state": "WISCONSIN",
		"artcc": "ZAU",
		"type": "MR",
		"updated": "MSN*VORTAC*181.00/15.00",
	},
	{
		"name": "PINKK",
		"latitude": "41-49-54.26 N",
		"longitude": "87-41-40.55 W",
		"state": "ILLINOIS",
		"artcc": "ZAU",
		"type": "RNAV",
		"updated": "08/27/2013",
	},
	{
		"name": "PINKY",
		"latitude": "43-58-54.95 N",
		"longitude": "88-14-11.22 W",
		"state": "WISCONSIN",
		"artcc": "ZAU",
		"type": "RP",
		"updated": "OSH*VORTAC*090.00",
	},
	{
		"name": "PIPKE",
		"latitude": "43-13-59.07 N",
		"longitude": "86-18-38.17 W",
		"state": "MICHIGAN",
		"artcc": "ZAU",
		"type": "RNAV",
		"updated": "04/19/2018",
	},
	{
		"name": "PIPPN",
		"latitude": "41-40-24.27 N",
		"longitude": "89-43-41.07 W",
		"state": "ILLINOIS",
		"artcc": "ZAU",
		"type": "RNAV",
		"updated": "05/06/2013",
	},
	{
		"name": "PITVA",
		"latitude": "41-3-4.78 N",
		"longitude": "85-6-48.46 W",
		"state": "INDIANA",
		"artcc": "ZAU",
		"type": "MR",
		"updated": "FWA*VORTAC*038.00/5.50",
	},
	{
		"name": "PIVOT",
		"latitude": "42-20-13.92 N",
		"longitude": "87-6-56.83 W",
		"state": "MICHIGAN",
		"artcc": "ZAU",
		"type": "RP",
		"updated": "OBK*VOR/DME*081.16/37.88",
	},
	{
		"name": "PIXOE",
		"latitude": "42-23-14.76 N",
		"longitude": "86-12-31.82 W",
		"state": "MICHIGAN",
		"artcc": "ZAU",
		"type": "RNAV",
		"updated": "03/01/2011",
	},
	{
		"name": "PKACH",
		"latitude": "41-42-8.49 N",
		"longitude": "87-51-59.1 W",
		"state": "ILLINOIS",
		"artcc": "ZAU",
		"type": "RNAV",
		"updated": "05/28/2014",
	},
	{
		"name": "PLACH",
		"latitude": "40-48-42.04 N",
		"longitude": "84-48-28.34 W",
		"state": "INDIANA",
		"artcc": "ZAU",
		"type": "RNAV",
		"updated": "09/20/2001",
	},
	{
		"name": "PLAIN",
		"latitude": "41-46-39.91 N",
		"longitude": "85-12-24.03 W",
		"state": "MICHIGAN",
		"artcc": "ZAU",
		"type": "RP",
		"updated": "FWA*VORTAC*005.00/47.90",
	},
	{
		"name": "PLANO",
		"latitude": "41-36-45.07 N",
		"longitude": "88-36-53.12 W",
		"state": "ILLINOIS",
		"artcc": "ZAU",
		"type": "RP",
		"updated": "PNT*VOR/DME*003.43/47.76",
	},
	{
		"name": "PLOPP",
		"latitude": "41-43-34.64 N",
		"longitude": "87-49-37.44 W",
		"state": "ILLINOIS",
		"artcc": "ZAU",
		"type": "RNAV",
		"updated": "05/16/2013",
	},
	{
		"name": "PMPKN",
		"latitude": "42-18-33.08 N",
		"longitude": "87-56-1.73 W",
		"state": "ILLINOIS",
		"artcc": "ZAU",
		"type": "RNAV",
		"updated": "05/06/2013",
	},
	{
		"name": "POBER",
		"latitude": "43-52-25.7 N",
		"longitude": "88-33-27.4 W",
		"state": "WISCONSIN",
		"artcc": "ZAU",
		"type": "RP",
		"updated": "OSH*VORTAC*/7.00",
	},
	{
		"name": "POCIN",
		"latitude": "41-15-55.59 N",
		"longitude": "90-58-18.08 W",
		"state": "ILLINOIS",
		"artcc": "ZAU",
		"type": "RP",
		"updated": "MZV*VOR/DME*252.67/15.44",
	},
	{
		"name": "PODGE",
		"latitude": "41-9-42.1 N",
		"longitude": "92-32-6.1 W",
		"state": "IOWA",
		"artcc": "ZAU",
		"type": "RP",
		"updated": "OTM*VOR/DME*304.03/12.38",
	},
	{
		"name": "POJZI",
		"latitude": "40-56-46.9 N",
		"longitude": "84-51-32.55 W",
		"state": "INDIANA",
		"artcc": "ZAU",
		"type": "RNAV",
		"updated": "11/14/2008",
	},
	{
		"name": "POKLY",
		"latitude": "41-23-27.21 N",
		"longitude": "84-45-35.34 W",
		"state": "OHIO",
		"artcc": "ZOB",
		"type": "RNAV",
		"updated": "04/17/2012",
	},
	{
		"name": "PONCC",
		"latitude": "41-57-26.5 N",
		"longitude": "87-47-45.53 W",
		"state": "ILLINOIS",
		"artcc": "ZAU",
		"type": "RP",
		"updated": "OBK*VOR/DME*158.24",
	},
	{
		"name": "POOGY",
		"latitude": "40-23-53.42 N",
		"longitude": "89-8-37.15 W",
		"state": "ILLINOIS",
		"artcc": "ZAU",
		"type": "RNAV",
		"updated": "08/19/2015",
	},
	{
		"name": "POPEE",
		"latitude": "42-13-53.21 N",
		"longitude": "89-5-7.03 W",
		"state": "ILLINOIS",
		"artcc": "ZAU",
		"type": "RP",
		"updated": "RFD*VOR/DME*085.00",
	},
	{
		"name": "POPME",
		"latitude": "41-58-8.14 N",
		"longitude": "87-57-54.16 W",
		"state": "ILLINOIS",
		"artcc": "ZAU",
		"type": "RP",
		"updated": "OBK*VOR/DME*184.27",
	},
	{
		"name": "POPOF",
		"latitude": "41-57-18.53 N",
		"longitude": "88-26-30.43 W",
		"state": "ILLINOIS",
		"artcc": "ZAU",
		"type": "RP",
		"updated": "IZJ*LD*273.87/24.57",
	},
	{
		"name": "POQJU",
		"latitude": "40-51-59.8 N",
		"longitude": "92-22-31.13 W",
		"state": "IOWA",
		"artcc": "ZAU",
		"type": "RP",
		"updated": "OTM*VOR/DME*187.00/10.00",
	},
	{
		"name": "PORCO",
		"latitude": "40-0-23.49 N",
		"longitude": "86-6-30.66 W",
		"state": "INDIANA",
		"artcc": "ZAU",
		"type": "RNAV",
		"updated": "12/08/2008",
	},
	{
		"name": "POSOC",
		"latitude": "40-48-29.35 N",
		"longitude": "87-11-59.27 W",
		"state": "INDIANA",
		"artcc": "ZAU",
		"type": "RNAV",
		"updated": "05/26/2016",
	},
	{
		"name": "POSSM",
		"latitude": "41-52-28.78 N",
		"longitude": "88-16-30.63 W",
		"state": "ILLINOIS",
		"artcc": "ZAU",
		"type": "RNAV",
		"updated": "08/19/2015",
	},
	{
		"name": "POSTS",
		"latitude": "42-18-0 N",
		"longitude": "85-2-0 W",
		"state": "MICHIGAN",
		"artcc": "ZAU",
		"type": "RNAV",
		"updated": "09/20/2014",
	},
	{
		"name": "POTES",
		"latitude": "40-19-24.03 N",
		"longitude": "87-6-32.44 W",
		"state": "INDIANA",
		"artcc": "ZAU",
		"type": "RP",
		"updated": "VHP*VORTAC*311.00/45.79",
	},
	{
		"name": "POTIY",
		"latitude": "40-29-20.12 N",
		"longitude": "89-33-24.02 W",
		"state": "ILLINOIS",
		"artcc": "ZAU",
		"type": "RNAV",
		"updated": "07/29/2008",
	},
	{
		"name": "POXAE",
		"latitude": "40-53-5.16 N",
		"longitude": "86-8-8.96 W",
		"state": "INDIANA",
		"artcc": "ZAU",
		"type": "RNAV",
		"updated": "05/16/2016",
	},
	{
		"name": "POYIK",
		"latitude": "40-28-56.9 N",
		"longitude": "85-45-1.26 W",
		"state": "INDIANA",
		"artcc": "ZAU",
		"type": "RNAV",
		"updated": "08/05/2013",
	},
	{
		"name": "POYIN",
		"latitude": "41-27-7.56 N",
		"longitude": "86-52-20.29 W",
		"state": "INDIANA",
		"artcc": "ZAU",
		"type": "RNAV",
		"updated": "12/12/2007",
	},
	{
		"name": "POYIV",
		"latitude": "42-7-7.17 N",
		"longitude": "88-36-57.21 W",
		"state": "ILLINOIS",
		"artcc": "ZAU",
		"type": "RNAV",
		"updated": "08/07/2008",
	},
	{
		"name": "POYOC",
		"latitude": "40-47-7.96 N",
		"longitude": "88-45-57.92 W",
		"state": "ILLINOIS",
		"artcc": "ZAU",
		"type": "RNAV",
		"updated": "07/28/2009",
	},
	{
		"name": "PRADY",
		"latitude": "41-58-41.28 N",
		"longitude": "86-45-35.05 W",
		"state": "MICHIGAN",
		"artcc": "ZAU",
		"type": "RNAV",
		"updated": "08/20/2015",
	},
	{
		"name": "PRAIR",
		"latitude": "41-42-0.06 N",
		"longitude": "86-34-42.37 W",
		"state": "INDIANA",
		"artcc": "ZAU",
		"type": "RP",
		"updated": "OXI*VOR/DME*008.00",
	},
	{
		"name": "PRATT",
		"latitude": "41-58-5.01 N",
		"longitude": "88-13-53.25 W",
		"state": "ILLINOIS",
		"artcc": "ZAU",
		"type": "RP",
		"updated": "MED*LD*272.86/15.81",
	},
	{
		"name": "PRFEC",
		"latitude": "42-41-38.75 N",
		"longitude": "87-38-37.1 W",
		"state": "WISCONSIN",
		"artcc": "ZAU",
		"type": "RNAV",
		"updated": "04/01/2014",
	},
	{
		"name": "PRIMO",
		"latitude": "43-59-21.51 N",
		"longitude": "88-17-6.68 W",
		"state": "WISCONSIN",
		"artcc": "ZAU",
		"type": "RNAV",
		"updated": "03/18/2008",
	},
	{
		"name": "PRING",
		"latitude": "43-5-37.39 N",
		"longitude": "86-7-44.13 W",
		"state": "MICHIGAN",
		"artcc": "ZAU",
		"type": "RP",
		"updated": "MKG*VORTAC*222.00/6.00",
	},
	{
		"name": "PRISE",
		"latitude": "41-32-8 N",
		"longitude": "86-46-53 W",
		"state": "INDIANA",
		"artcc": "ZAU",
		"type": "RNAV",
		"updated": "09/30/2008",
	},
	{
		"name": "PRIUS",
		"latitude": "41-41-10.16 N",
		"longitude": "87-41-24.73 W",
		"state": "ILLINOIS",
		"artcc": "ZAU",
		"type": "RNAV",
		"updated": "05/16/2013",
	},
	{
		"name": "PRONK",
		"latitude": "41-10-41.76 N",
		"longitude": "85-28-38.41 W",
		"state": "INDIANA",
		"artcc": "ZAU",
		"type": "RNAV",
		"updated": "08/27/2013",
	},
	{
		"name": "PROOT",
		"latitude": "43-8-4.77 N",
		"longitude": "87-42-11.89 W",
		"state": "WISCONSIN",
		"artcc": "ZAU",
		"type": "RP",
		"updated": "BAE*VOR/DME*085.41/25.55",
	},
	{
		"name": "PUBEE",
		"latitude": "41-53-5.65 N",
		"longitude": "91-56-58.95 W",
		"state": "IOWA",
		"artcc": "ZAU",
		"type": "RP",
		"updated": "CID*VOR/DME*263.82/7.35",
	},
	{
		"name": "PUCJU",
		"latitude": "43-20-13.13 N",
		"longitude": "90-32-41.34 W",
		"state": "WISCONSIN",
		"artcc": "ZAU",
		"type": "RNAV",
		"updated": "05/24/2016",
	},
	{
		"name": "PUCOT",
		"latitude": "41-58-7.26 N",
		"longitude": "89-11-48.09 W",
		"state": "ILLINOIS",
		"artcc": "ZAU",
		"type": "RNAV",
		"updated": "07/28/2009",
	},
	{
		"name": "PUDAE",
		"latitude": "42-11-28.46 N",
		"longitude": "89-6-14.95 W",
		"state": "ILLINOIS",
		"artcc": "ZAU",
		"type": "RNAV",
		"updated": "07/28/2009",
	},
	{
		"name": "PUDEE",
		"latitude": "43-12-47.8 N",
		"longitude": "90-1-52.36 W",
		"state": "WISCONSIN",
		"artcc": "ZAU",
		"type": "RP",
		"updated": "LNR*VOR/DME*137.40",
	},
	{
		"name": "PUDLE",
		"latitude": "40-57-56.73 N",
		"longitude": "86-4-29.78 W",
		"state": "INDIANA",
		"artcc": "ZAU",
		"type": "MW",
		"updated": "11/18/2016",
	},
	{
		"name": "PUGNE",
		"latitude": "42-33-22.2 N",
		"longitude": "86-5-15.18 W",
		"state": "MICHIGAN",
		"artcc": "ZAU",
		"type": "RNAV",
		"updated": "12/21/2009",
	},
	{
		"name": "PUJLA",
		"latitude": "43-38-53.32 N",
		"longitude": "88-52-40.64 W",
		"state": "WISCONSIN",
		"artcc": "ZAU",
		"type": "RNAV",
		"updated": "01/27/2015",
	},
	{
		"name": "PUMMA",
		"latitude": "43-18-1.44 N",
		"longitude": "90-1-53.4 W",
		"state": "WISCONSIN",
		"artcc": "ZAU",
		"type": "RNAV",
		"updated": "05/24/2016",
	},
	{
		"name": "PUPCE",
		"latitude": "41-30-20.17 N",
		"longitude": "93-6-55.26 W",
		"state": "IOWA",
		"artcc": "ZAU",
		"type": "RNAV",
		"updated": "03/04/2010",
	},
	{
		"name": "PURNY",
		"latitude": "43-23-0 N",
		"longitude": "85-59-0 W",
		"state": "MICHIGAN",
		"artcc": "ZAU",
		"type": "RP",
		"updated": "BAE*VOR/DME*078.21/102.15",
	},
	{
		"name": "PURTY",
		"latitude": "41-8-19.16 N",
		"longitude": "89-43-16.22 W",
		"state": "ILLINOIS",
		"artcc": "ZAU",
		"type": "RNAV",
		"updated": "05/02/2013",
	},
	{
		"name": "PUSHY",
		"latitude": "40-30-10.92 N",
		"longitude": "86-55-58.94 W",
		"state": "INDIANA",
		"artcc": "ZAU",
		"type": "RP",
		"updated": "BVT*VORTAC*116.00/7.00",
	},
	{
		"name": "PUYAF",
		"latitude": "42-49-59.15 N",
		"longitude": "87-44-23.83 W",
		"state": "WISCONSIN",
		"artcc": "ZAU",
		"type": "RNAV",
		"updated": "12/21/2009",
	},
	{
		"name": "PUYIR",
		"latitude": "43-17-31.52 N",
		"longitude": "88-29-53.41 W",
		"state": "WISCONSIN",
		"artcc": "ZAU",
		"type": "RNAV",
		"updated": "01/20/2009",
	},
	{
		"name": "PUZRU",
		"latitude": "41-23-16.81 N",
		"longitude": "85-18-59.62 W",
		"state": "INDIANA",
		"artcc": "ZAU",
		"type": "RNAV",
		"updated": "08/16/2006",
	},
