[
	{
		"name": "QAJER",
		"latitude": "41-36-56.27 N",
		"longitude": "87-50-21.22 W",
		"state": "ILLINOIS",
		"artcc": "ZAU",
		"type": "RNAV",
		"updated": "06/27/2007"
	},
	{
		"name": "QBURT",
		"latitude": "40-53-22.35 N",
		"longitude": "85-30-9.24 W",
		"state": "INDIANA",
		"artcc": "ZAU",
		"type": "RNAV",
		"updated": "03/27/2018"
	},
	{
		"name": "QEBLO",
		"latitude": "41-48-20 N",
		"longitude": "87-26-15.97 W",
		"state": "ILLINOIS",
		"artcc": "ZAU",
		"type": "RNAV",
		"updated": "11/06/2000"
	},
	{
		"name": "QOGQU",
		"latitude": "42-43-51.76 N",
		"longitude": "92-22-14.96 W",
		"state": "IOWA",
		"artcc": "ZAU",
		"type": "RNAV",
		"updated": "12/13/2001"
	},
	{
		"name": "QOPEV",
		"latitude": "42-19-23.67 N",
		"longitude": "92-26-46.37 W",
		"state": "IOWA",
		"artcc": "ZAU",
		"type": "RNAV",
		"updated": "12/13/2001"
	},
	{
		"name": "QUANE",
		"latitude": "41-32-12.27 N",
		"longitude": "89-44-27.99 W",
		"state": "ILLINOIS",
		"artcc": "ZAU",
		"type": "RNAV",
		"updated": "05/06/2013"
	},
	{
		"name": "QUEST",
		"latitude": "43-17-16.32 N",
		"longitude": "90-58-29.56 W",
		"state": "WISCONSIN",
		"artcc": "ZAU",
		"type": "RP",
		"updated": "ODI*VORTAC*149.00/43.18"
	},
	{
		"name": "QUIZZ",
		"latitude": "41-20-41 N",
		"longitude": "90-14-26 W",
		"state": "ILLINOIS",
		"artcc": "ZAU",
		"type": "RNAV",
		"updated": "05/06/2013"
	},
	{
		"name": "QUOTA",
		"latitude": "40-5-1.94 N",
		"longitude": "89-24-54.5 W",
		"state": "ILLINOIS",
		"artcc": "ZAU",
		"type": "RP",
		"updated": "SPI*VORTAC*040.53/19.00"
	},
	{
		"name": "QUOTE",
		"latitude": "41-42-10.77 N",
		"longitude": "89-18-12.15 W",
		"state": "ILLINOIS",
		"artcc": "ZAU",
		"type": "RNAV",
		"updated": "05/06/2013"
	}
]
