	{
		"name": "RABBT",
		"latitude": "41-24-12.41 N",
		"longitude": "85-31-25.66 W",
		"state": "INDIANA",
		"artcc": "ZAU",
		"type": "RP",
		"updated": "GSH*VORTAC*107.63/23.88",
	},
	{
		"name": "RAGSS",
		"latitude": "41-43-28.03 N",
		"longitude": "89-6-24.34 W",
		"state": "ILLINOIS",
		"artcc": "ZAU",
		"type": "RNAV",
		"updated": "08/27/2013",
	},
	{
		"name": "RAHNN",
		"latitude": "41-34-48.66 N",
		"longitude": "88-20-17.22 W",
		"state": "ILLINOIS",
		"artcc": "ZAU",
		"type": "RP",
		"updated": "DPA*VOR/DME*176.33",
	},
	{
		"name": "RAILS",
		"latitude": "40-4-37.15 N",
		"longitude": "89-22-22.77 W",
		"state": "ILLINOIS",
		"artcc": "ZAU",
		"type": "RP",
		"updated": "AXC*VORTAC*307.64",
	},
	{
		"name": "RAINE",
		"latitude": "42-31-41.1 N",
		"longitude": "86-30-20.37 W",
		"state": "MICHIGAN",
		"artcc": "ZAU",
		"type": "RP",
		"updated": "MKG*VORTAC*209.31",
	},
	{
		"name": "RAKME",
		"latitude": "43-29-23.16 N",
		"longitude": "89-53-1.12 W",
		"state": "WISCONSIN",
		"artcc": "ZAU",
		"type": "RNAV",
		"updated": "10/05/2007",
	},
	{
		"name": "RAKOY",
		"latitude": "40-29-43.25 N",
		"longitude": "88-58-56.07 W",
		"state": "ILLINOIS",
		"artcc": "ZAU",
		"type": "RNAV",
		"updated": "03/31/2010",
	},
	{
		"name": "RALFE",
		"latitude": "42-5-23.65 N",
		"longitude": "88-35-16.69 W",
		"state": "ILLINOIS",
		"artcc": "ZAU",
		"type": "RNAV",
		"updated": "10/26/2009",
	},
	{
		"name": "RALTE",
		"latitude": "42-58-17.35 N",
		"longitude": "87-43-21.26 W",
		"state": "WISCONSIN",
		"artcc": "ZAU",
		"type": "RNAV",
		"updated": "11/06/2013",
	},
	{
		"name": "RAMAE",
		"latitude": "40-52-34.41 N",
		"longitude": "88-49-18.34 W",
		"state": "ILLINOIS",
		"artcc": "ZAU",
		"type": "RNAV",
		"updated": "07/28/2009",
	},
	{
		"name": "RANDO",
		"latitude": "43-28-58.42 N",
		"longitude": "89-1-46.53 W",
		"state": "WISCONSIN",
		"artcc": "ZAU",
		"type": "RP",
		"updated": "DLL*VORTAC*094.00/32.30",
	},
	{
		"name": "RASTT",
		"latitude": "42-51-26.03 N",
		"longitude": "88-40-7.27 W",
		"state": "WISCONSIN",
		"artcc": "ZAU",
		"type": "RP",
		"updated": "BAE*VOR/DME*225.51/23.00",
	},
	{
		"name": "RATLE",
		"latitude": "43-16-12.29 N",
		"longitude": "85-28-34.82 W",
		"state": "MICHIGAN",
		"artcc": "ZAU",
		"type": "RNAV",
		"updated": "04/17/2018",
	},
	{
		"name": "RATUE",
		"latitude": "40-17-28.89 N",
		"longitude": "88-15-15.04 W",
		"state": "ILLINOIS",
		"artcc": "ZAU",
		"type": "RNAV",
		"updated": "08/19/2015",
	},
	{
		"name": "RAWIN",
		"latitude": "40-29-14.22 N",
		"longitude": "88-56-58 W",
		"state": "ILLINOIS",
		"artcc": "ZAU",
		"type": "RP",
		"updated": "BMI*LD*290.88/0.49",
	},
	{
		"name": "RAYLI",
		"latitude": "41-41-5.31 N",
		"longitude": "88-19-18.4 W",
		"state": "ILLINOIS",
		"artcc": "ZAU",
		"type": "RNAV",
		"updated": "06/27/2007",
	},
	{
		"name": "RAYNR",
		"latitude": "42-18-39.33 N",
		"longitude": "87-49-33.25 W",
		"state": "ILLINOIS",
		"artcc": "ZAU",
		"type": "RNAV",
		"updated": "05/06/2013",
	},
	{
		"name": "RAYYY",
		"latitude": "41-57-55.61 N",
		"longitude": "88-2-31.39 W",
		"state": "ILLINOIS",
		"artcc": "ZAU",
		"type": "RP",
		"updated": "OBK*VOR/DME*196.77",
	},
	{
		"name": "RAZEE",
		"latitude": "40-0-21.74 N",
		"longitude": "86-19-32.33 W",
		"state": "INDIANA",
		"artcc": "ZAU",
		"type": "RNAV",
		"updated": "02/09/2018",
	},
	{
		"name": "REBVE",
		"latitude": "42-1-58.74 N",
		"longitude": "89-5-38.24 W",
		"state": "ILLINOIS",
		"artcc": "ZAU",
		"type": "RNAV",
		"updated": "07/28/2009",
	},
	{
		"name": "RECGA",
		"latitude": "42-57-18.24 N",
		"longitude": "88-53-22.97 W",
		"state": "WISCONSIN",
		"artcc": "ZAU",
		"type": "RNAV",
		"updated": "05/24/2016",
	},
	{
		"name": "RECOB",
		"latitude": "42-17-6.85 N",
		"longitude": "89-9-0.7 W",
		"state": "ILLINOIS",
		"artcc": "ZAU",
		"type": "RNAV",
		"updated": "07/28/2009",
	},
	{
		"name": "REINE",
		"latitude": "43-7-23.11 N",
		"longitude": "89-15-13.06 W",
		"state": "WISCONSIN",
		"artcc": "ZAU",
		"type": "RP",
		"updated": "MSN*VORTAC*106.00/4.00",
	},
	{
		"name": "REJMO",
		"latitude": "41-32-48.81 N",
		"longitude": "87-11-35.23 W",
		"state": "INDIANA",
		"artcc": "ZAU",
		"type": "WP",
		"updated": "01/22/2007",
	},
	{
		"name": "REKKS",
		"latitude": "41-53-54.66 N",
		"longitude": "87-57-51.5 W",
		"state": "ILLINOIS",
		"artcc": "ZAU",
		"type": "RP",
		"updated": "DPA*VOR/DME*086.25",
	},
	{
		"name": "REKYO",
		"latitude": "40-18-58.53 N",
		"longitude": "89-5-34.29 W",
		"state": "ILLINOIS",
		"artcc": "ZAU",
		"type": "RNAV",
		"updated": "01/23/2007",
	},
	{
		"name": "RENIE",
		"latitude": "40-49-39.97 N",
		"longitude": "91-14-56.16 W",
		"state": "IOWA",
		"artcc": "ZAU",
		"type": "RP",
		"updated": "BRL*VOR/DME*288.13/16.00",
	},
	{
		"name": "RENNS",
		"latitude": "40-41-56.48 N",
		"longitude": "86-57-23.27 W",
		"state": "INDIANA",
		"artcc": "ZAU",
		"type": "MR",
		"updated": "VHP*VORTAC*332.00",
	},
	{
		"name": "RENZO",
		"latitude": "41-8-8.93 N",
		"longitude": "89-48-22.35 W",
		"state": "ILLINOIS",
		"artcc": "ZAU",
		"type": "RP",
		"updated": "BDF*VORTAC*261.83/10.00",
	},
	{
		"name": "REPRY",
		"latitude": "42-3-49.43 N",
		"longitude": "90-24-3.96 W",
		"state": "IOWA",
		"artcc": "ZAU",
		"type": "RNAV",
		"updated": "06/06/2012",
	},
	{
		"name": "RESAW",
		"latitude": "40-26-34.67 N",
		"longitude": "87-11-24.71 W",
		"state": "INDIANA",
		"artcc": "ZAU",
		"type": "RNAV",
		"updated": "02/23/2007",
	},
	{
		"name": "RESGY",
		"latitude": "42-6-50.13 N",
		"longitude": "85-35-7.01 W",
		"state": "MICHIGAN",
		"artcc": "ZAU",
		"type": "RP",
		"updated": "ELX*VOR/DME*094.18/24.06",
	},
	{
		"name": "REVCO",
		"latitude": "41-49-17.02 N",
		"longitude": "89-22-44.37 W",
		"state": "ILLINOIS",
		"artcc": "ZAU",
		"type": "RP",
		"updated": "RFD*VOR/DME*197.40/25.54",
	},
	{
		"name": "REZIE",
		"latitude": "41-38-48.79 N",
		"longitude": "91-17-34.28 W",
		"state": "IOWA",
		"artcc": "ZAU",
		"type": "RP",
		"updated": "CID*VOR/DME*117.95",
	},
	{
		"name": "RHIVR",
		"latitude": "42-38-45.44 N",
		"longitude": "86-16-14.15 W",
		"state": "MICHIGAN",
		"artcc": "ZAU",
		"type": "RNAV",
		"updated": "02/28/2018",
	},
	{
		"name": "RICHI",
		"latitude": "40-50-20.88 N",
		"longitude": "85-56-39.92 W",
		"state": "INDIANA",
		"artcc": "ZAU",
		"type": "MR",
		"updated": "GUS*VORTAC*041.00/15.00",
	},
	{
		"name": "RICIB",
		"latitude": "44-5-53.29 N",
		"longitude": "88-49-41.29 W",
		"state": "WISCONSIN",
		"artcc": "ZAU",
		"type": "RNAV",
		"updated": "07/18/2013",
	},
	{
		"name": "RICKV",
		"latitude": "41-58-6.94 N",
		"longitude": "87-22-18.44 W",
		"state": "ILLINOIS",
		"artcc": "ZAU",
		"type": "RP",
		"updated": "TSL*LD*092.90/22.67",
	},
	{
		"name": "RICOT",
		"latitude": "41-53-9.6 N",
		"longitude": "90-35-16.29 W",
		"state": "IOWA",
		"artcc": "ZAU",
		"type": "RNAV",
		"updated": "01/30/2011",
	},
	{
		"name": "RIDCO",
		"latitude": "41-37-28.34 N",
		"longitude": "92-20-35.96 W",
		"state": "IOWA",
		"artcc": "ZAU",
		"type": "RP",
		"updated": "CID*VOR/DME*232.98/29.59",
	},
	{
		"name": "RIDGE",
		"latitude": "42-3-29.66 N",
		"longitude": "87-49-45.14 W",
		"state": "ILLINOIS",
		"artcc": "ZAU",
		"type": "RP",
		"updated": "ORD*VOR/DME*/5.42",
	},
	{
		"name": "RIESR",
		"latitude": "41-42-1.26 N",
		"longitude": "88-24-58.85 W",
		"state": "ILLINOIS",
		"artcc": "ZAU",
		"type": "RP",
		"updated": "DPA*VOR/DME*192.63",
	},
	{
		"name": "RIGGL",
		"latitude": "40-31-6.84 N",
		"longitude": "87-36-13.82 W",
		"state": "ILLINOIS",
		"artcc": "ZAU",
		"type": "RP",
		"updated": "DNV*VORTAC*349.00/13.65",
	},
	{
		"name": "RIKOY",
		"latitude": "41-17-55.96 N",
		"longitude": "92-45-5.34 W",
		"state": "IOWA",
		"artcc": "ZAU",
		"type": "RNAV",
		"updated": "08/21/2009",
	},
	{
		"name": "RILLE",
		"latitude": "42-2-16.77 N",
		"longitude": "85-34-52.37 W",
		"state": "MICHIGAN",
		"artcc": "ZAU",
		"type": "RP",
		"updated": "ELX*VOR/DME*102.00",
	},
	{
		"name": "RILOE",
		"latitude": "40-50-19.73 N",
		"longitude": "85-54-21.08 W",
		"state": "INDIANA",
		"artcc": "ZAU",
		"type": "RNAV",
		"updated": "08/28/2007",
	},
	{
		"name": "RILRY",
		"latitude": "43-23-39.72 N",
		"longitude": "89-21-41.5 W",
		"state": "WISCONSIN",
		"artcc": "ZAU",
		"type": "RP",
		"updated": "MSN*VORTAC*353.35/15.00",
	},
	{
		"name": "RIMGE",
		"latitude": "40-44-0.37 N",
		"longitude": "91-29-17.95 W",
		"state": "IOWA",
		"artcc": "ZAU",
		"type": "RNAV",
		"updated": "08/11/2010",
	},
	{
		"name": "RINER",
		"latitude": "41-10-1.8 N",
		"longitude": "92-31-48.93 W",
		"state": "IOWA",
		"artcc": "ZAU",
		"type": "RP",
		"updated": "OTM*VOR/DME*/12.43",
	},
	{
		"name": "RINNO",
		"latitude": "41-48-19.56 N",
		"longitude": "88-5-36.16 W",
		"state": "ILLINOIS",
		"artcc": "ZAU",
		"type": "RNAV",
		"updated": "08/27/2013",
	},
	{
		"name": "RIPAE",
		"latitude": "40-48-37.69 N",
		"longitude": "91-17-37.52 W",
		"state": "IOWA",
		"artcc": "ZAU",
		"type": "RNAV",
		"updated": "08/11/2010",
	},
	{
		"name": "RIPOC",
		"latitude": "42-20-19.72 N",
		"longitude": "90-37-13.1 W",
		"state": "IOWA",
		"artcc": "ZAU",
		"type": "RNAV",
		"updated": "07/31/2006",
	},
	{
		"name": "RIPON",
		"latitude": "43-50-17.52 N",
		"longitude": "88-50-40.92 W",
		"state": "WISCONSIN",
		"artcc": "ZAU",
		"type": "RP",
		"updated": "OSH*VORTAC*232.00/15.50",
	},
	{
		"name": "RIPPR",
		"latitude": "41-58-59.8 N",
		"longitude": "87-30-43.56 W",
		"state": "ILLINOIS",
		"artcc": "ZAU",
		"type": "RP",
		"updated": "IAC*LD*093.00/16.74",
	},
	{
		"name": "RIYOT",
		"latitude": "40-53-54.79 N",
		"longitude": "90-27-33.5 W",
		"state": "ILLINOIS",
		"artcc": "ZAU",
		"type": "RP",
		"updated": "GBG*VOR/DME*/2.59",
	},
	{
		"name": "ROBBY",
		"latitude": "44-4-32.81 N",
		"longitude": "89-57-37.61 W",
		"state": "WISCONSIN",
		"artcc": "ZAU",
		"type": "RP",
		"updated": "BAE*VOR/DME*306.79/93.00",
	},
	{
		"name": "ROCSE",
		"latitude": "41-58-8.23 N",
		"longitude": "87-30-43.44 W",
		"state": "ILLINOIS",
		"artcc": "ZAU",
		"type": "RP",
		"updated": "TSL*LD*092.90/16.39",
	},
	{
		"name": "RODJU",
		"latitude": "41-22-37.48 N",
		"longitude": "87-45-33.09 W",
		"state": "ILLINOIS",
		"artcc": "ZAU",
		"type": "RNAV",
		"updated": "01/20/2009",
	},
	{
		"name": "RODLE",
		"latitude": "41-39-19.07 N",
		"longitude": "87-0-31.44 W",
		"state": "INDIANA",
		"artcc": "ZAU",
		"type": "RNAV",
		"updated": "12/12/2007",
	},
	{
		"name": "RODNY",
		"latitude": "41-4-53.56 N",
		"longitude": "87-8-58.83 W",
		"state": "INDIANA",
		"artcc": "ZAU",
		"type": "RP",
		"updated": "IKK*VOR/DME*089.00",
	},
	{
		"name": "RODOE",
		"latitude": "42-19-34.32 N",
		"longitude": "85-50-13.92 W",
		"state": "MICHIGAN",
		"artcc": "ZAU",
		"type": "RNAV",
		"updated": "02/16/2011",
	},
	{
		"name": "ROGRE",
		"latitude": "41-17-5.61 N",
		"longitude": "86-41-7 W",
		"state": "INDIANA",
		"artcc": "ZAU",
		"type": "RNAV",
		"updated": "11/18/2015",
	},
	{
		"name": "ROKEE",
		"latitude": "41-49-48.61 N",
		"longitude": "88-12-59.03 W",
		"state": "ILLINOIS",
		"artcc": "ZAU",
		"type": "RP",
		"updated": "DPA*VOR/DME*119.00/7.00",
	},
	{
		"name": "ROLOC",
		"latitude": "41-39-20.42 N",
		"longitude": "91-29-26.79 W",
		"state": "IOWA",
		"artcc": "ZAU",
		"type": "RNAV",
		"updated": "12/08/2008",
	},
	{
		"name": "ROMNI",
		"latitude": "40-18-32.66 N",
		"longitude": "86-38-14.72 W",
		"state": "INDIANA",
		"artcc": "ZAU",
		"type": "MR",
		"updated": "GUS*VORTAC*230.00/30.00",
	},
	{
		"name": "RONIC",
		"latitude": "42-43-35.18 N",
		"longitude": "87-58-45.02 W",
		"state": "WISCONSIN",
		"artcc": "ZAU",
		"type": "RNAV",
		"updated": "01/28/2014",
	},
	{
		"name": "RONOY",
		"latitude": "41-35-35.54 N",
		"longitude": "87-21-59.33 W",
		"state": "INDIANA",
		"artcc": "ZAU",
		"type": "RP",
		"updated": "GYY*LD*126.17/3.48",
	},
	{
		"name": "ROSKY",
		"latitude": "43-1-36.53 N",
		"longitude": "88-36-9.25 W",
		"state": "WISCONSIN",
		"artcc": "ZAU",
		"type": "RP",
		"updated": "BAE*VOR/DME*247.01/15.00",
	},
	{
		"name": "ROTTN",
		"latitude": "40-59-45 N",
		"longitude": "93-31-32 W",
		"state": "IOWA",
		"artcc": "ZAU",
		"type": "RNAV",
		"updated": "08/26/2013",
	},
	{
		"name": "ROYKO",
		"latitude": "41-1-12 N",
		"longitude": "85-53-0 W",
		"state": "INDIANA",
		"artcc": "ZAU",
		"type": "RNAV",
		"updated": "01/18/2007",
	},
	{
		"name": "RRRED",
		"latitude": "40-11-24.79 N",
		"longitude": "88-28-5.98 W",
		"state": "ILLINOIS",
		"artcc": "ZAU",
		"type": "RNAV",
		"updated": "01/27/2015",
	},
	{
		"name": "RRUDA",
		"latitude": "41-57-54.19 N",
		"longitude": "88-9-40.7 W",
		"state": "ILLINOIS",
		"artcc": "ZAU",
		"type": "RP",
		"updated": "SXH*LD*272.86/10.09",
	},
	{
		"name": "RUBIO",
		"latitude": "41-15-16.5 N",
		"longitude": "91-58-54.85 W",
		"state": "IOWA",
		"artcc": "ZAU",
		"type": "RNAV",
		"updated": "08/08/2007",
	},
	{
		"name": "RUBUC",
		"latitude": "43-38-6.21 N",
		"longitude": "86-6-46.74 W",
		"state": "MICHIGAN",
		"artcc": "ZAU",
		"type": "RNAV",
		"updated": "08/16/2007",
	},
	{
		"name": "RUBUE",
		"latitude": "41-8-16.3 N",
		"longitude": "88-53-1.59 W",
		"state": "ILLINOIS",
		"artcc": "ZAU",
		"type": "RNAV",
		"updated": "07/28/2009",
	},
	{
		"name": "RUCON",
		"latitude": "40-4-58.38 N",
		"longitude": "89-24-17.43 W",
		"state": "ILLINOIS",
		"artcc": "ZAU",
		"type": "RNAV",
		"updated": "08/24/2005",
	},
	{
		"name": "RUCOY",
		"latitude": "41-48-57.07 N",
		"longitude": "87-42-46.1 W",
		"state": "ILLINOIS",
		"artcc": "ZAU",
		"type": "RNAV",
		"updated": "01/26/2006",
	},
	{
		"name": "RUDEH",
		"latitude": "41-26-13.89 N",
		"longitude": "93-19-3.16 W",
		"state": "IOWA",
		"artcc": "ZAU",
		"type": "RNAV",
		"updated": "03/04/2010",
	},
	{
		"name": "RUDGE",
		"latitude": "42-6-17.38 N",
		"longitude": "89-22-11.05 W",
		"state": "ILLINOIS",
		"artcc": "ZAU",
		"type": "RNAV",
		"updated": "05/06/2011",
	},
	{
		"name": "RUDIE",
		"latitude": "43-8-16.08 N",
		"longitude": "88-3-33.15 W",
		"state": "WISCONSIN",
		"artcc": "ZAU",
		"type": "RP",
		"updated": "BAE*VOR/DME*080.68",
	},
	{
		"name": "RUGGO",
		"latitude": "41-52-39.34 N",
		"longitude": "87-38-20.72 W",
		"state": "ILLINOIS",
		"artcc": "ZAU",
		"type": "RNAV",
		"updated": "06/13/2014",
	},
	{
		"name": "RUKIY",
		"latitude": "43-13-51.17 N",
		"longitude": "89-20-14.06 W",
		"state": "WISCONSIN",
		"artcc": "ZAU",
		"type": "RP",
		"updated": "DLL*VORTAC*132.67",
	},
	{
		"name": "RUKME",
		"latitude": "40-51-17.33 N",
		"longitude": "85-31-21.04 W",
		"state": "INDIANA",
		"artcc": "ZAU",
		"type": "RNAV",
		"updated": "12/31/2002",
	},
	{
		"name": "RULIC",
		"latitude": "43-30-53.34 N",
		"longitude": "88-35-33.88 W",
		"state": "WISCONSIN",
		"artcc": "ZAU",
		"type": "RNAV",
		"updated": "10/24/2011",
	},
	{
		"name": "RULOC",
		"latitude": "41-26-12.7 N",
		"longitude": "89-33-49.98 W",
		"state": "ILLINOIS",
		"artcc": "ZAU",
		"type": "RNAV",
		"updated": "09/22/2009",
	},
	{
		"name": "RUNAE",
		"latitude": "40-39-34.15 N",
		"longitude": "88-49-59.17 W",
		"state": "ILLINOIS",
		"artcc": "ZAU",
		"type": "RNAV",
		"updated": "12/22/2008",
	},
	{
		"name": "RUNRE",
		"latitude": "40-51-43.76 N",
		"longitude": "91-27-10.67 W",
		"state": "IOWA",
		"artcc": "ZAU",
		"type": "RNAV",
		"updated": "08/11/2010",
	},
	{
		"name": "RUNTS",
		"latitude": "41-42-50.79 N",
		"longitude": "87-39-8.71 W",
		"state": "ILLINOIS",
		"artcc": "ZAU",
		"type": "RP",
		"updated": "MXT*LD*137.57/6.74",
	},
	{
		"name": "RUPEJ",
		"latitude": "40-36-52.37 N",
		"longitude": "85-40-56.92 W",
		"state": "INDIANA",
		"artcc": "ZAU",
		"type": "RNAV",
		"updated": "06/24/2016",
	},
	{
		"name": "RURDE",
		"latitude": "42-37-33.27 N",
		"longitude": "86-3-13.13 W",
		"state": "MICHIGAN",
		"artcc": "ZAU",
		"type": "RNAV",
		"updated": "07/28/2015",
	},
	{
		"name": "RURIE",
		"latitude": "40-43-54.43 N",
		"longitude": "86-2-39.49 W",
		"state": "INDIANA",
		"artcc": "ZAU",
		"type": "RNAV",
		"updated": "08/28/2007",
	},
	{
		"name": "RUSLL",
		"latitude": "41-58-38.29 N",
		"longitude": "89-2-13.42 W",
		"state": "ILLINOIS",
		"artcc": "ZAU",
		"type": "RP",
		"updated": "RFD*VOR/DME*153.00",
	},
	{
		"name": "RUSOE",
		"latitude": "43-30-16 N",
		"longitude": "89-45-57 W",
		"state": "WISCONSIN",
		"artcc": "ZAU",
		"type": "RP",
		"updated": "DLL*VORTAC*179.01/2.79",
	},
	{
		"name": "RUYOB",
		"latitude": "42-5-26.52 N",
		"longitude": "88-30-37.53 W",
		"state": "ILLINOIS",
		"artcc": "ZAU",
		"type": "RNAV",
		"updated": "08/07/2008",
	},
	{
		"name": "RYELY",
		"latitude": "41-2-0 N",
		"longitude": "89-58-21 W",
		"state": "ILLINOIS",
		"artcc": "ZAU",
		"type": "RNAV",
		"updated": "08/27/2013",
	},
	{
		"name": "RZUKO",
		"latitude": "41-57-56.86 N",
		"longitude": "87-34-55.93 W",
		"state": "ILLINOIS",
		"artcc": "ZAU",
		"type": "RP",
		"updated": "VZE*LD*092.89/15.83",
	},
