[
	{
		"name": "SAAYY",
		"latitude": "42-31-37.44 N",
		"longitude": "91-25-44.57 W",
		"state": "IOWA",
		"artcc": "ZAU",
		"type": "RNAV",
		"updated": "05/07/2013"
	},
	{
		"name": "SABAH",
		"latitude": "42-3-39.8 N",
		"longitude": "86-7-30.66 W",
		"state": "MICHIGAN",
		"artcc": "ZAU",
		"type": "RP",
		"updated": "ELX*VOR/DME*181.27/5.00"
	},
	{
		"name": "SABBO",
		"latitude": "43-7-53.23 N",
		"longitude": "91-10-7.37 W",
		"state": "WISCONSIN",
		"artcc": "ZAU",
		"type": "RP",
		"updated": "MCW*VOR/DME*081.93/95.00"
	},
	{
		"name": "SABCO",
		"latitude": "41-13-15.13 N",
		"longitude": "90-19-41.24 W",
		"state": "ILLINOIS",
		"artcc": "ZAU",
		"type": "RNAV",
		"updated": "08/07/2009"
	},
	{
		"name": "SABIE",
		"latitude": "41-23-16.66 N",
		"longitude": "89-34-40.99 W",
		"state": "ILLINOIS",
		"artcc": "ZAU",
		"type": "RNAV",
		"updated": "09/22/2009"
	},
	{
		"name": "SABLL",
		"latitude": "43-34-31.02 N",
		"longitude": "88-40-11.43 W",
		"state": "WISCONSIN",
		"artcc": "ZAU",
		"type": "RNAV",
		"updated": "05/18/2016"
	},
	{
		"name": "SABOE",
		"latitude": "43-2-27.74 N",
		"longitude": "85-30-1.28 W",
		"state": "MICHIGAN",
		"artcc": "ZAU",
		"type": "RNAV",
		"updated": "04/18/2018"
	},
	{
		"name": "SACHS",
		"latitude": "40-8-38.56 N",
		"longitude": "86-30-42.46 W",
		"state": "INDIANA",
		"artcc": "ZAU",
		"type": "RP",
		"updated": "BVT*VORTAC*132.83/35.56"
	},
	{
		"name": "SACOD",
		"latitude": "41-31-55.83 N",
		"longitude": "86-43-12.22 W",
		"state": "INDIANA",
		"artcc": "ZAU",
		"type": "RP",
		"updated": "OXI*VOR/DME*345.80/13.00"
	},
	{
		"name": "SACOL",
		"latitude": "43-14-55.56 N",
		"longitude": "85-59-41.81 W",
		"state": "MICHIGAN",
		"artcc": "ZAU",
		"type": "RNAV",
		"updated": "10/20/2005"
	},
	{
		"name": "SADEE",
		"latitude": "40-30-21.35 N",
		"longitude": "89-50-58.83 W",
		"state": "ILLINOIS",
		"artcc": "ZAU",
		"type": "RP",
		"updated": "PIA*VORTAC*190.01/10.76"
	},
	{
		"name": "SAFLY",
		"latitude": "41-57-16.88 N",
		"longitude": "88-30-43.04 W",
		"state": "ILLINOIS",
		"artcc": "ZAU",
		"type": "RP",
		"updated": "IZJ*LD*273.87/27.72"
	},
	{
		"name": "SAILZ",
		"latitude": "41-51-0.49 N",
		"longitude": "87-32-58.19 W",
		"state": "ILLINOIS",
		"artcc": "ZAU",
		"type": "RNAV",
		"updated": "05/02/2013"
	},
	{
		"name": "SALDR",
		"latitude": "42-41-11.95 N",
		"longitude": "90-8-35.18 W",
		"state": "WISCONSIN",
		"artcc": "ZAU",
		"type": "RNAV",
		"updated": "06/28/2009"
	},
	{
		"name": "SALES",
		"latitude": "42-37-18.79 N",
		"longitude": "86-25-58.65 W",
		"state": "MICHIGAN",
		"artcc": "ZAU",
		"type": "RP",
		"updated": "MKG*VORTAC*209.00/37.14"
	},
	{
		"name": "SALIM",
		"latitude": "41-44-14.72 N",
		"longitude": "86-7-20.51 W",
		"state": "INDIANA",
		"artcc": "ZAU",
		"type": "RP",
		"updated": "GSH*VORTAC*341.58"
	},
	{
		"name": "SALOY",
		"latitude": "41-9-51.62 N",
		"longitude": "88-56-23.75 W",
		"state": "ILLINOIS",
		"artcc": "ZAU",
		"type": "RNAV",
		"updated": "07/28/2009"
	},
	{
		"name": "SAMME",
		"latitude": "42-39-36.95 N",
		"longitude": "85-44-17.4 W",
		"state": "MICHIGAN",
		"artcc": "ZAU",
		"type": "RP",
		"updated": "PMM*VOR/DME*054.25/20.00"
	},
	{
		"name": "SAMNN",
		"latitude": "43-8-47.92 N",
		"longitude": "87-59-28.58 W",
		"state": "WISCONSIN",
		"artcc": "ZAU",
		"type": "RNAV",
		"updated": "03/14/2011"
	},
	{
		"name": "SAMPL",
		"latitude": "41-58-45 N",
		"longitude": "87-27-45 W",
		"state": "ILLINOIS",
		"artcc": "ZAU",
		"type": "RNAV",
		"updated": "04/01/2014"
	},
	{
		"name": "SANCH",
		"latitude": "43-53-38.87 N",
		"longitude": "90-31-38.73 W",
		"state": "WISCONSIN",
		"artcc": "ZAU",
		"type": "MR",
		"updated": "VOK*TACAN*256.00/12.00"
	},
	{
		"name": "SANTS",
		"latitude": "43-18-37.81 N",
		"longitude": "90-17-28.9 W",
		"state": "WISCONSIN",
		"artcc": "ZAU",
		"type": "RP",
		"updated": "LNR*VOR/DME*278.00/7.00"
	},
	{
		"name": "SARAN",
		"latitude": "42-54-39.98 N",
		"longitude": "85-15-52.78 W",
		"state": "MICHIGAN",
		"artcc": "ZAU",
		"type": "RP",
		"updated": "VIO*VOR/DME*057.89/12.68"
	},
	{
		"name": "SARRO",
		"latitude": "43-10-43.15 N",
		"longitude": "89-58-8.65 W",
		"state": "WISCONSIN",
		"artcc": "ZAU",
		"type": "RP",
		"updated": "LNR*VOR/DME*133.92/10.00"
	},
	{
		"name": "SAVAN",
		"latitude": "42-18-23.13 N",
		"longitude": "90-26-47.21 W",
		"state": "IOWA",
		"artcc": "ZAU",
		"type": "RP",
		"updated": "DBQ*VORTAC*111.92/13.00"
	},
	{
		"name": "SAVRD",
		"latitude": "41-38-23.63 N",
		"longitude": "87-44-39.07 W",
		"state": "ILLINOIS",
		"artcc": "ZAU",
		"type": "RNAV",
		"updated": "05/20/2013"
	},
	{
		"name": "SAXON",
		"latitude": "42-54-48.51 N",
		"longitude": "87-39-27.34 W",
		"state": "WISCONSIN",
		"artcc": "ZAU",
		"type": "RNAV",
		"updated": "12/21/2009"
	},
	{
		"name": "SAYBA",
		"latitude": "40-22-41.87 N",
		"longitude": "88-30-40.99 W",
		"state": "ILLINOIS",
		"artcc": "ZAU",
		"type": "RP",
		"updated": "RBS*VOR/DME*230.61/20.03"
	},
	{
		"name": "SAYMU",
		"latitude": "42-41-58.89 N",
		"longitude": "87-43-39.47 W",
		"state": "WISCONSIN",
		"artcc": "ZAU",
		"type": "RNAV",
		"updated": "12/21/2009"
	},
	{
		"name": "SEATS",
		"latitude": "42-41-39.87 N",
		"longitude": "92-38-4.88 W",
		"state": "IOWA",
		"artcc": "ZAU",
		"type": "RP",
		"updated": "TNU*VOR/DME*018.00"
	},
	{
		"name": "SEDLY",
		"latitude": "41-27-7.62 N",
		"longitude": "86-52-38.39 W",
		"state": "INDIANA",
		"artcc": "ZAU",
		"type": "RP",
		"updated": "OXI*VOR/DME*307.22/12.92"
	},
	{
		"name": "SEFOB",
		"latitude": "41-22-37.73 N",
		"longitude": "87-44-39.14 W",
		"state": "ILLINOIS",
		"artcc": "ZAU",
		"type": "RNAV",
		"updated": "01/20/2009"
	},
	{
		"name": "SEHVI",
		"latitude": "41-7-13.7 N",
		"longitude": "91-37-52.74 W",
		"state": "IOWA",
		"artcc": "ZAU",
		"type": "RNAV",
		"updated": "08/11/2010"
	},
	{
		"name": "SEIKA",
		"latitude": "41-57-57.14 N",
		"longitude": "87-46-47.73 W",
		"state": "ILLINOIS",
		"artcc": "ZAU",
		"type": "RP",
		"updated": "OBK*VOR/DME*155.35"
	},
	{
		"name": "SEJLE",
		"latitude": "42-18-56.27 N",
		"longitude": "88-18-34.26 W",
		"state": "ILLINOIS",
		"artcc": "ZAU",
		"type": "RNAV",
		"updated": "04/12/2000"
	},
	{
		"name": "SELOE",
		"latitude": "41-16-25.44 N",
		"longitude": "86-26-15.55 W",
		"state": "INDIANA",
		"artcc": "ZAU",
		"type": "RP",
		"updated": "OXI*VOR/DME*106.77/10.00"
	},
	{
		"name": "SELVA",
		"latitude": "41-46-30.56 N",
		"longitude": "89-33-5 W",
		"state": "ILLINOIS",
		"artcc": "ZAU",
		"type": "RP",
		"updated": "PLL*VOR/DME*183.09"
	},
	{
		"name": "SENOC",
		"latitude": "41-11-5.05 N",
		"longitude": "91-40-58.8 W",
		"state": "IOWA",
		"artcc": "ZAU",
		"type": "RNAV",
		"updated": "02/22/2016"
	},
	{
		"name": "SERCY",
		"latitude": "41-14-9.59 N",
		"longitude": "88-16-5.9 W",
		"state": "ILLINOIS",
		"artcc": "ZAU",
		"type": "RP",
		"updated": "JOT*VOR/DME*171.05/18.75"
	},
	{
		"name": "SESPY",
		"latitude": "42-38-53.36 N",
		"longitude": "90-34-41.32 W",
		"state": "WISCONSIN",
		"artcc": "ZAU",
		"type": "RNAV",
		"updated": "06/28/2009"
	},
	{
		"name": "SEVEE",
		"latitude": "40-45-27.82 N",
		"longitude": "87-11-53.4 W",
		"state": "INDIANA",
		"artcc": "ZAU",
		"type": "RNAV",
		"updated": "07/31/2017"
	},
	{
		"name": "SEVOE",
		"latitude": "40-49-52.06 N",
		"longitude": "88-47-35.39 W",
		"state": "ILLINOIS",
		"artcc": "ZAU",
		"type": "RNAV",
		"updated": "07/28/2009"
	},
	{
		"name": "SEWAY",
		"latitude": "40-51-0.63 N",
		"longitude": "88-4-44.64 W",
		"state": "ILLINOIS",
		"artcc": "ZAU",
		"type": "RP",
		"updated": "RBS*VOR/DME*011.55/16.56"
	},
	{
		"name": "SEWTO",
		"latitude": "41-44-52.02 N",
		"longitude": "85-30-40.69 W",
		"state": "INDIANA",
		"artcc": "ZAU",
		"type": "RP",
		"updated": "GSH*VORTAC*059.96/26.81"
	},
	{
		"name": "SEYVY",
		"latitude": "43-28-47.42 N",
		"longitude": "88-14-10.21 W",
		"state": "WISCONSIN",
		"artcc": "ZAU",
		"type": "RNAV",
		"updated": "02/14/2010"
	},
	{
		"name": "SHAIN",
		"latitude": "41-38-37 N",
		"longitude": "89-8-9 W",
		"state": "ILLINOIS",
		"artcc": "ZAU",
		"type": "RNAV",
		"updated": "08/27/2013"
	},
	{
		"name": "SHARN",
		"latitude": "41-57-53.15 N",
		"longitude": "88-13-53.21 W",
		"state": "ILLINOIS",
		"artcc": "ZAU",
		"type": "RP",
		"updated": "SXH*LD*272.86/13.23"
	},
	{
		"name": "SHARO",
		"latitude": "41-59-6.88 N",
		"longitude": "91-50-14.54 W",
		"state": "IOWA",
		"artcc": "ZAU",
		"type": "WP",
		"updated": "CID*VOR/DME*333.47/6.30"
	},
	{
		"name": "SHAWW",
		"latitude": "40-8-58.92 N",
		"longitude": "86-14-10.73 W",
		"state": "INDIANA",
		"artcc": "ZAU",
		"type": "RP",
		"updated": "OKK*VORTAC*199.90/24.10"
	},
	{
		"name": "SHEWY",
		"latitude": "41-49-9 N",
		"longitude": "91-37-19.56 W",
		"state": "IOWA",
		"artcc": "ZAU",
		"type": "RNAV",
		"updated": "01/25/2005"
	},
	{
		"name": "SHIRN",
		"latitude": "41-10-30.13 N",
		"longitude": "91-42-2.64 W",
		"state": "IOWA",
		"artcc": "ZAU",
		"type": "RP",
		"updated": "IOW*VOR/DME*185.88/21.00"
	},
	{
		"name": "SHLTZ",
		"latitude": "43-46-19 N",
		"longitude": "87-26-25 W",
		"state": "WISCONSIN",
		"artcc": "ZAU",
		"type": "WP",
		"updated": "06/29/2012"
	},
	{
		"name": "SHOOF",
		"latitude": "41-45-18.06 N",
		"longitude": "89-4-27.29 W",
		"state": "ILLINOIS",
		"artcc": "ZAU",
		"type": "RP",
		"updated": "RFD*VOR/DME*167.75/28.77"
	},
	{
		"name": "SHOOZ",
		"latitude": "41-33-16.6 N",
		"longitude": "88-44-27.49 W",
		"state": "ILLINOIS",
		"artcc": "ZAU",
		"type": "RP",
		"updated": "PNT*VOR/DME*356.56"
	},
	{
		"name": "SHRIE",
		"latitude": "40-34-24.26 N",
		"longitude": "89-57-39.2 W",
		"state": "ILLINOIS",
		"artcc": "ZAU",
		"type": "RNAV",
		"updated": "03/16/2015"
	},
	{
		"name": "SIBEE",
		"latitude": "43-2-2.69 N",
		"longitude": "86-18-23.04 W",
		"state": "MICHIGAN",
		"artcc": "ZAU",
		"type": "RNAV",
		"updated": "09/24/2004"
	},
	{
		"name": "SIBER",
		"latitude": "43-8-4.85 N",
		"longitude": "90-23-33.64 W",
		"state": "WISCONSIN",
		"artcc": "ZAU",
		"type": "RP",
		"updated": "ODI*VORTAC*133.46/66.17"
	},
	{
		"name": "SIBLY",
		"latitude": "42-0-9.92 N",
		"longitude": "87-47-42.29 W",
		"state": "ILLINOIS",
		"artcc": "ZAU",
		"type": "RP",
		"updated": "OBK*VOR/DME*153.88"
	},
	{
		"name": "SICLE",
		"latitude": "40-15-18.13 N",
		"longitude": "86-15-14.89 W",
		"state": "INDIANA",
		"artcc": "ZAU",
		"type": "RNAV",
		"updated": "02/14/2011"
	},
	{
		"name": "SIDCO",
		"latitude": "43-16-46.97 N",
		"longitude": "89-30-47.82 W",
		"state": "WISCONSIN",
		"artcc": "ZAU",
		"type": "RNAV",
		"updated": "03/30/2011"
	},
	{
		"name": "SIDME",
		"latitude": "42-0-1.32 N",
		"longitude": "89-8-41.42 W",
		"state": "ILLINOIS",
		"artcc": "ZAU",
		"type": "RNAV",
		"updated": "07/28/2009"
	},
	{
		"name": "SIFOJ",
		"latitude": "42-12-55.19 N",
		"longitude": "91-54-29.05 W",
		"state": "IOWA",
		"artcc": "ZAU",
		"type": "RNAV",
		"updated": "02/18/2010"
	},
	{
		"name": "SIGIE",
		"latitude": "42-38-19.72 N",
		"longitude": "86-4-22.13 W",
		"state": "MICHIGAN",
		"artcc": "ZAU",
		"type": "RNAV",
		"updated": "12/21/2009"
	},
	{
		"name": "SIHLE",
		"latitude": "41-13-14.91 N",
		"longitude": "93-34-9.75 W",
		"state": "IOWA",
		"artcc": "ZAU",
		"type": "RNAV",
		"updated": "02/13/2012"
	},
	{
		"name": "SILMS",
		"latitude": "41-27-6.1 N",
		"longitude": "86-44-55.61 W",
		"state": "INDIANA",
		"artcc": "ZAU",
		"type": "RP",
		"updated": "VP*NDB*092.21"
	},
	{
		"name": "SILTE",
		"latitude": "41-22-46.27 N",
		"longitude": "90-9-59.04 W",
		"state": "ILLINOIS",
		"artcc": "ZAU",
		"type": "RNAV",
		"updated": "08/07/2009"
	},
	{
		"name": "SIMMN",
		"latitude": "41-58-50.47 N",
		"longitude": "88-52-42.4 W",
		"state": "ILLINOIS",
		"artcc": "ZAU",
		"type": "RP",
		"updated": "RFD*VOR/DME*134.60/20.52"
	},
	{
		"name": "SIMPP",
		"latitude": "40-34-19.04 N",
		"longitude": "86-15-56.3 W",
		"state": "INDIANA",
		"artcc": "ZAU",
		"type": "MR",
		"updated": "GUS*VORTAC*231.00/6.80"
	},
	{
		"name": "SIMPY",
		"latitude": "41-3-32.47 N",
		"longitude": "91-58-53.88 W",
		"state": "IOWA",
		"artcc": "ZAU",
		"type": "WP",
		"updated": "OTM*VOR/DME*077.34/15.73"
	},
	{
		"name": "SINGR",
		"latitude": "41-28-6.8 N",
		"longitude": "92-57-56.11 W",
		"state": "IOWA",
		"artcc": "ZAU",
		"type": "RP",
		"updated": "DSM*VORTAC*079.26/30.88"
	},
	{
		"name": "SINGS",
		"latitude": "43-9-1.43 N",
		"longitude": "85-37-8.48 W",
		"state": "MICHIGAN",
		"artcc": "ZAU",
		"type": "RNAV",
		"updated": "04/07/2009"
	},
	{
		"name": "SINNI",
		"latitude": "43-1-38.82 N",
		"longitude": "86-3-9.7 W",
		"state": "MICHIGAN",
		"artcc": "ZAU",
		"type": "RP",
		"updated": "MKG*LD*141.40/12.16"
	},
	{
		"name": "SINSE",
		"latitude": "41-40-52.29 N",
		"longitude": "87-36-22.78 W",
		"state": "ILLINOIS",
		"artcc": "ZAU",
		"type": "RP",
		"updated": "CGT*VORTAC*349.34"
	},
	{
		"name": "SIPTE",
		"latitude": "41-33-16.17 N",
		"longitude": "87-0-28.22 W",
		"state": "INDIANA",
		"artcc": "ZAU",
		"type": "RNAV",
		"updated": "12/12/2007"
	},
	{
		"name": "SIQEK",
		"latitude": "41-19-16.61 N",
		"longitude": "85-16-29.83 W",
		"state": "INDIANA",
		"artcc": "ZAU",
		"type": "RNAV",
		"updated": "11/17/2010"
	},
	{
		"name": "SIRCO",
		"latitude": "41-37-54.14 N",
		"longitude": "88-16-40.67 W",
		"state": "ILLINOIS",
		"artcc": "ZAU",
		"type": "RP",
		"updated": "DPA*VOR/DME*166.17"
	},
	{
		"name": "SIRLE",
		"latitude": "42-14-18.33 N",
		"longitude": "89-7-34.94 W",
		"state": "ILLINOIS",
		"artcc": "ZAU",
		"type": "RNAV",
		"updated": "07/28/2009"
	},
	{
		"name": "SIVOY",
		"latitude": "43-54-19.23 N",
		"longitude": "87-39-10.5 W",
		"state": "WISCONSIN",
		"artcc": "ZAU",
		"type": "RP",
		"updated": "MTW*VOR/DME*177.00/13.44"
	},
	{
		"name": "SJAAY",
		"latitude": "40-58-44.05 N",
		"longitude": "85-11-17.17 W",
		"state": "INDIANA",
		"artcc": "ZAU",
		"type": "RNAV",
		"updated": "01/12/2015"
	},
	{
		"name": "SKEAT",
		"latitude": "41-42-13.9 N",
		"longitude": "85-52-53.85 W",
		"state": "INDIANA",
		"artcc": "ZAU",
		"type": "RP",
		"updated": "GSH*VORTAC*031.52"
	},
	{
		"name": "SKRAP",
		"latitude": "41-27-2.26 N",
		"longitude": "90-37-21.13 W",
		"state": "ILLINOIS",
		"artcc": "ZAU",
		"type": "RP",
		"updated": "CVA*VORTAC*198.11/16.69"
	},
	{
		"name": "SLICE",
		"latitude": "43-27-2.88 N",
		"longitude": "90-2-30.12 W",
		"state": "WISCONSIN",
		"artcc": "ZAU",
		"type": "RP",
		"updated": "DLL*VORTAC*240.80"
	},
	{
		"name": "SLOAT",
		"latitude": "41-59-36.98 N",
		"longitude": "86-3-57.19 W",
		"state": "MICHIGAN",
		"artcc": "ZAU",
		"type": "RNAV",
		"updated": "06/05/2010"
	},
	{
		"name": "SLOGS",
		"latitude": "41-59-2.67 N",
		"longitude": "86-25-11.62 W",
		"state": "MICHIGAN",
		"artcc": "ZAU",
		"type": "RNAV",
		"updated": "06/29/2017"
	},
	{
		"name": "SLUGR",
		"latitude": "42-59-47.75 N",
		"longitude": "88-42-30.35 W",
		"state": "WISCONSIN",
		"artcc": "ZAU",
		"type": "RP",
		"updated": "BAE*VOR/DME*247.00/20.00"
	},
	{
		"name": "SLYDR",
		"latitude": "41-6-41.41 N",
		"longitude": "85-1-14.9 W",
		"state": "INDIANA",
		"artcc": "ZAU",
		"type": "RNAV",
		"updated": "08/07/2008"
	},
	{
		"name": "SMARS",
		"latitude": "41-7-38.18 N",
		"longitude": "88-51-38.22 W",
		"state": "ILLINOIS",
		"artcc": "ZAU",
		"type": "RP",
		"updated": "PNT*VOR/DME*339.57/19.24"
	},
	{
		"name": "SMIDD",
		"latitude": "42-45-3.01 N",
		"longitude": "92-37-16.05 W",
		"state": "IOWA",
		"artcc": "ZAU",
		"type": "RNAV",
		"updated": "08/26/2013"
	},
	{
		"name": "SMULA",
		"latitude": "42-20-27.94 N",
		"longitude": "88-39-35.7 W",
		"state": "ILLINOIS",
		"artcc": "ZAU",
		"type": "RP",
		"updated": "RFD*VOR/DME*072.73/25.00"
	},
	{
		"name": "SMUUV",
		"latitude": "42-27-58.77 N",
		"longitude": "86-7-38.37 W",
		"state": "MICHIGAN",
		"artcc": "ZAU",
		"type": "RNAV",
		"updated": "10/02/2017"
	},
	{
		"name": "SNAPS",
		"latitude": "42-50-6.02 N",
		"longitude": "88-0-58.41 W",
		"state": "WISCONSIN",
		"artcc": "ZAU",
		"type": "RNAV",
		"updated": "11/06/2013"
	},
	{
		"name": "SNARE",
		"latitude": "43-11-55.72 N",
		"longitude": "90-31-37.35 W",
		"state": "WISCONSIN",
		"artcc": "ZAU",
		"type": "RP",
		"updated": "LNR*VOR/DME*251.77/18.20"
	},
	{
		"name": "SNTOE",
		"latitude": "41-57-55.21 N",
		"longitude": "87-22-18.41 W",
		"state": "ILLINOIS",
		"artcc": "ZAU",
		"type": "RP",
		"updated": "VZE*LD*092.89/25.25"
	},
	{
		"name": "SNUGS",
		"latitude": "40-42-24.03 N",
		"longitude": "91-20-32.44 W",
		"state": "IOWA",
		"artcc": "ZAU",
		"type": "RNAV",
		"updated": "03/27/2018"
	},
	{
		"name": "SOCNO",
		"latitude": "43-6-4.35 N",
		"longitude": "89-44-32.46 W",
		"state": "WISCONSIN",
		"artcc": "ZAU",
		"type": "RNAV",
		"updated": "10/05/2007"
	},
	{
		"name": "SOCOS",
		"latitude": "41-30-14.78 N",
		"longitude": "87-31-5.54 W",
		"state": "INDIANA",
		"artcc": "ZAU",
		"type": "RNAV",
		"updated": "01/21/2007"
	},
	{
		"name": "SOLUM",
		"latitude": "41-50-13.02 N",
		"longitude": "91-24-20.88 W",
		"state": "IOWA",
		"artcc": "ZAU",
		"type": "RP",
		"updated": "CID*VOR/DME*094.97/17.30"
	},
	{
		"name": "SONOY",
		"latitude": "42-37-41.84 N",
		"longitude": "88-3-14.27 W",
		"state": "WISCONSIN",
		"artcc": "ZAU",
		"type": "RNAV",
		"updated": "02/07/2008"
	},
	{
		"name": "SOOLU",
		"latitude": "42-11-46.95 N",
		"longitude": "88-8-51.7 W",
		"state": "ILLINOIS",
		"artcc": "ZAU",
		"type": "RNAV",
		"updated": "10/26/2009"
	},
	{
		"name": "SOREZ",
		"latitude": "40-6-51.79 N",
		"longitude": "87-37-59.64 W",
		"state": "ILLINOIS",
		"artcc": "ZAU",
		"type": "RP",
		"updated": "DNV*VORTAC*196.03/11.31"
	},
	{
		"name": "SORPE",
		"latitude": "41-57-51.23 N",
		"longitude": "91-26-21.62 W",
		"state": "IOWA",
		"artcc": "ZAU",
		"type": "RNAV",
		"updated": "03/14/2007"
	},
	{
		"name": "SOTTE",
		"latitude": "43-38-20.86 N",
		"longitude": "88-43-45.32 W",
		"state": "WISCONSIN",
		"artcc": "ZAU",
		"type": "RNAV",
		"updated": "06/16/2008"
	},
	{
		"name": "SOUSE",
		"latitude": "40-15-34.68 N",
		"longitude": "86-10-42.63 W",
		"state": "INDIANA",
		"artcc": "ZAU",
		"type": "RP",
		"updated": "OKK*VORTAC*204.00/17.00"
	},
	{
		"name": "SOWWI",
		"latitude": "40-2-25.59 N",
		"longitude": "86-39-15.87 W",
		"state": "INDIANA",
		"artcc": "ZAU",
		"type": "RNAV",
		"updated": "10/05/2016"
	},
	{
		"name": "SOXSS",
		"latitude": "41-29-5.54 N",
		"longitude": "89-0-12.31 W",
		"state": "ILLINOIS",
		"artcc": "ZAU",
		"type": "RP",
		"updated": "RFD*VOR/DME*167.75/45.28"
	},
	{
		"name": "SOYOB",
		"latitude": "43-55-5.67 N",
		"longitude": "88-5-5.13 W",
		"state": "WISCONSIN",
		"artcc": "ZAU",
		"type": "RNAV",
		"updated": "09/15/2011"
	},
	{
		"name": "SPAHN",
		"latitude": "42-53-27.02 N",
		"longitude": "87-37-48.57 W",
		"state": "WISCONSIN",
		"artcc": "ZAU",
		"type": "RNAV",
		"updated": "08/19/2015"
	},
	{
		"name": "SPANN",
		"latitude": "41-15-16.92 N",
		"longitude": "85-36-32.51 W",
		"state": "INDIANA",
		"artcc": "ZAU",
		"type": "RP",
		"updated": "FWA*VORTAC*317.02/25.25"
	},
	{
		"name": "SPNCE",
		"latitude": "41-48-37.38 N",
		"longitude": "88-16-53.2 W",
		"state": "ILLINOIS",
		"artcc": "ZAU",
		"type": "RP",
		"updated": "DPA*VOR/DME*145.26"
	},
	{
		"name": "SQUIB",
		"latitude": "42-55-10.43 N",
		"longitude": "87-3-56.17 W",
		"state": "MICHIGAN",
		"artcc": "ZAU",
		"type": "RP",
		"updated": "PMM*VOR/DME*302.94/50.47"
	},
	{
		"name": "SSIMS",
		"latitude": "43-32-28.13 N",
		"longitude": "85-0-49.77 W",
		"state": "MICHIGAN",
		"artcc": "ZAU",
		"type": "RNAV",
		"updated": "06/19/2009"
	},
	{
		"name": "STADI",
		"latitude": "40-7-16.25 N",
		"longitude": "88-12-39.14 W",
		"state": "ILLINOIS",
		"artcc": "ZAU",
		"type": "RP",
		"updated": "CMI*VORTAC*027.00/6.00"
	},
	{
		"name": "STAKS",
		"latitude": "40-23-24.03 N",
		"longitude": "87-22-44.95 W",
		"state": "INDIANA",
		"artcc": "ZAU",
		"type": "RP",
		"updated": "RBS*VOR/DME*105.48"
	},
	{
		"name": "START",
		"latitude": "41-45-24.84 N",
		"longitude": "89-0-21.73 W",
		"state": "ILLINOIS",
		"artcc": "ZAU",
		"type": "RP",
		"updated": "DPA*VOR/DME*253.00/30.49"
	},
	{
		"name": "STASH",
		"latitude": "41-46-15.08 N",
		"longitude": "86-19-23.31 W",
		"state": "MICHIGAN",
		"artcc": "ZAU",
		"type": "RNAV",
		"updated": "08/20/2015"
	},
	{
		"name": "STATE",
		"latitude": "40-3-14.05 N",
		"longitude": "87-27-52.33 W",
		"state": "INDIANA",
		"artcc": "ZAU",
		"type": "RP",
		"updated": "DNV*VORTAC*161.47/15.00"
	},
	{
		"name": "STERE",
		"latitude": "41-51-0.76 N",
		"longitude": "87-19-35.35 W",
		"state": "ILLINOIS",
		"artcc": "ZAU",
		"type": "RNAV",
		"updated": "05/28/2014"
	},
	{
		"name": "STKNY",
		"latitude": "41-30-24.41 N",
		"longitude": "88-17-25.6 W",
		"state": "ILLINOIS",
		"artcc": "ZAU",
		"type": "RNAV",
		"updated": "05/02/2013"
	},
	{
		"name": "STNGG",
		"latitude": "42-3-59.1 N",
		"longitude": "86-32-47.31 W",
		"state": "MICHIGAN",
		"artcc": "ZAU",
		"type": "RNAV",
		"updated": "06/29/2017"
	},
	{
		"name": "STNLE",
		"latitude": "42-28-22.04 N",
		"longitude": "89-24-14.54 W",
		"state": "ILLINOIS",
		"artcc": "ZAU",
		"type": "RNAV",
		"updated": "08/28/2014"
	},
	{
		"name": "STORY",
		"latitude": "42-18-32.91 N",
		"longitude": "87-19-22.48 W",
		"state": "ILLINOIS",
		"artcc": "ZAU",
		"type": "RP",
		"updated": "OBK*VOR/DME*081.16/28.51"
	},
	{
		"name": "STRUK",
		"latitude": "40-14-3.66 N",
		"longitude": "90-18-21.5 W",
		"state": "ILLINOIS",
		"artcc": "ZAU",
		"type": "RNAV",
		"updated": "07/07/2009"
	},
	{
		"name": "STYLE",
		"latitude": "41-46-26.3 N",
		"longitude": "86-48-30.18 W",
		"state": "MICHIGAN",
		"artcc": "ZAU",
		"type": "RP",
		"updated": "OXI*VOR/DME*345.24"
	},
	{
		"name": "SUBFO",
		"latitude": "40-7-39.32 N",
		"longitude": "86-15-9.35 W",
		"state": "INDIANA",
		"artcc": "ZAU",
		"type": "RNAV",
		"updated": "08/07/2008"
	},
	{
		"name": "SUBOE",
		"latitude": "41-43-58.36 N",
		"longitude": "87-34-4.87 W",
		"state": "ILLINOIS",
		"artcc": "ZAU",
		"type": "RNAV",
		"updated": "01/12/2006"
	},
	{
		"name": "SUCOP",
		"latitude": "41-56-35.9 N",
		"longitude": "88-14-13.47 W",
		"state": "ILLINOIS",
		"artcc": "ZAU",
		"type": "RNAV",
		"updated": "10/24/2007"
	},
	{
		"name": "SUDDS",
		"latitude": "43-8-37.14 N",
		"longitude": "87-21-53.97 W",
		"state": "WISCONSIN",
		"artcc": "ZAU",
		"type": "RP",
		"updated": "BAE*VOR/DME*085.41/40.42"
	},
	{
		"name": "SUDJU",
		"latitude": "40-51-46.73 N",
		"longitude": "84-51-28.34 W",
		"state": "INDIANA",
		"artcc": "ZAU",
		"type": "RNAV",
		"updated": "11/17/2008"
	},
	{
		"name": "SUDUW",
		"latitude": "43-48-46.89 N",
		"longitude": "90-7-47.79 W",
		"state": "WISCONSIN",
		"artcc": "ZAU",
		"type": "RNAV",
		"updated": "05/24/2016"
	},
	{
		"name": "SUGEE",
		"latitude": "42-14-20.07 N",
		"longitude": "88-58-35.52 W",
		"state": "ILLINOIS",
		"artcc": "ZAU",
		"type": "RNAV",
		"updated": "04/25/2012"
	},
	{
		"name": "SULME",
		"latitude": "40-51-31.21 N",
		"longitude": "92-5-17.76 W",
		"state": "IOWA",
		"artcc": "ZAU",
		"type": "RNAV",
		"updated": "08/08/2007"
	},
	{
		"name": "SURGY",
		"latitude": "41-21-21.42 N",
		"longitude": "86-10-48.63 W",
		"state": "INDIANA",
		"artcc": "ZAU",
		"type": "RNAV",
		"updated": "11/18/2015"
	},
	{
		"name": "SUSOY",
		"latitude": "42-11-42.35 N",
		"longitude": "86-27-24.31 W",
		"state": "MICHIGAN",
		"artcc": "ZAU",
		"type": "RNAV",
		"updated": "03/01/2011"
	},
	{
		"name": "SUYOD",
		"latitude": "42-20-21.93 N",
		"longitude": "85-34-20.83 W",
		"state": "MICHIGAN",
		"artcc": "ZAU",
		"type": "RNAV",
		"updated": "06/21/2013"
	},
	{
		"name": "SWAGG",
		"latitude": "42-50-44.86 N",
		"longitude": "90-50-14.75 W",
		"state": "WISCONSIN",
		"artcc": "ZAU",
		"type": "RP",
		"updated": "DBQ*VORTAC*344.00/27.25"
	},
	{
		"name": "SWETT",
		"latitude": "41-44-19.19 N",
		"longitude": "88-33-54.03 W",
		"state": "ILLINOIS",
		"artcc": "ZAU",
		"type": "RP",
		"updated": "DPA*VOR/DME*224.73/13.25"
	},
	{
		"name": "SWIIS",
		"latitude": "42-31-30.21 N",
		"longitude": "87-30-34.2 W",
		"state": "WISCONSIN",
		"artcc": "ZAU",
		"type": "RNAV",
		"updated": "08/27/2013"
	},
	{
		"name": "SWISH",
		"latitude": "41-52-57.82 N",
		"longitude": "91-34-45.23 W",
		"state": "IOWA",
		"artcc": "ZAU",
		"type": "RP",
		"updated": "CID*VOR/DME*/9.30"
	},
	{
		"name": "SYNTH",
		"latitude": "41-56-15.36 N",
		"longitude": "87-18-8.56 W",
		"state": "ILLINOIS",
		"artcc": "ZAU",
		"type": "RNAV",
		"updated": "09/26/2016"
	},
	{
		"name": "SYSCO",
		"latitude": "41-58-3.81 N",
		"longitude": "88-18-4.92 W",
		"state": "ILLINOIS",
		"artcc": "ZAU",
		"type": "RP",
		"updated": "MED*LD*272.86/18.94"
	}
]
