[
	{
		"name": "UBEXE",
		"latitude": "41-55-9.63 N",
		"longitude": "88-36-31.3 W",
		"state": "ILLINOIS",
		"artcc": "ZAU",
		"type": "RNAV",
		"updated": "10/06/2000"
	},
	{
		"name": "UBHIT",
		"latitude": "41-31-31.26 N",
		"longitude": "92-51-44.76 W",
		"state": "IOWA",
		"artcc": "ZAU",
		"type": "RNAV",
		"updated": "01/22/2007"
	},
	{
		"name": "UBHOD",
		"latitude": "42-13-17.74 N",
		"longitude": "88-12-47.14 W",
		"state": "ILLINOIS",
		"artcc": "ZAU",
		"type": "RNAV",
		"updated": "04/26/2000"
	},
	{
		"name": "UBTEY",
		"latitude": "41-21-4.7 N",
		"longitude": "86-6-49.76 W",
		"state": "INDIANA",
		"artcc": "ZAU",
		"type": "RNAV",
		"updated": "08/13/2010"
	},
	{
		"name": "UCILU",
		"latitude": "43-19-26.54 N",
		"longitude": "88-56-17.8 W",
		"state": "WISCONSIN",
		"artcc": "ZAU",
		"type": "RNAV",
		"updated": "01/20/2009"
	},
	{
		"name": "UCJUC",
		"latitude": "41-46-31.38 N",
		"longitude": "87-20-2.1 W",
		"state": "ILLINOIS",
		"artcc": "ZAU",
		"type": "RNAV",
		"updated": "11/06/2000"
	},
	{
		"name": "UCLID",
		"latitude": "42-40-41.59 N",
		"longitude": "87-53-52.45 W",
		"state": "WISCONSIN",
		"artcc": "ZAU",
		"type": "RNAV",
		"updated": "12/21/2009"
	},
	{
		"name": "UCOCI",
		"latitude": "41-12-25.56 N",
		"longitude": "88-54-19.8 W",
		"state": "ILLINOIS",
		"artcc": "ZAU",
		"type": "RNAV",
		"updated": "07/28/2009"
	},
	{
		"name": "UCORO",
		"latitude": "41-50-58.93 N",
		"longitude": "88-32-50.5 W",
		"state": "ILLINOIS",
		"artcc": "ZAU",
		"type": "RNAV",
		"updated": "09/04/2007"
	},
	{
		"name": "UCXOR",
		"latitude": "41-56-33.2 N",
		"longitude": "87-26-32.77 W",
		"state": "ILLINOIS",
		"artcc": "ZAU",
		"type": "RNAV",
		"updated": "09/26/2016"
	},
	{
		"name": "UDEKE",
		"latitude": "43-47-44.52 N",
		"longitude": "87-56-59.38 W",
		"state": "WISCONSIN",
		"artcc": "ZAU",
		"type": "RNAV",
		"updated": "09/15/2011"
	},
	{
		"name": "UDIYO",
		"latitude": "40-33-45.89 N",
		"longitude": "88-52-27.16 W",
		"state": "ILLINOIS",
		"artcc": "ZAU",
		"type": "RNAV",
		"updated": "12/22/2008"
	},
	{
		"name": "UDLAQ",
		"latitude": "42-18-42.95 N",
		"longitude": "92-20-5.73 W",
		"state": "IOWA",
		"artcc": "ZAU",
		"type": "RNAV",
		"updated": "12/13/2001"
	},
	{
		"name": "UDOCA",
		"latitude": "42-58-43.81 N",
		"longitude": "88-52-49.14 W",
		"state": "WISCONSIN",
		"artcc": "ZAU",
		"type": "RNAV",
		"updated": "01/20/2009"
	},
	{
		"name": "UDOMY",
		"latitude": "41-15-20.15 N",
		"longitude": "85-20-34.96 W",
		"state": "INDIANA",
		"artcc": "ZAU",
		"type": "RNAV",
		"updated": "11/17/2010"
	},
	{
		"name": "UDOYL",
		"latitude": "42-9-24.24 N",
		"longitude": "89-13-5.45 W",
		"state": "ILLINOIS",
		"artcc": "ZAU",
		"type": "RP",
		"updated": "RFD*VOR/DME*190.55"
	},
	{
		"name": "UDUPY",
		"latitude": "41-32-9.3 N",
		"longitude": "87-15-40.18 W",
		"state": "INDIANA",
		"artcc": "ZAU",
		"type": "RNAV",
		"updated": "12/12/2007"
	},
	{
		"name": "UDZOW",
		"latitude": "42-19-27.26 N",
		"longitude": "88-8-38.73 W",
		"state": "ILLINOIS",
		"artcc": "ZAU",
		"type": "RNAV",
		"updated": "04/12/2000"
	},
	{
		"name": "UECKR",
		"latitude": "42-18-52.61 N",
		"longitude": "87-38-49.56 W",
		"state": "ILLINOIS",
		"artcc": "ZAU",
		"type": "RNAV",
		"updated": "04/01/2014"
	},
	{
		"name": "UFDIM",
		"latitude": "43-12-25.53 N",
		"longitude": "89-25-6.71 W",
		"state": "WISCONSIN",
		"artcc": "ZAU",
		"type": "RNAV",
		"updated": "03/30/2011"
	},
	{
		"name": "UGFAM",
		"latitude": "40-35-16.47 N",
		"longitude": "85-40-11.1 W",
		"state": "INDIANA",
		"artcc": "ZAU",
		"type": "RNAV",
		"updated": "06/24/2016"
	},
	{
		"name": "UGGLY",
		"latitude": "42-10-43.37 N",
		"longitude": "90-55-5.91 W",
		"state": "IOWA",
		"artcc": "ZAU",
		"type": "RNAV",
		"updated": "08/24/2015"
	},
	{
		"name": "UGULE",
		"latitude": "40-46-26.43 N",
		"longitude": "91-5-10.73 W",
		"state": "ILLINOIS",
		"artcc": "ZAU",
		"type": "RP",
		"updated": "BRL*VOR/DME*287.58/7.92"
	},
	{
		"name": "UGURE",
		"latitude": "40-51-59.08 N",
		"longitude": "88-41-37.21 W",
		"state": "ILLINOIS",
		"artcc": "ZAU",
		"type": "RNAV",
		"updated": "07/28/2009"
	},
	{
		"name": "UHCEF",
		"latitude": "40-27-38.91 N",
		"longitude": "85-58-5.57 W",
		"state": "INDIANA",
		"artcc": "ZAU",
		"type": "RNAV",
		"updated": "08/05/2013"
	},
	{
		"name": "UHDAX",
		"latitude": "40-46-46.56 N",
		"longitude": "84-51-24.14 W",
		"state": "INDIANA",
		"artcc": "ZAU",
		"type": "RNAV",
		"updated": "11/05/2008"
	},
	{
		"name": "UJAVO",
		"latitude": "42-13-3.55 N",
		"longitude": "88-46-6.2 W",
		"state": "ILLINOIS",
		"artcc": "ZAU",
		"type": "RNAV",
		"updated": "04/25/2012"
	},
	{
		"name": "UJBAZ",
		"latitude": "42-43-10.78 N",
		"longitude": "92-15-31.76 W",
		"state": "IOWA",
		"artcc": "ZAU",
		"type": "RNAV",
		"updated": "12/13/2001"
	},
	{
		"name": "UJBEC",
		"latitude": "41-58-21.33 N",
		"longitude": "92-17-27.07 W",
		"state": "IOWA",
		"artcc": "ZAU",
		"type": "RNAV",
		"updated": "04/02/2012"
	},
	{
		"name": "UJEAN",
		"latitude": "41-12-26.15 N",
		"longitude": "88-5-13.75 W",
		"state": "ILLINOIS",
		"artcc": "ZAU",
		"type": "RNAV",
		"updated": "05/25/2016"
	},
	{
		"name": "UJGAR",
		"latitude": "43-44-19.6 N",
		"longitude": "89-57-58.01 W",
		"state": "WISCONSIN",
		"artcc": "ZAU",
		"type": "RNAV",
		"updated": "05/24/2016"
	},
	{
		"name": "UJPUH",
		"latitude": "43-22-0.74 N",
		"longitude": "89-0-22.97 W",
		"state": "WISCONSIN",
		"artcc": "ZAU",
		"type": "RNAV",
		"updated": "05/24/2016"
	},
	{
		"name": "UJUSU",
		"latitude": "40-56-27.33 N",
		"longitude": "92-40-29.88 W",
		"state": "IOWA",
		"artcc": "ZAU",
		"type": "RNAV",
		"updated": "06/24/2013"
	},
	{
		"name": "UKANE",
		"latitude": "42-0-13.1 N",
		"longitude": "85-26-32.15 W",
		"state": "MICHIGAN",
		"artcc": "ZAU",
		"type": "RNAV",
		"updated": "12/12/2007"
	},
	{
		"name": "UKAYE",
		"latitude": "41-56-11.49 N",
		"longitude": "89-4-22.79 W",
		"state": "ILLINOIS",
		"artcc": "ZAU",
		"type": "RNAV",
		"updated": "07/28/2009"
	},
	{
		"name": "UKOCI",
		"latitude": "42-16-1.15 N",
		"longitude": "89-1-15.42 W",
		"state": "ILLINOIS",
		"artcc": "ZAU",
		"type": "RNAV",
		"updated": "07/28/2009"
	},
	{
		"name": "UKRIC",
		"latitude": "41-22-35.54 N",
		"longitude": "93-9-35.43 W",
		"state": "IOWA",
		"artcc": "ZAU",
		"type": "RNAV",
		"updated": "03/04/2010"
	},
	{
		"name": "UKUNE",
		"latitude": "42-9-30.04 N",
		"longitude": "88-11-56.62 W",
		"state": "ILLINOIS",
		"artcc": "ZAU",
		"type": "RP",
		"updated": "DPA*VOR/DME*020.75"
	},
	{
		"name": "UKXIK",
		"latitude": "40-45-30.5 N",
		"longitude": "87-21-21.72 W",
		"state": "INDIANA",
		"artcc": "ZAU",
		"type": "RNAV",
		"updated": "07/31/2017"
	},
	{
		"name": "ULECO",
		"latitude": "42-11-17.74 N",
		"longitude": "85-1-21.96 W",
		"state": "MICHIGAN",
		"artcc": "ZAU",
		"type": "RNAV",
		"updated": "01/03/2012"
	},
	{
		"name": "ULHUV",
		"latitude": "43-48-0.44 N",
		"longitude": "89-40-29.8 W",
		"state": "WISCONSIN",
		"artcc": "ZAU",
		"type": "RNAV",
		"updated": "04/10/2002"
	},
	{
		"name": "UMTAY",
		"latitude": "42-48-51.07 N",
		"longitude": "88-15-13.89 W",
		"state": "WISCONSIN",
		"artcc": "ZAU",
		"type": "RNAV",
		"updated": "08/03/2011"
	},
	{
		"name": "UMUZI",
		"latitude": "42-15-24.12 N",
		"longitude": "88-4-35.41 W",
		"state": "ILLINOIS",
		"artcc": "ZAU",
		"type": "RP",
		"updated": "DPA*VOR/DME*027.01"
	},
	{
		"name": "UNBAR",
		"latitude": "42-2-54.17 N",
		"longitude": "85-12-47.13 W",
		"state": "MICHIGAN",
		"artcc": "ZAU",
		"type": "RP",
		"updated": "FWA*VORTAC*005.00"
	},
	{
		"name": "UNFAV",
		"latitude": "40-47-59.47 N",
		"longitude": "86-46-9.89 W",
		"state": "INDIANA",
		"artcc": "ZAU",
		"type": "RNAV",
		"updated": "08/31/2016"
	},
	{
		"name": "UNSUN",
		"latitude": "42-45-4.72 N",
		"longitude": "85-4-49.7 W",
		"state": "MICHIGAN",
		"artcc": "ZAU",
		"type": "RP",
		"updated": "VIO*VOR/DME*100.44/18.53"
	},
	{
		"name": "UNUDE",
		"latitude": "40-34-52.71 N",
		"longitude": "86-3-30.49 W",
		"state": "INDIANA",
		"artcc": "ZAU",
		"type": "RNAV",
		"updated": "11/20/2006"
	},
	{
		"name": "UNWED",
		"latitude": "43-1-23.01 N",
		"longitude": "87-54-6.38 W",
		"state": "WISCONSIN",
		"artcc": "ZAU",
		"type": "RNAV",
		"updated": "11/06/2013"
	},
	{
		"name": "UPBEM",
		"latitude": "40-48-45.98 N",
		"longitude": "91-11-8.3 W",
		"state": "IOWA",
		"artcc": "ZAU",
		"type": "RNAV",
		"updated": "07/09/2013"
	},
	{
		"name": "UPECA",
		"latitude": "41-22-9.32 N",
		"longitude": "89-28-12.64 W",
		"state": "ILLINOIS",
		"artcc": "ZAU",
		"type": "RNAV",
		"updated": "09/22/2009"
	},
	{
		"name": "UPGEF",
		"latitude": "42-13-28.85 N",
		"longitude": "90-50-58.65 W",
		"state": "IOWA",
		"artcc": "ZAU",
		"type": "RNAV",
		"updated": "06/26/2013"
	},
	{
		"name": "UPIWE",
		"latitude": "40-51-50.34 N",
		"longitude": "84-43-26.35 W",
		"state": "OHIO",
		"artcc": "ZAU",
		"type": "RNAV",
		"updated": "12/08/2008"
	},
	{
		"name": "UPJON",
		"latitude": "42-19-48 N",
		"longitude": "85-34-13.48 W",
		"state": "MICHIGAN",
		"artcc": "ZAU",
		"type": "RP",
		"updated": "AZO*VOR/DME*353.16/5.63"
	},
	{
		"name": "UPUKE",
		"latitude": "40-29-19.1 N",
		"longitude": "87-0-18.44 W",
		"state": "INDIANA",
		"artcc": "ZAU",
		"type": "RP",
		"updated": "BVT*VORTAC*143.00/5.00"
	},
	{
		"name": "UQITY",
		"latitude": "41-42-0.6 N",
		"longitude": "88-24-58.26 W",
		"state": "ILLINOIS",
		"artcc": "ZAU",
		"type": "RNAV",
		"updated": "10/29/2013"
	},
	{
		"name": "UQRIK",
		"latitude": "43-34-26.07 N",
		"longitude": "89-58-54.06 W",
		"state": "WISCONSIN",
		"artcc": "ZAU",
		"type": "RNAV",
		"updated": "01/19/2012"
	},
	{
		"name": "UQXAR",
		"latitude": "40-10-49.91 N",
		"longitude": "86-12-50.46 W",
		"state": "INDIANA",
		"artcc": "ZAU",
		"type": "RP",
		"updated": "OKK*VORTAC*204.00/22.02"
	},
	{
		"name": "URORE",
		"latitude": "41-27-21.27 N",
		"longitude": "90-15-32.02 W",
		"state": "ILLINOIS",
		"artcc": "ZAU",
		"type": "RNAV",
		"updated": "01/30/2011"
	},
	{
		"name": "URRBS",
		"latitude": "41-29-5.5 N",
		"longitude": "89-0-12.12 W",
		"state": "ILLINOIS",
		"artcc": "ZAU",
		"type": "RNAV",
		"updated": "07/30/2012"
	},
	{
		"name": "USAGE",
		"latitude": "41-41-37.16 N",
		"longitude": "88-25-21.6 W",
		"state": "ILLINOIS",
		"artcc": "ZAU",
		"type": "RP",
		"updated": "DPA*VOR/DME*193.48"
	},
	{
		"name": "USGUW",
		"latitude": "41-18-29.2 N",
		"longitude": "86-45-15.67 W",
		"state": "INDIANA",
		"artcc": "ZAU",
		"type": "RNAV",
		"updated": "08/01/2013"
	},
	{
		"name": "USOCI",
		"latitude": "40-29-19.39 N",
		"longitude": "89-35-33.53 W",
		"state": "ILLINOIS",
		"artcc": "ZAU",
		"type": "RNAV",
		"updated": "07/29/2008"
	},
	{
		"name": "USOYE",
		"latitude": "40-58-7.08 N",
		"longitude": "92-16-5.45 W",
		"state": "IOWA",
		"artcc": "ZAU",
		"type": "RNAV",
		"updated": "01/20/2009"
	},
	{
		"name": "USTIS",
		"latitude": "40-45-44.01 N",
		"longitude": "88-17-47.57 W",
		"state": "ILLINOIS",
		"artcc": "ZAU",
		"type": "RNAV",
		"updated": "05/25/2016"
	},
	{
		"name": "USUTE",
		"latitude": "41-5-48.08 N",
		"longitude": "88-27-48.37 W",
		"state": "ILLINOIS",
		"artcc": "ZAU",
		"type": "RNAV",
		"updated": "06/11/2008"
	},
	{
		"name": "UTKUW",
		"latitude": "41-9-0.99 N",
		"longitude": "91-58-51.55 W",
		"state": "IOWA",
		"artcc": "ZAU",
		"type": "RNAV",
		"updated": "01/22/2007"
	},
	{
		"name": "UTULY",
		"latitude": "41-2-32.71 N",
		"longitude": "86-4-7.41 W",
		"state": "INDIANA",
		"artcc": "ZAU",
		"type": "WP",
		"updated": "11/02/1998"
	},
	{
		"name": "UTXIH",
		"latitude": "41-8-33.24 N",
		"longitude": "91-17-7.67 W",
		"state": "IOWA",
		"artcc": "ZAU",
		"type": "RP",
		"updated": "IOW*VOR/DME*141.61/27.00"
	},
	{
		"name": "UVOKY",
		"latitude": "40-53-50.23 N",
		"longitude": "86-46-19.98 W",
		"state": "INDIANA",
		"artcc": "ZAU",
		"type": "RNAV",
		"updated": "04/26/2012"
	},
	{
		"name": "UVOVE",
		"latitude": "41-47-49.54 N",
		"longitude": "89-43-0.31 W",
		"state": "ILLINOIS",
		"artcc": "ZAU",
		"type": "RNAV",
		"updated": "05/06/2011"
	},
	{
		"name": "UVUCU",
		"latitude": "42-43-47.72 N",
		"longitude": "88-5-30.67 W",
		"state": "WISCONSIN",
		"artcc": "ZAU",
		"type": "RNAV",
		"updated": "08/03/2011"
	},
	{
		"name": "UWEVY",
		"latitude": "42-57-12.55 N",
		"longitude": "90-52-30.33 W",
		"state": "WISCONSIN",
		"artcc": "ZAU",
		"type": "RNAV",
		"updated": "09/16/2002"
	},
	{
		"name": "UWKIC",
		"latitude": "43-9-44.91 N",
		"longitude": "87-51-28.26 W",
		"state": "WISCONSIN",
		"artcc": "ZAU",
		"type": "CN",
		"updated": "04/28/2011"
	},
	{
		"name": "UWPED",
		"latitude": "42-17-19.18 N",
		"longitude": "85-12-26.95 W",
		"state": "MICHIGAN",
		"artcc": "ZAU",
		"type": "RNAV",
		"updated": "04/19/2018"
	},
	{
		"name": "UYAGU",
		"latitude": "40-45-46.14 N",
		"longitude": "86-6-56.31 W",
		"state": "INDIANA",
		"artcc": "ZAU",
		"type": "RNAV",
		"updated": "08/05/2013"
	},
	{
		"name": "UYEKU",
		"latitude": "40-39-34.48 N",
		"longitude": "90-31-18.48 W",
		"state": "ILLINOIS",
		"artcc": "ZAU",
		"type": "RNAV",
		"updated": "05/16/2012"
	},
	{
		"name": "UYELO",
		"latitude": "41-32-24.64 N",
		"longitude": "87-45-50.62 W",
		"state": "ILLINOIS",
		"artcc": "ZAU",
		"type": "RNAV",
		"updated": "05/03/2007"
	},
	{
		"name": "UYOLA",
		"latitude": "41-7-26.04 N",
		"longitude": "92-28-30.98 W",
		"state": "IOWA",
		"artcc": "ZAU",
		"type": "RP",
		"updated": "OTM*VOR/DME*304.03/8.85"
	},
	{
		"name": "UYUNA",
		"latitude": "42-21-46.85 N",
		"longitude": "85-10-57.12 W",
		"state": "MICHIGAN",
		"artcc": "ZAU",
		"type": "RNAV",
		"updated": "03/16/2011"
	},
	{
		"name": "UZEPA",
		"latitude": "43-38-0.29 N",
		"longitude": "88-45-45.61 W",
		"state": "WISCONSIN",
		"artcc": "ZAU",
		"type": "RNAV",
		"updated": "01/29/2015"
	},
	{
		"name": "UZSIJ",
		"latitude": "41-8-25.7 N",
		"longitude": "91-56-12.34 W",
		"state": "IOWA",
		"artcc": "ZAU",
		"type": "RP",
		"updated": "IOW*VOR/DME*207.90/27.00"
	}
]
