	{
		"name": "WABAL",
		"latitude": "43-1-16.43 N",
		"longitude": "86-37-9.89 W",
		"state": "MICHIGAN",
		"artcc": "ZAU",
		"type": "WP",
		"updated": "11/21/2000",
	},
	{
		"name": "WABEL",
		"latitude": "42-39-40.43 N",
		"longitude": "88-11-3.44 W",
		"state": "WISCONSIN",
		"artcc": "ZAU",
		"type": "RNAV",
		"updated": "08/01/2013",
	},
	{
		"name": "WABKU",
		"latitude": "42-29-28.82 N",
		"longitude": "90-42-43.69 W",
		"state": "IOWA",
		"artcc": "ZAU",
		"type": "RNAV",
		"updated": "01/16/2009",
	},
	{
		"name": "WABNO",
		"latitude": "41-21-1.34 N",
		"longitude": "89-21-44.6 W",
		"state": "ILLINOIS",
		"artcc": "ZAU",
		"type": "RNAV",
		"updated": "09/22/2009",
	},
	{
		"name": "WABOB",
		"latitude": "41-4-33.29 N",
		"longitude": "88-45-10.67 W",
		"state": "ILLINOIS",
		"artcc": "ZAU",
		"type": "RNAV",
		"updated": "07/28/2009",
	},
	{
		"name": "WACKS",
		"latitude": "42-9-32.51 N",
		"longitude": "90-2-37.87 W",
		"state": "ILLINOIS",
		"artcc": "ZAU",
		"type": "RP",
		"updated": "PLL*VOR/DME*293.71",
	},
	{
		"name": "WADLI",
		"latitude": "41-27-1.54 N",
		"longitude": "85-11-27.99 W",
		"state": "INDIANA",
		"artcc": "ZAU",
		"type": "RNAV",
		"updated": "10/30/2001",
	},
	{
		"name": "WADLL",
		"latitude": "41-45-36.8 N",
		"longitude": "87-37-45.03 W",
		"state": "ILLINOIS",
		"artcc": "ZAU",
		"type": "RNAV",
		"updated": "05/02/2013",
	},
	{
		"name": "WAGET",
		"latitude": "42-24-40.99 N",
		"longitude": "89-3-43.86 W",
		"state": "ILLINOIS",
		"artcc": "ZAU",
		"type": "RNAV",
		"updated": "11/16/2010",
	},
	{
		"name": "WAGIT",
		"latitude": "43-13-3.63 N",
		"longitude": "85-26-30.85 W",
		"state": "MICHIGAN",
		"artcc": "ZAU",
		"type": "RNAV",
		"updated": "04/27/2009",
	},
	{
		"name": "WAGMI",
		"latitude": "42-54-11.02 N",
		"longitude": "85-24-46.67 W",
		"state": "MICHIGAN",
		"artcc": "ZAU",
		"type": "RNAV",
		"updated": "05/22/2009",
	},
	{
		"name": "WAGOR",
		"latitude": "40-30-29.44 N",
		"longitude": "89-2-4.16 W",
		"state": "ILLINOIS",
		"artcc": "ZAU",
		"type": "RP",
		"updated": "BMI*VOR/DME*286.19/5.00",
	},
	{
		"name": "WAGTU",
		"latitude": "40-51-35.19 N",
		"longitude": "91-52-7.02 W",
		"state": "IOWA",
		"artcc": "ZAU",
		"type": "RNAV",
		"updated": "08/08/2007",
	},
	{
		"name": "WAINE",
		"latitude": "41-3-11.44 N",
		"longitude": "85-16-24.61 W",
		"state": "INDIANA",
		"artcc": "ZAU",
		"type": "RP",
		"updated": "FWA*VORTAC*318.90/5.90",
	},
	{
		"name": "WAITS",
		"latitude": "43-7-38.29 N",
		"longitude": "88-38-15.14 W",
		"state": "WISCONSIN",
		"artcc": "ZAU",
		"type": "RP",
		"updated": "BAE*VOR/DME*270.43/15.53",
	},
	{
		"name": "WAKDI",
		"latitude": "41-13-27.08 N",
		"longitude": "89-59-59.15 W",
		"state": "ILLINOIS",
		"artcc": "ZAU",
		"type": "RP",
		"updated": "BDF*VORTAC*281.84/19.04",
	},
	{
		"name": "WALKS",
		"latitude": "43-0-35.55 N",
		"longitude": "85-33-30.66 W",
		"state": "MICHIGAN",
		"artcc": "ZAU",
		"type": "RP",
		"updated": "VIO*VOR/DME*352.58/13.66",
	},
	{
		"name": "WALUM",
		"latitude": "42-55-19.98 N",
		"longitude": "87-59-12.48 W",
		"state": "WISCONSIN",
		"artcc": "ZAU",
		"type": "RNAV",
		"updated": "11/06/2013",
	},
	{
		"name": "WAMEL",
		"latitude": "43-48-3 N",
		"longitude": "90-35-55 W",
		"state": "WISCONSIN",
		"artcc": "ZAU",
		"type": "RP",
		"updated": "DLL*VORTAC*289.70/39.33",
	},
	{
		"name": "WAMOG",
		"latitude": "42-15-32.77 N",
		"longitude": "85-9-10.73 W",
		"state": "MICHIGAN",
		"artcc": "ZAU",
		"type": "RNAV",
		"updated": "02/27/2018",
	},
	{
		"name": "WANIP",
		"latitude": "40-35-41.18 N",
		"longitude": "86-16-35.47 W",
		"state": "INDIANA",
		"artcc": "ZAU",
		"type": "RNAV",
		"updated": "11/20/2006",
	},
	{
		"name": "WANLU",
		"latitude": "41-2-12.82 N",
		"longitude": "89-42-10.45 W",
		"state": "ILLINOIS",
		"artcc": "ZAU",
		"type": "RNAV",
		"updated": "02/03/2014",
	},
	{
		"name": "WANVU",
		"latitude": "40-54-5.55 N",
		"longitude": "88-35-38.5 W",
		"state": "ILLINOIS",
		"artcc": "ZAU",
		"type": "RNAV",
		"updated": "07/28/2009",
	},
	{
		"name": "WAPAB",
		"latitude": "41-52-21.37 N",
		"longitude": "89-0-4.86 W",
		"state": "ILLINOIS",
		"artcc": "ZAU",
		"type": "RNAV",
		"updated": "07/28/2009",
	},
	{
		"name": "WAPEL",
		"latitude": "41-12-11.89 N",
		"longitude": "91-20-17.15 W",
		"state": "IOWA",
		"artcc": "ZAU",
		"type": "RP",
		"updated": "IOW*VOR/DME*141.61/22.65",
	},
	{
		"name": "WAPIX",
		"latitude": "40-24-42.06 N",
		"longitude": "88-38-39.26 W",
		"state": "ILLINOIS",
		"artcc": "ZAU",
		"type": "RNAV",
		"updated": "12/22/2008",
	},
	{
		"name": "WAPON",
		"latitude": "40-48-48.15 N",
		"longitude": "86-20-29.19 W",
		"state": "INDIANA",
		"artcc": "ZAU",
		"type": "RNAV",
		"updated": "05/05/2016",
	},
	{
		"name": "WARBD",
		"latitude": "43-53-58.91 N",
		"longitude": "88-27-15.83 W",
		"state": "WISCONSIN",
		"artcc": "ZAU",
		"type": "RP",
		"updated": "OSH*VORTAC*139.00/7.00",
	},
	{
		"name": "WARMU",
		"latitude": "40-11-28.04 N",
		"longitude": "85-50-40.67 W",
		"state": "INDIANA",
		"artcc": "ZID",
		"type": "RNAV",
		"updated": "09/29/2009",
	},
	{
		"name": "WAROS",
		"latitude": "43-34-36.43 N",
		"longitude": "90-36-51.31 W",
		"state": "WISCONSIN",
		"artcc": "ZAU",
		"type": "RNAV",
		"updated": "01/15/2004",
	},
	{
		"name": "WARPI",
		"latitude": "42-14-41.46 N",
		"longitude": "87-47-11.98 W",
		"state": "ILLINOIS",
		"artcc": "ZAU",
		"type": "RP",
		"updated": "OBK*VOR/DME*081.16/7.49",
	},
	{
		"name": "WARTS",
		"latitude": "42-6-3.76 N",
		"longitude": "88-31-12.9 W",
		"state": "ILLINOIS",
		"artcc": "ZAU",
		"type": "RP",
		"updated": "DPA*VOR/DME*327.00/14.75",
	},
	{
		"name": "WARUT",
		"latitude": "41-11-4.54 N",
		"longitude": "86-6-30.74 W",
		"state": "INDIANA",
		"artcc": "ZAU",
		"type": "RNAV",
		"updated": "08/13/2010",
	},
	{
		"name": "WASCO",
		"latitude": "41-58-58.39 N",
		"longitude": "88-22-17.6 W",
		"state": "ILLINOIS",
		"artcc": "ZAU",
		"type": "RP",
		"updated": "DPA*VOR/DME*348.22",
	},
	{
		"name": "WASIK",
		"latitude": "41-42-36.63 N",
		"longitude": "86-33-4.53 W",
		"state": "INDIANA",
		"artcc": "ZAU",
		"type": "RNAV",
		"updated": "11/19/2002",
	},
	{
		"name": "WASOG",
		"latitude": "43-2-0.06 N",
		"longitude": "86-36-12.99 W",
		"state": "MICHIGAN",
		"artcc": "ZAU",
		"type": "RNAV",
		"updated": "09/09/2014",
	},
	{
		"name": "WASOR",
		"latitude": "42-25-9.32 N",
		"longitude": "88-55-18.84 W",
		"state": "ILLINOIS",
		"artcc": "ZAU",
		"type": "RNAV",
		"updated": "02/03/2004",
	},
	{
		"name": "WASTU",
		"latitude": "41-34-19.55 N",
		"longitude": "87-19-30.45 W",
		"state": "INDIANA",
		"artcc": "ZAU",
		"type": "RP",
		"updated": "CGT*VORTAC*069.38",
	},
	{
		"name": "WATAG",
		"latitude": "41-0-22.96 N",
		"longitude": "90-22-22.74 W",
		"state": "ILLINOIS",
		"artcc": "ZAU",
		"type": "RP",
		"updated": "MZV*VOR/DME*142.41",
	},
	{
		"name": "WATSN",
		"latitude": "41-17-0.43 N",
		"longitude": "86-2-7.21 W",
		"state": "INDIANA",
		"artcc": "ZAU",
		"type": "RP",
		"updated": "OLK*VOR*278.32",
	},
	{
		"name": "WAUCA",
		"latitude": "43-3-27.88 N",
		"longitude": "88-20-19.87 W",
		"state": "WISCONSIN",
		"artcc": "ZAU",
		"type": "RP",
		"updated": "BAE*VOR/DME*212.07",
	},
	{
		"name": "WAUKE",
		"latitude": "42-27-51.53 N",
		"longitude": "87-48-6.2 W",
		"state": "ILLINOIS",
		"artcc": "ZAU",
		"type": "RP",
		"updated": "OBK*VOR/DME*026.61/16.02",
	},
	{
		"name": "WAVBI",
		"latitude": "41-55-44.84 N",
		"longitude": "88-35-47.57 W",
		"state": "ILLINOIS",
		"artcc": "ZAU",
		"type": "RNAV",
		"updated": "08/07/2008",
	},
	{
		"name": "WAVEB",
		"latitude": "41-12-12.05 N",
		"longitude": "89-55-19.7 W",
		"state": "ILLINOIS",
		"artcc": "ZAU",
		"type": "RNAV",
		"updated": "07/30/2013",
	},
	{
		"name": "WAVGO",
		"latitude": "41-22-41.28 N",
		"longitude": "86-39-44.2 W",
		"state": "INDIANA",
		"artcc": "ZAU",
		"type": "RNAV",
		"updated": "08/08/2008",
	},
	{
		"name": "WAVIE",
		"latitude": "41-58-8.64 N",
		"longitude": "87-34-55.96 W",
		"state": "ILLINOIS",
		"artcc": "ZAU",
		"type": "RP",
		"updated": "TSL*LD*092.90/13.25",
	},
	{
		"name": "WAVPA",
		"latitude": "42-21-35.82 N",
		"longitude": "85-33-29.03 W",
		"state": "MICHIGAN",
		"artcc": "ZAU",
		"type": "RNAV",
		"updated": "02/18/2011",
	},
	{
		"name": "WAVUM",
		"latitude": "41-52-57.81 N",
		"longitude": "91-34-31.99 W",
		"state": "IOWA",
		"artcc": "ZAU",
		"type": "RP",
		"updated": "IOW*VOR/DME*359.43",
	},
	{
		"name": "WAWLU",
		"latitude": "40-27-18.64 N",
		"longitude": "89-10-32.73 W",
		"state": "ILLINOIS",
		"artcc": "ZAU",
		"type": "RNAV",
		"updated": "02/09/2018",
	},
	{
		"name": "WAXEV",
		"latitude": "41-1-38.41 N",
		"longitude": "85-20-24.35 W",
		"state": "INDIANA",
		"artcc": "ZAU",
		"type": "RNAV",
		"updated": "11/17/2010",
	},
	{
		"name": "WEARS",
		"latitude": "40-34-13.23 N",
		"longitude": "87-37-21.89 W",
		"state": "ILLINOIS",
		"artcc": "ZAU",
		"type": "RP",
		"updated": "RBS*VOR/DME*089.40/24.77",
	},
	{
		"name": "WEAVE",
		"latitude": "42-32-28.07 N",
		"longitude": "89-8-3.84 W",
		"state": "WISCONSIN",
		"artcc": "ZAU",
		"type": "RP",
		"updated": "JVL*LS*223.52",
	},
	{
		"name": "WEBAG",
		"latitude": "40-17-29.97 N",
		"longitude": "87-31-41.5 W",
		"state": "INDIANA",
		"artcc": "ZAU",
		"type": "RNAV",
		"updated": "06/27/2007",
	},
	{
		"name": "WEBOM",
		"latitude": "43-4-14.87 N",
		"longitude": "85-33-25.37 W",
		"state": "MICHIGAN",
		"artcc": "ZAU",
		"type": "RNAV",
		"updated": "05/15/2009",
	},
	{
		"name": "WEBOR",
		"latitude": "42-36-55.14 N",
		"longitude": "86-6-59.39 W",
		"state": "MICHIGAN",
		"artcc": "ZAU",
		"type": "RNAV",
		"updated": "03/30/2018",
	},
	{
		"name": "WEBUX",
		"latitude": "40-24-7.46 N",
		"longitude": "86-13-28.01 W",
		"state": "INDIANA",
		"artcc": "ZAU",
		"type": "RNAV",
		"updated": "06/05/2010",
	},
	{
		"name": "WEDEX",
		"latitude": "42-17-43.36 N",
		"longitude": "88-54-55.43 W",
		"state": "ILLINOIS",
		"artcc": "ZAU",
		"type": "RNAV",
		"updated": "07/28/2009",
	},
	{
		"name": "WEDIN",
		"latitude": "42-40-51.12 N",
		"longitude": "88-14-39.08 W",
		"state": "WISCONSIN",
		"artcc": "ZAU",
		"type": "RP",
		"updated": "BUU*VOR/DME*102.23/2.60",
	},
	{
		"name": "WEEPS",
		"latitude": "41-21-39.3 N",
		"longitude": "86-14-41.72 W",
		"state": "INDIANA",
		"artcc": "ZAU",
		"type": "RNAV",
		"updated": "11/18/2015",
	},
	{
		"name": "WEGOM",
		"latitude": "43-14-29.21 N",
		"longitude": "87-43-3.43 W",
		"state": "WISCONSIN",
		"artcc": "ZAU",
		"type": "RNAV",
		"updated": "04/27/2011",
	},
	{
		"name": "WEGPU",
		"latitude": "40-2-4.16 N",
		"longitude": "86-16-38.01 W",
		"state": "INDIANA",
		"artcc": "ZAU",
		"type": "RNAV",
		"updated": "01/21/2016",
	},
	{
		"name": "WEGUN",
		"latitude": "43-6-51.26 N",
		"longitude": "86-20-53.13 W",
		"state": "MICHIGAN",
		"artcc": "ZAU",
		"type": "RNAV",
		"updated": "04/05/2018",
	},
	{
		"name": "WEKAR",
		"latitude": "40-48-52.74 N",
		"longitude": "89-31-32.38 W",
		"state": "ILLINOIS",
		"artcc": "ZAU",
		"type": "RNAV",
		"updated": "10/28/2008",
	},
	{
		"name": "WEKEM",
		"latitude": "40-31-11.09 N",
		"longitude": "90-46-3.76 W",
		"state": "ILLINOIS",
		"artcc": "ZAU",
		"type": "RNAV",
		"updated": "01/10/2013",
	},
	{
		"name": "WEKIT",
		"latitude": "41-6-49.83 N",
		"longitude": "87-51-48.43 W",
		"state": "ILLINOIS",
		"artcc": "ZAU",
		"type": "RNAV",
		"updated": "03/25/2013",
	},
	{
		"name": "WELCM",
		"latitude": "43-3-4.68 N",
		"longitude": "91-16-13.37 W",
		"state": "IOWA",
		"artcc": "ZAU",
		"type": "RNAV",
		"updated": "05/07/2013",
	},
	{
		"name": "WELDO",
		"latitude": "40-6-17.23 N",
		"longitude": "86-4-31.95 W",
		"state": "INDIANA",
		"artcc": "ZAU",
		"type": "RP",
		"updated": "OKK*VORTAC*186.82/25.37",
	},
	{
		"name": "WELEV",
		"latitude": "42-0-7.84 N",
		"longitude": "87-30-42.72 W",
		"state": "ILLINOIS",
		"artcc": "ZAU",
		"type": "RP",
		"updated": "ABU*LD*093.01/18.71",
	},
	{
		"name": "WELMA",
		"latitude": "41-30-30.89 N",
		"longitude": "91-55-48.72 W",
		"state": "IOWA",
		"artcc": "ZAU",
		"type": "RP",
		"updated": "CID*VOR/DME*190.99",
	},
	{
		"name": "WELOT",
		"latitude": "40-38-33.02 N",
		"longitude": "89-36-55.28 W",
		"state": "ILLINOIS",
		"artcc": "ZAU",
		"type": "RP",
		"updated": "PIA*VORTAC*101.48/8.41",
	},
	{
		"name": "WENAT",
		"latitude": "42-51-39.25 N",
		"longitude": "89-25-20.7 W",
		"state": "WISCONSIN",
		"artcc": "ZAU",
		"type": "RNAV",
		"updated": "06/13/2011",
	},
	{
		"name": "WENBU",
		"latitude": "43-4-45.24 N",
		"longitude": "88-28-43.16 W",
		"state": "WISCONSIN",
		"artcc": "ZAU",
		"type": "RP",
		"updated": "BAE*VOR/DME*253.27",
	},
	{
		"name": "WENGO",
		"latitude": "40-42-47.15 N",
		"longitude": "86-7-6.39 W",
		"state": "INDIANA",
		"artcc": "ZAU",
		"type": "RNAV",
		"updated": "03/18/2011",
	},
	{
		"name": "WENGS",
		"latitude": "40-13-21.83 N",
		"longitude": "87-7-33.82 W",
		"state": "INDIANA",
		"artcc": "ZAU",
		"type": "RP",
		"updated": "DNV*VORTAC*100.00",
	},
	{
		"name": "WENIN",
		"latitude": "43-3-3.02 N",
		"longitude": "88-17-39.09 W",
		"state": "WISCONSIN",
		"artcc": "ZAU",
		"type": "RNAV",
		"updated": "03/24/2009",
	},
	{
		"name": "WENOT",
		"latitude": "42-19-6.05 N",
		"longitude": "85-33-16.68 W",
		"state": "MICHIGAN",
		"artcc": "ZAU",
		"type": "RNAV",
		"updated": "02/18/2011",
	},
	{
		"name": "WENUL",
		"latitude": "42-32-57.88 N",
		"longitude": "88-8-45.77 W",
		"state": "WISCONSIN",
		"artcc": "ZAU",
		"type": "RNAV",
		"updated": "04/01/2014",
	},
	{
		"name": "WEPAX",
		"latitude": "42-32-23.97 N",
		"longitude": "88-45-59.66 W",
		"state": "WISCONSIN",
		"artcc": "ZAU",
		"type": "RNAV",
		"updated": "02/03/2004",
	},
	{
		"name": "WEPTA",
		"latitude": "41-45-8.46 N",
		"longitude": "89-10-19.62 W",
		"state": "ILLINOIS",
		"artcc": "ZAU",
		"type": "RP",
		"updated": "CVA*VORTAC*083.01/58.96",
	},
	{
		"name": "WERBI",
		"latitude": "43-2-25.96 N",
		"longitude": "88-5-53.11 W",
		"state": "WISCONSIN",
		"artcc": "ZAU",
		"type": "RNAV",
		"updated": "03/30/2009",
	},
	{
		"name": "WERBU",
		"latitude": "41-11-11.77 N",
		"longitude": "85-30-16.14 W",
		"state": "INDIANA",
		"artcc": "ZAU",
		"type": "RP",
		"updated": "MZZ*VOR/DME*013.78",
	},
	{
		"name": "WESAK",
		"latitude": "44-0-0.06 N",
		"longitude": "88-29-9.28 W",
		"state": "WISCONSIN",
		"artcc": "ZAU",
		"type": "RNAV",
		"updated": "05/17/2016",
	},
	{
		"name": "WESUG",
		"latitude": "42-7-39.21 N",
		"longitude": "86-22-25.04 W",
		"state": "MICHIGAN",
		"artcc": "ZAU",
		"type": "RP",
		"updated": "GIJ*VORTAC*353.47",
	},
	{
		"name": "WETEV",
		"latitude": "41-2-8.33 N",
		"longitude": "89-38-28.23 W",
		"state": "ILLINOIS",
		"artcc": "ZAU",
		"type": "RP",
		"updated": "BDF*VORTAC*198.02/7.82",
	},
	{
		"name": "WETOK",
		"latitude": "42-0-40.64 N",
		"longitude": "90-42-51.39 W",
		"state": "IOWA",
		"artcc": "ZAU",
		"type": "RNAV",
		"updated": "06/26/2013",
	},
	{
		"name": "WETVA",
		"latitude": "40-34-21.85 N",
		"longitude": "86-15-51.91 W",
		"state": "INDIANA",
		"artcc": "ZAU",
		"type": "MR",
		"updated": "GUS*VORTAC*232.00",
	},
	{
		"name": "WEVDA",
		"latitude": "41-41-51.76 N",
		"longitude": "86-53-30.99 W",
		"state": "INDIANA",
		"artcc": "ZAU",
		"type": "RNAV",
		"updated": "11/18/2016",
	},
	{
		"name": "WEVGU",
		"latitude": "41-33-39.86 N",
		"longitude": "87-2-26.8 W",
		"state": "INDIANA",
		"artcc": "ZAU",
		"type": "RNAV",
		"updated": "11/18/2016",
	},
	{
		"name": "WEVSO",
		"latitude": "42-9-49.17 N",
		"longitude": "85-25-44.47 W",
		"state": "MICHIGAN",
		"artcc": "ZAU",
		"type": "RNAV",
		"updated": "03/22/2009",
	},
	{
		"name": "WGNER",
		"latitude": "40-44-3.77 N",
		"longitude": "85-15-23.47 W",
		"state": "INDIANA",
		"artcc": "ZAU",
		"type": "RP",
		"updated": "FWA*VORTAC*198.02/15.00",
	},
	{
		"name": "WHAIL",
		"latitude": "41-37-12.13 N",
		"longitude": "88-22-13.75 W",
		"state": "ILLINOIS",
		"artcc": "ZAU",
		"type": "RP",
		"updated": "DPA*VOR/DME*181.24",
	},
	{
		"name": "WHALL",
		"latitude": "43-26-23.24 N",
		"longitude": "86-16-50.64 W",
		"state": "MICHIGAN",
		"artcc": "ZAU",
		"type": "RP",
		"updated": "MKG*VORTAC*328.00/19.37",
	},
	{
		"name": "WHETT",
		"latitude": "41-9-36.64 N",
		"longitude": "86-35-2.93 W",
		"state": "INDIANA",
		"artcc": "ZAU",
		"type": "RP",
		"updated": "JOT*VOR/DME*104.00/82.00",
	},
	{
		"name": "WHIET",
		"latitude": "41-16-49.65 N",
		"longitude": "85-57-33.74 W",
		"state": "INDIANA",
		"artcc": "ZAU",
		"type": "RP",
		"updated": "OLK*VOR*278.65",
	},
	{
		"name": "WIDKI",
		"latitude": "43-11-47.86 N",
		"longitude": "88-26-42.59 W",
		"state": "WISCONSIN",
		"artcc": "ZAU",
		"type": "RP",
		"updated": "BAE*VOR/DME*302.18/8.53",
	},
	{
		"name": "WIDNO",
		"latitude": "43-2-32.23 N",
		"longitude": "87-57-33.91 W",
		"state": "WISCONSIN",
		"artcc": "ZAU",
		"type": "RNAV",
		"updated": "03/24/2009",
	},
	{
		"name": "WIDOS",
		"latitude": "42-55-49.74 N",
		"longitude": "88-6-54.67 W",
		"state": "WISCONSIN",
		"artcc": "ZAU",
		"type": "RNAV",
		"updated": "11/06/2013",
	},
	{
		"name": "WIGBA",
		"latitude": "43-9-32.27 N",
		"longitude": "87-57-43.22 W",
		"state": "WISCONSIN",
		"artcc": "ZAU",
		"type": "RNAV",
		"updated": "03/22/2009",
	},
	{
		"name": "WIGIH",
		"latitude": "43-45-53 N",
		"longitude": "88-42-15.15 W",
		"state": "WISCONSIN",
		"artcc": "ZAU",
		"type": "RNAV",
		"updated": "07/12/2013",
	},
	{
		"name": "WIGOR",
		"latitude": "43-21-32.21 N",
		"longitude": "88-33-58.82 W",
		"state": "WISCONSIN",
		"artcc": "ZAU",
		"type": "RNAV",
		"updated": "01/20/2009",
	},
	{
		"name": "WIGTO",
		"latitude": "41-46-17.27 N",
		"longitude": "87-43-58.14 W",
		"state": "ILLINOIS",
		"artcc": "ZAU",
		"type": "RNAV",
		"updated": "01/12/2004",
	},
	{
		"name": "WIJDY",
		"latitude": "41-41-47.47 N",
		"longitude": "92-24-21.49 W",
		"state": "IOWA",
		"artcc": "ZAU",
		"type": "RNAV",
		"updated": "04/02/2012",
	},
	{
		"name": "WIKDO",
		"latitude": "42-42-14.26 N",
		"longitude": "86-23-43.24 W",
		"state": "MICHIGAN",
		"artcc": "ZAU",
		"type": "RNAV",
		"updated": "07/04/2011",
	},
	{
		"name": "WIKES",
		"latitude": "41-45-58.63 N",
		"longitude": "90-22-43.28 W",
		"state": "IOWA",
		"artcc": "ZAU",
		"type": "RNAV",
		"updated": "11/07/2008",
	},
	{
		"name": "WIKOK",
		"latitude": "41-12-26.4 N",
		"longitude": "90-12-59.99 W",
		"state": "ILLINOIS",
		"artcc": "ZAU",
		"type": "RNAV",
		"updated": "12/04/2008",
	},
	{
		"name": "WIKPI",
		"latitude": "43-8-13.43 N",
		"longitude": "88-0-29.51 W",
		"state": "WISCONSIN",
		"artcc": "ZAU",
		"type": "RNAV",
		"updated": "04/27/2011",
	},
	{
		"name": "WILAG",
		"latitude": "42-31-1.61 N",
		"longitude": "85-41-35.92 W",
		"state": "MICHIGAN",
		"artcc": "ZAU",
		"type": "RNAV",
		"updated": "12/21/2009",
	},
	{
		"name": "WILAT",
		"latitude": "41-46-7.53 N",
		"longitude": "84-53-52.96 W",
		"state": "MICHIGAN",
		"artcc": "ZAU",
		"type": "RNAV",
		"updated": "10/30/2001",
	},
	{
		"name": "WILLA",
		"latitude": "41-58-37.76 N",
		"longitude": "87-25-37.15 W",
		"state": "ILLINOIS",
		"artcc": "ZAU",
		"type": "RNAV",
		"updated": "03/27/2018",
	},
	{
		"name": "WILLT",
		"latitude": "41-58-8.97 N",
		"longitude": "87-46-43.8 W",
		"state": "ILLINOIS",
		"artcc": "ZAU",
		"type": "RP",
		"updated": "OBK*VOR/DME*150.91",
	},
	{
		"name": "WILOK",
		"latitude": "41-19-4.15 N",
		"longitude": "90-34-15.85 W",
		"state": "ILLINOIS",
		"artcc": "ZAU",
		"type": "RNAV",
		"updated": "03/10/2011",
	},
	{
		"name": "WILTI",
		"latitude": "41-32-22.56 N",
		"longitude": "90-58-53.27 W",
		"state": "IOWA",
		"artcc": "ZAU",
		"type": "RNAV",
		"updated": "07/31/2006",
	},
	{
		"name": "WILZZ",
		"latitude": "42-41-35.45 N",
		"longitude": "86-51-36.96 W",
		"state": "MICHIGAN",
		"artcc": "ZAU",
		"type": "RNAV",
		"updated": "10/02/2017",
	},
	{
		"name": "WIMZY",
		"latitude": "40-17-33.31 N",
		"longitude": "88-1-38.03 W",
		"state": "ILLINOIS",
		"artcc": "ZAU",
		"type": "RNAV",
		"updated": "08/19/2015",
	},
	{
		"name": "WINAM",
		"latitude": "40-11-1.76 N",
		"longitude": "86-51-16.29 W",
		"state": "INDIANA",
		"artcc": "ZAU",
		"type": "RNAV",
		"updated": "10/05/2016",
	},
	{
		"name": "WINNE",
		"latitude": "43-50-40.29 N",
		"longitude": "88-30-27.8 W",
		"state": "WISCONSIN",
		"artcc": "ZAU",
		"type": "RP",
		"updated": "OSH*VORTAC*164.55/9.00",
	},
	{
		"name": "WIPED",
		"latitude": "42-44-2.34 N",
		"longitude": "88-8-27.33 W",
		"state": "WISCONSIN",
		"artcc": "ZAU",
		"type": "RP",
		"updated": "BAE*VOR/DME*162.56/23.82",
	},
	{
		"name": "WIPEP",
		"latitude": "42-12-19.32 N",
		"longitude": "85-58-27.77 W",
		"state": "MICHIGAN",
		"artcc": "ZAU",
		"type": "RP",
		"updated": "ELX*VOR/DME*061.03/7.56",
	},
	{
		"name": "WIPIL",
		"latitude": "42-26-46.97 N",
		"longitude": "85-4-43.64 W",
		"state": "MICHIGAN",
		"artcc": "ZAU",
		"type": "RNAV",
		"updated": "04/13/2011",
	},
	{
		"name": "WIRAG",
		"latitude": "41-2-25.58 N",
		"longitude": "87-10-54.92 W",
		"state": "INDIANA",
		"artcc": "ZAU",
		"type": "RNAV",
		"updated": "03/27/2012",
	},
	{
		"name": "WIRDA",
		"latitude": "40-34-31.33 N",
		"longitude": "85-39-49.55 W",
		"state": "INDIANA",
		"artcc": "ZAU",
		"type": "RNAV",
		"updated": "06/24/2016",
	},
	{
		"name": "WIREP",
		"latitude": "42-2-44.42 N",
		"longitude": "85-20-44.54 W",
		"state": "MICHIGAN",
		"artcc": "ZAU",
		"type": "RNAV",
		"updated": "07/06/2012",
	},
	{
		"name": "WIROD",
		"latitude": "42-56-24.57 N",
		"longitude": "89-29-14.46 W",
		"state": "WISCONSIN",
		"artcc": "ZAU",
		"type": "RNAV",
		"updated": "06/13/2012",
	},
	{
		"name": "WIRON",
		"latitude": "41-45-39.99 N",
		"longitude": "90-55-9.94 W",
		"state": "IOWA",
		"artcc": "ZAU",
		"type": "RNAV",
		"updated": "01/30/2011",
	},
	{
		"name": "WIROT",
		"latitude": "41-20-24.61 N",
		"longitude": "91-45-33.4 W",
		"state": "IOWA",
		"artcc": "ZAU",
		"type": "RNAV",
		"updated": "02/22/2016",
	},
	{
		"name": "WIRTO",
		"latitude": "43-20-18.52 N",
		"longitude": "88-21-5.92 W",
		"state": "WISCONSIN",
		"artcc": "ZAU",
		"type": "RNAV",
		"updated": "10/24/2011",
	},
	{
		"name": "WISGA",
		"latitude": "43-43-41.49 N",
		"longitude": "88-4-0.32 W",
		"state": "WISCONSIN",
		"artcc": "ZAU",
		"type": "RNAV",
		"updated": "09/15/2011",
	},
	{
		"name": "WISIL",
		"latitude": "42-30-19.22 N",
		"longitude": "87-44-20.3 W",
		"state": "WISCONSIN",
		"artcc": "ZAU",
		"type": "RADAR",
		"updated": "03/29/2017",
	},
	{
		"name": "WISMO",
		"latitude": "42-18-56.26 N",
		"longitude": "86-5-43.02 W",
		"state": "MICHIGAN",
		"artcc": "ZAU",
		"type": "RP",
		"updated": "PMM*VOR/DME*177.00/9.00",
	},
	{
		"name": "WISON",
		"latitude": "41-2-26.6 N",
		"longitude": "92-21-47.05 W",
		"state": "IOWA",
		"artcc": "ZAU",
		"type": "RNAV",
		"updated": "01/20/2009",
	},
	{
		"name": "WITAL",
		"latitude": "42-41-53.78 N",
		"longitude": "89-19-11.19 W",
		"state": "WISCONSIN",
		"artcc": "ZAU",
		"type": "RNAV",
		"updated": "04/05/2010",
	},
	{
		"name": "WITAT",
		"latitude": "41-18-55 N",
		"longitude": "89-9-9.81 W",
		"state": "ILLINOIS",
		"artcc": "ZAU",
		"type": "RP",
		"updated": "BDF*VORTAC*064.52",
	},
	{
		"name": "WITEL",
		"latitude": "40-42-23.94 N",
		"longitude": "89-36-19.53 W",
		"state": "ILLINOIS",
		"artcc": "ZAU",
		"type": "RNAV",
		"updated": "04/24/2018",
	},
	{
		"name": "WITES",
		"latitude": "40-51-11.24 N",
		"longitude": "85-19-55.74 W",
		"state": "INDIANA",
		"artcc": "ZAU",
		"type": "RNAV",
		"updated": "09/20/2001",
	},
	{
		"name": "WITGO",
		"latitude": "42-27-40.85 N",
		"longitude": "89-13-46.34 W",
		"state": "ILLINOIS",
		"artcc": "ZAU",
		"type": "RP",
		"updated": "JVL*VOR/DME*220.60/8.00",
	},
	{
		"name": "WITOK",
		"latitude": "42-37-9.71 N",
		"longitude": "90-42-44.23 W",
		"state": "IOWA",
		"artcc": "ZAU",
		"type": "RNAV",
		"updated": "11/19/2012",
	},
	{
		"name": "WITOL",
		"latitude": "43-24-55.44 N",
		"longitude": "90-42-56.66 W",
		"state": "WISCONSIN",
		"artcc": "ZAU",
		"type": "RP",
		"updated": "LNR*VOR/DME*286.09/26.52",
	},
	{
		"name": "WITSU",
		"latitude": "43-13-11.2 N",
		"longitude": "88-8-9.93 W",
		"state": "WISCONSIN",
		"artcc": "ZAU",
		"type": "RP",
		"updated": "BAE*VOR/DME*044.46",
	},
	{
		"name": "WIVEV",
		"latitude": "41-6-52.6 N",
		"longitude": "92-57-38.07 W",
		"state": "IOWA",
		"artcc": "ZAU",
		"type": "RNAV",
		"updated": "06/24/2013",
	},
	{
		"name": "WIVIS",
		"latitude": "40-9-25.89 N",
		"longitude": "87-34-56.21 W",
		"state": "ILLINOIS",
		"artcc": "ZAU",
		"type": "RNAV",
		"updated": "06/27/2007",
	},
	{
		"name": "WIVIX",
		"latitude": "43-20-38.43 N",
		"longitude": "90-24-29.23 W",
		"state": "WISCONSIN",
		"artcc": "ZAU",
		"type": "RNAV",
		"updated": "05/03/2016",
	},
	{
		"name": "WIVLI",
		"latitude": "43-52-41.14 N",
		"longitude": "88-33-28.2 W",
		"state": "WISCONSIN",
		"artcc": "ZAU",
		"type": "RNAV",
		"updated": "07/12/2013",
	},
	{
		"name": "WIZEH",
		"latitude": "41-15-18.3 N",
		"longitude": "91-52-17.1 W",
		"state": "IOWA",
		"artcc": "ZAU",
		"type": "RNAV",
		"updated": "08/08/2007",
	},
	{
		"name": "WLLOW",
		"latitude": "41-50-54.92 N",
		"longitude": "89-19-59.62 W",
		"state": "ILLINOIS",
		"artcc": "ZAU",
		"type": "RNAV",
		"updated": "04/16/2009",
	},
	{
		"name": "WLTER",
		"latitude": "42-41-11.39 N",
		"longitude": "86-3-3.94 W",
		"state": "MICHIGAN",
		"artcc": "ZAU",
		"type": "RP",
		"updated": "VIO*VOR/DME*260.40/25.22",
	},
	{
		"name": "WOBEP",
		"latitude": "43-7-20.11 N",
		"longitude": "89-25-27.69 W",
		"state": "WISCONSIN",
		"artcc": "ZAU",
		"type": "RNAV",
		"updated": "05/24/2016",
	},
	{
		"name": "WODKA",
		"latitude": "41-16-28.36 N",
		"longitude": "85-42-16.74 W",
		"state": "INDIANA",
		"artcc": "ZAU",
		"type": "RP",
		"updated": "ASW*LD*E CRS/6.54",
	},
	{
		"name": "WODRO",
		"latitude": "41-56-50.11 N",
		"longitude": "87-34-57.03 W",
		"state": "ILLINOIS",
		"artcc": "ZAU",
		"type": "RNAV",
		"updated": "09/26/2016",
	},
	{
		"name": "WOFMY",
		"latitude": "43-29-4.68 N",
		"longitude": "85-23-44.36 W",
		"state": "MICHIGAN",
		"artcc": "ZAU",
		"type": "RP",
		"updated": "HIC*VOR/DME*112.04/15.00",
	},
	{
		"name": "WOGEJ",
		"latitude": "42-20-4 N",
		"longitude": "92-33-27.16 W",
		"state": "IOWA",
		"artcc": "ZAU",
		"type": "RNAV",
		"updated": "12/13/2001",
	},
	{
		"name": "WOGOG",
		"latitude": "41-39-28.42 N",
		"longitude": "90-27-39.18 W",
		"state": "IOWA",
		"artcc": "ZAU",
		"type": "RNAV",
		"updated": "11/07/2008",
	},
	{
		"name": "WOGPO",
		"latitude": "43-1-15.85 N",
		"longitude": "88-6-10.84 W",
		"state": "WISCONSIN",
		"artcc": "ZAU",
		"type": "RNAV",
		"updated": "03/24/2009",
	},
	{
		"name": "WOGUR",
		"latitude": "43-9-58.37 N",
		"longitude": "88-3-39.75 W",
		"state": "WISCONSIN",
		"artcc": "ZAU",
		"type": "RNAV",
		"updated": "03/23/2009",
	},
	{
		"name": "WOKBO",
		"latitude": "43-3-30.14 N",
		"longitude": "88-20-34.55 W",
		"state": "WISCONSIN",
		"artcc": "ZAU",
		"type": "RNAV",
		"updated": "03/23/2009",
	},
	{
		"name": "WOKLA",
		"latitude": "41-26-25.8 N",
		"longitude": "87-31-40.71 W",
		"state": "ILLINOIS",
		"artcc": "ZAU",
		"type": "RP",
		"updated": "EON*VORTAC*047.15",
	},
	{
		"name": "WOKNO",
		"latitude": "43-29-0.26 N",
		"longitude": "87-46-58.42 W",
		"state": "WISCONSIN",
		"artcc": "ZAU",
		"type": "RP",
		"updated": "FAH*VOR/DME*172.46/17.36",
	},
	{
		"name": "WOLEG",
		"latitude": "41-1-50.09 N",
		"longitude": "91-34-8.64 W",
		"state": "IOWA",
		"artcc": "ZAU",
		"type": "RNAV",
		"updated": "08/11/2010",
	},
	{
		"name": "WOLFF",
		"latitude": "41-46-6.85 N",
		"longitude": "88-37-9.5 W",
		"state": "ILLINOIS",
		"artcc": "ZAU",
		"type": "RP",
		"updated": "JOT*VOR/DME*312.66",
	},
	{
		"name": "WOLIM",
		"latitude": "40-57-58.95 N",
		"longitude": "90-24-31.06 W",
		"state": "ILLINOIS",
		"artcc": "ZAU",
		"type": "RP",
		"updated": "MZV*VOR/DME*148.84",
	},
	{
		"name": "WOMEN",
		"latitude": "44-1-12.52 N",
		"longitude": "88-33-0.55 W",
		"state": "WISCONSIN",
		"artcc": "ZAU",
		"type": "RP",
		"updated": "OSH*VORTAC*005.99/1.80",
	},
	{
		"name": "WONPU",
		"latitude": "40-24-14.38 N",
		"longitude": "86-17-18.85 W",
		"state": "INDIANA",
		"artcc": "ZAU",
		"type": "RNAV",
		"updated": "07/10/2013",
	},
	{
		"name": "WONUM",
		"latitude": "41-18-54.97 N",
		"longitude": "91-2-52.4 W",
		"state": "ILLINOIS",
		"artcc": "ZAU",
		"type": "RNAV",
		"updated": "08/25/2014",
	},
	{
		"name": "WORDY",
		"latitude": "40-40-32.49 N",
		"longitude": "87-38-0.15 W",
		"state": "ILLINOIS",
		"artcc": "ZAU",
		"type": "RP",
		"updated": "DNV*VORTAC*349.36/23.16",
	},
	{
		"name": "WOREG",
		"latitude": "43-14-40.52 N",
		"longitude": "90-24-19.76 W",
		"state": "WISCONSIN",
		"artcc": "ZAU",
		"type": "RNAV",
		"updated": "07/21/2007",
	},
	{
		"name": "WORNO",
		"latitude": "40-4-12 N",
		"longitude": "88-18-52.53 W",
		"state": "ILLINOIS",
		"artcc": "ZAU",
		"type": "RNAV",
		"updated": "CMI*VORTAC*317.16",
	},
	{
		"name": "WOROX",
		"latitude": "42-49-9.78 N",
		"longitude": "89-9-51.47 W",
		"state": "WISCONSIN",
		"artcc": "ZAU",
		"type": "RNAV",
		"updated": "04/05/2010",
	},
	{
		"name": "WOSMU",
		"latitude": "44-6-1.52 N",
		"longitude": "89-23-45.4 W",
		"state": "WISCONSIN",
		"artcc": "ZAU",
		"type": "RNAV",
		"updated": "06/27/2012",
	},
	{
		"name": "WOTMO",
		"latitude": "43-47-49.69 N",
		"longitude": "90-5-41.28 W",
		"state": "WISCONSIN",
		"artcc": "ZAU",
		"type": "RNAV",
		"updated": "05/24/2016",
	},
	{
		"name": "WOTRI",
		"latitude": "43-59-59.94 N",
		"longitude": "88-40-14.29 W",
		"state": "WISCONSIN",
		"artcc": "ZAU",
		"type": "RNAV",
		"updated": "07/01/2016",
	},
	{
		"name": "WOUDE",
		"latitude": "41-11-23.54 N",
		"longitude": "85-24-39.6 W",
		"state": "INDIANA",
		"artcc": "ZAU",
		"type": "RNAV",
		"updated": "11/17/2010",
	},
	{
		"name": "WOVKA",
		"latitude": "42-7-34.44 N",
		"longitude": "86-11-15.82 W",
		"state": "MICHIGAN",
		"artcc": "ZAU",
		"type": "RP",
		"updated": "ELX*VOR/DME*249.44/3.10",
	},
	{
		"name": "WOXIN",
		"latitude": "41-53-11.81 N",
		"longitude": "86-44-2.28 W",
		"state": "MICHIGAN",
		"artcc": "ZAU",
		"type": "RNAV",
		"updated": "08/19/2013",
	},
	{
		"name": "WOXOG",
		"latitude": "40-34-56.14 N",
		"longitude": "85-59-21.15 W",
		"state": "INDIANA",
		"artcc": "ZAU",
		"type": "RP",
		"updated": "MZZ*VOR/DME*293.71",
	},
	{
		"name": "WREST",
		"latitude": "43-31-0.7 N",
		"longitude": "89-23-22.1 W",
		"state": "WISCONSIN",
		"artcc": "ZAU",
		"type": "RP",
		"updated": "DLL*VORTAC*093.99/16.46",
	},
	{
		"name": "WUBUP",
		"latitude": "42-11-13.52 N",
		"longitude": "86-15-53.28 W",
		"state": "MICHIGAN",
		"artcc": "ZAU",
		"type": "RNAV",
		"updated": "02/16/2011",
	},
	{
		"name": "WUBUV",
		"latitude": "42-12-55.82 N",
		"longitude": "89-2-44.02 W",
		"state": "ILLINOIS",
		"artcc": "ZAU",
		"type": "RNAV",
		"updated": "05/06/2011",
	},
	{
		"name": "WUBZU",
		"latitude": "41-29-14.52 N",
		"longitude": "92-58-16.76 W",
		"state": "IOWA",
		"artcc": "ZAU",
		"type": "RNAV",
		"updated": "10/06/2008",
	},
	{
		"name": "WUGBU",
		"latitude": "44-0-45.45 N",
		"longitude": "88-11-21.01 W",
		"state": "WISCONSIN",
		"artcc": "ZAU",
		"type": "RNAV",
		"updated": "09/15/2011",
	},
	{
		"name": "WUGIX",
		"latitude": "41-57-25.86 N",
		"longitude": "87-56-12.89 W",
		"state": "ILLINOIS",
		"artcc": "ZAU",
		"type": "RP",
		"updated": "BYW*LD*271.36/2.06",
	},
	{
		"name": "WUKOM",
		"latitude": "41-41-47.31 N",
		"longitude": "86-10-14.85 W",
		"state": "INDIANA",
		"artcc": "ZAU",
		"type": "RNAV",
		"updated": "11/18/2016",
	},
	{
		"name": "WUKOV",
		"latitude": "41-59-36.57 N",
		"longitude": "86-0-10.51 W",
		"state": "MICHIGAN",
		"artcc": "ZAU",
		"type": "RNAV",
		"updated": "06/05/2010",
	},
	{
		"name": "WULIN",
		"latitude": "40-31-8.9 N",
		"longitude": "90-24-8.31 W",
		"state": "ILLINOIS",
		"artcc": "ZAU",
		"type": "RNAV",
		"updated": "01/10/2013",
	},
	{
		"name": "WULUS",
		"latitude": "43-14-47.83 N",
		"longitude": "88-58-49.96 W",
		"state": "WISCONSIN",
		"artcc": "ZAU",
		"type": "RNAV",
		"updated": "01/20/2009",
	},
	{
		"name": "WUNTZ",
		"latitude": "40-25-33.07 N",
		"longitude": "89-4-19.04 W",
		"state": "ILLINOIS",
		"artcc": "ZAU",
		"type": "RNAV",
		"updated": "05/25/2016",
	},
	{
		"name": "WUPAL",
		"latitude": "40-42-43.67 N",
		"longitude": "87-10-49.22 W",
		"state": "INDIANA",
		"artcc": "ZAU",
		"type": "RNAV",
		"updated": "03/27/2012",
	},
	{
		"name": "WUPOR",
		"latitude": "41-24-58.67 N",
		"longitude": "88-12-55.08 W",
		"state": "ILLINOIS",
		"artcc": "ZAU",
		"type": "RNAV",
		"updated": "12/03/2012",
	},
	{
		"name": "WURAX",
		"latitude": "42-16-15.68 N",
		"longitude": "85-33-28.77 W",
		"state": "MICHIGAN",
		"artcc": "ZAU",
		"type": "RNAV",
		"updated": "06/21/2013",
	},
	{
		"name": "WURID",
		"latitude": "40-29-23.78 N",
		"longitude": "89-20-17.42 W",
		"state": "ILLINOIS",
		"artcc": "ZAU",
		"type": "RNAV",
		"updated": "07/29/2008",
	},
	{
		"name": "WURKO",
		"latitude": "42-26-49.11 N",
		"longitude": "87-21-0.22 W",
		"state": "ILLINOIS",
		"artcc": "ZAU",
		"type": "WP",
		"updated": "11/21/2000",
	},
	{
		"name": "WURNU",
		"latitude": "43-20-21.18 N",
		"longitude": "90-37-53.49 W",
		"state": "WISCONSIN",
		"artcc": "ZAU",
		"type": "RNAV",
		"updated": "07/31/2017",
	},
	{
		"name": "WURSU",
		"latitude": "40-28-6.03 N",
		"longitude": "88-52-21.41 W",
		"state": "ILLINOIS",
		"artcc": "ZAU",
		"type": "RP",
		"updated": "BMI*LD*110.89/3.21",
	},
	{
		"name": "WURVI",
		"latitude": "43-20-7.91 N",
		"longitude": "89-59-4.16 W",
		"state": "WISCONSIN",
		"artcc": "ZAU",
		"type": "RNAV",
		"updated": "01/19/2012",
	},
	{
		"name": "WUTMU",
		"latitude": "43-20-2.07 N",
		"longitude": "88-20-4.69 W",
		"state": "WISCONSIN",
		"artcc": "ZAU",
		"type": "RNAV",
		"updated": "10/24/2011",
	},
	{
		"name": "WUTRU",
		"latitude": "40-43-10.37 N",
		"longitude": "89-38-43.88 W",
		"state": "ILLINOIS",
		"artcc": "ZAU",
		"type": "RNAV",
		"updated": "02/02/2006",
	},
	{
		"name": "WUTSI",
		"latitude": "42-42-50 N",
		"longitude": "88-55-37.87 W",
		"state": "WISCONSIN",
		"artcc": "ZAU",
		"type": "RNAV",
		"updated": "04/05/2010",
	},
	{
		"name": "WUVMO",
		"latitude": "43-53-17.25 N",
		"longitude": "88-49-48.08 W",
		"state": "WISCONSIN",
		"artcc": "ZAU",
		"type": "RP",
		"updated": "07/12/2013",
	},
	{
		"name": "WUXUX",
		"latitude": "41-58-8.08 N",
		"longitude": "87-29-30.62 W",
		"state": "ILLINOIS",
		"artcc": "ZAU",
		"type": "CN",
		"updated": "06/13/2007",
	},
	{
		"name": "WUYFI",
		"latitude": "41-50-48.04 N",
		"longitude": "88-32-40.92 W",
		"state": "ILLINOIS",
		"artcc": "ZAU",
		"type": "RNAV",
		"updated": "10/29/2013",
	},
	{
		"name": "WUZGA",
		"latitude": "41-1-19.82 N",
		"longitude": "92-48-29.67 W",
		"state": "IOWA",
		"artcc": "ZAU",
		"type": "RNAV",
		"updated": "06/24/2013",
	},
	{
		"name": "WUZMU",
		"latitude": "42-13-38.36 N",
		"longitude": "92-17-6.96 W",
		"state": "IOWA",
		"artcc": "ZAU",
		"type": "RNAV",
		"updated": "02/18/2010",
	},
	{
		"name": "WYDIK",
		"latitude": "41-0-12.92 N",
		"longitude": "87-45-24.37 W",
		"state": "ILLINOIS",
		"artcc": "ZAU",
		"type": "RNAV",
		"updated": "05/26/2016",
	},
	{
		"name": "WYNDE",
		"latitude": "42-27-20.73 N",
		"longitude": "87-6-36.63 W",
		"state": "ILLINOIS",
		"artcc": "ZAU",
		"type": "RNAV",
		"updated": "02/26/2018",
	},
	{
		"name": "WYNET",
		"latitude": "41-25-52.17 N",
		"longitude": "89-33-59.79 W",
		"state": "ILLINOIS",
		"artcc": "ZAU",
		"type": "RP",
		"updated": "BDF*VORTAC*003.37/16.31",
	},
	{
		"name": "WYZZE",
		"latitude": "41-27-20.87 N",
		"longitude": "87-18-24.56 W",
		"state": "INDIANA",
		"artcc": "ZAU",
		"type": "RNAV",
		"updated": "05/03/2007",
	},
