	{
		"name": "YABUG",
		"latitude": "40-26-2.17 N",
		"longitude": "88-55-43.55 W",
		"state": "ILLINOIS",
		"artcc": "ZAU",
		"type": "RNAV",
		"updated": "02/13/2007",
	},
	{
		"name": "YABUN",
		"latitude": "40-41-6.55 N",
		"longitude": "88-56-14.3 W",
		"state": "ILLINOIS",
		"artcc": "ZAU",
		"type": "RNAV",
		"updated": "12/22/2008",
	},
	{
		"name": "YABUY",
		"latitude": "41-12-58.52 N",
		"longitude": "92-3-20.44 W",
		"state": "IOWA",
		"artcc": "ZAU",
		"type": "RP",
		"updated": "IOW*VOR/DME*222.90/27.00",
	},
	{
		"name": "YABYU",
		"latitude": "41-24-8.36 N",
		"longitude": "89-54-33.13 W",
		"state": "ILLINOIS",
		"artcc": "ZAU",
		"type": "RNAV",
		"updated": "07/30/2013",
	},
	{
		"name": "YACHT",
		"latitude": "41-49-22.06 N",
		"longitude": "87-42-14.42 W",
		"state": "ILLINOIS",
		"artcc": "ZAU",
		"type": "RNAV",
		"updated": "07/18/2013",
	},
	{
		"name": "YAGPU",
		"latitude": "41-25-4.44 N",
		"longitude": "86-39-44.3 W",
		"state": "INDIANA",
		"artcc": "ZAU",
		"type": "RNAV",
		"updated": "08/08/2008",
	},
	{
		"name": "YARUT",
		"latitude": "43-10-41.82 N",
		"longitude": "89-18-27.72 W",
		"state": "WISCONSIN",
		"artcc": "ZAU",
		"type": "RNAV",
		"updated": "06/13/2012",
	},
	{
		"name": "YATUD",
		"latitude": "43-45-45.91 N",
		"longitude": "88-24-51.94 W",
		"state": "WISCONSIN",
		"artcc": "ZAU",
		"type": "RNAV",
		"updated": "07/12/2013",
	},
	{
		"name": "YAVUN",
		"latitude": "41-12-0.1 N",
		"longitude": "89-42-39.97 W",
		"state": "ILLINOIS",
		"artcc": "ZAU",
		"type": "RNAV",
		"updated": "12/08/2008",
	},
	{
		"name": "YAVUS",
		"latitude": "40-56-26.86 N",
		"longitude": "85-15-46.1 W",
		"state": "INDIANA",
		"artcc": "ZAU",
		"type": "RP",
		"updated": "FWA*VORTAC*241.99/4.10",
	},
	{
		"name": "YEAKN",
		"latitude": "41-57-9.37 N",
		"longitude": "88-42-43.4 W",
		"state": "ILLINOIS",
		"artcc": "ZAU",
		"type": "RNAV",
		"updated": "07/20/2009",
	},
	{
		"name": "YEARN",
		"latitude": "42-4-31.93 N",
		"longitude": "88-33-26.85 W",
		"state": "ILLINOIS",
		"artcc": "ZAU",
		"type": "RP",
		"updated": "DPA*VOR/DME*318.20/14.47",
	},
	{
		"name": "YEARY",
		"latitude": "40-41-14.49 N",
		"longitude": "88-51-51.66 W",
		"state": "ILLINOIS",
		"artcc": "ZAU",
		"type": "RP",
		"updated": "PNT*VOR/DME*213.67/10.00",
	},
	{
		"name": "YEBTY",
		"latitude": "41-28-45.65 N",
		"longitude": "91-21-31.03 W",
		"state": "IOWA",
		"artcc": "ZAU",
		"type": "RNAV",
		"updated": "09/15/2014",
	},
	{
		"name": "YECNU",
		"latitude": "42-48-46.26 N",
		"longitude": "89-58-18.17 W",
		"state": "WISCONSIN",
		"artcc": "ZAU",
		"type": "RNAV",
		"updated": "07/09/2012",
	},
	{
		"name": "YEDSU",
		"latitude": "42-45-31.39 N",
		"longitude": "89-10-36.77 W",
		"state": "WISCONSIN",
		"artcc": "ZAU",
		"type": "RNAV",
		"updated": "04/01/2014",
	},
	{
		"name": "YEGTU",
		"latitude": "41-59-35.24 N",
		"longitude": "85-51-53.02 W",
		"state": "MICHIGAN",
		"artcc": "ZAU",
		"type": "RNAV",
		"updated": "06/05/2010",
	},
	{
		"name": "YELDU",
		"latitude": "41-23-18.49 N",
		"longitude": "91-5-51.73 W",
		"state": "IOWA",
		"artcc": "ZAU",
		"type": "RNAV",
		"updated": "07/31/2006",
	},
	{
		"name": "YELOH",
		"latitude": "43-56-26.92 N",
		"longitude": "90-7-12.86 W",
		"state": "WISCONSIN",
		"artcc": "ZAU",
		"type": "MR",
		"updated": "DLL*VORTAC*323.58/28.07",
	},
	{
		"name": "YENGU",
		"latitude": "41-33-54.51 N",
		"longitude": "87-1-42.99 W",
		"state": "INDIANA",
		"artcc": "ZAU",
		"type": "RNAV",
		"updated": "11/18/2016",
	},
	{
		"name": "YENRU",
		"latitude": "42-25-21.57 N",
		"longitude": "91-56-49.94 W",
		"state": "IOWA",
		"artcc": "ZAU",
		"type": "RP",
		"updated": "02/27/2012",
	},
	{
		"name": "YESUC",
		"latitude": "41-37-0.16 N",
		"longitude": "90-21-51.3 W",
		"state": "IOWA",
		"artcc": "ZAU",
		"type": "RNAV",
		"updated": "11/07/2008",
	},
	{
		"name": "YIBUC",
		"latitude": "41-36-59.87 N",
		"longitude": "86-34-52.35 W",
		"state": "INDIANA",
		"artcc": "ZAU",
		"type": "RNAV",
		"updated": "05/31/2005",
	},
	{
		"name": "YIDUC",
		"latitude": "42-57-46.99 N",
		"longitude": "90-30-40.19 W",
		"state": "WISCONSIN",
		"artcc": "ZAU",
		"type": "RNAV",
		"updated": "07/09/2012",
	},
	{
		"name": "YIDUL",
		"latitude": "41-16-24.15 N",
		"longitude": "85-47-0.56 W",
		"state": "INDIANA",
		"artcc": "ZAU",
		"type": "RP",
		"updated": "ASW*LD*091.82/2.98",
	},
	{
		"name": "YIGIX",
		"latitude": "41-5-30.22 N",
		"longitude": "85-24-36.3 W",
		"state": "INDIANA",
		"artcc": "ZAU",
		"type": "RNAV",
		"updated": "11/17/2010",
	},
	{
		"name": "YIKUS",
		"latitude": "43-11-54.54 N",
		"longitude": "88-6-57.96 W",
		"state": "WISCONSIN",
		"artcc": "ZAU",
		"type": "RNAV",
		"updated": "04/27/2011",
	},
	{
		"name": "YIKUT",
		"latitude": "41-38-23.36 N",
		"longitude": "90-36-45.37 W",
		"state": "IOWA",
		"artcc": "ZAU",
		"type": "RP",
		"updated": "CVA*VORTAC*230.71",
	},
	{
		"name": "YILRU",
		"latitude": "40-17-40.52 N",
		"longitude": "85-59-53.44 W",
		"state": "INDIANA",
		"artcc": "ZAU",
		"type": "RNAV",
		"updated": "08/06/2013",
	},
	{
		"name": "YILUC",
		"latitude": "40-59-7.98 N",
		"longitude": "85-10-52.58 W",
		"state": "INDIANA",
		"artcc": "ZAU",
		"type": "RP",
		"updated": "FWA*VORTAC*044.00/0.50",
	},
	{
		"name": "YINUT",
		"latitude": "41-41-56.39 N",
		"longitude": "90-33-27.5 W",
		"state": "IOWA",
		"artcc": "ZAU",
		"type": "RNAV",
		"updated": "11/07/2008",
	},
	{
		"name": "YIPEE",
		"latitude": "41-44-27.63 N",
		"longitude": "87-48-27.41 W",
		"state": "ILLINOIS",
		"artcc": "ZAU",
		"type": "RNAV",
		"updated": "05/23/2013",
	},
	{
		"name": "YIPLU",
		"latitude": "41-7-12.78 N",
		"longitude": "85-6-51.32 W",
		"state": "INDIANA",
		"artcc": "ZAU",
		"type": "RNAV",
		"updated": "11/04/2015",
	},
	{
		"name": "YIXCI",
		"latitude": "40-51-59.3 N",
		"longitude": "87-30-32.08 W",
		"state": "ILLINOIS",
		"artcc": "ZAU",
		"type": "CN",
		"updated": "12/04/2014",
	},
	{
		"name": "YIXIR",
		"latitude": "42-11-3.41 N",
		"longitude": "91-8-23.11 W",
		"state": "IOWA",
		"artcc": "ZAU",
		"type": "RNAV",
		"updated": "06/20/2011",
	},
	{
		"name": "YIYUT",
		"latitude": "44-1-3.06 N",
		"longitude": "89-16-1.45 W",
		"state": "WISCONSIN",
		"artcc": "ZAU",
		"type": "RNAV",
		"updated": "06/27/2012",
	},
	{
		"name": "YOBUV",
		"latitude": "41-43-44.98 N",
		"longitude": "89-55-16.51 W",
		"state": "ILLINOIS",
		"artcc": "ZAU",
		"type": "RP",
		"updated": "CVA*VORTAC*083.01/25.28",
	},
	{
		"name": "YODUP",
		"latitude": "41-26-43.93 N",
		"longitude": "90-42-50.59 W",
		"state": "ILLINOIS",
		"artcc": "ZAU",
		"type": "RNAV",
		"updated": "01/30/2011",
	},
	{
		"name": "YODUT",
		"latitude": "41-26-31.71 N",
		"longitude": "90-13-55.03 W",
		"state": "ILLINOIS",
		"artcc": "ZAU",
		"type": "RNAV",
		"updated": "02/01/2011",
	},
	{
		"name": "YOGRT",
		"latitude": "41-24-1.1 N",
		"longitude": "87-25-8.22 W",
		"state": "INDIANA",
		"artcc": "ZAU",
		"type": "RNAV",
		"updated": "05/26/2016",
	},
	{
		"name": "YOKUB",
		"latitude": "42-9-6.96 N",
		"longitude": "89-5-43.6 W",
		"state": "ILLINOIS",
		"artcc": "ZAU",
		"type": "RNAV",
		"updated": "11/16/2010",
	},
	{
		"name": "YOLUR",
		"latitude": "42-9-1.93 N",
		"longitude": "86-37-24.42 W",
		"state": "MICHIGAN",
		"artcc": "ZAU",
		"type": "RP",
		"updated": "ELX*VOR/DME*271.11/22.35",
	},
	{
		"name": "YOMNG",
		"latitude": "42-8-2.23 N",
		"longitude": "91-6-23.31 W",
		"state": "IOWA",
		"artcc": "ZAU",
		"type": "RNAV",
		"updated": "06/20/2011",
	},
	{
		"name": "YONUT",
		"latitude": "41-59-1.89 N",
		"longitude": "87-59-15.47 W",
		"state": "ILLINOIS",
		"artcc": "ZAU",
		"type": "RP",
		"updated": "OBK*VOR/DME*188.45",
	},
	{
		"name": "YOPGU",
		"latitude": "41-58-33.95 N",
		"longitude": "90-41-31.38 W",
		"state": "IOWA",
		"artcc": "ZAU",
		"type": "RNAV",
		"updated": "06/26/2013",
	},
	{
		"name": "YORSU",
		"latitude": "41-52-43.64 N",
		"longitude": "92-17-3.68 W",
		"state": "IOWA",
		"artcc": "ZAU",
		"type": "RP",
		"updated": "CID*VOR/DME*263.82/22.35",
	},
	{
		"name": "YOUTO",
		"latitude": "41-12-13.89 N",
		"longitude": "93-21-50.96 W",
		"state": "IOWA",
		"artcc": "ZAU",
		"type": "RNAV",
		"updated": "10/22/2009",
	},
	{
		"name": "YOYCO",
		"latitude": "42-54-18.37 N",
		"longitude": "85-45-27.94 W",
		"state": "MICHIGAN",
		"artcc": "ZAU",
		"type": "RNAV",
		"updated": "02/18/2011",
	},
	{
		"name": "YOYUK",
		"latitude": "41-57-15.38 N",
		"longitude": "87-47-45.81 W",
		"state": "ILLINOIS",
		"artcc": "ZAU",
		"type": "RNAV",
		"updated": "09/26/2016",
	},
	{
		"name": "YUCAN",
		"latitude": "41-45-58.04 N",
		"longitude": "87-52-59.33 W",
		"state": "ILLINOIS",
		"artcc": "ZAU",
		"type": "RNAV",
		"updated": "05/16/2013",
	},
	{
		"name": "YUCUR",
		"latitude": "42-13-25.01 N",
		"longitude": "85-32-55.4 W",
		"state": "MICHIGAN",
		"artcc": "ZAU",
		"type": "RP",
		"updated": "AZO*VOR/DME*167.00/0.83",
	},
	{
		"name": "YUKIS",
		"latitude": "41-23-41.37 N",
		"longitude": "86-49-14.16 W",
		"state": "INDIANA",
		"artcc": "ZAU",
		"type": "RNAV",
		"updated": "08/01/2013",
	},
	{
		"name": "YUKUK",
		"latitude": "42-15-36.75 N",
		"longitude": "85-31-26.62 W",
		"state": "MICHIGAN",
		"artcc": "ZAU",
		"type": "RNAV",
		"updated": "03/01/2011",
	},
	{
		"name": "YUKUL",
		"latitude": "40-16-33.66 N",
		"longitude": "86-7-37.9 W",
		"state": "INDIANA",
		"artcc": "ZAU",
		"type": "RNAV",
		"updated": "VHP*VORTAC*020.74/29.79",
	},
	{
		"name": "YULUB",
		"latitude": "41-8-31.36 N",
		"longitude": "89-35-39.76 W",
		"state": "ILLINOIS",
		"artcc": "ZAU",
		"type": "RNAV",
		"updated": "02/03/2014",
	},
	{
		"name": "YUMPY",
		"latitude": "41-42-53.95 N",
		"longitude": "85-57-20.93 W",
		"state": "INDIANA",
		"artcc": "ZAU",
		"type": "RP",
		"updated": "GSH*VORTAC*015.90",
	},
	{
		"name": "YUPHU",
		"latitude": "41-41-51.63 N",
		"longitude": "87-22-27.26 W",
		"state": "INDIANA",
		"artcc": "ZAU",
		"type": "RNAV",
		"updated": "11/06/2000",
	},
	{
		"name": "YURUD",
		"latitude": "41-55-52.81 N",
		"longitude": "85-28-26.92 W",
		"state": "MICHIGAN",
		"artcc": "ZAU",
		"type": "RP",
		"updated": "LFD*VOR/DME*261.00/32.68",
	},
