[
	{
		"name": "AASON",
		"latitude": "40-51-42.12 N",
		"longitude": "115-36-45.58 W",
		"state": "NEVADA",
		"artcc": "ZLC",
		"type": "RP",
		"updated": "BQU*VOR/DME*030.87/9.13"
	},
	{
		"name": "ACACO",
		"latitude": "41-53-58.64 N",
		"longitude": "111-50-30.04 W",
		"state": "UTAH",
		"artcc": "ZLC",
		"type": "RNAV",
		"updated": "02/22/2016"
	},
	{
		"name": "ACAGO",
		"latitude": "39-37-16.34 N",
		"longitude": "111-52-10.78 W",
		"state": "UTAH",
		"artcc": "ZLC",
		"type": "RNAV",
		"updated": "08/31/2011"
	},
	{
		"name": "ACAKO",
		"latitude": "47-14-52.45 N",
		"longitude": "104-57-35.9 W",
		"state": "MONTANA",
		"artcc": "ZLC",
		"type": "RP",
		"updated": "MLS*VOR/DME*028.87/66.15"
	},
	{
		"name": "ACAPE",
		"latitude": "46-0-4.74 N",
		"longitude": "110-42-24.28 W",
		"state": "MONTANA",
		"artcc": "ZLC",
		"type": "RNAV",
		"updated": "08/10/2011"
	},
	{
		"name": "ACFIJ",
		"latitude": "43-12-47.32 N",
		"longitude": "113-5-0.68 W",
		"state": "IDAHO",
		"artcc": "ZLC",
		"type": "CN",
		"updated": "12/04/2014"
	},
	{
		"name": "ACIPO",
		"latitude": "40-32-13.83 N",
		"longitude": "111-58-42.81 W",
		"state": "UTAH",
		"artcc": "ZLC",
		"type": "RNAV",
		"updated": "08/01/2017"
	},
	{
		"name": "ADEXE",
		"latitude": "43-30-16.79 N",
		"longitude": "116-26-53.72 W",
		"state": "IDAHO",
		"artcc": "ZLC",
		"type": "RNAV",
		"updated": "08/23/2017"
	},
	{
		"name": "ADIBE",
		"latitude": "39-6-11.04 N",
		"longitude": "110-43-50.27 W",
		"state": "UTAH",
		"artcc": "ZLC",
		"type": "RP",
		"updated": "PUC*VOR/DME*163.96/30.00"
	},
	{
		"name": "AEDES",
		"latitude": "43-36-42.44 N",
		"longitude": "116-21-32.28 W",
		"state": "IDAHO",
		"artcc": "ZLC",
		"type": "RNAV",
		"updated": "08/01/2014"
	},
	{
		"name": "AGMEW",
		"latitude": "45-45-19.38 N",
		"longitude": "110-17-24.75 W",
		"state": "MONTANA",
		"artcc": "ZLC",
		"type": "RNAV",
		"updated": "08/10/2011"
	},
	{
		"name": "AGMIB",
		"latitude": "48-13-30.98 N",
		"longitude": "106-28-19.96 W",
		"state": "MONTANA",
		"artcc": "ZLC",
		"type": "RNAV",
		"updated": "03/05/2014"
	},
	{
		"name": "AGRYN",
		"latitude": "48-33-53.03 N",
		"longitude": "111-51-24.61 W",
		"state": "MONTANA",
		"artcc": "ZLC",
		"type": "RP",
		"updated": "CTB*VOR/DME*072.86/19.39"
	},
	{
		"name": "AHEHU",
		"latitude": "45-23-44.85 N",
		"longitude": "113-53-59.74 W",
		"state": "IDAHO",
		"artcc": "ZLC",
		"type": "RNAV",
		"updated": "02/09/2001"
	},
	{
		"name": "AIMED",
		"latitude": "46-18-21.97 N",
		"longitude": "104-12-17.85 W",
		"state": "MONTANA",
		"artcc": "ZLC",
		"type": "RNAV",
		"updated": "09/11/2014"
	},
	{
		"name": "AJHUD",
		"latitude": "42-28-52.92 N",
		"longitude": "114-30-34.53 W",
		"state": "IDAHO",
		"artcc": "ZLC",
		"type": "RP",
		"updated": "TWF*VORTAC*257.80/0.90"
	},
	{
		"name": "AJKEV",
		"latitude": "44-30-40.21 N",
		"longitude": "109-2-24.49 W",
		"state": "WYOMING",
		"artcc": "ZLC",
		"type": "RNAV",
		"updated": "02/17/2006"
	},
	{
		"name": "AKABY",
		"latitude": "47-47-28.38 N",
		"longitude": "114-21-23.13 W",
		"state": "MONTANA",
		"artcc": "ZLC",
		"type": "RNAV",
		"updated": "04/21/2009"
	},
	{
		"name": "AKEKE",
		"latitude": "48-22-8.58 N",
		"longitude": "107-35-6.59 W",
		"state": "MONTANA",
		"artcc": "ZLC",
		"type": "RNAV",
		"updated": "04/17/2002"
	},
	{
		"name": "AKEVY",
		"latitude": "44-57-20.26 N",
		"longitude": "108-52-42.74 W",
		"state": "WYOMING",
		"artcc": "ZLC",
		"type": "RNAV",
		"updated": "07/26/2013"
	},
	{
		"name": "AKICI",
		"latitude": "44-52-39.55 N",
		"longitude": "117-51-15.62 W",
		"state": "OREGON",
		"artcc": "ZLC",
		"type": "RP",
		"updated": "BKE*VOR/DME*298.28/2.98"
	},
	{
		"name": "AKIYA",
		"latitude": "43-57-53.47 N",
		"longitude": "116-59-0.36 W",
		"state": "OREGON",
		"artcc": "ZLC",
		"type": "RNAV",
		"updated": "11/01/2017"
	},
	{
		"name": "AKRAH",
		"latitude": "45-7-28.32 N",
		"longitude": "112-39-13.89 W",
		"state": "MONTANA",
		"artcc": "ZLC",
		"type": "RNAV",
		"updated": "11/04/2015"
	},
	{
		"name": "ALESH",
		"latitude": "39-28-42.15 N",
		"longitude": "110-59-3.91 W",
		"state": "UTAH",
		"artcc": "ZLC",
		"type": "RNAV",
		"updated": "07/13/2015"
	},
	{
		"name": "ALGIE",
		"latitude": "40-28-33.74 N",
		"longitude": "111-56-19.11 W",
		"state": "UTAH",
		"artcc": "ZLC",
		"type": "RP",
		"updated": "SLC*LD*163.96/17.80"
	},
	{
		"name": "ALHOB",
		"latitude": "46-54-21.61 N",
		"longitude": "114-5-18.43 W",
		"state": "MONTANA",
		"artcc": "ZLC",
		"type": "RNAV",
		"updated": "03/12/2018"
	},
	{
		"name": "ALKAL",
		"latitude": "43-0-58.35 N",
		"longitude": "115-19-41.26 W",
		"state": "IDAHO",
		"artcc": "ZLC",
		"type": "RP",
		"updated": "LIA*VOR*066.00"
	},
	{
		"name": "ALKEY",
		"latitude": "42-56-59.65 N",
		"longitude": "108-12-50.13 W",
		"state": "WYOMING",
		"artcc": "ZLC",
		"type": "RP",
		"updated": "BOY*VOR/DME*157.00"
	},
	{
		"name": "ALLRD",
		"latitude": "42-31-56.65 N",
		"longitude": "110-56-34.06 W",
		"state": "WYOMING",
		"artcc": "ZLC",
		"type": "RNAV",
		"updated": "08/11/2006"
	},
	{
		"name": "ALOSY",
		"latitude": "46-15-49.53 N",
		"longitude": "106-31-49.59 W",
		"state": "MONTANA",
		"artcc": "ZLC",
		"type": "RNAV",
		"updated": "07/05/2011"
	},
	{
		"name": "ALSIZ",
		"latitude": "43-39-59.19 N",
		"longitude": "116-14-41.78 W",
		"state": "IDAHO",
		"artcc": "ZLC",
		"type": "RNAV",
		"updated": "08/01/2014"
	},
	{
		"name": "ALTON",
		"latitude": "47-1-54.89 N",
		"longitude": "114-25-42.15 W",
		"state": "MONTANA",
		"artcc": "ZLC",
		"type": "RP",
		"updated": "MSO*VOR/DME*284.84/16.00"
	},
	{
		"name": "ALVIL",
		"latitude": "44-7-56.48 N",
		"longitude": "108-12-26.17 W",
		"state": "WYOMING",
		"artcc": "ZLC",
		"type": "RP",
		"updated": "BOY*VOR/DME*349.68"
	},
	{
		"name": "AMEKK",
		"latitude": "40-31-9.44 N",
		"longitude": "112-2-22.64 W",
		"state": "UTAH",
		"artcc": "ZLC",
		"type": "RNAV",
		"updated": "11/06/2015"
	},
	{
		"name": "AMFAL",
		"latitude": "42-45-56.67 N",
		"longitude": "112-50-4.64 W",
		"state": "IDAHO",
		"artcc": "ZLC",
		"type": "RNAV",
		"updated": "04/28/2017"
	},
	{
		"name": "AMOME",
		"latitude": "43-28-54.11 N",
		"longitude": "114-16-26.95 W",
		"state": "IDAHO",
		"artcc": "ZLC",
		"type": "RNAV",
		"updated": "08/23/2007"
	},
	{
		"name": "AMPLY",
		"latitude": "42-0-1.31 N",
		"longitude": "110-35-0.85 W",
		"state": "WYOMING",
		"artcc": "ZLC",
		"type": "RNAV",
		"updated": "11/21/2014"
	},
	{
		"name": "AMXOJ",
		"latitude": "43-23-18.53 N",
		"longitude": "112-14-26.02 W",
		"state": "IDAHO",
		"artcc": "ZLC",
		"type": "RNAV",
		"updated": "12/12/2007"
	},
	{
		"name": "ANALE",
		"latitude": "47-44-37.41 N",
		"longitude": "110-24-34.27 W",
		"state": "MONTANA",
		"artcc": "ZLC",
		"type": "RP",
		"updated": "LWT*VOR/DME*307.00/52.84"
	},
	{
		"name": "ANEYI",
		"latitude": "40-42-12.6 N",
		"longitude": "112-18-53.78 W",
		"state": "UTAH",
		"artcc": "ZLC",
		"type": "RP",
		"updated": "FFU*VORTAC*310.42/30.89"
	},
	{
		"name": "ANGIL",
		"latitude": "47-57-52.4 N",
		"longitude": "114-9-28.49 W",
		"state": "MONTANA",
		"artcc": "ZLC",
		"type": "RP",
		"updated": "SAK*NDB*110.13"
	},
	{
		"name": "ANJLA",
		"latitude": "46-44-21.19 N",
		"longitude": "105-59-1.71 W",
		"state": "MONTANA",
		"artcc": "ZLC",
		"type": "RNAV",
		"updated": "12/12/2016"
	},
	{
		"name": "ANNEM",
		"latitude": "46-41-41.32 N",
		"longitude": "111-30-46.13 W",
		"state": "MONTANA",
		"artcc": "ZLC",
		"type": "RP",
		"updated": "HLN*VORTAC*057.67/18.96"
	},
	{
		"name": "ANNTY",
		"latitude": "40-54-5.01 N",
		"longitude": "112-6-34.61 W",
		"state": "UTAH",
		"artcc": "ZLC",
		"type": "RNAV",
		"updated": "08/28/2007"
	},
	{
		"name": "ANTMO",
		"latitude": "40-45-31.14 N",
		"longitude": "115-24-3.48 W",
		"state": "NEVADA",
		"artcc": "ZLC",
		"type": "RNAV",
		"updated": "03/02/2018"
	},
	{
		"name": "APGUH",
		"latitude": "42-31-9.78 N",
		"longitude": "114-14-47.46 W",
		"state": "IDAHO",
		"artcc": "ZLC",
		"type": "RP",
		"updated": "TWF*VORTAC*059.51/11.04"
	},
	{
		"name": "APICI",
		"latitude": "46-34-13.81 N",
		"longitude": "113-4-54.43 W",
		"state": "MONTANA",
		"artcc": "ZLC",
		"type": "RNAV",
		"updated": "10/30/2012"
	},
	{
		"name": "APISE",
		"latitude": "43-30-7.58 N",
		"longitude": "116-26-29.39 W",
		"state": "IDAHO",
		"artcc": "ZLC",
		"type": "RNAV",
		"updated": "08/01/2014"
	},
	{
		"name": "ARAHE",
		"latitude": "45-7-0.46 N",
		"longitude": "113-53-2.17 W",
		"state": "IDAHO",
		"artcc": "ZLC",
		"type": "RP",
		"updated": "LKT*VOR/DME*043.00/10.27"
	},
	{
		"name": "ARAYI",
		"latitude": "41-1-56.69 N",
		"longitude": "115-33-53.56 W",
		"state": "NEVADA",
		"artcc": "ZLC",
		"type": "RNAV",
		"updated": "04/18/2016"
	},
	{
		"name": "ARBIH",
		"latitude": "39-42-9.88 N",
		"longitude": "110-55-35.97 W",
		"state": "UTAH",
		"artcc": "ZLC",
		"type": "RP",
		"updated": "PUC*VOR/DME*292.70/10.00"
	},
	{
		"name": "ARCHZ",
		"latitude": "40-33-52.03 N",
		"longitude": "112-18-42.39 W",
		"state": "UTAH",
		"artcc": "ZLC",
		"type": "RNAV",
		"updated": "03/23/2018"
	},
	{
		"name": "ARDMO",
		"latitude": "45-39-41.99 N",
		"longitude": "108-11-50.62 W",
		"state": "MONTANA",
		"artcc": "ZLC",
		"type": "RP",
		"updated": "BIL*VORTAC*102.00/20.00"
	},
	{
		"name": "ARHUF",
		"latitude": "48-40-49.6 N",
		"longitude": "109-37-40.02 W",
		"state": "MONTANA",
		"artcc": "ZLC",
		"type": "RNAV",
		"updated": "11/03/2009"
	},
	{
		"name": "ARLEE",
		"latitude": "47-8-27.42 N",
		"longitude": "114-5-59.11 W",
		"state": "MONTANA",
		"artcc": "ZLC",
		"type": "RP",
		"updated": "MLP*VOR/DME*091.15"
	},
	{
		"name": "ARMTY",
		"latitude": "45-51-2.69 N",
		"longitude": "109-29-42.49 W",
		"state": "MONTANA",
		"artcc": "ZLC",
		"type": "RNAV",
		"updated": "09/19/2017"
	},
	{
		"name": "AROWS",
		"latitude": "43-29-23.21 N",
		"longitude": "115-50-9.66 W",
		"state": "IDAHO",
		"artcc": "ZLC",
		"type": "RP",
		"updated": "LIA*VOR*336.93"
	},
	{
		"name": "ARUTE",
		"latitude": "41-37-47.51 N",
		"longitude": "108-41-10.57 W",
		"state": "WYOMING",
		"artcc": "ZLC",
		"type": "RP",
		"updated": "OCS*VOR/DME*067.77/15.00"
	},
	{
		"name": "ARUXY",
		"latitude": "43-15-18.27 N",
		"longitude": "108-54-39.43 W",
		"state": "WYOMING",
		"artcc": "ZLC",
		"type": "RP",
		"updated": "RIW*VOR/DME*289.75/23.00"
	},
	{
		"name": "ARYOT",
		"latitude": "43-23-48.9 N",
		"longitude": "115-44-10.77 W",
		"state": "IDAHO",
		"artcc": "ZLC",
		"type": "RP",
		"updated": "BOI*VORTAC*098.00/22.00"
	},
	{
		"name": "ASHLI",
		"latitude": "46-19-0.24 N",
		"longitude": "106-16-36.59 W",
		"state": "MONTANA",
		"artcc": "ZLC",
		"type": "RP",
		"updated": "MLS*VOR/DME*244.81/14.00"
	},
	{
		"name": "ASHUW",
		"latitude": "45-52-1.87 N",
		"longitude": "109-58-28.43 W",
		"state": "MONTANA",
		"artcc": "ZLC",
		"type": "RNAV",
		"updated": "09/19/2017"
	},
	{
		"name": "ASTNN",
		"latitude": "39-15-0 N",
		"longitude": "116-23-0 W",
		"state": "NEVADA",
		"artcc": "ZLC",
		"type": "RNAV",
		"updated": "03/02/2018"
	},
	{
		"name": "ATACI",
		"latitude": "40-47-28.37 N",
		"longitude": "115-46-32.3 W",
		"state": "NEVADA",
		"artcc": "ZLC",
		"type": "RP",
		"updated": "BQU*VOR/DME*324.02/2.00"
	},
	{
		"name": "ATANE",
		"latitude": "40-29-22.52 N",
		"longitude": "111-56-24.72 W",
		"state": "UTAH",
		"artcc": "ZLC",
		"type": "RP",
		"updated": "SLC*LD*S CRS/16.99"
	},
	{
		"name": "ATCHY",
		"latitude": "48-20-49.86 N",
		"longitude": "106-49-33.23 W",
		"state": "MONTANA",
		"artcc": "ZLC",
		"type": "RNAV",
		"updated": "12/19/2011"
	},
	{
		"name": "ATETY",
		"latitude": "43-23-29.55 N",
		"longitude": "115-55-47.12 W",
		"state": "IDAHO",
		"artcc": "ZLC",
		"type": "RP",
		"updated": "BOI*VORTAC*113.07/15.00"
	},
	{
		"name": "ATEYA",
		"latitude": "48-52-22.27 N",
		"longitude": "104-53-26.3 W",
		"state": "MONTANA",
		"artcc": "ZLC",
		"type": "RNAV",
		"updated": "09/28/2012"
	},
	{
		"name": "ATIZO",
		"latitude": "46-15-4.88 N",
		"longitude": "106-22-33.03 W",
		"state": "MONTANA",
		"artcc": "ZLC",
		"type": "RNAV",
		"updated": "07/05/2011"
	},
	{
		"name": "ATLEZ",
		"latitude": "40-40-13.81 N",
		"longitude": "111-57-17.84 W",
		"state": "UTAH",
		"artcc": "ZLC",
		"type": "RNAV",
		"updated": "01/31/2001"
	},
	{
		"name": "ATOXY",
		"latitude": "41-53-19.92 N",
		"longitude": "110-34-1.72 W",
		"state": "WYOMING",
		"artcc": "ZLC",
		"type": "RNAV",
		"updated": "11/21/2014"
	},
	{
		"name": "ATTOL",
		"latitude": "43-38-57.31 N",
		"longitude": "116-28-10.86 W",
		"state": "IDAHO",
		"artcc": "ZLC",
		"type": "RP",
		"updated": "BOI*VORTAC*278.65/13.41"
	},
	{
		"name": "AUERR",
		"latitude": "47-22-20.36 N",
		"longitude": "111-26-11.08 W",
		"state": "MONTANA",
		"artcc": "ZLC",
		"type": "RNAV",
		"updated": "06/08/2011"
	},
	{
		"name": "AUNTS",
		"latitude": "41-47-0.28 N",
		"longitude": "110-33-6.08 W",
		"state": "WYOMING",
		"artcc": "ZLC",
		"type": "RNAV",
		"updated": "11/21/2014"
	},
	{
		"name": "AVACI",
		"latitude": "48-21-56.89 N",
		"longitude": "106-23-3.14 W",
		"state": "MONTANA",
		"artcc": "ZLC",
		"type": "RNAV",
		"updated": "03/05/2014"
	},
	{
		"name": "AVDIH",
		"latitude": "48-6-34.53 N",
		"longitude": "114-27-50.6 W",
		"state": "MONTANA",
		"artcc": "ZLC",
		"type": "RNAV",
		"updated": "06/08/2006"
	},
	{
		"name": "AVIPE",
		"latitude": "43-12-13.82 N",
		"longitude": "112-21-10.3 W",
		"state": "IDAHO",
		"artcc": "ZLC",
		"type": "RP",
		"updated": "PIH*VOR/DME*016.27/23.95"
	},
	{
		"name": "AVUBE",
		"latitude": "43-47-51.67 N",
		"longitude": "111-48-37.37 W",
		"state": "IDAHO",
		"artcc": "ZLC",
		"type": "RNAV",
		"updated": "04/05/2004"
	},
	{
		"name": "AVUNE",
		"latitude": "46-21-49.41 N",
		"longitude": "105-47-22.06 W",
		"state": "MONTANA",
		"artcc": "ZLC",
		"type": "RNAV",
		"updated": "03/14/2016"
	},
	{
		"name": "AVVUV",
		"latitude": "43-34-20 N",
		"longitude": "116-14-56.54 W",
		"state": "IDAHO",
		"artcc": "ZLC",
		"type": "MR",
		"updated": "BOI*VORTAC*278.15/2.74"
	},
	{
		"name": "AWNIN",
		"latitude": "38-6-4.95 N",
		"longitude": "117-6-15.13 W",
		"state": "NEVADA",
		"artcc": "ZLC",
		"type": "RNAV",
		"updated": "11/04/2011"
	},
	{
		"name": "AXABE",
		"latitude": "46-59-21.66 N",
		"longitude": "109-57-34.27 W",
		"state": "MONTANA",
		"artcc": "ZLC",
		"type": "RP",
		"updated": "LWT*VOR/DME*240.38/15.00"
	},
	{
		"name": "AXLED",
		"latitude": "45-12-8.96 N",
		"longitude": "113-51-57.91 W",
		"state": "IDAHO",
		"artcc": "ZLC",
		"type": "RNAV",
		"updated": "02/03/2016"
	},
	{
		"name": "AXOBE",
		"latitude": "46-38-33.23 N",
		"longitude": "112-13-9.41 W",
		"state": "MONTANA",
		"artcc": "ZLC",
		"type": "RNAV",
		"updated": "07/22/2008"
	},
	{
		"name": "AXUPE",
		"latitude": "46-33-52.59 N",
		"longitude": "105-37-54.1 W",
		"state": "MONTANA",
		"artcc": "ZLC",
		"type": "RNAV",
		"updated": "03/14/2016"
	},
	{
		"name": "AYASO",
		"latitude": "45-0-40.4 N",
		"longitude": "113-56-21.75 W",
		"state": "IDAHO",
		"artcc": "ZLC",
		"type": "RNAV",
		"updated": "01/10/2018"
	},
	{
		"name": "AYDOK",
		"latitude": "43-30-7.83 N",
		"longitude": "116-2-39.69 W",
		"state": "IDAHO",
		"artcc": "ZLC",
		"type": "RNAV",
		"updated": "10/30/2015"
	},
	{
		"name": "AYIVU",
		"latitude": "42-36-47.67 N",
		"longitude": "113-41-49.05 W",
		"state": "IDAHO",
		"artcc": "ZLC",
		"type": "CN",
		"updated": "12/04/2014"
	},
	{
		"name": "AYOVI",
		"latitude": "45-2-48.19 N",
		"longitude": "111-2-26.94 W",
		"state": "MONTANA",
		"artcc": "ZLC",
		"type": "RNAV",
		"updated": "08/17/2010"
	},
	{
		"name": "AYUBE",
		"latitude": "37-57-16.98 N",
		"longitude": "117-3-16.26 W",
		"state": "NEVADA",
		"artcc": "ZLC",
		"type": "RNAV",
		"updated": "11/04/2011"
	},
	{
		"name": "AYUNO",
		"latitude": "46-16-0.66 N",
		"longitude": "112-45-52.48 W",
		"state": "MONTANA",
		"artcc": "ZLC",
		"type": "RNAV",
		"updated": "10/31/2012"
	},
	{
		"name": "AZAJI",
		"latitude": "42-29-4.69 N",
		"longitude": "114-33-48.61 W",
		"state": "IDAHO",
		"artcc": "ZLC",
		"type": "RP",
		"updated": "TWF*VORTAC*257.01/3.30"
	},
	{
		"name": "AZAPO",
		"latitude": "42-37-58.32 N",
		"longitude": "114-28-29.87 W",
		"state": "IDAHO",
		"artcc": "ZLC",
		"type": "CN",
		"updated": "12/04/2014"
	}
]
