	{
		"name": "BABTE",
		"latitude": "43-34-37.48 N",
		"longitude": "116-32-49.47 W",
		"state": "IDAHO",
		"artcc": "ZLC",
		"type": "RNAV",
		"updated": "07/16/2008",
	},
	{
		"name": "BAGGI",
		"latitude": "40-44-34.25 N",
		"longitude": "113-32-21.41 W",
		"state": "UTAH",
		"artcc": "ZLC",
		"type": "RP",
		"updated": "BVL*VORTAC*072.16/10.00",
	},
	{
		"name": "BAGKA",
		"latitude": "40-49-24.17 N",
		"longitude": "115-47-24.76 W",
		"state": "NEVADA",
		"artcc": "ZLC",
		"type": "RP",
		"updated": "BQU*VOR/DME*324.02/4.04",
	},
	{
		"name": "BAIKE",
		"latitude": "46-16-30.5 N",
		"longitude": "104-9-51.89 W",
		"state": "MONTANA",
		"artcc": "ZLC",
		"type": "RNAV",
		"updated": "09/11/2014",
	},
	{
		"name": "BAMBE",
		"latitude": "46-51-25.76 N",
		"longitude": "113-42-7.29 W",
		"state": "MONTANA",
		"artcc": "ZLC",
		"type": "RP",
		"updated": "MSO*VOR/DME*087.85/16.00",
	},
	{
		"name": "BANGS",
		"latitude": "44-4-10.21 N",
		"longitude": "116-11-53.16 W",
		"state": "IDAHO",
		"artcc": "ZLC",
		"type": "RP",
		"updated": "ONO*NDB*067.85",
	},
	{
		"name": "BANNO",
		"latitude": "42-43-13.25 N",
		"longitude": "112-36-24.74 W",
		"state": "IDAHO",
		"artcc": "ZLC",
		"type": "RP",
		"updated": "PIH*VOR/DME*150.43/9.22",
	},
	{
		"name": "BARSE",
		"latitude": "43-5-45.3 N",
		"longitude": "112-20-8.48 W",
		"state": "IDAHO",
		"artcc": "ZLC",
		"type": "RP",
		"updated": "IDA*VOR/DME*190.22/28.03",
	},
	{
		"name": "BAURT",
		"latitude": "40-40-18.97 N",
		"longitude": "111-59-0.64 W",
		"state": "UTAH",
		"artcc": "ZLC",
		"type": "RNAV",
		"updated": "01/31/2001",
	},
	{
		"name": "BAWER",
		"latitude": "37-38-6.68 N",
		"longitude": "112-16-45.89 W",
		"state": "UTAH",
		"artcc": "ZLC",
		"type": "RNAV",
		"updated": "01/19/2016",
	},
	{
		"name": "BAXGO",
		"latitude": "45-2-57.31 N",
		"longitude": "114-1-32.76 W",
		"state": "IDAHO",
		"artcc": "ZLC",
		"type": "RP",
		"updated": "LKT*VOR/DME*043.00/3.00",
	},
	{
		"name": "BAXTA",
		"latitude": "46-19-37.25 N",
		"longitude": "109-53-12.54 W",
		"state": "MONTANA",
		"artcc": "ZLC",
		"type": "RP",
		"updated": "LWT*VOR/DME*180.00",
	},
	{
		"name": "BAYAM",
		"latitude": "46-27-18.1 N",
		"longitude": "108-40-28.54 W",
		"state": "MONTANA",
		"artcc": "ZLC",
		"type": "RNAV",
		"updated": "08/08/2012",
	},
	{
		"name": "BAZLT",
		"latitude": "46-16-8.21 N",
		"longitude": "109-14-50.79 W",
		"state": "MONTANA",
		"artcc": "ZLC",
		"type": "RNAV",
		"updated": "09/19/2017",
	},
	{
		"name": "BBCAT",
		"latitude": "45-53-3.81 N",
		"longitude": "108-25-31.12 W",
		"state": "MONTANA",
		"artcc": "ZLC",
		"type": "RNAV",
		"updated": "12/07/2017",
	},
	{
		"name": "BEAMO",
		"latitude": "45-18-51.91 N",
		"longitude": "117-46-39.6 W",
		"state": "OREGON",
		"artcc": "ZLC",
		"type": "RP",
		"updated": "PDT*VORTAC*094.78/54.14",
	},
	{
		"name": "BEARE",
		"latitude": "45-51-22.64 N",
		"longitude": "108-56-3.02 W",
		"state": "MONTANA",
		"artcc": "ZLC",
		"type": "RNAV",
		"updated": "12/07/2017",
	},
	{
		"name": "BEARR",
		"latitude": "41-31-50.85 N",
		"longitude": "112-29-18.4 W",
		"state": "UTAH",
		"artcc": "ZLC",
		"type": "RP",
		"updated": "LCU*VORTAC*063.19/61.84",
	},
	{
		"name": "BEATR",
		"latitude": "43-39-59.11 N",
		"longitude": "116-28-18.18 W",
		"state": "IDAHO",
		"artcc": "ZLC",
		"type": "RNAV",
		"updated": "08/01/2014",
	},
	{
		"name": "BEGPE",
		"latitude": "46-58-43.87 N",
		"longitude": "114-11-57.05 W",
		"state": "MONTANA",
		"artcc": "ZLC",
		"type": "RNAV",
		"updated": "03/12/2018",
	},
	{
		"name": "BELCA",
		"latitude": "48-5-15.92 N",
		"longitude": "110-27-52.17 W",
		"state": "MONTANA",
		"artcc": "ZLC",
		"type": "RP",
		"updated": "HVR*VOR/DME*209.92/38.89",
	},
	{
		"name": "BELLT",
		"latitude": "47-21-38.78 N",
		"longitude": "111-22-37.39 W",
		"state": "MONTANA",
		"artcc": "ZLC",
		"type": "RNAV",
		"updated": "06/08/2011",
	},
	{
		"name": "BELYA",
		"latitude": "43-26-41.66 N",
		"longitude": "118-47-37.78 W",
		"state": "OREGON",
		"artcc": "ZLC",
		"type": "RNAV",
		"updated": "06/07/2004",
	},
	{
		"name": "BENZE",
		"latitude": "46-25-46.14 N",
		"longitude": "112-17-51.72 W",
		"state": "MONTANA",
		"artcc": "ZLC",
		"type": "RNAV",
		"updated": "03/23/2009",
	},
	{
		"name": "BERNA",
		"latitude": "40-14-48.74 N",
		"longitude": "111-17-18.23 W",
		"state": "UTAH",
		"artcc": "ZLC",
		"type": "RP",
		"updated": "FFU*VORTAC*077.00/30.00",
	},
	{
		"name": "BERNT",
		"latitude": "42-54-48.56 N",
		"longitude": "109-36-45.25 W",
		"state": "WYOMING",
		"artcc": "ZLC",
		"type": "RNAV",
		"updated": "12/10/2013",
	},
	{
		"name": "BERYL",
		"latitude": "37-54-0.17 N",
		"longitude": "113-23-8.58 W",
		"state": "UTAH",
		"artcc": "ZLC",
		"type": "RP",
		"updated": "EHK*VOR/DME*278.22/16.53",
	},
	{
		"name": "BESKE",
		"latitude": "47-36-47.49 N",
		"longitude": "114-15-12.79 W",
		"state": "MONTANA",
		"artcc": "ZLC",
		"type": "RNAV",
		"updated": "08/10/2004",
	},
	{
		"name": "BETRE",
		"latitude": "43-3-0.86 N",
		"longitude": "113-31-29.14 W",
		"state": "IDAHO",
		"artcc": "ZLC",
		"type": "RP",
		"updated": "PIH*VOR/DME*268.97/39.93",
	},
	{
		"name": "BETTS",
		"latitude": "37-57-16.45 N",
		"longitude": "116-51-47.88 W",
		"state": "NEVADA",
		"artcc": "ZLC",
		"type": "MW",
		"updated": "06/21/2007",
	},
	{
		"name": "BEUTE",
		"latitude": "38-9-55.15 N",
		"longitude": "117-7-33.35 W",
		"state": "NEVADA",
		"artcc": "ZLC",
		"type": "RNAV",
		"updated": "11/04/2011",
	},
	{
		"name": "BEVRR",
		"latitude": "38-50-29.15 N",
		"longitude": "112-45-20.83 W",
		"state": "UTAH",
		"artcc": "ZLC",
		"type": "RP",
		"updated": "DTA*VORTAC*187.02/30.00",
	},
	{
		"name": "BEWTE",
		"latitude": "44-0-29.33 N",
		"longitude": "116-25-53.19 W",
		"state": "IDAHO",
		"artcc": "ZLC",
		"type": "RNAV",
		"updated": "08/01/2014",
	},
	{
		"name": "BEYAB",
		"latitude": "37-57-29.65 N",
		"longitude": "111-48-26.23 W",
		"state": "UTAH",
		"artcc": "ZLC",
		"type": "RNAV",
		"updated": "01/05/2012",
	},
	{
		"name": "BEYYA",
		"latitude": "48-38-44.14 N",
		"longitude": "104-17-7.27 W",
		"state": "MONTANA",
		"artcc": "ZLC",
		"type": "RNAV",
		"updated": "09/28/2012",
	},
	{
		"name": "BGHRN",
		"latitude": "45-14-20.97 N",
		"longitude": "107-51-7.48 W",
		"state": "MONTANA",
		"artcc": "ZLC",
		"type": "RNAV",
		"updated": "03/03/2015",
	},
	{
		"name": "BGLEI",
		"latitude": "43-28-42.65 N",
		"longitude": "114-16-15.85 W",
		"state": "IDAHO",
		"artcc": "ZLC",
		"type": "RNAV",
		"updated": "08/23/2016",
	},
	{
		"name": "BGSPR",
		"latitude": "46-43-9.35 N",
		"longitude": "108-55-49.6 W",
		"state": "MONTANA",
		"artcc": "ZLC",
		"type": "RNAV",
		"updated": "03/20/2017",
	},
	{
		"name": "BHIVE",
		"latitude": "40-58-53.38 N",
		"longitude": "112-1-10.39 W",
		"state": "UTAH",
		"artcc": "ZLC",
		"type": "RP",
		"updated": "UAT*LD*343.95/12.60",
	},
	{
		"name": "BIBDE",
		"latitude": "46-34-0.81 N",
		"longitude": "111-43-55.94 W",
		"state": "MONTANA",
		"artcc": "ZLC",
		"type": "RNAV",
		"updated": "07/22/2008",
	},
	{
		"name": "BICAN",
		"latitude": "38-58-13.8 N",
		"longitude": "112-33-0.83 W",
		"state": "UTAH",
		"artcc": "ZLC",
		"type": "RP",
		"updated": "DTA*VORTAC*170.00/20.00",
	},
	{
		"name": "BILTE",
		"latitude": "47-19-11.13 N",
		"longitude": "111-36-7.1 W",
		"state": "MONTANA",
		"artcc": "ZLC",
		"type": "RP",
		"updated": "GTF*VORTAC*208.78/11.00",
	},
	{
		"name": "BINGQ",
		"latitude": "48-12-23.8 N",
		"longitude": "114-21-48.87 W",
		"state": "MONTANA",
		"artcc": "ZLC",
		"type": "RNAV",
		"updated": "04/21/2009",
	},
	{
		"name": "BITRR",
		"latitude": "41-31-0 N",
		"longitude": "113-51-0 W",
		"state": "UTAH",
		"artcc": "ZLC",
		"type": "RNAV",
		"updated": "04/30/2002",
	},
	{
		"name": "BIVNE",
		"latitude": "39-18-37.59 N",
		"longitude": "114-50-40.71 W",
		"state": "NEVADA",
		"artcc": "ZLC",
		"type": "RP",
		"updated": "ELY*VOR/DME*359.00/0.76",
	},
	{
		"name": "BLENI",
		"latitude": "45-21-2.37 N",
		"longitude": "112-29-56.16 W",
		"state": "MONTANA",
		"artcc": "ZLC",
		"type": "RNAV",
		"updated": "11/04/2015",
	},
	{
		"name": "BLIDA",
		"latitude": "41-41-35.31 N",
		"longitude": "112-41-49.86 W",
		"state": "UTAH",
		"artcc": "ZLC",
		"type": "RP",
		"updated": "MLD*VOR/DME*183.00/32.33",
	},
	{
		"name": "BLLDY",
		"latitude": "46-49-6.92 N",
		"longitude": "109-1-0.3 W",
		"state": "MONTANA",
		"artcc": "ZLC",
		"type": "RNAV",
		"updated": "07/21/2016",
	},
	{
		"name": "BLUPE",
		"latitude": "40-17-16.25 N",
		"longitude": "111-49-43 W",
		"state": "UTAH",
		"artcc": "ZLC",
		"type": "RNAV",
		"updated": "04/24/2013",
	},
	{
		"name": "BNKER",
		"latitude": "40-53-47.58 N",
		"longitude": "112-0-34.64 W",
		"state": "UTAH",
		"artcc": "ZLC",
		"type": "RP",
		"updated": "UAT*LD*343.95/7.49",
	},
	{
		"name": "BNNDR",
		"latitude": "46-52-38.59 N",
		"longitude": "108-34-37.43 W",
		"state": "MONTANA",
		"artcc": "ZLC",
		"type": "RNAV",
		"updated": "07/21/2016",
	},
	{
		"name": "BOAGY",
		"latitude": "40-14-33.05 N",
		"longitude": "111-51-7.75 W",
		"state": "UTAH",
		"artcc": "ZLC",
		"type": "RP",
		"updated": "FFU*VORTAC*099.53/4.50",
	},
	{
		"name": "BOBKT",
		"latitude": "45-38-46.3 N",
		"longitude": "110-48-1.79 W",
		"state": "MONTANA",
		"artcc": "ZLC",
		"type": "RNAV",
		"updated": "05/09/2011",
	},
	{
		"name": "BOFVY",
		"latitude": "48-5-17.17 N",
		"longitude": "114-53-54.32 W",
		"state": "MONTANA",
		"artcc": "ZLC",
		"type": "RNAV",
		"updated": "07/12/2017",
	},
	{
		"name": "BOFZA",
		"latitude": "43-20-1.07 N",
		"longitude": "113-7-23.95 W",
		"state": "IDAHO",
		"artcc": "ZLC",
		"type": "RNAV",
		"updated": "07/26/2004",
	},
	{
		"name": "BOJOL",
		"latitude": "42-17-11.6 N",
		"longitude": "108-11-31.86 W",
		"state": "WYOMING",
		"artcc": "ZLC",
		"type": "RNAV",
		"updated": "01/05/2006",
	},
	{
		"name": "BOKDE",
		"latitude": "46-16-54.15 N",
		"longitude": "105-40-15.82 W",
		"state": "MONTANA",
		"artcc": "ZLC",
		"type": "RNAV",
		"updated": "03/14/2016",
	},
	{
		"name": "BOLLS",
		"latitude": "43-26-11.9 N",
		"longitude": "115-32-28.38 W",
		"state": "IDAHO",
		"artcc": "ZLC",
		"type": "RNAV",
		"updated": "08/01/2014",
	},
	{
		"name": "BONGO",
		"latitude": "40-7-31.11 N",
		"longitude": "109-21-22.58 W",
		"state": "UTAH",
		"artcc": "ZLC",
		"type": "RP",
		"updated": "MTU*VOR/DME*078.05/35.50",
	},
	{
		"name": "BONNE",
		"latitude": "40-51-44.54 N",
		"longitude": "112-34-44.4 W",
		"state": "UTAH",
		"artcc": "ZLC",
		"type": "RNAV",
		"updated": "10/30/2007",
	},
	{
		"name": "BOOOT",
		"latitude": "41-18-19.25 N",
		"longitude": "112-11-3.43 W",
		"state": "UTAH",
		"artcc": "ZLC",
		"type": "RNAV",
		"updated": "08/28/2007",
	},
	{
		"name": "BORGG",
		"latitude": "42-0-10.28 N",
		"longitude": "108-17-12.87 W",
		"state": "WYOMING",
		"artcc": "ZLC",
		"type": "RP",
		"updated": "OCS*VOR/DME*039.63/41.00",
	},
	{
		"name": "BORZI",
		"latitude": "40-32-14.46 N",
		"longitude": "110-17-25.61 W",
		"state": "UTAH",
		"artcc": "ZLC",
		"type": "RNAV",
		"updated": "10/30/2007",
	},
	{
		"name": "BOSCA",
		"latitude": "46-33-17.74 N",
		"longitude": "111-39-23.4 W",
		"state": "MONTANA",
		"artcc": "ZLC",
		"type": "RNAV",
		"updated": "03/23/2009",
	},
	{
		"name": "BOSKS",
		"latitude": "45-4-2.91 N",
		"longitude": "113-54-26.51 W",
		"state": "IDAHO",
		"artcc": "ZLC",
		"type": "RNAV",
		"updated": "01/10/2018",
	},
	{
		"name": "BOSPE",
		"latitude": "47-37-3.16 N",
		"longitude": "104-15-11.33 W",
		"state": "MONTANA",
		"artcc": "ZLC",
		"type": "RNAV",
		"updated": "06/08/2017",
	},
	{
		"name": "BOTBE",
		"latitude": "40-30-5.2 N",
		"longitude": "111-57-0.54 W",
		"state": "UTAH",
		"artcc": "ZLC",
		"type": "RNAV",
		"updated": "11/06/2015",
	},
	{
		"name": "BOTBY",
		"latitude": "46-37-35.07 N",
		"longitude": "114-1-53.35 W",
		"state": "MONTANA",
		"artcc": "ZLC",
		"type": "RNAV",
		"updated": "08/10/2010",
	},
	{
		"name": "BOWDN",
		"latitude": "48-18-47.64 N",
		"longitude": "107-29-10.12 W",
		"state": "MONTANA",
		"artcc": "ZLC",
		"type": "RP",
		"updated": "GGW*VOR/DME*265.99/35.00",
	},
	{
		"name": "BOYBA",
		"latitude": "44-56-24.14 N",
		"longitude": "117-55-58 W",
		"state": "OREGON",
		"artcc": "ZLC",
		"type": "RP",
		"updated": "BKE*VOR/DME*298.28/8.00",
	},
	{
		"name": "BOYCA",
		"latitude": "43-33-40.47 N",
		"longitude": "116-31-36.93 W",
		"state": "IDAHO",
		"artcc": "ZLC",
		"type": "RP",
		"updated": "BOI*VORTAC*255.10/14.62",
	},
	{
		"name": "BOYNT",
		"latitude": "41-4-41.5 N",
		"longitude": "112-25-58.58 W",
		"state": "UTAH",
		"artcc": "ZLC",
		"type": "RNAV",
		"updated": "10/30/2007",
	},
	{
		"name": "BOZJE",
		"latitude": "41-10-21.25 N",
		"longitude": "117-56-42.89 W",
		"state": "NEVADA",
		"artcc": "ZLC",
		"type": "RNAV",
		"updated": "08/14/2006",
	},
	{
		"name": "BRADZ",
		"latitude": "48-9-32.83 N",
		"longitude": "111-59-56.18 W",
		"state": "MONTANA",
		"artcc": "ZLC",
		"type": "RP",
		"updated": "CRD*NDB*232.00",
	},
	{
		"name": "BRAKS",
		"latitude": "41-10-39.13 N",
		"longitude": "112-0-34.01 W",
		"state": "UTAH",
		"artcc": "ZLC",
		"type": "MR",
		"updated": "HIF*TACAN*/4.00",
	},
	{
		"name": "BRANK",
		"latitude": "46-5-44.17 N",
		"longitude": "103-12-59.18 W",
		"state": "NORTH DAKOTA",
		"artcc": "ZLC",
		"type": "RNAV",
		"updated": "02/25/2016",
	},
	{
		"name": "BRBEE",
		"latitude": "48-29-10.19 N",
		"longitude": "106-41-51.29 W",
		"state": "MONTANA",
		"artcc": "ZLC",
		"type": "RNAV",
		"updated": "03/05/2014",
	},
	{
		"name": "BRESS",
		"latitude": "41-19-47.57 N",
		"longitude": "112-18-27.12 W",
		"state": "UTAH",
		"artcc": "ZLC",
		"type": "RP",
		"updated": "HIF*TACAN*295.00/20.00",
	},
	{
		"name": "BRIGM",
		"latitude": "39-17-29.28 N",
		"longitude": "111-39-53.27 W",
		"state": "UTAH",
		"artcc": "ZLC",
		"type": "RNAV",
		"updated": "04/18/2017",
	},
	{
		"name": "BRIGR",
		"latitude": "45-39-44.28 N",
		"longitude": "111-28-2 W",
		"state": "MONTANA",
		"artcc": "ZLC",
		"type": "RP",
		"updated": "HIA*VOR/DME*093.83",
	},
	{
		"name": "BRNCO",
		"latitude": "42-52-2.86 N",
		"longitude": "116-18-53.44 W",
		"state": "IDAHO",
		"artcc": "ZLC",
		"type": "MR",
		"updated": "MUO*TACAN*229.00/22.00",
	},
	{
		"name": "BROPH",
		"latitude": "42-43-15.71 N",
		"longitude": "114-52-31.8 W",
		"state": "IDAHO",
		"artcc": "ZLC",
		"type": "RNAV",
		"updated": "08/01/2014",
	},
	{
		"name": "BSSMA",
		"latitude": "43-3-16.4 N",
		"longitude": "115-1-19.02 W",
		"state": "IDAHO",
		"artcc": "ZLC",
		"type": "RNAV",
		"updated": "08/04/2014",
	},
	{
		"name": "BUBBY",
		"latitude": "41-2-53.82 N",
		"longitude": "112-0-59.53 W",
		"state": "UTAH",
		"artcc": "ZLC",
		"type": "RNAV",
		"updated": "03/23/2018",
	},
	{
		"name": "BUCAD",
		"latitude": "45-29-36.38 N",
		"longitude": "112-23-50.98 W",
		"state": "MONTANA",
		"artcc": "ZLC",
		"type": "RP",
		"updated": "DLN*VOR/DME*005.25/16.00",
	},
	{
		"name": "BUCAK",
		"latitude": "40-56-54.74 N",
		"longitude": "115-22-46.13 W",
		"state": "NEVADA",
		"artcc": "ZLC",
		"type": "RP",
		"updated": "BQU*VOR/DME*039.80/20.75",
	},
	{
		"name": "BUEEL",
		"latitude": "43-52-40.7 N",
		"longitude": "117-35-48.08 W",
		"state": "OREGON",
		"artcc": "ZLC",
		"type": "RNAV",
		"updated": "05/14/2014",
	},
	{
		"name": "BUFFF",
		"latitude": "46-42-18 N",
		"longitude": "103-26-51 W",
		"state": "NORTH DAKOTA",
		"artcc": "ZLC",
		"type": "RNAV",
		"updated": "07/17/2015",
	},
	{
		"name": "BUFVO",
		"latitude": "44-40-30 N",
		"longitude": "110-35-8.6 W",
		"state": "WYOMING",
		"artcc": "ZLC",
		"type": "RNAV",
		"updated": "04/21/2017",
	},
	{
		"name": "BUMDE",
		"latitude": "48-21-56.12 N",
		"longitude": "108-4-41.47 W",
		"state": "MONTANA",
		"artcc": "ZLC",
		"type": "RNAV",
		"updated": "09/21/2011",
	},
	{
		"name": "BUNFI",
		"latitude": "40-36-22.7 N",
		"longitude": "117-40-52.53 W",
		"state": "NEVADA",
		"artcc": "ZLC",
		"type": "RNAV",
		"updated": "08/14/2006",
	},
	{
		"name": "BUNNY",
		"latitude": "42-44-6.2 N",
		"longitude": "116-15-36.78 W",
		"state": "IDAHO",
		"artcc": "ZLC",
		"type": "MR",
		"updated": "MUO*TACAN*205.00/25.00",
	},
	{
		"name": "BUPPA",
		"latitude": "44-59-31.61 N",
		"longitude": "118-9-57.84 W",
		"state": "OREGON",
		"artcc": "ZLC",
		"type": "RNAV",
		"updated": "12/27/2005",
	},
	{
		"name": "BUSKE",
		"latitude": "39-59-48.87 N",
		"longitude": "112-18-16.83 W",
		"state": "UTAH",
		"artcc": "ZLC",
		"type": "RNAV",
		"updated": "08/31/2011",
	},
	{
		"name": "BUTCA",
		"latitude": "42-53-45.17 N",
		"longitude": "112-36-31.28 W",
		"state": "IDAHO",
		"artcc": "ZLC",
		"type": "RNAV",
		"updated": "10/23/2003",
	},
	{
		"name": "BUTEO",
		"latitude": "45-15-51.89 N",
		"longitude": "113-51-14.61 W",
		"state": "IDAHO",
		"artcc": "ZLC",
		"type": "RNAV",
		"updated": "02/03/2016",
	},
	{
		"name": "BUTSE",
		"latitude": "47-57-13.57 N",
		"longitude": "114-33-47.31 W",
		"state": "MONTANA",
		"artcc": "ZLC",
		"type": "RNAV",
		"updated": "04/21/2009",
	},
	{
		"name": "BUTTA",
		"latitude": "40-35-49.79 N",
		"longitude": "115-42-43.73 W",
		"state": "NEVADA",
		"artcc": "ZLC",
		"type": "RP",
		"updated": "BQU*VOR/DME*150.00/10.00",
	},
	{
		"name": "BUVDE",
		"latitude": "45-28-23.1 N",
		"longitude": "111-43-27.55 W",
		"state": "MONTANA",
		"artcc": "ZLC",
		"type": "RNAV",
		"updated": "06/22/2016",
	},
	{
		"name": "BUVFY",
		"latitude": "48-52-12.91 N",
		"longitude": "103-12-35.01 W",
		"state": "NORTH DAKOTA",
		"artcc": "ZLC",
		"type": "RNAV",
		"updated": "04/22/2010",
	},
	{
		"name": "BUVXE",
		"latitude": "43-31-5.89 N",
		"longitude": "116-20-56.02 W",
		"state": "IDAHO",
		"artcc": "ZLC",
		"type": "RNAV",
		"updated": "08/04/2014",
	},
	{
		"name": "BYBEE",
		"latitude": "41-19-56.37 N",
		"longitude": "111-39-27.24 W",
		"state": "UTAH",
		"artcc": "ZLC",
		"type": "RNAV",
		"updated": "02/22/2016",
	},
	{
		"name": "BYRCH",
		"latitude": "45-53-9.08 N",
		"longitude": "111-1-37.33 W",
		"state": "MONTANA",
		"artcc": "ZLC",
		"type": "RNAV",
		"updated": "12/07/2017",
	},
