[
	{
		"name": "DAACE",
		"latitude": "48-14-55.69 N",
		"longitude": "114-24-53.62 W",
		"state": "MONTANA",
		"artcc": "ZLC",
		"type": "RNAV",
		"updated": "04/25/2017"
	},
	{
		"name": "DACAD",
		"latitude": "43-23-32.17 N",
		"longitude": "110-55-12.19 W",
		"state": "WYOMING",
		"artcc": "ZLC",
		"type": "RP",
		"updated": "JAC*VOR/DME*198.00/16.00"
	},
	{
		"name": "DAGNE",
		"latitude": "43-49-13.18 N",
		"longitude": "117-0-31.11 W",
		"state": "IDAHO",
		"artcc": "ZLC",
		"type": "RP",
		"updated": "BOI*VORTAC*277.58/39.00"
	},
	{
		"name": "DAGTT",
		"latitude": "43-30-38.5 N",
		"longitude": "116-19-34.12 W",
		"state": "IDAHO",
		"artcc": "ZLC",
		"type": "RNAV",
		"updated": "08/04/2014"
	},
	{
		"name": "DAHNI",
		"latitude": "45-54-37.29 N",
		"longitude": "107-36-18.89 W",
		"state": "MONTANA",
		"artcc": "ZLC",
		"type": "RNAV",
		"updated": "09/19/2017"
	},
	{
		"name": "DAIRE",
		"latitude": "46-50-28.96 N",
		"longitude": "114-27-36.05 W",
		"state": "MONTANA",
		"artcc": "ZLC",
		"type": "RP",
		"updated": "MSO*VOR/DME*242.67/16.00"
	},
	{
		"name": "DAKEC",
		"latitude": "48-14-19.46 N",
		"longitude": "106-24-29.19 W",
		"state": "MONTANA",
		"artcc": "ZLC",
		"type": "RNAV",
		"updated": "03/05/2014"
	},
	{
		"name": "DANLL",
		"latitude": "39-53-9.48 N",
		"longitude": "111-52-14.01 W",
		"state": "UTAH",
		"artcc": "ZLC",
		"type": "RNAV",
		"updated": "08/31/2011"
	},
	{
		"name": "DAPTE",
		"latitude": "46-16-26.08 N",
		"longitude": "114-7-30.44 W",
		"state": "MONTANA",
		"artcc": "ZLC",
		"type": "RNAV",
		"updated": "04/12/2004"
	},
	{
		"name": "DATSA",
		"latitude": "47-33-30.76 N",
		"longitude": "111-47-9.12 W",
		"state": "MONTANA",
		"artcc": "ZLC",
		"type": "RP",
		"updated": "GTF*VORTAC*277.34/16.54"
	},
	{
		"name": "DAXIQ",
		"latitude": "48-4-55.37 N",
		"longitude": "104-52-21.22 W",
		"state": "MONTANA",
		"artcc": "ZLC",
		"type": "RNAV",
		"updated": "03/11/2013"
	},
	{
		"name": "DAYMN",
		"latitude": "38-59-19 N",
		"longitude": "115-51-0 W",
		"state": "NEVADA",
		"artcc": "ZLC",
		"type": "RNAV",
		"updated": "04/24/2017"
	},
	{
		"name": "DCEEE",
		"latitude": "47-23-7.66 N",
		"longitude": "111-30-26.06 W",
		"state": "MONTANA",
		"artcc": "ZLC",
		"type": "RP",
		"updated": "SMR*LD*SW CRS/9.04"
	},
	{
		"name": "DEBRE",
		"latitude": "48-6-38.57 N",
		"longitude": "114-19-24.64 W",
		"state": "MONTANA",
		"artcc": "ZLC",
		"type": "RNAV",
		"updated": "04/21/2009"
	},
	{
		"name": "DECEP",
		"latitude": "44-42-4.08 N",
		"longitude": "116-3-51.33 W",
		"state": "IDAHO",
		"artcc": "ZLC",
		"type": "RNAV",
		"updated": "08/10/2011"
	},
	{
		"name": "DECEV",
		"latitude": "43-20-42.22 N",
		"longitude": "110-51-54.24 W",
		"state": "WYOMING",
		"artcc": "ZLC",
		"type": "RNAV",
		"updated": "02/16/2006"
	},
	{
		"name": "DEDNE",
		"latitude": "42-30-56.06 N",
		"longitude": "109-35-23.93 W",
		"state": "WYOMING",
		"artcc": "ZLC",
		"type": "RNAV",
		"updated": "06/15/2012"
	},
	{
		"name": "DEELM",
		"latitude": "47-32-53.24 N",
		"longitude": "111-16-2.48 W",
		"state": "MONTANA",
		"artcc": "ZLC",
		"type": "RNAV",
		"updated": "09/01/2011"
	},
	{
		"name": "DEETZ",
		"latitude": "44-12-35.53 N",
		"longitude": "116-4-40.3 W",
		"state": "IDAHO",
		"artcc": "ZLC",
		"type": "RNAV",
		"updated": "05/14/2014"
	},
	{
		"name": "DEFIS",
		"latitude": "40-38-38.8 N",
		"longitude": "111-52-32.23 W",
		"state": "UTAH",
		"artcc": "ZLC",
		"type": "RNAV",
		"updated": "11/06/2015"
	},
	{
		"name": "DEFKI",
		"latitude": "43-38-2.89 N",
		"longitude": "116-37-28.15 W",
		"state": "IDAHO",
		"artcc": "ZLC",
		"type": "RNAV",
		"updated": "08/23/2017"
	},
	{
		"name": "DEGHU",
		"latitude": "40-57-24.43 N",
		"longitude": "115-57-1.73 W",
		"state": "NEVADA",
		"artcc": "ZLC",
		"type": "CN",
		"updated": "12/04/2014"
	},
	{
		"name": "DEHLR",
		"latitude": "45-44-28.49 N",
		"longitude": "108-40-51.86 W",
		"state": "MONTANA",
		"artcc": "ZLC",
		"type": "RNAV",
		"updated": "03/03/2015"
	},
	{
		"name": "DEKRE",
		"latitude": "46-53-45.59 N",
		"longitude": "103-56-13.69 W",
		"state": "NORTH DAKOTA",
		"artcc": "ZLC",
		"type": "RNAV",
		"updated": "06/16/2016"
	},
	{
		"name": "DELKE",
		"latitude": "39-9-50.82 N",
		"longitude": "112-34-51.5 W",
		"state": "UTAH",
		"artcc": "ZLC",
		"type": "RP",
		"updated": "DTA*VORTAC*187.02/9.00"
	},
	{
		"name": "DELPE",
		"latitude": "38-41-30.49 N",
		"longitude": "112-7-43.02 W",
		"state": "UTAH",
		"artcc": "ZLC",
		"type": "RNAV",
		"updated": "06/25/2015"
	},
	{
		"name": "DENRE",
		"latitude": "40-43-6.92 N",
		"longitude": "114-16-24.88 W",
		"state": "NEVADA",
		"artcc": "ZLC",
		"type": "RNAV",
		"updated": "05/25/2011"
	},
	{
		"name": "DEPTY",
		"latitude": "43-11-3.17 N",
		"longitude": "116-3-52.3 W",
		"state": "IDAHO",
		"artcc": "ZLC",
		"type": "MR",
		"updated": "MUO*TACAN*/12.00"
	},
	{
		"name": "DERMT",
		"latitude": "41-52-18.88 N",
		"longitude": "117-10-34.3 W",
		"state": "NEVADA",
		"artcc": "ZLC",
		"type": "RP",
		"updated": "REO*VOR/DME*125.18/53.00"
	},
	{
		"name": "DERSO",
		"latitude": "43-21-42.63 N",
		"longitude": "115-8-1.66 W",
		"state": "IDAHO",
		"artcc": "ZLC",
		"type": "RP",
		"updated": "LIA*VOR*032.81"
	},
	{
		"name": "DETAN",
		"latitude": "38-22-22.3 N",
		"longitude": "112-37-46.69 W",
		"state": "UTAH",
		"artcc": "ZLC",
		"type": "RP",
		"updated": "MLF*VORTAC*071.51/18.12"
	},
	{
		"name": "DEVGE",
		"latitude": "46-57-3.15 N",
		"longitude": "104-1-18.23 W",
		"state": "NORTH DAKOTA",
		"artcc": "ZLC",
		"type": "RNAV",
		"updated": "06/16/2016"
	},
	{
		"name": "DEVLE",
		"latitude": "44-12-43.52 N",
		"longitude": "117-14-56.63 W",
		"state": "OREGON",
		"artcc": "ZLC",
		"type": "RNAV",
		"updated": "08/05/2014"
	},
	{
		"name": "DEYEN",
		"latitude": "46-41-41.34 N",
		"longitude": "105-55-43.81 W",
		"state": "MONTANA",
		"artcc": "ZLC",
		"type": "RNAV",
		"updated": "03/14/2016"
	},
	{
		"name": "DEZRT",
		"latitude": "40-50-30 N",
		"longitude": "112-50-0 W",
		"state": "UTAH",
		"artcc": "ZLC",
		"type": "RNAV",
		"updated": "03/23/2018"
	},
	{
		"name": "DHAKS",
		"latitude": "46-27-29.15 N",
		"longitude": "106-16-8.04 W",
		"state": "MONTANA",
		"artcc": "ZLC",
		"type": "RNAV",
		"updated": "03/14/2016"
	},
	{
		"name": "DICOT",
		"latitude": "40-24-31.65 N",
		"longitude": "111-53-28.87 W",
		"state": "UTAH",
		"artcc": "ZLC",
		"type": "RP",
		"updated": "FFU*VORTAC*359.68/8.34"
	},
	{
		"name": "DIDLY",
		"latitude": "47-3-0.72 N",
		"longitude": "114-19-20.19 W",
		"state": "MONTANA",
		"artcc": "ZLC",
		"type": "RP",
		"updated": "MSO*VOR/DME*298.14/13.00"
	},
	{
		"name": "DIGEY",
		"latitude": "46-9-5.52 N",
		"longitude": "114-10-17.86 W",
		"state": "MONTANA",
		"artcc": "ZLC",
		"type": "RNAV",
		"updated": "04/05/2004"
	},
	{
		"name": "DIGNE",
		"latitude": "41-32-45.49 N",
		"longitude": "108-47-26.9 W",
		"state": "WYOMING",
		"artcc": "ZLC",
		"type": "RP",
		"updated": "OCS*VOR/DME*091.63/10.45"
	},
	{
		"name": "DIGUQ",
		"latitude": "43-44-56.94 N",
		"longitude": "111-5-48.4 W",
		"state": "IDAHO",
		"artcc": "ZLC",
		"type": "RNAV",
		"updated": "12/19/2011"
	},
	{
		"name": "DIKAC",
		"latitude": "43-25-44.76 N",
		"longitude": "116-8-35.61 W",
		"state": "IDAHO",
		"artcc": "ZLC",
		"type": "RNAV",
		"updated": "08/04/2014"
	},
	{
		"name": "DIMMS",
		"latitude": "39-10-0 N",
		"longitude": "113-17-0 W",
		"state": "UTAH",
		"artcc": "ZLC",
		"type": "RNAV",
		"updated": "04/30/2002"
	},
	{
		"name": "DIMSE",
		"latitude": "44-0-57.06 N",
		"longitude": "108-36-23.82 W",
		"state": "WYOMING",
		"artcc": "ZLC",
		"type": "RNAV",
		"updated": "01/23/2017"
	},
	{
		"name": "DIPHU",
		"latitude": "46-56-33.59 N",
		"longitude": "114-41-22.05 W",
		"state": "MONTANA",
		"artcc": "ZLC",
		"type": "RP",
		"updated": "MSO*VOR/DME*262.00/25.00"
	},
	{
		"name": "DIRLE",
		"latitude": "45-22-29.57 N",
		"longitude": "111-39-26.267 W",
		"state": "MONTANA",
		"artcc": "ZLC",
		"type": "RNAV",
		"updated": "06/23/2016"
	},
	{
		"name": "DISLE",
		"latitude": "45-43-32.25 N",
		"longitude": "112-14-37.01 W",
		"state": "MONTANA",
		"artcc": "ZLC",
		"type": "RNAV",
		"updated": "12/07/2017"
	},
	{
		"name": "DITLE",
		"latitude": "41-8-51.76 N",
		"longitude": "111-59-21.1 W",
		"state": "UTAH",
		"artcc": "ZLC",
		"type": "MR",
		"updated": "HIF*TACAN*/2.00"
	},
	{
		"name": "DIVDE",
		"latitude": "45-18-40.42 N",
		"longitude": "113-52-50.23 W",
		"state": "IDAHO",
		"artcc": "ZLC",
		"type": "RNAV",
		"updated": "02/17/2016"
	},
	{
		"name": "DIVID",
		"latitude": "45-53-12.84 N",
		"longitude": "112-42-35.93 W",
		"state": "MONTANA",
		"artcc": "ZLC",
		"type": "RP",
		"updated": "HIA*VOR/DME*256.00"
	},
	{
		"name": "DIVLE",
		"latitude": "44-31-32.22 N",
		"longitude": "108-34-17.12 W",
		"state": "WYOMING",
		"artcc": "ZLC",
		"type": "RNAV",
		"updated": "08/09/2017"
	},
	{
		"name": "DIVVE",
		"latitude": "43-43-36.12 N",
		"longitude": "111-7-17.24 W",
		"state": "IDAHO",
		"artcc": "ZLC",
		"type": "RNAV",
		"updated": "09/08/2011"
	},
	{
		"name": "DIYLA",
		"latitude": "40-26-39.8 N",
		"longitude": "117-4-30.14 W",
		"state": "NEVADA",
		"artcc": "ZLC",
		"type": "RNAV",
		"updated": "03/18/2004"
	},
	{
		"name": "DMBOH",
		"latitude": "46-41-45.28 N",
		"longitude": "111-36-51.61 W",
		"state": "MONTANA",
		"artcc": "ZLC",
		"type": "CN",
		"updated": "12/04/2014"
	},
	{
		"name": "DMDUP",
		"latitude": "46-28-0.16 N",
		"longitude": "111-39-12.91 W",
		"state": "MONTANA",
		"artcc": "ZLC",
		"type": "CN",
		"updated": "12/04/2014"
	},
	{
		"name": "DMEBW",
		"latitude": "44-43-6.96 N",
		"longitude": "117-38-54.36 W",
		"state": "OREGON",
		"artcc": "ZLC",
		"type": "CN",
		"updated": "12/04/2014"
	},
	{
		"name": "DMEKN",
		"latitude": "46-24-54.55 N",
		"longitude": "111-43-16.22 W",
		"state": "MONTANA",
		"artcc": "ZLC",
		"type": "CN",
		"updated": "12/04/2014"
	},
	{
		"name": "DMESR",
		"latitude": "47-48-54.96 N",
		"longitude": "114-14-58.7 W",
		"state": "MONTANA",
		"artcc": "ZLC",
		"type": "RNAV",
		"updated": "09/11/2012"
	},
	{
		"name": "DMFOX",
		"latitude": "46-38-43.62 N",
		"longitude": "114-9-3.06 W",
		"state": "MONTANA",
		"artcc": "ZLC",
		"type": "RP",
		"updated": "MSO*VOR/DME*177.00/16.00"
	},
	{
		"name": "DMJSJ",
		"latitude": "45-1-23.4 N",
		"longitude": "118-2-53.68 W",
		"state": "OREGON",
		"artcc": "ZLC",
		"type": "CN",
		"updated": "12/04/2014"
	},
	{
		"name": "DMKEX",
		"latitude": "46-7-33.2 N",
		"longitude": "112-50-52.93 W",
		"state": "MONTANA",
		"artcc": "ZLC",
		"type": "RP",
		"updated": "CPN*VOR/DME*307.35/7.03"
	},
	{
		"name": "DMMCA",
		"latitude": "42-26-48.06 N",
		"longitude": "113-31-40.61 W",
		"state": "IDAHO",
		"artcc": "ZLC",
		"type": "CN",
		"updated": "12/04/2014"
	},
	{
		"name": "DMMKU",
		"latitude": "44-16-40.63 N",
		"longitude": "110-51-2.86 W",
		"state": "WYOMING",
		"artcc": "ZLC",
		"type": "CN",
		"updated": "12/04/2014"
	},
	{
		"name": "DOBYS",
		"latitude": "40-58-18.51 N",
		"longitude": "115-52-28.16 W",
		"state": "NEVADA",
		"artcc": "ZLC",
		"type": "RP",
		"updated": "BQU*VOR/DME*321.00"
	},
	{
		"name": "DOBZU",
		"latitude": "38-12-36.5 N",
		"longitude": "117-10-57.9 W",
		"state": "NEVADA",
		"artcc": "ZLC",
		"type": "RNAV",
		"updated": "11/04/2011"
	},
	{
		"name": "DODSE",
		"latitude": "47-32-44.41 N",
		"longitude": "114-18-39.62 W",
		"state": "MONTANA",
		"artcc": "ZLC",
		"type": "RNAV",
		"updated": "07/26/2004"
	},
	{
		"name": "DOGNE",
		"latitude": "48-51-27.93 N",
		"longitude": "105-31-5.33 W",
		"state": "MONTANA",
		"artcc": "ZLC",
		"type": "RNAV",
		"updated": "04/10/2002"
	},
	{
		"name": "DOMRE",
		"latitude": "48-22-4.49 N",
		"longitude": "107-47-2.29 W",
		"state": "MONTANA",
		"artcc": "ZLC",
		"type": "RNAV",
		"updated": "09/21/2011"
	},
	{
		"name": "DOMVE",
		"latitude": "46-38-48.02 N",
		"longitude": "112-16-2.25 W",
		"state": "MONTANA",
		"artcc": "ZLC",
		"type": "RNAV",
		"updated": "07/22/2008"
	},
	{
		"name": "DONVY",
		"latitude": "42-58-3.91 N",
		"longitude": "108-10-0.36 W",
		"state": "WYOMING",
		"artcc": "ZLC",
		"type": "RP",
		"updated": "BOY*VOR/DME*152.85/30.28"
	},
	{
		"name": "DOOKR",
		"latitude": "46-31-38.38 N",
		"longitude": "111-29-3.65 W",
		"state": "MONTANA",
		"artcc": "ZLC",
		"type": "RP",
		"updated": "HLN*VORTAC*087.63/20.00"
	},
	{
		"name": "DOPIC",
		"latitude": "45-40-16.66 N",
		"longitude": "108-18-21.47 W",
		"state": "MONTANA",
		"artcc": "ZLC",
		"type": "RNAV",
		"updated": "12/11/2017"
	},
	{
		"name": "DORIA",
		"latitude": "48-5-9.86 N",
		"longitude": "105-34-21.79 W",
		"state": "MONTANA",
		"artcc": "ZLC",
		"type": "RP",
		"updated": "ISN*VOR/DME*250.86/73.86"
	},
	{
		"name": "DORTN",
		"latitude": "43-2-36.63 N",
		"longitude": "107-13-3.27 W",
		"state": "WYOMING",
		"artcc": "ZLC",
		"type": "RNAV",
		"updated": "04/21/2017"
	},
	{
		"name": "DOTME",
		"latitude": "38-50-24.7 N",
		"longitude": "114-38-53.32 W",
		"state": "NEVADA",
		"artcc": "ZLC",
		"type": "RP",
		"updated": "ELY*VOR/DME*147.12/29.00"
	},
	{
		"name": "DOTRE",
		"latitude": "48-10-34.74 N",
		"longitude": "114-21-28.01 W",
		"state": "MONTANA",
		"artcc": "ZLC",
		"type": "RNAV",
		"updated": "04/21/2009"
	},
	{
		"name": "DOTVE",
		"latitude": "48-19-54.39 N",
		"longitude": "112-5-29.87 W",
		"state": "MONTANA",
		"artcc": "ZLC",
		"type": "RNAV",
		"updated": "11/06/2013"
	},
	{
		"name": "DOYED",
		"latitude": "42-50-11.01 N",
		"longitude": "109-53-27.26 W",
		"state": "WYOMING",
		"artcc": "ZLC",
		"type": "RNAV",
		"updated": "06/15/2012"
	},
	{
		"name": "DRAPR",
		"latitude": "40-18-9.15 N",
		"longitude": "112-10-11.96 W",
		"state": "UTAH",
		"artcc": "ZLC",
		"type": "RNAV",
		"updated": "08/28/2007"
	},
	{
		"name": "DRFTR",
		"latitude": "47-35-10.58 N",
		"longitude": "111-17-44.33 W",
		"state": "MONTANA",
		"artcc": "ZLC",
		"type": "RNAV",
		"updated": "06/08/2011"
	},
	{
		"name": "DRSIE",
		"latitude": "41-3-31.02 N",
		"longitude": "115-49-8.32 W",
		"state": "NEVADA",
		"artcc": "ZLC",
		"type": "RNAV",
		"updated": "08/08/2014"
	},
	{
		"name": "DRYAD",
		"latitude": "42-10-6.39 N",
		"longitude": "113-59-37.06 W",
		"state": "IDAHO",
		"artcc": "ZLC",
		"type": "RP",
		"updated": "BYI*VOR/DME*175.00"
	},
	{
		"name": "DRYFT",
		"latitude": "47-35-5.11 N",
		"longitude": "111-12-46.85 W",
		"state": "MONTANA",
		"artcc": "ZLC",
		"type": "RNAV",
		"updated": "06/08/2011"
	},
	{
		"name": "DRYLK",
		"latitude": "38-49-0 N",
		"longitude": "116-6-0 W",
		"state": "NEVADA",
		"artcc": "ZLC",
		"type": "RNAV",
		"updated": "08/11/2005"
	},
	{
		"name": "DRYVE",
		"latitude": "40-25-9.42 N",
		"longitude": "112-2-58.7 W",
		"state": "UTAH",
		"artcc": "ZLC",
		"type": "RP",
		"updated": "FFU*VORTAC*314.00/10.00"
	},
	{
		"name": "DUCAY",
		"latitude": "40-30-16.63 N",
		"longitude": "115-35-55.84 W",
		"state": "NEVADA",
		"artcc": "ZLC",
		"type": "RP",
		"updated": "BQU*VOR/DME*137.05/17.00"
	},
	{
		"name": "DUCBA",
		"latitude": "48-10-39.72 N",
		"longitude": "104-36-55.9 W",
		"state": "MONTANA",
		"artcc": "ZLC",
		"type": "RP",
		"updated": "ISN*VOR/DME*250.86/35.00"
	},
	{
		"name": "DUDTE",
		"latitude": "39-13-8.21 N",
		"longitude": "112-30-31.45 W",
		"state": "UTAH",
		"artcc": "ZLC",
		"type": "RP",
		"updated": "DTA*VORTAC*165.70/5.00"
	},
	{
		"name": "DUGDE",
		"latitude": "40-41-59.75 N",
		"longitude": "117-42-47.47 W",
		"state": "NEVADA",
		"artcc": "ZLC",
		"type": "WP",
		"updated": "08/14/2006"
	},
	{
		"name": "DUGGY",
		"latitude": "40-42-40.51 N",
		"longitude": "112-15-16.96 W",
		"state": "UTAH",
		"artcc": "ZLC",
		"type": "RNAV",
		"updated": "08/28/2007"
	},
	{
		"name": "DULCA",
		"latitude": "46-18-41.87 N",
		"longitude": "111-42-19.82 W",
		"state": "MONTANA",
		"artcc": "ZLC",
		"type": "RNAV",
		"updated": "03/23/2009"
	},
	{
		"name": "DUNLP",
		"latitude": "40-31-37.73 N",
		"longitude": "111-58-0.36 W",
		"state": "UTAH",
		"artcc": "ZLC",
		"type": "RP",
		"updated": "UUH*LD*163.95/14.75"
	},
	{
		"name": "DUPZE",
		"latitude": "45-2-13.62 N",
		"longitude": "108-57-36.08 W",
		"state": "MONTANA",
		"artcc": "ZLC",
		"type": "RNAV",
		"updated": "07/26/2013"
	},
	{
		"name": "DURCH",
		"latitude": "40-52-18.51 N",
		"longitude": "112-26-9.92 W",
		"state": "UTAH",
		"artcc": "ZLC",
		"type": "RNAV",
		"updated": "03/23/2018"
	},
	{
		"name": "DURPE",
		"latitude": "45-25-27.4 N",
		"longitude": "112-18-49 W",
		"state": "MONTANA",
		"artcc": "ZLC",
		"type": "RNAV",
		"updated": "12/07/2017"
	},
	{
		"name": "DUSCA",
		"latitude": "44-39-49.35 N",
		"longitude": "108-45-46.73 W",
		"state": "WYOMING",
		"artcc": "ZLC",
		"type": "RNAV",
		"updated": "02/17/2006"
	},
	{
		"name": "DUTME",
		"latitude": "43-30-57.96 N",
		"longitude": "116-5-5.51 W",
		"state": "IDAHO",
		"artcc": "ZLC",
		"type": "RNAV",
		"updated": "10/21/2015"
	},
	{
		"name": "DUXHU",
		"latitude": "46-16-3.66 N",
		"longitude": "112-47-57.21 W",
		"state": "MONTANA",
		"artcc": "ZLC",
		"type": "RNAV",
		"updated": "10/27/2017"
	},
	{
		"name": "DUYDE",
		"latitude": "40-40-39.68 N",
		"longitude": "112-0-10.79 W",
		"state": "UTAH",
		"artcc": "ZLC",
		"type": "RNAV",
		"updated": "07/25/2005"
	},
	{
		"name": "DUYES",
		"latitude": "45-3-20.83 N",
		"longitude": "112-53-45.84 W",
		"state": "MONTANA",
		"artcc": "ZLC",
		"type": "RNAV",
		"updated": "11/04/2015"
	},
	{
		"name": "DVINT",
		"latitude": "47-28-7.98 N",
		"longitude": "111-33-13.92 W",
		"state": "MONTANA",
		"artcc": "ZLC",
		"type": "RNAV",
		"updated": "06/08/2011"
	},
	{
		"name": "DYANN",
		"latitude": "41-4-32.5 N",
		"longitude": "112-8-49.7 W",
		"state": "UTAH",
		"artcc": "ZLC",
		"type": "RP",
		"updated": "TCH*VORTAC*315.00/15.46"
	},
	{
		"name": "DYENA",
		"latitude": "48-27-37.41 N",
		"longitude": "106-27-51.15 W",
		"state": "MONTANA",
		"artcc": "ZLC",
		"type": "RNAV",
		"updated": "03/05/2014"
	},
	{
		"name": "DYYLN",
		"latitude": "43-37-55.61 N",
		"longitude": "116-12-16.74 W",
		"state": "IDAHO",
		"artcc": "ZLC",
		"type": "RNAV",
		"updated": "10/20/2015"
	}
]
