	{
		"name": "FABID",
		"latitude": "47-30-1.5 N",
		"longitude": "114-29-27.91 W",
		"state": "MONTANA",
		"artcc": "ZLC",
		"type": "RNAV",
		"updated": "07/26/2004",
	},
	{
		"name": "FABRI",
		"latitude": "38-46-55.19 N",
		"longitude": "112-4-18.57 W",
		"state": "UTAH",
		"artcc": "ZLC",
		"type": "RNAV",
		"updated": "04/18/2002",
	},
	{
		"name": "FALDE",
		"latitude": "46-36-40.26 N",
		"longitude": "111-31-25.62 W",
		"state": "MONTANA",
		"artcc": "ZLC",
		"type": "RP",
		"updated": "HLN*VORTAC*073.00/17.78",
	},
	{
		"name": "FALDI",
		"latitude": "43-21-4.51 N",
		"longitude": "115-53-7.73 W",
		"state": "IDAHO",
		"artcc": "ZLC",
		"type": "RNAV",
		"updated": "08/04/2014",
	},
	{
		"name": "FALEM",
		"latitude": "40-46-2.66 N",
		"longitude": "111-59-40.52 W",
		"state": "UTAH",
		"artcc": "ZLC",
		"type": "RP",
		"updated": "UUH*LD*S CRS/0.29",
	},
	{
		"name": "FALIA",
		"latitude": "45-57-39.16 N",
		"longitude": "111-24-29.18 W",
		"state": "MONTANA",
		"artcc": "ZLC",
		"type": "RP",
		"updated": "HIA*VOR/DME*061.17/32.45",
	},
	{
		"name": "FALLO",
		"latitude": "43-0-27.21 N",
		"longitude": "112-31-44.65 W",
		"state": "IDAHO",
		"artcc": "ZLC",
		"type": "RP",
		"updated": "PIH*VOR/DME*016.37/9.86",
	},
	{
		"name": "FAMIT",
		"latitude": "45-33-33.32 N",
		"longitude": "112-17-55.29 W",
		"state": "MONTANA",
		"artcc": "ZLC",
		"type": "RNAV",
		"updated": "12/07/2017",
	},
	{
		"name": "FANAV",
		"latitude": "45-46-15.43 N",
		"longitude": "108-38-40.97 W",
		"state": "MONTANA",
		"artcc": "ZLC",
		"type": "RNAV",
		"updated": "12/19/2011",
	},
	{
		"name": "FANCO",
		"latitude": "42-41-35.25 N",
		"longitude": "114-12-9.8 W",
		"state": "IDAHO",
		"artcc": "ZLC",
		"type": "RNAV",
		"updated": "09/14/2009",
	},
	{
		"name": "FANDS",
		"latitude": "41-16-13.89 N",
		"longitude": "112-3-12.65 W",
		"state": "UTAH",
		"artcc": "ZLC",
		"type": "RP",
		"updated": "UAT*LD*343.95/30.00",
	},
	{
		"name": "FANGG",
		"latitude": "42-54-3.56 N",
		"longitude": "115-40-45.64 W",
		"state": "IDAHO",
		"artcc": "ZLC",
		"type": "MR",
		"updated": "MUO*TACAN*/12.00",
	},
	{
		"name": "FANID",
		"latitude": "45-30-41.31 N",
		"longitude": "113-26-40.37 W",
		"state": "MONTANA",
		"artcc": "ZLC",
		"type": "RP",
		"updated": "LKT*VOR/DME*029.44/40.00",
	},
	{
		"name": "FANIX",
		"latitude": "47-47-32.28 N",
		"longitude": "104-8-21.69 W",
		"state": "MONTANA",
		"artcc": "ZLC",
		"type": "RNAV",
		"updated": "06/08/2017",
	},
	{
		"name": "FANNG",
		"latitude": "40-39-0.53 N",
		"longitude": "112-11-18.07 W",
		"state": "UTAH",
		"artcc": "ZLC",
		"type": "MR",
		"updated": "HIF*TACAN*186.00/30.00",
	},
	{
		"name": "FAPDO",
		"latitude": "43-40-59.37 N",
		"longitude": "116-57-8.66 W",
		"state": "IDAHO",
		"artcc": "ZLC",
		"type": "RNAV",
		"updated": "06/20/2005",
	},
	{
		"name": "FAPGI",
		"latitude": "39-37-44.89 N",
		"longitude": "114-47-40.49 W",
		"state": "NEVADA",
		"artcc": "ZLC",
		"type": "RP",
		"updated": "ELY*VOR/DME*353.15/20.00",
	},
	{
		"name": "FAPMO",
		"latitude": "43-46-8.44 N",
		"longitude": "110-39-31.32 W",
		"state": "WYOMING",
		"artcc": "ZLC",
		"type": "RP",
		"updated": "DNW*VOR/DME*240.91",
	},
	{
		"name": "FARAS",
		"latitude": "40-51-15.2 N",
		"longitude": "115-38-55.25 W",
		"state": "NEVADA",
		"artcc": "ZLC",
		"type": "RP",
		"updated": "EKO*DD*062.60/7.21",
	},
	{
		"name": "FASOK",
		"latitude": "45-49-5.22 N",
		"longitude": "108-24-56.34 W",
		"state": "MONTANA",
		"artcc": "ZLC",
		"type": "RNAV",
		"updated": "12/14/2017",
	},
	{
		"name": "FASTE",
		"latitude": "40-42-0 N",
		"longitude": "114-30-0 W",
		"state": "NEVADA",
		"artcc": "ZLC",
		"type": "RNAV",
		"updated": "05/08/2002",
	},
	{
		"name": "FATAV",
		"latitude": "43-31-6.75 N",
		"longitude": "116-24-10.4 W",
		"state": "IDAHO",
		"artcc": "ZLC",
		"type": "RNAV",
		"updated": "08/21/2013",
	},
	{
		"name": "FATIB",
		"latitude": "43-35-26.02 N",
		"longitude": "116-17-47.93 W",
		"state": "IDAHO",
		"artcc": "ZLC",
		"type": "RNAV",
		"updated": "08/04/2014",
	},
	{
		"name": "FATMI",
		"latitude": "47-42-11.32 N",
		"longitude": "114-6-4.24 W",
		"state": "MONTANA",
		"artcc": "ZLC",
		"type": "RNAV",
		"updated": "09/11/2012",
	},
	{
		"name": "FATRO",
		"latitude": "40-47-24.92 N",
		"longitude": "115-54-8.5 W",
		"state": "NEVADA",
		"artcc": "ZLC",
		"type": "RNAV",
		"updated": "04/18/2016",
	},
	{
		"name": "FAVEN",
		"latitude": "48-22-8.38 N",
		"longitude": "106-50-17 W",
		"state": "MONTANA",
		"artcc": "ZLC",
		"type": "RNAV",
		"updated": "03/05/2014",
	},
	{
		"name": "FAVOX",
		"latitude": "46-36-38.19 N",
		"longitude": "111-35-27.23 W",
		"state": "MONTANA",
		"artcc": "ZLC",
		"type": "RP",
		"updated": "HLN*VORTAC*073.00/15.00",
	},
	{
		"name": "FAVTA",
		"latitude": "46-21-1.82 N",
		"longitude": "111-33-58.76 W",
		"state": "MONTANA",
		"artcc": "ZLC",
		"type": "RNAV",
		"updated": "03/23/2009",
	},
	{
		"name": "FAVUP",
		"latitude": "45-35-38.09 N",
		"longitude": "109-7-19.16 W",
		"state": "MONTANA",
		"artcc": "ZLC",
		"type": "RNAV",
		"updated": "12/19/2011",
	},
	{
		"name": "FAVUR",
		"latitude": "40-24-53.82 N",
		"longitude": "111-52-43.05 W",
		"state": "UTAH",
		"artcc": "ZLC",
		"type": "RP",
		"updated": "PVU*VOR/DME*314.00/14.00",
	},
	{
		"name": "FAXIS",
		"latitude": "48-2-30.94 N",
		"longitude": "105-26-21.91 W",
		"state": "MONTANA",
		"artcc": "ZLC",
		"type": "RNAV",
		"updated": "07/26/2012",
	},
	{
		"name": "FAXON",
		"latitude": "45-32-32.94 N",
		"longitude": "114-5-2.78 W",
		"state": "IDAHO",
		"artcc": "ZLC",
		"type": "RP",
		"updated": "LKT*VOR/DME*347.01/31.28",
	},
	{
		"name": "FEBES",
		"latitude": "43-30-8.5 N",
		"longitude": "116-2-19.52 W",
		"state": "IDAHO",
		"artcc": "ZLC",
		"type": "RNAV",
		"updated": "09/29/2009",
	},
	{
		"name": "FECYE",
		"latitude": "40-8-34.73 N",
		"longitude": "109-54-37.65 W",
		"state": "UTAH",
		"artcc": "ZLC",
		"type": "RP",
		"updated": "MTU*VOR/DME*078.06/10.00",
	},
	{
		"name": "FEDAD",
		"latitude": "40-53-38.19 N",
		"longitude": "111-53-21.29 W",
		"state": "UTAH",
		"artcc": "ZLC",
		"type": "RP",
		"updated": "HIF*TACAN*152.00/14.00",
	},
	{
		"name": "FEDPA",
		"latitude": "42-43-33.29 N",
		"longitude": "109-39-54.67 W",
		"state": "WYOMING",
		"artcc": "ZLC",
		"type": "RNAV",
		"updated": "06/15/2012",
	},
	{
		"name": "FEGEB",
		"latitude": "42-58-31.55 N",
		"longitude": "115-46-47.93 W",
		"state": "IDAHO",
		"artcc": "ZLC",
		"type": "MR",
		"updated": "MUO*TACAN*/5.71",
	},
	{
		"name": "FEGID",
		"latitude": "41-38-17.46 N",
		"longitude": "112-11-18.47 W",
		"state": "UTAH",
		"artcc": "ZLC",
		"type": "RNAV",
		"updated": "11/06/2015",
	},
	{
		"name": "FEGNI",
		"latitude": "43-31-16.19 N",
		"longitude": "116-6-57.55 W",
		"state": "IDAHO",
		"artcc": "ZLC",
		"type": "RNAV",
		"updated": "08/04/2014",
	},
	{
		"name": "FEGUR",
		"latitude": "46-46-54.23 N",
		"longitude": "114-11-24.16 W",
		"state": "MONTANA",
		"artcc": "ZLC",
		"type": "RNAV",
		"updated": "07/20/2004",
	},
	{
		"name": "FEILL",
		"latitude": "39-25-19.11 N",
		"longitude": "114-47-59.5 W",
		"state": "NEVADA",
		"artcc": "ZLC",
		"type": "WP",
		"updated": "11/01/2011",
	},
	{
		"name": "FEKLI",
		"latitude": "44-36-15.37 N",
		"longitude": "106-52-54.07 W",
		"state": "WYOMING",
		"artcc": "ZLC",
		"type": "RP",
		"updated": "SHR*LD*146.32/11.48",
	},
	{
		"name": "FELED",
		"latitude": "43-45-8.17 N",
		"longitude": "116-26-9.49 W",
		"state": "IDAHO",
		"artcc": "ZLC",
		"type": "RP",
		"updated": "BOI*VORTAC*301.49/16.00",
	},
	{
		"name": "FELIK",
		"latitude": "45-19-23.58 N",
		"longitude": "112-21-51.83 W",
		"state": "MONTANA",
		"artcc": "ZLC",
		"type": "RNAV",
		"updated": "12/07/2017",
	},
	{
		"name": "FELIP",
		"latitude": "43-34-45.84 N",
		"longitude": "110-45-14.25 W",
		"state": "WYOMING",
		"artcc": "ZLC",
		"type": "RP",
		"updated": "JAC*VOR/DME*188.25/2.68",
	},
	{
		"name": "FEROT",
		"latitude": "40-0-50.64 N",
		"longitude": "111-41-8.72 W",
		"state": "UTAH",
		"artcc": "ZLC",
		"type": "RNAV",
		"updated": "08/31/2011",
	},
	{
		"name": "FERRI",
		"latitude": "46-35-7.92 N",
		"longitude": "111-51-4.36 W",
		"state": "MONTANA",
		"artcc": "ZLC",
		"type": "RP",
		"updated": "HLN*VORTAC*090.77/4.42",
	},
	{
		"name": "FERSI",
		"latitude": "47-5-44.7 N",
		"longitude": "114-26-35.79 W",
		"state": "MONTANA",
		"artcc": "ZLC",
		"type": "RNAV",
		"updated": "07/17/2009",
	},
	{
		"name": "FERUD",
		"latitude": "42-22-20.57 N",
		"longitude": "114-19-2.67 W",
		"state": "IDAHO",
		"artcc": "ZLC",
		"type": "RP",
		"updated": "TWF*VORTAC*112.08/10.00",
	},
	{
		"name": "FERXY",
		"latitude": "45-56-37.84 N",
		"longitude": "107-14-56.44 W",
		"state": "MONTANA",
		"artcc": "ZLC",
		"type": "RNAV",
		"updated": "09/19/2017",
	},
	{
		"name": "FESGO",
		"latitude": "40-6-17.18 N",
		"longitude": "115-52-37.69 W",
		"state": "NEVADA",
		"artcc": "ZLC",
		"type": "RNAV",
		"updated": "07/03/2013",
	},
	{
		"name": "FESKO",
		"latitude": "40-30-31.17 N",
		"longitude": "117-38-53.07 W",
		"state": "NEVADA",
		"artcc": "ZLC",
		"type": "RP",
		"updated": "BAM*VORTAC*246.01",
	},
	{
		"name": "FESLO",
		"latitude": "45-6-0.73 N",
		"longitude": "112-41-33.32 W",
		"state": "MONTANA",
		"artcc": "ZLC",
		"type": "RNAV",
		"updated": "11/04/2015",
	},
	{
		"name": "FESTU",
		"latitude": "46-59-20.05 N",
		"longitude": "104-45-54.56 W",
		"state": "MONTANA",
		"artcc": "ZLC",
		"type": "RP",
		"updated": "MLS*VOR/DME*044.00/61.12",
	},
	{
		"name": "FESUD",
		"latitude": "40-23-9.54 N",
		"longitude": "117-8-43.41 W",
		"state": "NEVADA",
		"artcc": "ZLC",
		"type": "RP",
		"updated": "BAM*VORTAC*205.00/15.00",
	},
	{
		"name": "FESVO",
		"latitude": "40-18-29.41 N",
		"longitude": "109-58-57.85 W",
		"state": "UTAH",
		"artcc": "ZLC",
		"type": "RNAV",
		"updated": "11/06/2015",
	},
	{
		"name": "FETIK",
		"latitude": "43-17-24.59 N",
		"longitude": "108-22-3.98 W",
		"state": "WYOMING",
		"artcc": "ZLC",
		"type": "RP",
		"updated": "BOY*VOR/DME*180.04/10.80",
	},
	{
		"name": "FETLI",
		"latitude": "41-47-2.71 N",
		"longitude": "109-13-34.13 W",
		"state": "WYOMING",
		"artcc": "ZLC",
		"type": "RP",
		"updated": "OCS*VOR/DME*307.89/15.00",
	},
	{
		"name": "FEVDO",
		"latitude": "42-53-48.88 N",
		"longitude": "115-2-0.3 W",
		"state": "IDAHO",
		"artcc": "ZLC",
		"type": "RNAV",
		"updated": "08/01/2008",
	},
	{
		"name": "FEVIM",
		"latitude": "45-57-17.89 N",
		"longitude": "111-23-59.31 W",
		"state": "MONTANA",
		"artcc": "ZLC",
		"type": "RNAV",
		"updated": "06/22/2010",
	},
	{
		"name": "FEVIP",
		"latitude": "44-27-30.24 N",
		"longitude": "111-16-33.76 W",
		"state": "IDAHO",
		"artcc": "ZLC",
		"type": "RNAV",
		"updated": "08/17/2010",
	},
	{
		"name": "FEXAD",
		"latitude": "46-29-26.17 N",
		"longitude": "112-37-27.37 W",
		"state": "MONTANA",
		"artcc": "ZLC",
		"type": "RNAV",
		"updated": "03/23/2009",
	},
	{
		"name": "FIBEN",
		"latitude": "47-45-47.89 N",
		"longitude": "103-12-18.84 W",
		"state": "NORTH DAKOTA",
		"artcc": "ZLC",
		"type": "RNAV",
		"updated": "04/07/2010",
	},
	{
		"name": "FIBES",
		"latitude": "43-20-49.17 N",
		"longitude": "114-11-30.91 W",
		"state": "IDAHO",
		"artcc": "ZLC",
		"type": "RNAV",
		"updated": "01/10/2001",
	},
	{
		"name": "FIBNY",
		"latitude": "45-38-37.01 N",
		"longitude": "111-9-15.39 W",
		"state": "MONTANA",
		"artcc": "ZLC",
		"type": "RNAV",
		"updated": "06/22/2010",
	},
	{
		"name": "FIDAM",
		"latitude": "44-59-22.95 N",
		"longitude": "117-59-43.44 W",
		"state": "OREGON",
		"artcc": "ZLC",
		"type": "RP",
		"updated": "BKE*VOR/DME*298.28/12.00",
	},
	{
		"name": "FIDEP",
		"latitude": "45-42-59.67 N",
		"longitude": "111-16-4.31 W",
		"state": "MONTANA",
		"artcc": "ZLC",
		"type": "RNAV",
		"updated": "06/22/2010",
	},
	{
		"name": "FIELD",
		"latitude": "41-48-11.96 N",
		"longitude": "112-0-11.51 W",
		"state": "UTAH",
		"artcc": "ZLC",
		"type": "RP",
		"updated": "OGD*VORTAC*353.00/35.00",
	},
	{
		"name": "FIGMU",
		"latitude": "47-24-18.11 N",
		"longitude": "111-28-40.22 W",
		"state": "MONTANA",
		"artcc": "ZLC",
		"type": "RP",
		"updated": "GTF*VORTAC*208.78/3.80",
	},
	{
		"name": "FIGOJ",
		"latitude": "43-31-34.12 N",
		"longitude": "113-17-28.28 W",
		"state": "IDAHO",
		"artcc": "ZLC",
		"type": "RNAV",
		"updated": "07/26/2004",
	},
	{
		"name": "FIKAB",
		"latitude": "47-48-41.82 N",
		"longitude": "114-58-1.83 W",
		"state": "MONTANA",
		"artcc": "ZLC",
		"type": "RP",
		"updated": "MLP*VOR/DME*037.04/34.82",
	},
	{
		"name": "FIKAP",
		"latitude": "41-5-52.26 N",
		"longitude": "111-57-22.37 W",
		"state": "UTAH",
		"artcc": "ZLC",
		"type": "RP",
		"updated": "HIF*TACAN*152.00/1.40",
	},
	{
		"name": "FIKOB",
		"latitude": "48-40-49.04 N",
		"longitude": "109-52-46.83 W",
		"state": "MONTANA",
		"artcc": "ZLC",
		"type": "RNAV",
		"updated": "11/03/2009",
	},
	{
		"name": "FIKVO",
		"latitude": "44-58-23.27 N",
		"longitude": "116-4-40.2 W",
		"state": "IDAHO",
		"artcc": "ZLC",
		"type": "RNAV",
		"updated": "09/01/2017",
	},
	{
		"name": "FILOB",
		"latitude": "42-6-49.84 N",
		"longitude": "111-55-28.59 W",
		"state": "IDAHO",
		"artcc": "ZLC",
		"type": "RP",
		"updated": "MLD*VOR/DME*085.21/24.06",
	},
	{
		"name": "FIMGU",
		"latitude": "43-26-27.74 N",
		"longitude": "116-23-30.48 W",
		"state": "IDAHO",
		"artcc": "ZLC",
		"type": "RP",
		"updated": "BOI*VORTAC*215.51/11.00",
	},
	{
		"name": "FINRO",
		"latitude": "45-44-32.77 N",
		"longitude": "108-42-29.79 W",
		"state": "MONTANA",
		"artcc": "ZLC",
		"type": "RP",
		"updated": "BIL*VORTAC*207.57/5.30",
	},
	{
		"name": "FIPFE",
		"latitude": "45-23-15.93 N",
		"longitude": "114-5-2.92 W",
		"state": "IDAHO",
		"artcc": "ZLC",
		"type": "RP",
		"updated": "LKT*VOR/DME*347.01/21.99",
	},
	{
		"name": "FISDO",
		"latitude": "40-34-57.47 N",
		"longitude": "111-52-7.35 W",
		"state": "UTAH",
		"artcc": "ZLC",
		"type": "RNAV",
		"updated": "11/06/2015",
	},
	{
		"name": "FISIS",
		"latitude": "46-49-53.15 N",
		"longitude": "114-1-12.09 W",
		"state": "MONTANA",
		"artcc": "ZLC",
		"type": "RNAV",
		"updated": "07/17/2009",
	},
	{
		"name": "FIXOD",
		"latitude": "43-37-38.42 N",
		"longitude": "111-11-43.05 W",
		"state": "IDAHO",
		"artcc": "ZLC",
		"type": "RNAV",
		"updated": "10/05/2016",
	},
	{
		"name": "FLAYT",
		"latitude": "45-23-53.28 N",
		"longitude": "107-48-47.79 W",
		"state": "MONTANA",
		"artcc": "ZLC",
		"type": "RNAV",
		"updated": "09/19/2017",
	},
	{
		"name": "FLLAG",
		"latitude": "40-40-48.28 N",
		"longitude": "111-59-4.04 W",
		"state": "UTAH",
		"artcc": "ZLC",
		"type": "RP",
		"updated": "UUH*LD*163.95/5.54",
	},
	{
		"name": "FOBIV",
		"latitude": "37-34-1.62 N",
		"longitude": "112-30-6.56 W",
		"state": "UTAH",
		"artcc": "ZLC",
		"type": "RNAV",
		"updated": "01/27/2011",
	},
	{
		"name": "FOBRA",
		"latitude": "46-14-10.14 N",
		"longitude": "103-23-10.33 W",
		"state": "NORTH DAKOTA",
		"artcc": "ZLC",
		"type": "RNAV",
		"updated": "02/25/2016",
	},
	{
		"name": "FOBUD",
		"latitude": "41-6-51.02 N",
		"longitude": "112-9-22.11 W",
		"state": "UTAH",
		"artcc": "ZLC",
		"type": "RNAV",
		"updated": "11/06/2015",
	},
	{
		"name": "FODEN",
		"latitude": "43-45-58.34 N",
		"longitude": "108-16-43.9 W",
		"state": "WYOMING",
		"artcc": "ZLC",
		"type": "RNAV",
		"updated": "01/23/2017",
	},
	{
		"name": "FOGEM",
		"latitude": "41-1-15.86 N",
		"longitude": "112-21-32.69 W",
		"state": "UTAH",
		"artcc": "ZLC",
		"type": "RP",
		"updated": "TCH*VORTAC*284.97/19.98",
	},
	{
		"name": "FOKBU",
		"latitude": "48-7-21.71 N",
		"longitude": "105-6-20.29 W",
		"state": "MONTANA",
		"artcc": "ZLC",
		"type": "RNAV",
		"updated": "03/11/2013",
	},
	{
		"name": "FOLLS",
		"latitude": "43-16-35.3 N",
		"longitude": "116-23-40.91 W",
		"state": "IDAHO",
		"artcc": "ZLC",
		"type": "RNAV",
		"updated": "10/20/2015",
	},
	{
		"name": "FOMOV",
		"latitude": "40-23-14.1 N",
		"longitude": "111-55-3.13 W",
		"state": "UTAH",
		"artcc": "ZLC",
		"type": "RNAV",
		"updated": "07/20/2011",
	},
	{
		"name": "FONIA",
		"latitude": "48-15-35.07 N",
		"longitude": "103-10-37.54 W",
		"state": "NORTH DAKOTA",
		"artcc": "ZLC",
		"type": "RP",
		"updated": "ISN*VOR/DME*076.84/23.00",
	},
	{
		"name": "FONNA",
		"latitude": "44-5-1.66 N",
		"longitude": "117-50-17.48 W",
		"state": "OREGON",
		"artcc": "ZLC",
		"type": "RP",
		"updated": "ILR*VOR/DME*040.36/56.74",
	},
	{
		"name": "FORBI",
		"latitude": "48-2-26.62 N",
		"longitude": "103-17-19.94 W",
		"state": "NORTH DAKOTA",
		"artcc": "ZLC",
		"type": "RP",
		"updated": "ISN*VOR/DME*112.36/22.52",
	},
	{
		"name": "FORXS",
		"latitude": "40-46-24.29 N",
		"longitude": "111-57-46.43 W",
		"state": "UTAH",
		"artcc": "ZLC",
		"type": "RP",
		"updated": "UTJ*LD*163.95/0.24",
	},
	{
		"name": "FOSKA",
		"latitude": "41-43-45.76 N",
		"longitude": "110-32-37.6 W",
		"state": "WYOMING",
		"artcc": "ZLC",
		"type": "RNAV",
		"updated": "11/21/2014",
	},
	{
		"name": "FOSLA",
		"latitude": "40-13-43.3 N",
		"longitude": "110-4-49.81 W",
		"state": "UTAH",
		"artcc": "ZLC",
		"type": "RP",
		"updated": "MTU*VOR/DME*010.13/5.23",
	},
	{
		"name": "FOSOV",
		"latitude": "39-24-11.31 N",
		"longitude": "110-44-39.56 W",
		"state": "UTAH",
		"artcc": "ZLC",
		"type": "RP",
		"updated": "PUC*VOR/DME*163.96/12.00",
	},
	{
		"name": "FOURS",
		"latitude": "44-28-48.72 N",
		"longitude": "106-35-26.51 W",
		"state": "WYOMING",
		"artcc": "ZLC",
		"type": "RP",
		"updated": "CZI*VOR/DME*334.00/29.59",
	},
	{
		"name": "FOVAK",
		"latitude": "44-17-3.72 N",
		"longitude": "117-4-6.08 W",
		"state": "IDAHO",
		"artcc": "ZLC",
		"type": "RNAV",
		"updated": "08/14/2008",
	},
	{
		"name": "FOXUG",
		"latitude": "43-23-19.48 N",
		"longitude": "112-18-11.68 W",
		"state": "IDAHO",
		"artcc": "ZLC",
		"type": "RNAV",
		"updated": "08/08/2010",
	},
	{
		"name": "FOXXS",
		"latitude": "45-14-55.61 N",
		"longitude": "107-31-33.77 W",
		"state": "MONTANA",
		"artcc": "ZLC",
		"type": "RNAV",
		"updated": "09/19/2017",
	},
	{
		"name": "FREYA",
		"latitude": "46-17-20.26 N",
		"longitude": "106-51-11.8 W",
		"state": "MONTANA",
		"artcc": "ZLC",
		"type": "RNAV",
		"updated": "07/11/2011",
	},
	{
		"name": "FRIDM",
		"latitude": "43-7-23.66 N",
		"longitude": "111-3-47.46 W",
		"state": "IDAHO",
		"artcc": "ZLC",
		"type": "RNAV",
		"updated": "09/11/2003",
	},
	{
		"name": "FRNZY",
		"latitude": "39-58-14.82 N",
		"longitude": "112-7-8.78 W",
		"state": "UTAH",
		"artcc": "ZLC",
		"type": "RP",
		"updated": "FFU*VORTAC*188.32/20.00",
	},
	{
		"name": "FRYMN",
		"latitude": "47-17-32.4 N",
		"longitude": "111-38-36.84 W",
		"state": "MONTANA",
		"artcc": "ZLC",
		"type": "RP",
		"updated": "GTF*VORTAC*209.00/13.36",
	},
	{
		"name": "FSYTH",
		"latitude": "46-3-18.99 N",
		"longitude": "107-31-9.23 W",
		"state": "MONTANA",
		"artcc": "ZLC",
		"type": "RNAV",
		"updated": "03/03/2015",
	},
	{
		"name": "FUGUE",
		"latitude": "40-34-3.34 N",
		"longitude": "111-24-29.37 W",
		"state": "UTAH",
		"artcc": "ZLC",
		"type": "RNAV",
		"updated": "08/04/2017",
	},
	{
		"name": "FUUJN",
		"latitude": "41-5-37.99 N",
		"longitude": "112-17-33.08 W",
		"state": "UTAH",
		"artcc": "ZLC",
		"type": "RP",
		"updated": "HIF*TACAN*250.00/15.00",
	},
	{
		"name": "FUZII",
		"latitude": "42-50-48 N",
		"longitude": "117-11-40 W",
		"state": "OREGON",
		"artcc": "ZLC",
		"type": "RNAV",
		"updated": "01/13/2014",
	},
