[
	{
		"name": "GABBY",
		"latitude": "42-28-25.59 N",
		"longitude": "114-6-23.3 W",
		"state": "IDAHO",
		"artcc": "ZLC",
		"type": "RP",
		"updated": "BYI*VOR/DME*221.19"
	},
	{
		"name": "GACEP",
		"latitude": "44-7-58.93 N",
		"longitude": "116-51-50.37 W",
		"state": "IDAHO",
		"artcc": "ZLC",
		"type": "RNAV",
		"updated": "08/14/2008"
	},
	{
		"name": "GAITZ",
		"latitude": "45-14-22.26 N",
		"longitude": "108-4-58.61 W",
		"state": "MONTANA",
		"artcc": "ZLC",
		"type": "RNAV",
		"updated": "09/19/2017"
	},
	{
		"name": "GAJMA",
		"latitude": "47-3-10.64 N",
		"longitude": "109-22-45.41 W",
		"state": "MONTANA",
		"artcc": "ZLC",
		"type": "RNAV",
		"updated": "07/30/2012"
	},
	{
		"name": "GALLI",
		"latitude": "40-19-10.34 N",
		"longitude": "118-7-17.84 W",
		"state": "NEVADA",
		"artcc": "ZLC",
		"type": "RNAV",
		"updated": "10/26/2005"
	},
	{
		"name": "GALTN",
		"latitude": "45-41-52.69 N",
		"longitude": "111-12-36.97 W",
		"state": "MONTANA",
		"artcc": "ZLC",
		"type": "RNAV",
		"updated": "05/09/2011"
	},
	{
		"name": "GANNE",
		"latitude": "43-18-37.17 N",
		"longitude": "109-30-23.85 W",
		"state": "WYOMING",
		"artcc": "ZLC",
		"type": "RNAV",
		"updated": "04/18/2012"
	},
	{
		"name": "GAPAR",
		"latitude": "47-53-46.73 N",
		"longitude": "112-59-13.78 W",
		"state": "MONTANA",
		"artcc": "ZLC",
		"type": "RP",
		"updated": "CTB*VOR/DME*196.00"
	},
	{
		"name": "GAPIE",
		"latitude": "41-5-1.4 N",
		"longitude": "111-58-54.89 W",
		"state": "UTAH",
		"artcc": "ZLC",
		"type": "RP",
		"updated": "TCH*VORTAC*014.00"
	},
	{
		"name": "GAPPP",
		"latitude": "46-47-45.31 N",
		"longitude": "109-6-29.81 W",
		"state": "MONTANA",
		"artcc": "ZLC",
		"type": "RNAV",
		"updated": "07/21/2016"
	},
	{
		"name": "GAROT",
		"latitude": "39-18-0 N",
		"longitude": "113-15-0 W",
		"state": "UTAH",
		"artcc": "ZLC",
		"type": "RNAV",
		"updated": "03/23/2018"
	},
	{
		"name": "GARPE",
		"latitude": "46-2-58.12 N",
		"longitude": "114-12-17.35 W",
		"state": "MONTANA",
		"artcc": "ZLC",
		"type": "RNAV",
		"updated": "04/05/2004"
	},
	{
		"name": "GASBE",
		"latitude": "46-32-40.22 N",
		"longitude": "111-35-27.03 W",
		"state": "MONTANA",
		"artcc": "ZLC",
		"type": "RNAV",
		"updated": "07/22/2008"
	},
	{
		"name": "GATEY",
		"latitude": "45-40-7.84 N",
		"longitude": "111-13-45.04 W",
		"state": "MONTANA",
		"artcc": "ZLC",
		"type": "RP",
		"updated": "HIA*VOR/DME*088.00"
	},
	{
		"name": "GAYTE",
		"latitude": "43-35-27.8 N",
		"longitude": "118-29-46.95 W",
		"state": "OREGON",
		"artcc": "ZLC",
		"type": "RP",
		"updated": "ILR*VOR/DME*072.20/20.00"
	},
	{
		"name": "GEDKE",
		"latitude": "47-38-25.37 N",
		"longitude": "114-6-4.07 W",
		"state": "MONTANA",
		"artcc": "ZLC",
		"type": "RNAV",
		"updated": "09/03/2009"
	},
	{
		"name": "GEERY",
		"latitude": "38-34-54.86 N",
		"longitude": "112-36-7.27 W",
		"state": "UTAH",
		"artcc": "ZLC",
		"type": "RNAV",
		"updated": "07/13/2015"
	},
	{
		"name": "GEGME",
		"latitude": "41-54-26.7 N",
		"longitude": "110-43-20.26 W",
		"state": "WYOMING",
		"artcc": "ZLC",
		"type": "RP",
		"updated": "OCS*VOR/DME*271.50/78.99"
	},
	{
		"name": "GELDS",
		"latitude": "40-50-40.28 N",
		"longitude": "115-41-43 W",
		"state": "NEVADA",
		"artcc": "ZLC",
		"type": "RP",
		"updated": "EKO*DD*062.60/5.01"
	},
	{
		"name": "GELEY",
		"latitude": "46-33-44.67 N",
		"longitude": "111-42-13.68 W",
		"state": "MONTANA",
		"artcc": "ZLC",
		"type": "RP",
		"updated": "HLN*VORTAC*/10.67"
	},
	{
		"name": "GELGE",
		"latitude": "40-17-33.69 N",
		"longitude": "109-55-14.13 W",
		"state": "UTAH",
		"artcc": "ZLC",
		"type": "RNAV",
		"updated": "11/06/2015"
	},
	{
		"name": "GEMPE",
		"latitude": "48-54-55.63 N",
		"longitude": "105-36-33.08 W",
		"state": "MONTANA",
		"artcc": "ZLC",
		"type": "RNAV",
		"updated": "04/10/2002"
	},
	{
		"name": "GERHE",
		"latitude": "47-55-43.51 N",
		"longitude": "103-27-13.32 W",
		"state": "NORTH DAKOTA",
		"artcc": "ZLC",
		"type": "RNAV",
		"updated": "04/07/2010"
	},
	{
		"name": "GETKE",
		"latitude": "48-4-0.67 N",
		"longitude": "105-30-13.05 W",
		"state": "MONTANA",
		"artcc": "ZLC",
		"type": "RNAV",
		"updated": "07/26/2012"
	},
	{
		"name": "GEVEC",
		"latitude": "44-54-55.62 N",
		"longitude": "108-50-18.5 W",
		"state": "WYOMING",
		"artcc": "ZLC",
		"type": "RNAV",
		"updated": "07/26/2013"
	},
	{
		"name": "GEYEY",
		"latitude": "43-33-41.13 N",
		"longitude": "116-6-41.24 W",
		"state": "IDAHO",
		"artcc": "ZLC",
		"type": "RNAV",
		"updated": "08/05/2014"
	},
	{
		"name": "GEYGE",
		"latitude": "46-3-36.89 N",
		"longitude": "112-31-56.9 W",
		"state": "MONTANA",
		"artcc": "ZLC",
		"type": "RP",
		"updated": "BEY*LD*334.87/7.48"
	},
	{
		"name": "GFITR",
		"latitude": "42-0-4.83 N",
		"longitude": "116-14-51.79 W",
		"state": "IDAHO",
		"artcc": "ZLC",
		"type": "RNAV",
		"updated": "08/05/2014"
	},
	{
		"name": "GGAPP",
		"latitude": "37-31-59.6 N",
		"longitude": "112-8-4.63 W",
		"state": "UTAH",
		"artcc": "ZLC",
		"type": "RNAV",
		"updated": "11/02/2016"
	},
	{
		"name": "GGLEN",
		"latitude": "48-28-8.22 N",
		"longitude": "106-18-52.26 W",
		"state": "MONTANA",
		"artcc": "ZLC",
		"type": "RNAV",
		"updated": "03/05/2014"
	},
	{
		"name": "GGRBI",
		"latitude": "49-0-0 N",
		"longitude": "109-27-28.8 W",
		"state": "MONTANA",
		"artcc": "ZLC",
		"type": "CN",
		"updated": "03/22/2002"
	},
	{
		"name": "GIDEY",
		"latitude": "39-36-8.8 N",
		"longitude": "112-29-38.55 W",
		"state": "UTAH",
		"artcc": "ZLC",
		"type": "RP",
		"updated": "DTA*VORTAC*345.70/18.00"
	},
	{
		"name": "GIGSE",
		"latitude": "43-13-35.66 N",
		"longitude": "111-13-12.78 W",
		"state": "IDAHO",
		"artcc": "ZLC",
		"type": "RP",
		"updated": "JAC*VOR/DME*209.24/31.88"
	},
	{
		"name": "GILEY",
		"latitude": "38-57-47.84 N",
		"longitude": "111-47-51.22 W",
		"state": "UTAH",
		"artcc": "ZLC",
		"type": "RNAV",
		"updated": "03/24/2008"
	},
	{
		"name": "GIMME",
		"latitude": "40-24-17.45 N",
		"longitude": "111-55-49.53 W",
		"state": "UTAH",
		"artcc": "ZLC",
		"type": "RP",
		"updated": "TCH*VORTAC*158.95/26.81"
	},
	{
		"name": "GINBE",
		"latitude": "48-0-35.46 N",
		"longitude": "103-54-43.93 W",
		"state": "NORTH DAKOTA",
		"artcc": "ZLC",
		"type": "RP",
		"updated": "ISN*VOR/DME*192.00/16.00"
	},
	{
		"name": "GIRGE",
		"latitude": "43-22-0.41 N",
		"longitude": "111-19-4.73 W",
		"state": "IDAHO",
		"artcc": "ZLC",
		"type": "RNAV",
		"updated": "03/24/2005"
	},
	{
		"name": "GISKE",
		"latitude": "47-35-3.28 N",
		"longitude": "111-22-22.03 W",
		"state": "MONTANA",
		"artcc": "ZLC",
		"type": "RNAV",
		"updated": "07/12/2017"
	},
	{
		"name": "GISSE",
		"latitude": "43-31-43.36 N",
		"longitude": "118-52-7.67 W",
		"state": "OREGON",
		"artcc": "ZLC",
		"type": "RNAV",
		"updated": "06/07/2004"
	},
	{
		"name": "GITBE",
		"latitude": "40-46-1.1 N",
		"longitude": "111-58-20.05 W",
		"state": "UTAH",
		"artcc": "ZLC",
		"type": "RP",
		"updated": "SLC*LD*163.96/0.29"
	},
	{
		"name": "GITLN",
		"latitude": "40-8-4.72 N",
		"longitude": "111-57-35.34 W",
		"state": "UTAH",
		"artcc": "ZLC",
		"type": "RNAV",
		"updated": "10/30/2007"
	},
	{
		"name": "GIYER",
		"latitude": "43-40-13.69 N",
		"longitude": "110-42-24.97 W",
		"state": "WYOMING",
		"artcc": "ZLC",
		"type": "RP",
		"updated": "JAC*VOR/DME*006.97/3.16"
	},
	{
		"name": "GLACI",
		"latitude": "48-12-13.01 N",
		"longitude": "114-22-0.06 W",
		"state": "MONTANA",
		"artcc": "ZLC",
		"type": "RP",
		"updated": "FCA*VOR/DME*247.37"
	},
	{
		"name": "GLANS",
		"latitude": "45-23-59.21 N",
		"longitude": "113-56-45.69 W",
		"state": "IDAHO",
		"artcc": "ZLC",
		"type": "RNAV",
		"updated": "02/18/2016"
	},
	{
		"name": "GLUES",
		"latitude": "46-25-57.21 N",
		"longitude": "112-43-38.24 W",
		"state": "MONTANA",
		"artcc": "ZLC",
		"type": "RP",
		"updated": "GTF*VORTAC*206.00/81.56"
	},
	{
		"name": "GMERE",
		"latitude": "42-31-1.21 N",
		"longitude": "116-17-15.42 W",
		"state": "IDAHO",
		"artcc": "ZLC",
		"type": "RNAV",
		"updated": "08/05/2014"
	},
	{
		"name": "GNARS",
		"latitude": "45-23-22.38 N",
		"longitude": "112-19-51.9 W",
		"state": "MONTANA",
		"artcc": "ZLC",
		"type": "RNAV",
		"updated": "12/07/2017"
	},
	{
		"name": "GNAWS",
		"latitude": "45-25-16.76 N",
		"longitude": "112-19-2.46 W",
		"state": "MONTANA",
		"artcc": "ZLC",
		"type": "RNAV",
		"updated": "12/07/2017"
	},
	{
		"name": "GODFE",
		"latitude": "46-15-44.9 N",
		"longitude": "111-26-3.88 W",
		"state": "MONTANA",
		"artcc": "ZLC",
		"type": "RP",
		"updated": "BZN*VOR/DME*320.00/31.00"
	},
	{
		"name": "GOGGS",
		"latitude": "48-0-39.94 N",
		"longitude": "114-33-58.17 W",
		"state": "MONTANA",
		"artcc": "ZLC",
		"type": "RNAV",
		"updated": "07/13/2017"
	},
	{
		"name": "GONSE",
		"latitude": "43-23-57.05 N",
		"longitude": "115-49-7.44 W",
		"state": "IDAHO",
		"artcc": "ZLC",
		"type": "RNAV",
		"updated": "10/21/2015"
	},
	{
		"name": "GOODE",
		"latitude": "42-50-22.78 N",
		"longitude": "114-44-59.2 W",
		"state": "IDAHO",
		"artcc": "ZLC",
		"type": "RP",
		"updated": "BYI*VOR/DME*274.00/42.08"
	},
	{
		"name": "GORPS",
		"latitude": "41-13-42.05 N",
		"longitude": "112-0-1.36 W",
		"state": "UTAH",
		"artcc": "ZLC",
		"type": "RNAV",
		"updated": "10/02/2015"
	},
	{
		"name": "GORTE",
		"latitude": "47-27-32.44 N",
		"longitude": "114-23-4.15 W",
		"state": "MONTANA",
		"artcc": "ZLC",
		"type": "RNAV",
		"updated": "07/26/2004"
	},
	{
		"name": "GOSHU",
		"latitude": "40-1-16.46 N",
		"longitude": "111-15-19.36 W",
		"state": "UTAH",
		"artcc": "ZLC",
		"type": "RP",
		"updated": "FFU*VORTAC*099.53/35.00"
	},
	{
		"name": "GOSSI",
		"latitude": "48-14-11.3 N",
		"longitude": "106-39-10.9 W",
		"state": "MONTANA",
		"artcc": "ZLC",
		"type": "RNAV",
		"updated": "12/20/2011"
	},
	{
		"name": "GOWZE",
		"latitude": "41-8-19.81 N",
		"longitude": "118-16-24.45 W",
		"state": "NEVADA",
		"artcc": "ZLC",
		"type": "RP",
		"updated": "SDO*VORTAC*195.96/19.37"
	},
	{
		"name": "GOYEK",
		"latitude": "44-49-17.4 N",
		"longitude": "117-20-24.87 W",
		"state": "OREGON",
		"artcc": "ZLC",
		"type": "RP",
		"updated": "BKE*VOR/DME*073.12/20.00"
	},
	{
		"name": "GRAIG",
		"latitude": "40-24-40.83 N",
		"longitude": "117-5-0.48 W",
		"state": "NEVADA",
		"artcc": "ZLC",
		"type": "RP",
		"updated": "BAM*VORTAC*200.00/12.00"
	},
	{
		"name": "GRANG",
		"latitude": "47-0-37.24 N",
		"longitude": "108-43-23.35 W",
		"state": "MONTANA",
		"artcc": "ZLC",
		"type": "RNAV",
		"updated": "03/20/2017"
	},
	{
		"name": "GRCON",
		"latitude": "47-55-24.15 N",
		"longitude": "113-52-0.52 W",
		"state": "MONTANA",
		"artcc": "ZLC",
		"type": "RNAV",
		"updated": "04/25/2017"
	},
	{
		"name": "GRIPS",
		"latitude": "41-47-38.26 N",
		"longitude": "110-5-38.12 W",
		"state": "WYOMING",
		"artcc": "ZLC",
		"type": "RP",
		"updated": "OCS*VOR/DME*271.50/50.00"
	},
	{
		"name": "GRITS",
		"latitude": "41-5-15.38 N",
		"longitude": "112-16-9.33 W",
		"state": "UTAH",
		"artcc": "ZLC",
		"type": "MR",
		"updated": "HIF*TACAN*248.00/14.00"
	},
	{
		"name": "GRODI",
		"latitude": "41-12-24.28 N",
		"longitude": "110-39-54.9 W",
		"state": "WYOMING",
		"artcc": "ZLC",
		"type": "RP",
		"updated": "EVW*VOR/DME*089.73"
	},
	{
		"name": "GROEV",
		"latitude": "46-59-1.14 N",
		"longitude": "109-11-33.42 W",
		"state": "MONTANA",
		"artcc": "ZLC",
		"type": "RNAV",
		"updated": "07/21/2016"
	},
	{
		"name": "GRYNS",
		"latitude": "45-1-49.56 N",
		"longitude": "107-53-10.08 W",
		"state": "MONTANA",
		"artcc": "ZLC",
		"type": "RNAV",
		"updated": "09/19/2017"
	},
	{
		"name": "GRYNT",
		"latitude": "45-29-7.34 N",
		"longitude": "108-54-48.51 W",
		"state": "MONTANA",
		"artcc": "ZLC",
		"type": "RNAV",
		"updated": "12/14/2017"
	},
	{
		"name": "GRYZZ",
		"latitude": "45-37-51.19 N",
		"longitude": "108-23-11.06 W",
		"state": "MONTANA",
		"artcc": "ZLC",
		"type": "RNAV",
		"updated": "12/07/2017"
	},
	{
		"name": "GRZZY",
		"latitude": "43-29-26.55 N",
		"longitude": "115-43-46.2 W",
		"state": "IDAHO",
		"artcc": "ZLC",
		"type": "RNAV",
		"updated": "08/05/2014"
	},
	{
		"name": "GUBKE",
		"latitude": "48-5-0.84 N",
		"longitude": "114-8-9.38 W",
		"state": "MONTANA",
		"artcc": "ZLC",
		"type": "RP",
		"updated": "FCA*VOR/DME*150.41/8.00"
	},
	{
		"name": "GUGYI",
		"latitude": "47-22-50.59 N",
		"longitude": "111-46-28.65 W",
		"state": "MONTANA",
		"artcc": "ZLC",
		"type": "RP",
		"updated": "GTF*VORTAC*238.40/15.34"
	},
	{
		"name": "GUNKS",
		"latitude": "43-24-44.92 N",
		"longitude": "114-13-41.12 W",
		"state": "IDAHO",
		"artcc": "ZLC",
		"type": "RNAV",
		"updated": "06/06/2016"
	},
	{
		"name": "GUNKY",
		"latitude": "41-45-57.23 N",
		"longitude": "111-49-23.33 W",
		"state": "UTAH",
		"artcc": "ZLC",
		"type": "RNAV",
		"updated": "11/06/2015"
	},
	{
		"name": "GUSIE",
		"latitude": "46-10-44.22 N",
		"longitude": "112-4-42.14 W",
		"state": "MONTANA",
		"artcc": "ZLC",
		"type": "RP",
		"updated": "HIA*VOR/DME*353.30/19.41"
	},
	{
		"name": "GUSME",
		"latitude": "39-32-58.34 N",
		"longitude": "114-52-11.69 W",
		"state": "NEVADA",
		"artcc": "ZLC",
		"type": "RNAV",
		"updated": "10/31/2011"
	}
]
