[
	{
		"name": "HABAB",
		"latitude": "40-58-17.65 N",
		"longitude": "112-5-40.26 W",
		"state": "UTAH",
		"artcc": "ZLC",
		"type": "RNAV",
		"updated": "11/06/2015"
	},
	{
		"name": "HADAL",
		"latitude": "45-46-48.11 N",
		"longitude": "109-0-12.68 W",
		"state": "MONTANA",
		"artcc": "ZLC",
		"type": "MR",
		"updated": "BIL*VORTAC*249.99/16.00"
	},
	{
		"name": "HADVI",
		"latitude": "43-38-47.65 N",
		"longitude": "114-20-49.6 W",
		"state": "IDAHO",
		"artcc": "ZLC",
		"type": "RNAV",
		"updated": "09/18/2007"
	},
	{
		"name": "HAGDA",
		"latitude": "46-20-17.12 N",
		"longitude": "103-30-36.25 W",
		"state": "NORTH DAKOTA",
		"artcc": "ZLC",
		"type": "RNAV",
		"updated": "02/25/2016"
	},
	{
		"name": "HAGPA",
		"latitude": "43-6-43.46 N",
		"longitude": "115-57-56.94 W",
		"state": "IDAHO",
		"artcc": "ZLC",
		"type": "MR",
		"updated": "MUO*TACAN*/5.88"
	},
	{
		"name": "HAGUT",
		"latitude": "40-14-57.73 N",
		"longitude": "109-52-10.19 W",
		"state": "UTAH",
		"artcc": "ZLC",
		"type": "RNAV",
		"updated": "11/06/2015"
	},
	{
		"name": "HAHAS",
		"latitude": "40-50-22.8 N",
		"longitude": "115-43-6.86 W",
		"state": "NEVADA",
		"artcc": "ZLC",
		"type": "RP",
		"updated": "EKO*DD*062.60/3.91"
	},
	{
		"name": "HAJWU",
		"latitude": "37-41-27.97 N",
		"longitude": "112-27-10.58 W",
		"state": "UTAH",
		"artcc": "ZLC",
		"type": "RNAV",
		"updated": "01/27/2011"
	},
	{
		"name": "HAKDI",
		"latitude": "45-26-0.68 N",
		"longitude": "108-57-34.3 W",
		"state": "MONTANA",
		"artcc": "ZLC",
		"type": "RP",
		"updated": "BIL*VORTAC*198.19/26.56"
	},
	{
		"name": "HAKET",
		"latitude": "47-53-3.13 N",
		"longitude": "104-4-45.04 W",
		"state": "MONTANA",
		"artcc": "ZLC",
		"type": "RNAV",
		"updated": "05/28/2010"
	},
	{
		"name": "HAKKR",
		"latitude": "40-31-41.48 N",
		"longitude": "111-56-40.71 W",
		"state": "UTAH",
		"artcc": "ZLC",
		"type": "RP",
		"updated": "SLC*LD*163.96/14.66"
	},
	{
		"name": "HALOX",
		"latitude": "48-21-13.83 N",
		"longitude": "106-21-11.78 W",
		"state": "MONTANA",
		"artcc": "ZLC",
		"type": "RNAV",
		"updated": "03/05/2014"
	},
	{
		"name": "HALSO",
		"latitude": "47-46-39.62 N",
		"longitude": "114-8-39.75 W",
		"state": "MONTANA",
		"artcc": "ZLC",
		"type": "RNAV",
		"updated": "07/26/2004"
	},
	{
		"name": "HAMET",
		"latitude": "38-23-5.48 N",
		"longitude": "112-13-5.11 W",
		"state": "UTAH",
		"artcc": "ZLC",
		"type": "RP",
		"updated": "MLF*VORTAC*071.51/37.55"
	},
	{
		"name": "HAMEY",
		"latitude": "46-21-7.96 N",
		"longitude": "114-7-25.18 W",
		"state": "MONTANA",
		"artcc": "ZLC",
		"type": "RNAV",
		"updated": "04/13/2004"
	},
	{
		"name": "HAMID",
		"latitude": "46-37-0.94 N",
		"longitude": "114-3-43 W",
		"state": "MONTANA",
		"artcc": "ZLC",
		"type": "RNAV",
		"updated": "07/20/2004"
	},
	{
		"name": "HAMKI",
		"latitude": "36-55-24.59 N",
		"longitude": "76-29-13.71 W",
		"state": "VIRGINIA",
		"artcc": "ZLC",
		"type": "RNAV",
		"updated": "09/12/2017"
	},
	{
		"name": "HANIM",
		"latitude": "47-28-13.27 N",
		"longitude": "114-30-58.59 W",
		"state": "MONTANA",
		"artcc": "ZLC",
		"type": "RP",
		"updated": "MLP*VOR/DME*073.58/46.00"
	},
	{
		"name": "HANOG",
		"latitude": "38-37-15.97 N",
		"longitude": "109-59-17.37 W",
		"state": "UTAH",
		"artcc": "ZLC",
		"type": "RNAV",
		"updated": "02/11/2004"
	},
	{
		"name": "HANTZ",
		"latitude": "47-35-57.47 N",
		"longitude": "111-24-12.15 W",
		"state": "MONTANA",
		"artcc": "ZLC",
		"type": "RNAV",
		"updated": "06/08/2011"
	},
	{
		"name": "HAPNU",
		"latitude": "43-32-12.76 N",
		"longitude": "116-8-21.79 W",
		"state": "IDAHO",
		"artcc": "ZLC",
		"type": "RNAV",
		"updated": "08/05/2014"
	},
	{
		"name": "HAROL",
		"latitude": "40-11-53.3 N",
		"longitude": "117-52-42.3 W",
		"state": "NEVADA",
		"artcc": "ZLC",
		"type": "RNAV",
		"updated": "11/02/2005"
	},
	{
		"name": "HARRV",
		"latitude": "39-32-21.19 N",
		"longitude": "114-59-45.37 W",
		"state": "NEVADA",
		"artcc": "ZLC",
		"type": "RP",
		"updated": "ELY*VOR/DME*320.64/16.00"
	},
	{
		"name": "HARVV",
		"latitude": "42-47-11.38 N",
		"longitude": "118-34-12.04 W",
		"state": "OREGON",
		"artcc": "ZLC",
		"type": "RNAV",
		"updated": "03/29/2018"
	},
	{
		"name": "HASEM",
		"latitude": "40-32-33.17 N",
		"longitude": "112-20-57.73 W",
		"state": "UTAH",
		"artcc": "ZLC",
		"type": "RNAV",
		"updated": "07/10/2009"
	},
	{
		"name": "HASOS",
		"latitude": "47-30-6.18 N",
		"longitude": "103-12-58.89 W",
		"state": "NORTH DAKOTA",
		"artcc": "ZLC",
		"type": "RP",
		"updated": "DIK*VORTAC*320.96/42.57"
	},
	{
		"name": "HAXAG",
		"latitude": "45-37-46.04 N",
		"longitude": "111-18-11.32 W",
		"state": "MONTANA",
		"artcc": "ZLC",
		"type": "RNAV",
		"updated": "06/22/2010"
	},
	{
		"name": "HAYCI",
		"latitude": "45-53-52.11 N",
		"longitude": "111-19-10.75 W",
		"state": "MONTANA",
		"artcc": "ZLC",
		"type": "RNAV",
		"updated": "06/22/2010"
	},
	{
		"name": "HAZZL",
		"latitude": "42-38-31.8 N",
		"longitude": "114-4-26.68 W",
		"state": "IDAHO",
		"artcc": "ZLC",
		"type": "RP",
		"updated": "BYI*VOR/DME*274.00/9.94"
	},
	{
		"name": "HEADE",
		"latitude": "40-46-0 N",
		"longitude": "112-55-0 W",
		"state": "UTAH",
		"artcc": "ZLC",
		"type": "RNAV",
		"updated": "04/30/2002"
	},
	{
		"name": "HEBIV",
		"latitude": "45-55-29.28 N",
		"longitude": "111-43-31.06 W",
		"state": "MONTANA",
		"artcc": "ZLC",
		"type": "RP",
		"updated": "HIA*VOR/DME*060.36/19.00"
	},
	{
		"name": "HEBUM",
		"latitude": "41-34-7.76 N",
		"longitude": "108-55-8.53 W",
		"state": "WYOMING",
		"artcc": "ZLC",
		"type": "RP",
		"updated": "RKS*LD*090.19/7.73"
	},
	{
		"name": "HEDRA",
		"latitude": "43-37-28.18 N",
		"longitude": "108-14-31.67 W",
		"state": "WYOMING",
		"artcc": "ZLC",
		"type": "RNAV",
		"updated": "01/23/2017"
	},
	{
		"name": "HEDVA",
		"latitude": "47-5-8.66 N",
		"longitude": "114-24-19.76 W",
		"state": "MONTANA",
		"artcc": "ZLC",
		"type": "RNAV",
		"updated": "07/17/2009"
	},
	{
		"name": "HEETH",
		"latitude": "46-59-39.52 N",
		"longitude": "109-15-20.02 W",
		"state": "MONTANA",
		"artcc": "ZLC",
		"type": "RNAV",
		"updated": "07/21/2016"
	},
	{
		"name": "HEGOX",
		"latitude": "48-22-49.2 N",
		"longitude": "106-25-18.45 W",
		"state": "MONTANA",
		"artcc": "ZLC",
		"type": "RNAV",
		"updated": "03/05/2014"
	},
	{
		"name": "HEGUT",
		"latitude": "43-29-8.99 N",
		"longitude": "116-6-44.98 W",
		"state": "IDAHO",
		"artcc": "ZLC",
		"type": "RNAV",
		"updated": "08/05/2014"
	},
	{
		"name": "HEIRY",
		"latitude": "40-33-23.98 N",
		"longitude": "112-5-0.2 W",
		"state": "UTAH",
		"artcc": "ZLC",
		"type": "RNAV",
		"updated": "08/28/2007"
	},
	{
		"name": "HEKIT",
		"latitude": "48-33-54.29 N",
		"longitude": "112-5-32.39 W",
		"state": "MONTANA",
		"artcc": "ZLC",
		"type": "RP",
		"updated": "CTB*VOR/DME*072.86/10.00"
	},
	{
		"name": "HELPR",
		"latitude": "39-45-11.31 N",
		"longitude": "110-32-53.24 W",
		"state": "UTAH",
		"artcc": "ZLC",
		"type": "RP",
		"updated": "MTU*VOR/DME*205.39"
	},
	{
		"name": "HERKA",
		"latitude": "44-44-24.89 N",
		"longitude": "106-44-26.27 W",
		"state": "WYOMING",
		"artcc": "ZLC",
		"type": "RP",
		"updated": "SHR*VOR/DME*103.98/15.00"
	},
	{
		"name": "HERTS",
		"latitude": "40-54-34.17 N",
		"longitude": "111-24-0.26 W",
		"state": "UTAH",
		"artcc": "ZLC",
		"type": "RNAV",
		"updated": "10/30/2007"
	},
	{
		"name": "HESGO",
		"latitude": "43-27-57.03 N",
		"longitude": "115-42-9.53 W",
		"state": "IDAHO",
		"artcc": "ZLC",
		"type": "RP",
		"updated": "BOI*VORTAC*086.55/22.00"
	},
	{
		"name": "HESNO",
		"latitude": "42-58-26.3 N",
		"longitude": "112-30-8.77 W",
		"state": "IDAHO",
		"artcc": "ZLC",
		"type": "RNAV",
		"updated": "03/03/2009"
	},
	{
		"name": "HESPA",
		"latitude": "37-55-40.9 N",
		"longitude": "111-50-53.14 W",
		"state": "UTAH",
		"artcc": "ZLC",
		"type": "RNAV",
		"updated": "08/06/2010"
	},
	{
		"name": "HETDE",
		"latitude": "38-11-23.54 N",
		"longitude": "112-21-15.29 W",
		"state": "UTAH",
		"artcc": "ZLC",
		"type": "RNAV",
		"updated": "01/27/2011"
	},
	{
		"name": "HETSI",
		"latitude": "45-44-7.94 N",
		"longitude": "111-5-36.37 W",
		"state": "MONTANA",
		"artcc": "ZLC",
		"type": "RNAV",
		"updated": "06/22/2010"
	},
	{
		"name": "HETSO",
		"latitude": "45-6-10.03 N",
		"longitude": "116-1-54.19 W",
		"state": "IDAHO",
		"artcc": "ZLC",
		"type": "RNAV",
		"updated": "02/27/2010"
	},
	{
		"name": "HEXOL",
		"latitude": "46-36-49.09 N",
		"longitude": "111-9-20.7 W",
		"state": "MONTANA",
		"artcc": "ZLC",
		"type": "RP",
		"updated": "HLN*VORTAC*073.00/33.00"
	},
	{
		"name": "HEXOS",
		"latitude": "45-50-41.58 N",
		"longitude": "108-40-14.2 W",
		"state": "MONTANA",
		"artcc": "ZLC",
		"type": "RP",
		"updated": "BIL*LD*281.71/5.04"
	},
	{
		"name": "HIBON",
		"latitude": "38-19-9.03 N",
		"longitude": "113-0-46.84 W",
		"state": "UTAH",
		"artcc": "ZLC",
		"type": "RNAV",
		"updated": "02/13/2012"
	},
	{
		"name": "HICDE",
		"latitude": "42-30-24.14 N",
		"longitude": "110-2-39.13 W",
		"state": "WYOMING",
		"artcc": "ZLC",
		"type": "WP",
		"updated": "11/02/1998"
	},
	{
		"name": "HIKLO",
		"latitude": "42-36-43.64 N",
		"longitude": "113-41-49.03 W",
		"state": "IDAHO",
		"artcc": "ZLC",
		"type": "RNAV",
		"updated": "02/03/2004"
	},
	{
		"name": "HIKMU",
		"latitude": "37-52-58.83 N",
		"longitude": "111-54-31.71 W",
		"state": "UTAH",
		"artcc": "ZLC",
		"type": "RNAV",
		"updated": "01/05/2012"
	},
	{
		"name": "HILGR",
		"latitude": "47-21-34.92 N",
		"longitude": "109-9-6.45 W",
		"state": "MONTANA",
		"artcc": "ZLC",
		"type": "RP",
		"updated": "MLS*VOR/DME*286.18/144.13"
	},
	{
		"name": "HILRE",
		"latitude": "44-2-57.06 N",
		"longitude": "107-38-34.6 W",
		"state": "WYOMING",
		"artcc": "ZLC",
		"type": "RNAV",
		"updated": "07/21/2008"
	},
	{
		"name": "HIMIG",
		"latitude": "44-55-37.67 N",
		"longitude": "108-31-8.14 W",
		"state": "WYOMING",
		"artcc": "ZLC",
		"type": "RNAV",
		"updated": "11/05/2013"
	},
	{
		"name": "HINAV",
		"latitude": "42-5-30.38 N",
		"longitude": "110-49-20.32 W",
		"state": "WYOMING",
		"artcc": "ZLC",
		"type": "RNAV",
		"updated": "11/21/2014"
	},
	{
		"name": "HINBA",
		"latitude": "41-5-31.48 N",
		"longitude": "112-18-51.97 W",
		"state": "UTAH",
		"artcc": "ZLC",
		"type": "RP",
		"updated": "HIF*TACAN*250.00/16.00"
	},
	{
		"name": "HINKY",
		"latitude": "41-11-38.51 N",
		"longitude": "112-1-20.23 W",
		"state": "UTAH",
		"artcc": "ZLC",
		"type": "RNAV",
		"updated": "08/28/2007"
	},
	{
		"name": "HINRA",
		"latitude": "38-5-11.76 N",
		"longitude": "113-12-19.37 W",
		"state": "UTAH",
		"artcc": "ZLC",
		"type": "RNAV",
		"updated": "12/01/2016"
	},
	{
		"name": "HIPEV",
		"latitude": "44-31-9.52 N",
		"longitude": "111-14-3.23 W",
		"state": "IDAHO",
		"artcc": "ZLC",
		"type": "RNAV",
		"updated": "11/28/2011"
	},
	{
		"name": "HIPOX",
		"latitude": "42-40-56.82 N",
		"longitude": "110-56-32.15 W",
		"state": "WYOMING",
		"artcc": "ZLC",
		"type": "RNAV",
		"updated": "07/27/2006"
	},
	{
		"name": "HIRSA",
		"latitude": "46-38-55.13 N",
		"longitude": "112-17-35.47 W",
		"state": "MONTANA",
		"artcc": "ZLC",
		"type": "RNAV",
		"updated": "03/23/2009"
	},
	{
		"name": "HIRSO",
		"latitude": "45-8-40.64 N",
		"longitude": "111-38-16.76 W",
		"state": "MONTANA",
		"artcc": "ZLC",
		"type": "RNAV",
		"updated": "06/23/2016"
	},
	{
		"name": "HISDU",
		"latitude": "37-50-3.52 N",
		"longitude": "112-59-3.82 W",
		"state": "UTAH",
		"artcc": "ZLC",
		"type": "RP",
		"updated": "EHK*VOR/DME*038.74"
	},
	{
		"name": "HISUK",
		"latitude": "40-12-53.8 N",
		"longitude": "112-57-28.81 W",
		"state": "UTAH",
		"artcc": "ZLC",
		"type": "MW",
		"updated": "01/08/2009"
	},
	{
		"name": "HLMET",
		"latitude": "40-25-20.86 N",
		"longitude": "111-55-20.34 W",
		"state": "UTAH",
		"artcc": "ZLC",
		"type": "RP",
		"updated": "UTJ*LD*163.95/20.89"
	},
	{
		"name": "HMISH",
		"latitude": "43-25-55.99 N",
		"longitude": "116-24-40.83 W",
		"state": "IDAHO",
		"artcc": "ZLC",
		"type": "RP",
		"updated": "BOI*VORTAC*216.00/12.00"
	},
	{
		"name": "HOBDU",
		"latitude": "40-16-3.6 N",
		"longitude": "111-44-55.35 W",
		"state": "UTAH",
		"artcc": "ZLC",
		"type": "RNAV",
		"updated": "11/06/2015"
	},
	{
		"name": "HOBSI",
		"latitude": "43-32-11.67 N",
		"longitude": "116-8-40.85 W",
		"state": "IDAHO",
		"artcc": "ZLC",
		"type": "RNAV",
		"updated": "08/05/2014"
	},
	{
		"name": "HOBUD",
		"latitude": "45-34-30.79 N",
		"longitude": "113-55-26.76 W",
		"state": "IDAHO",
		"artcc": "ZLC",
		"type": "RNAV",
		"updated": "02/22/2016"
	},
	{
		"name": "HODNI",
		"latitude": "42-4-38.54 N",
		"longitude": "111-42-22.27 W",
		"state": "IDAHO",
		"artcc": "ZLC",
		"type": "RP",
		"updated": "MLD*VOR/DME*085.21/34.06"
	},
	{
		"name": "HOGUP",
		"latitude": "41-24-8.8 N",
		"longitude": "112-48-29.43 W",
		"state": "UTAH",
		"artcc": "ZLC",
		"type": "RP",
		"updated": "TCH*VORTAC*295.74/50.00"
	},
	{
		"name": "HOKEG",
		"latitude": "40-34-44.94 N",
		"longitude": "111-59-9.12 W",
		"state": "UTAH",
		"artcc": "ZLC",
		"type": "RNAV",
		"updated": "01/14/2011"
	},
	{
		"name": "HOKIT",
		"latitude": "40-34-24.77 N",
		"longitude": "111-59-5.57 W",
		"state": "UTAH",
		"artcc": "ZLC",
		"type": "RNAV",
		"updated": "08/01/2017"
	},
	{
		"name": "HOKPI",
		"latitude": "40-38-25.98 N",
		"longitude": "112-27-10.57 W",
		"state": "UTAH",
		"artcc": "ZLC",
		"type": "RNAV",
		"updated": "07/03/2013"
	},
	{
		"name": "HOLLR",
		"latitude": "41-26-29.92 N",
		"longitude": "118-49-48.89 W",
		"state": "NEVADA",
		"artcc": "ZLC",
		"type": "RNAV",
		"updated": "03/29/2018"
	},
	{
		"name": "HOLOX",
		"latitude": "48-54-28.88 N",
		"longitude": "112-26-45.39 W",
		"state": "MONTANA",
		"artcc": "ZLC",
		"type": "RP",
		"updated": "CTB*VOR/DME*331.84/21.00"
	},
	{
		"name": "HOLTR",
		"latitude": "42-18-0 N",
		"longitude": "111-26-0 W",
		"state": "IDAHO",
		"artcc": "ZLC",
		"type": "RNAV",
		"updated": "10/30/2007"
	},
	{
		"name": "HOLUT",
		"latitude": "43-45-29.23 N",
		"longitude": "107-55-41.28 W",
		"state": "WYOMING",
		"artcc": "ZLC",
		"type": "RNAV",
		"updated": "07/17/2012"
	},
	{
		"name": "HOMGO",
		"latitude": "48-25-4.06 N",
		"longitude": "112-13-33.27 W",
		"state": "MONTANA",
		"artcc": "ZLC",
		"type": "RP",
		"updated": "CTB*VOR/DME*135.03/10.00"
	},
	{
		"name": "HOMVA",
		"latitude": "43-14-12.8 N",
		"longitude": "110-55-2.05 W",
		"state": "WYOMING",
		"artcc": "ZLC",
		"type": "RNAV",
		"updated": "02/16/2006"
	},
	{
		"name": "HONIG",
		"latitude": "48-13-0.5 N",
		"longitude": "103-56-58.73 W",
		"state": "NORTH DAKOTA",
		"artcc": "ZLC",
		"type": "RNAV",
		"updated": "05/15/2010"
	},
	{
		"name": "HONLI",
		"latitude": "42-51-37.74 N",
		"longitude": "109-56-25.27 W",
		"state": "WYOMING",
		"artcc": "ZLC",
		"type": "RNAV",
		"updated": "06/15/2012"
	},
	{
		"name": "HONOX",
		"latitude": "42-49-56.42 N",
		"longitude": "108-27-16.33 W",
		"state": "WYOMING",
		"artcc": "ZLC",
		"type": "RP",
		"updated": "RIW*VOR/DME*169.82/14.00"
	},
	{
		"name": "HONVI",
		"latitude": "46-40-35.6 N",
		"longitude": "111-36-18.18 W",
		"state": "MONTANA",
		"artcc": "ZLC",
		"type": "RP",
		"updated": "HLN*VORTAC*057.67/15.00"
	},
	{
		"name": "HOOPR",
		"latitude": "47-52-9.92 N",
		"longitude": "103-32-26.19 W",
		"state": "NORTH DAKOTA",
		"artcc": "ZLC",
		"type": "RNAV",
		"updated": "04/07/2010"
	},
	{
		"name": "HOPPI",
		"latitude": "41-12-43.81 N",
		"longitude": "112-1-58.77 W",
		"state": "UTAH",
		"artcc": "ZLC",
		"type": "MR",
		"updated": "HIF*TACAN*/6.33"
	},
	{
		"name": "HOPTO",
		"latitude": "40-27-39.77 N",
		"longitude": "111-57-7.15 W",
		"state": "UTAH",
		"artcc": "ZLC",
		"type": "RNAV",
		"updated": "10/30/2007"
	},
	{
		"name": "HORUM",
		"latitude": "42-59-42.78 N",
		"longitude": "112-32-26.18 W",
		"state": "IDAHO",
		"artcc": "ZLC",
		"type": "RP",
		"updated": "PIH*VOR/DME*016.27/8.96"
	},
	{
		"name": "HOSTS",
		"latitude": "43-59-10.97 N",
		"longitude": "117-31-42.48 W",
		"state": "OREGON",
		"artcc": "ZLC",
		"type": "RP",
		"updated": "DNJ*VOR/DME*212.00/73.70"
	},
	{
		"name": "HOSUN",
		"latitude": "44-46-18.75 N",
		"longitude": "114-3-39.96 W",
		"state": "IDAHO",
		"artcc": "ZLC",
		"type": "RP",
		"updated": "LKT*VOR/DME*163.22/15.00"
	},
	{
		"name": "HOTAT",
		"latitude": "45-52-41.16 N",
		"longitude": "108-47-26.29 W",
		"state": "MONTANA",
		"artcc": "ZLC",
		"type": "RP",
		"updated": "BIL*VORTAC*287.00/8.12"
	},
	{
		"name": "HOVEL",
		"latitude": "44-21-32.68 N",
		"longitude": "117-11-31.24 W",
		"state": "IDAHO",
		"artcc": "ZLC",
		"type": "RP",
		"updated": "DNJ*VOR/DME*221.28/48.86"
	},
	{
		"name": "HOWWY",
		"latitude": "45-12-42.38 N",
		"longitude": "108-55-37.69 W",
		"state": "MONTANA",
		"artcc": "ZLC",
		"type": "RNAV",
		"updated": "09/19/2017"
	},
	{
		"name": "HOXEK",
		"latitude": "47-6-38.16 N",
		"longitude": "111-37-56.35 W",
		"state": "MONTANA",
		"artcc": "ZLC",
		"type": "RP",
		"updated": "GTF*VORTAC*187.90/22.27"
	},
	{
		"name": "HOZZR",
		"latitude": "44-34-16 N",
		"longitude": "108-39-49.05 W",
		"state": "WYOMING",
		"artcc": "ZLC",
		"type": "RNAV",
		"updated": "02/17/2006"
	},
	{
		"name": "HRDIN",
		"latitude": "45-41-13.78 N",
		"longitude": "108-15-24.11 W",
		"state": "MONTANA",
		"artcc": "ZLC",
		"type": "RNAV",
		"updated": "12/07/2017"
	},
	{
		"name": "HSKEE",
		"latitude": "42-47-8.7 N",
		"longitude": "110-57-28.85 W",
		"state": "WYOMING",
		"artcc": "ZLC",
		"type": "RNAV",
		"updated": "08/11/2006"
	},
	{
		"name": "HUCKL",
		"latitude": "48-14-59.28 N",
		"longitude": "114-19-7.36 W",
		"state": "MONTANA",
		"artcc": "ZLC",
		"type": "RNAV",
		"updated": "04/25/2017"
	},
	{
		"name": "HUDAT",
		"latitude": "45-27-0.75 N",
		"longitude": "111-47-11.85 W",
		"state": "MONTANA",
		"artcc": "ZLC",
		"type": "RNAV",
		"updated": "06/23/2016"
	},
	{
		"name": "HUDEP",
		"latitude": "43-22-22.61 N",
		"longitude": "111-52-42.03 W",
		"state": "IDAHO",
		"artcc": "ZLC",
		"type": "RNAV",
		"updated": "08/08/2010"
	},
	{
		"name": "HUDUB",
		"latitude": "46-24-54.53 N",
		"longitude": "111-43-16.37 W",
		"state": "MONTANA",
		"artcc": "ZLC",
		"type": "RP",
		"updated": "HLN*VORTAC*124.00/15.00"
	},
	{
		"name": "HUDVU",
		"latitude": "46-22-0.34 N",
		"longitude": "112-17-16.91 W",
		"state": "MONTANA",
		"artcc": "ZLC",
		"type": "RP",
		"updated": "HLN*VORTAC*208.03/20.00"
	},
	{
		"name": "HUGAX",
		"latitude": "44-24-41.01 N",
		"longitude": "108-3-2.25 W",
		"state": "WYOMING",
		"artcc": "ZLC",
		"type": "RNAV",
		"updated": "08/09/2017"
	},
	{
		"name": "HUGVU",
		"latitude": "40-35-9.99 N",
		"longitude": "116-53-47.98 W",
		"state": "NEVADA",
		"artcc": "ZLC",
		"type": "RP",
		"updated": "BAM*VORTAC*031.04/1.55"
	},
	{
		"name": "HUKAL",
		"latitude": "48-4-31.59 N",
		"longitude": "106-24-13.08 W",
		"state": "MONTANA",
		"artcc": "ZLC",
		"type": "RNAV",
		"updated": "12/20/2011"
	},
	{
		"name": "HUKET",
		"latitude": "44-47-24.45 N",
		"longitude": "111-2-49.69 W",
		"state": "WYOMING",
		"artcc": "ZLC",
		"type": "RNAV",
		"updated": "08/17/2010"
	},
	{
		"name": "HULPA",
		"latitude": "46-56-2.15 N",
		"longitude": "114-23-50.83 W",
		"state": "MONTANA",
		"artcc": "ZLC",
		"type": "RP",
		"updated": "MSO*VOR/DME*264.00/13.00"
	},
	{
		"name": "HULSA",
		"latitude": "43-44-3.16 N",
		"longitude": "112-11-10.25 W",
		"state": "IDAHO",
		"artcc": "ZLC",
		"type": "RNAV",
		"updated": "08/08/2010"
	},
	{
		"name": "HUMBA",
		"latitude": "42-51-58.72 N",
		"longitude": "112-38-55.77 W",
		"state": "IDAHO",
		"artcc": "ZLC",
		"type": "RNAV",
		"updated": "03/03/2009"
	},
	{
		"name": "HUNIK",
		"latitude": "39-28-35.36 N",
		"longitude": "110-49-22.43 W",
		"state": "UTAH",
		"artcc": "ZLC",
		"type": "RP",
		"updated": "PUC*VOR/DME*188.99/8.25"
	},
	{
		"name": "HUNSU",
		"latitude": "40-8-38.83 N",
		"longitude": "111-39-22.3 W",
		"state": "UTAH",
		"artcc": "ZLC",
		"type": "RNAV",
		"updated": "06/25/2009"
	},
	{
		"name": "HUNTZ",
		"latitude": "42-52-55.05 N",
		"longitude": "108-4-23.42 W",
		"state": "WYOMING",
		"artcc": "ZLC",
		"type": "RP",
		"updated": "BOY*VOR/DME*148.00/36.26"
	},
	{
		"name": "HUNUR",
		"latitude": "47-54-33.77 N",
		"longitude": "114-13-39.24 W",
		"state": "MONTANA",
		"artcc": "ZLC",
		"type": "RNAV",
		"updated": "04/24/2009"
	},
	{
		"name": "HUPKU",
		"latitude": "43-8-43.9 N",
		"longitude": "115-59-12.23 W",
		"state": "IDAHO",
		"artcc": "ZLC",
		"type": "RP",
		"updated": "MUO*TACAN*309.00/8.00"
	},
	{
		"name": "HUROD",
		"latitude": "43-32-39.44 N",
		"longitude": "112-2-25.18 W",
		"state": "IDAHO",
		"artcc": "ZLC",
		"type": "RNAV",
		"updated": "08/08/2010"
	},
	{
		"name": "HURTU",
		"latitude": "38-11-43.46 N",
		"longitude": "112-33-47.46 W",
		"state": "UTAH",
		"artcc": "ZLC",
		"type": "RP",
		"updated": "EHK*VOR/DME*028.25/34.23"
	},
	{
		"name": "HUSEM",
		"latitude": "42-5-11.56 N",
		"longitude": "112-9-46.92 W",
		"state": "IDAHO",
		"artcc": "ZLC",
		"type": "RP",
		"updated": "MLD*VOR/DME*100.76/14.55"
	},
	{
		"name": "HUSNO",
		"latitude": "48-3-39.03 N",
		"longitude": "103-23-4.73 W",
		"state": "NORTH DAKOTA",
		"artcc": "ZLC",
		"type": "RNAV",
		"updated": "05/15/2010"
	},
	{
		"name": "HUSON",
		"latitude": "46-57-17.35 N",
		"longitude": "114-12-45.16 W",
		"state": "MONTANA",
		"artcc": "ZLC",
		"type": "RP",
		"updated": "MSO*VOR/DME*285.00/6.00"
	},
	{
		"name": "HUTLO",
		"latitude": "40-43-6.03 N",
		"longitude": "114-21-34.46 W",
		"state": "NEVADA",
		"artcc": "ZLC",
		"type": "RNAV",
		"updated": "10/08/2014"
	},
	{
		"name": "HUUPR",
		"latitude": "41-13-53.97 N",
		"longitude": "112-15-58.38 W",
		"state": "UTAH",
		"artcc": "ZLC",
		"type": "RNAV",
		"updated": "08/28/2007"
	},
	{
		"name": "HUXAN",
		"latitude": "45-54-51.46 N",
		"longitude": "111-20-33.86 W",
		"state": "MONTANA",
		"artcc": "ZLC",
		"type": "RNAV",
		"updated": "06/22/2010"
	},
	{
		"name": "HYLIT",
		"latitude": "45-37-27.87 N",
		"longitude": "111-10-54.58 W",
		"state": "MONTANA",
		"artcc": "ZLC",
		"type": "RNAV",
		"updated": "05/09/2011"
	},
	{
		"name": "HYTES",
		"latitude": "45-52-48.9 N",
		"longitude": "108-24-39.75 W",
		"state": "MONTANA",
		"artcc": "ZLC",
		"type": "RNAV",
		"updated": "03/03/2015"
	},
	{
		"name": "HYVAL",
		"latitude": "43-8-9.71 N",
		"longitude": "116-55-46.6 W",
		"state": "IDAHO",
		"artcc": "ZLC",
		"type": "RNAV",
		"updated": "05/14/2014"
	}
]
