	{
		"name": "KAADE",
		"latitude": "41-41-50.46 N",
		"longitude": "110-27-11.58 W",
		"state": "WYOMING",
		"artcc": "ZLC",
		"type": "RNAV",
		"updated": "08/28/2007",
	},
	{
		"name": "KAIWI",
		"latitude": "43-39-13.88 N",
		"longitude": "112-5-28.68 W",
		"state": "IDAHO",
		"artcc": "ZLC",
		"type": "CN",
		"updated": "08/09/2010",
	},
	{
		"name": "KALGE",
		"latitude": "48-15-47.69 N",
		"longitude": "114-18-16.9 W",
		"state": "MONTANA",
		"artcc": "ZLC",
		"type": "RNAV",
		"updated": "07/12/2017",
	},
	{
		"name": "KAMMP",
		"latitude": "40-23-11.51 N",
		"longitude": "111-55-42.48 W",
		"state": "UTAH",
		"artcc": "ZLC",
		"type": "RNAV",
		"updated": "08/28/2007",
	},
	{
		"name": "KANAF",
		"latitude": "47-31-38.2 N",
		"longitude": "114-6-3.75 W",
		"state": "MONTANA",
		"artcc": "ZLC",
		"type": "RNAV",
		"updated": "09/03/2009",
	},
	{
		"name": "KAPSS",
		"latitude": "38-52-50.28 N",
		"longitude": "114-44-48.23 W",
		"state": "NEVADA",
		"artcc": "ZLC",
		"type": "WP",
		"updated": "09/20/1995",
	},
	{
		"name": "KARCE",
		"latitude": "43-42-19 N",
		"longitude": "110-40-34.65 W",
		"state": "WYOMING",
		"artcc": "ZLC",
		"type": "RP",
		"updated": "JAC*VOR/DME*012.50/5.60",
	},
	{
		"name": "KARST",
		"latitude": "43-41-42.26 N",
		"longitude": "108-27-15.21 W",
		"state": "WYOMING",
		"artcc": "ZLC",
		"type": "RNAV",
		"updated": "01/23/2017",
	},
	{
		"name": "KASRE",
		"latitude": "45-45-52.74 N",
		"longitude": "111-19-57.51 W",
		"state": "MONTANA",
		"artcc": "ZLC",
		"type": "RNAV",
		"updated": "06/22/2010",
	},
	{
		"name": "KATTS",
		"latitude": "38-20-0 N",
		"longitude": "116-20-0 W",
		"state": "NEVADA",
		"artcc": "ZLC",
		"type": "RNAV",
		"updated": "04/25/2017",
	},
	{
		"name": "KAVMY",
		"latitude": "47-21-2.19 N",
		"longitude": "111-10-43.43 W",
		"state": "MONTANA",
		"artcc": "ZLC",
		"type": "RP",
		"updated": "GTF*VORTAC*106.00/11.23",
	},
	{
		"name": "KAYZE",
		"latitude": "41-0-45.3 N",
		"longitude": "112-1-56.2 W",
		"state": "UTAH",
		"artcc": "ZLC",
		"type": "RP",
		"updated": "TCH*VORTAC*330.78/10.00",
	},
	{
		"name": "KEANO",
		"latitude": "41-5-52.28 N",
		"longitude": "111-57-22.28 W",
		"state": "UTAH",
		"artcc": "ZLC",
		"type": "MR",
		"updated": "HIF*TACAN*151.95/1.40",
	},
	{
		"name": "KECEK",
		"latitude": "48-26-38.07 N",
		"longitude": "114-23-15.2 W",
		"state": "MONTANA",
		"artcc": "ZLC",
		"type": "RNAV",
		"updated": "07/12/2017",
	},
	{
		"name": "KECOT",
		"latitude": "45-40-6.95 N",
		"longitude": "111-16-3.42 W",
		"state": "MONTANA",
		"artcc": "ZLC",
		"type": "RNAV",
		"updated": "06/22/2010",
	},
	{
		"name": "KEDEC",
		"latitude": "46-26-40.2 N",
		"longitude": "111-31-54.75 W",
		"state": "MONTANA",
		"artcc": "ZLC",
		"type": "RP",
		"updated": "HLN*VORTAC*103.00/20.00",
	},
	{
		"name": "KEETA",
		"latitude": "47-20-39.01 N",
		"longitude": "112-52-51.46 W",
		"state": "MONTANA",
		"artcc": "ZLC",
		"type": "RNAV",
		"updated": "02/23/2016",
	},
	{
		"name": "KEEVR",
		"latitude": "48-17-9.38 N",
		"longitude": "107-14-23.8 W",
		"state": "MONTANA",
		"artcc": "ZLC",
		"type": "RP",
		"updated": "GGW*VOR/DME*265.99/25.00",
	},
	{
		"name": "KEKNE",
		"latitude": "44-27-3.73 N",
		"longitude": "106-47-17.46 W",
		"state": "WYOMING",
		"artcc": "ZLC",
		"type": "RP",
		"updated": "SHR*LD*146.32/21.51",
	},
	{
		"name": "KELTY",
		"latitude": "46-39-39.96 N",
		"longitude": "112-26-16.33 W",
		"state": "MONTANA",
		"artcc": "ZLC",
		"type": "RP",
		"updated": "GTF*VORTAC*206.00/63.35",
	},
	{
		"name": "KENPE",
		"latitude": "46-27-53.07 N",
		"longitude": "108-36-36.95 W",
		"state": "MONTANA",
		"artcc": "ZLC",
		"type": "RNAV",
		"updated": "08/08/2012",
	},
	{
		"name": "KEPGE",
		"latitude": "38-49-13.17 N",
		"longitude": "112-36-3 W",
		"state": "UTAH",
		"artcc": "ZLC",
		"type": "RNAV",
		"updated": "10/14/2010",
	},
	{
		"name": "KEPPR",
		"latitude": "47-29-50.82 N",
		"longitude": "111-32-12.09 W",
		"state": "MONTANA",
		"artcc": "ZLC",
		"type": "RNAV",
		"updated": "06/08/2011",
	},
	{
		"name": "KERNN",
		"latitude": "40-40-42.31 N",
		"longitude": "111-57-6.74 W",
		"state": "UTAH",
		"artcc": "ZLC",
		"type": "RP",
		"updated": "UTJ*LD*163.95/5.48",
	},
	{
		"name": "KEVHI",
		"latitude": "44-26-47.94 N",
		"longitude": "108-56-15.72 W",
		"state": "WYOMING",
		"artcc": "ZLC",
		"type": "RNAV",
		"updated": "02/25/2013",
	},
	{
		"name": "KEVKE",
		"latitude": "47-53-39.19 N",
		"longitude": "110-30-2.62 W",
		"state": "MONTANA",
		"artcc": "ZLC",
		"type": "RNAV",
		"updated": "08/24/2009",
	},
	{
		"name": "KEYET",
		"latitude": "45-14-24.32 N",
		"longitude": "112-33-5.72 W",
		"state": "MONTANA",
		"artcc": "ZLC",
		"type": "RNAV",
		"updated": "11/04/2015",
	},
	{
		"name": "KICDO",
		"latitude": "46-0-56 N",
		"longitude": "111-17-23.41 W",
		"state": "MONTANA",
		"artcc": "ZLC",
		"type": "RP",
		"updated": "BZN*VOR/DME*320.00/15.00",
	},
	{
		"name": "KICNE",
		"latitude": "43-13-7.69 N",
		"longitude": "110-59-16.71 W",
		"state": "WYOMING",
		"artcc": "ZLC",
		"type": "RP",
		"updated": "IDA*VOR/DME*095.56",
	},
	{
		"name": "KIDNE",
		"latitude": "38-36-4.72 N",
		"longitude": "110-9-54.39 W",
		"state": "UTAH",
		"artcc": "ZLC",
		"type": "RP",
		"updated": "HVE*VORTAC*051.12/27.50",
	},
	{
		"name": "KILLY",
		"latitude": "48-8-55.4 N",
		"longitude": "114-33-15.95 W",
		"state": "MONTANA",
		"artcc": "ZLC",
		"type": "RP",
		"updated": "SAK*NDB*287.98",
	},
	{
		"name": "KINSY",
		"latitude": "46-29-49.01 N",
		"longitude": "105-46-43.71 W",
		"state": "MONTANA",
		"artcc": "ZLC",
		"type": "RP",
		"updated": "MLS*VOR/DME*037.41/10.00",
	},
	{
		"name": "KINZE",
		"latitude": "43-4-51.8 N",
		"longitude": "114-23-19.23 W",
		"state": "IDAHO",
		"artcc": "ZLC",
		"type": "RP",
		"updated": "HLE*NDB/DME*190.14",
	},
	{
		"name": "KIRBI",
		"latitude": "43-1-43.17 N",
		"longitude": "108-22-40.78 W",
		"state": "WYOMING",
		"artcc": "ZLC",
		"type": "RP",
		"updated": "BOY*VOR/DME*171.53",
	},
	{
		"name": "KITBE",
		"latitude": "40-46-15.19 N",
		"longitude": "112-5-43.47 W",
		"state": "UTAH",
		"artcc": "ZLC",
		"type": "RNAV",
		"updated": "08/01/2017",
	},
	{
		"name": "KITTN",
		"latitude": "38-19-44.23 N",
		"longitude": "114-57-41.27 W",
		"state": "NEVADA",
		"artcc": "ZLC",
		"type": "RNAV",
		"updated": "04/25/2017",
	},
	{
		"name": "KIVVE",
		"latitude": "48-7-26.59 N",
		"longitude": "113-49-58.36 W",
		"state": "MONTANA",
		"artcc": "ZLC",
		"type": "RP",
		"updated": "FCA*VOR/DME*093.30/14.80",
	},
	{
		"name": "KIXCO",
		"latitude": "46-35-55.71 N",
		"longitude": "104-35-26.72 W",
		"state": "MONTANA",
		"artcc": "ZLC",
		"type": "RP",
		"updated": "MLS*VOR/DME*067.55/57.97",
	},
	{
		"name": "KLOUD",
		"latitude": "41-23-22.23 N",
		"longitude": "111-42-27.02 W",
		"state": "UTAH",
		"artcc": "ZLC",
		"type": "RNAV",
		"updated": "03/23/2018",
	},
	{
		"name": "KNEVL",
		"latitude": "48-13-51.97 N",
		"longitude": "114-32-10.22 W",
		"state": "MONTANA",
		"artcc": "ZLC",
		"type": "RNAV",
		"updated": "04/25/2017",
	},
	{
		"name": "KNOBY",
		"latitude": "40-51-54.11 N",
		"longitude": "111-58-18.83 W",
		"state": "UTAH",
		"artcc": "ZLC",
		"type": "RNAV",
		"updated": "07/10/2017",
	},
	{
		"name": "KNOLE",
		"latitude": "40-43-21.37 N",
		"longitude": "112-51-31.15 W",
		"state": "UTAH",
		"artcc": "ZLC",
		"type": "RP",
		"updated": "BVL*VORTAC*078.00/41.00",
	},
	{
		"name": "KNOWL",
		"latitude": "47-41-2.71 N",
		"longitude": "111-22-21.86 W",
		"state": "MONTANA",
		"artcc": "ZLC",
		"type": "RNAV",
		"updated": "07/12/2017",
	},
	{
		"name": "KNRLY",
		"latitude": "46-3-19 N",
		"longitude": "105-35-12 W",
		"state": "MONTANA",
		"artcc": "ZLC",
		"type": "RNAV",
		"updated": "07/17/2015",
	},
	{
		"name": "KNURL",
		"latitude": "42-56-54.05 N",
		"longitude": "113-1-33.54 W",
		"state": "IDAHO",
		"artcc": "ZLC",
		"type": "RP",
		"updated": "PIH*VOR/DME*268.97/17.13",
	},
	{
		"name": "KOATA",
		"latitude": "43-26-11.72 N",
		"longitude": "118-58-6.21 W",
		"state": "OREGON",
		"artcc": "ZLC",
		"type": "RNAV",
		"updated": "07/03/2013",
	},
	{
		"name": "KOCEN",
		"latitude": "40-20-45.87 N",
		"longitude": "111-57-0.16 W",
		"state": "UTAH",
		"artcc": "ZLC",
		"type": "RNAV",
		"updated": "07/25/2005",
	},
	{
		"name": "KOCEQ",
		"latitude": "41-36-45.88 N",
		"longitude": "80-53-13.05 W",
		"state": "OHIO",
		"artcc": "ZLC",
		"type": "RNAV",
		"updated": "07/19/2017",
	},
	{
		"name": "KODGE",
		"latitude": "44-10-58.7 N",
		"longitude": "117-6-7.81 W",
		"state": "OREGON",
		"artcc": "ZLC",
		"type": "RNAV",
		"updated": "06/12/2008",
	},
	{
		"name": "KODTE",
		"latitude": "44-58-2.45 N",
		"longitude": "108-43-16.24 W",
		"state": "WYOMING",
		"artcc": "ZLC",
		"type": "RNAV",
		"updated": "11/05/2013",
	},
	{
		"name": "KOHEN",
		"latitude": "41-14-22 N",
		"longitude": "114-20-49 W",
		"state": "NEVADA",
		"artcc": "ZLC",
		"type": "RNAV",
		"updated": "02/13/2017",
	},
	{
		"name": "KOKPE",
		"latitude": "42-4-41.13 N",
		"longitude": "111-49-48.98 W",
		"state": "IDAHO",
		"artcc": "ZLC",
		"type": "RP",
		"updated": "LGU*LD*N CRS/18.00",
	},
	{
		"name": "KOLKE",
		"latitude": "43-36-47.3 N",
		"longitude": "116-6-17.59 W",
		"state": "IDAHO",
		"artcc": "ZLC",
		"type": "RNAV",
		"updated": "08/06/2014",
	},
	{
		"name": "KONNA",
		"latitude": "47-5-39.72 N",
		"longitude": "114-23-48.43 W",
		"state": "MONTANA",
		"artcc": "ZLC",
		"type": "RP",
		"updated": "MSO*VOR/DME*294.14/17.05",
	},
	{
		"name": "KONNE",
		"latitude": "41-16-11.17 N",
		"longitude": "112-13-41.94 W",
		"state": "UTAH",
		"artcc": "ZLC",
		"type": "RNAV",
		"updated": "09/22/2014",
	},
	{
		"name": "KOOGR",
		"latitude": "40-8-47.06 N",
		"longitude": "111-50-28.06 W",
		"state": "UTAH",
		"artcc": "ZLC",
		"type": "RNAV",
		"updated": "10/30/2007",
	},
	{
		"name": "KOONA",
		"latitude": "43-30-19.72 N",
		"longitude": "116-18-41.3 W",
		"state": "IDAHO",
		"artcc": "ZLC",
		"type": "RNAV",
		"updated": "10/20/2015",
	},
	{
		"name": "KOQHO",
		"latitude": "40-50-52 N",
		"longitude": "115-29-52.52 W",
		"state": "NEVADA",
		"artcc": "ZLC",
		"type": "RNAV",
		"updated": "03/13/2003",
	},
	{
		"name": "KOTLE",
		"latitude": "46-51-16.4 N",
		"longitude": "112-0-4.36 W",
		"state": "MONTANA",
		"artcc": "ZLC",
		"type": "RP",
		"updated": "HLN*VORTAC*336.47/15.00",
	},
	{
		"name": "KOURT",
		"latitude": "43-23-47.28 N",
		"longitude": "115-19-19.19 W",
		"state": "IDAHO",
		"artcc": "ZLC",
		"type": "RNAV",
		"updated": "08/06/2014",
	},
	{
		"name": "KOVAL",
		"latitude": "41-25-14.47 N",
		"longitude": "112-14-35.63 W",
		"state": "UTAH",
		"artcc": "ZLC",
		"type": "MR",
		"updated": "HIF*TACAN*311.00/22.00",
	},
	{
		"name": "KOVRY",
		"latitude": "45-13-21.49 N",
		"longitude": "116-23-22.05 W",
		"state": "IDAHO",
		"artcc": "ZLC",
		"type": "RP",
		"updated": "DNJ*VOR/DME*325.14/28.43",
	},
	{
		"name": "KOXMY",
		"latitude": "45-53-8.75 N",
		"longitude": "108-17-4 W",
		"state": "MONTANA",
		"artcc": "ZLC",
		"type": "RP",
		"updated": "BIL*VORTAC*057.89/15.00",
	},
	{
		"name": "KREBS",
		"latitude": "41-29-19.65 N",
		"longitude": "112-26-4.97 W",
		"state": "UTAH",
		"artcc": "ZLC",
		"type": "RP",
		"updated": "MLD*VOR/DME*162.00/42.65",
	},
	{
		"name": "KREEP",
		"latitude": "40-42-52.56 N",
		"longitude": "114-12-15.06 W",
		"state": "NEVADA",
		"artcc": "ZLC",
		"type": "RP",
		"updated": "BVL*VORTAC*256.21/20.39",
	},
	{
		"name": "KRONA",
		"latitude": "45-35-26.92 N",
		"longitude": "108-15-52.25 W",
		"state": "MONTANA",
		"artcc": "ZLC",
		"type": "RP",
		"updated": "BIL*VORTAC*116.66/20.00",
	},
	{
		"name": "KROST",
		"latitude": "38-25-15.38 N",
		"longitude": "116-11-54.98 W",
		"state": "NEVADA",
		"artcc": "ZLC",
		"type": "RP",
		"updated": "OAL*VORTAC*053.90/78.43",
	},
	{
		"name": "KROWE",
		"latitude": "45-32-16.09 N",
		"longitude": "108-12-6.83 W",
		"state": "MONTANA",
		"artcc": "ZLC",
		"type": "RNAV",
		"updated": "12/18/2017",
	},
	{
		"name": "KRYEK",
		"latitude": "46-53-24.73 N",
		"longitude": "109-13-37.01 W",
		"state": "MONTANA",
		"artcc": "ZLC",
		"type": "RNAV",
		"updated": "07/21/2016",
	},
	{
		"name": "KU03M",
		"latitude": "45-30-0 N",
		"longitude": "114-0-0 W",
		"state": "IDAHO",
		"artcc": "ZLC",
		"type": "NRS",
		"updated": "04/06/2004",
	},
	{
		"name": "KU03O",
		"latitude": "45-30-0 N",
		"longitude": "112-0-0 W",
		"state": "MONTANA",
		"artcc": "ZLC",
		"type": "NRS",
		"updated": "04/06/2004",
	},
	{
		"name": "KU03Q",
		"latitude": "45-30-0 N",
		"longitude": "110-0-0 W",
		"state": "MONTANA",
		"artcc": "ZLC",
		"type": "NRS",
		"updated": "04/06/2004",
	},
	{
		"name": "KU03S",
		"latitude": "45-30-0 N",
		"longitude": "108-0-0 W",
		"state": "MONTANA",
		"artcc": "ZLC",
		"type": "NRS",
		"updated": "04/06/2004",
	},
	{
		"name": "KU03U",
		"latitude": "45-30-0 N",
		"longitude": "106-0-0 W",
		"state": "MONTANA",
		"artcc": "ZLC",
		"type": "NRS",
		"updated": "04/06/2004",
	},
	{
		"name": "KU03W",
		"latitude": "45-30-0 N",
		"longitude": "104-0-0 W",
		"state": "SOUTH DAKOTA",
		"artcc": "ZLC",
		"type": "NRS",
		"updated": "04/06/2004",
	},
	{
		"name": "KU06M",
		"latitude": "46-0-0 N",
		"longitude": "114-0-0 W",
		"state": "MONTANA",
		"artcc": "ZLC",
		"type": "NRS",
		"updated": "04/06/2004",
	},
	{
		"name": "KU06O",
		"latitude": "46-0-0 N",
		"longitude": "112-0-0 W",
		"state": "MONTANA",
		"artcc": "ZLC",
		"type": "NRS",
		"updated": "04/06/2004",
	},
	{
		"name": "KU06Q",
		"latitude": "46-0-0 N",
		"longitude": "110-0-0 W",
		"state": "MONTANA",
		"artcc": "ZLC",
		"type": "NRS",
		"updated": "04/06/2004",
	},
	{
		"name": "KU06S",
		"latitude": "46-0-0 N",
		"longitude": "108-0-0 W",
		"state": "MONTANA",
		"artcc": "ZLC",
		"type": "NRS",
		"updated": "04/06/2004",
	},
	{
		"name": "KU06U",
		"latitude": "46-0-0 N",
		"longitude": "106-0-0 W",
		"state": "MONTANA",
		"artcc": "ZLC",
		"type": "NRS",
		"updated": "04/06/2004",
	},
	{
		"name": "KU06W",
		"latitude": "46-0-0 N",
		"longitude": "104-0-0 W",
		"state": "NORTH DAKOTA",
		"artcc": "ZLC",
		"type": "NRS",
		"updated": "04/06/2004",
	},
	{
		"name": "KU09M",
		"latitude": "46-30-0 N",
		"longitude": "114-0-0 W",
		"state": "MONTANA",
		"artcc": "ZLC",
		"type": "NRS",
		"updated": "04/06/2004",
	},
	{
		"name": "KU09O",
		"latitude": "46-30-0 N",
		"longitude": "112-0-0 W",
		"state": "MONTANA",
		"artcc": "ZLC",
		"type": "NRS",
		"updated": "04/06/2004",
	},
	{
		"name": "KU09Q",
		"latitude": "46-30-0 N",
		"longitude": "110-0-0 W",
		"state": "MONTANA",
		"artcc": "ZLC",
		"type": "NRS",
		"updated": "04/06/2004",
	},
	{
		"name": "KU09S",
		"latitude": "46-30-0 N",
		"longitude": "108-0-0 W",
		"state": "MONTANA",
		"artcc": "ZLC",
		"type": "NRS",
		"updated": "04/06/2004",
	},
	{
		"name": "KU09U",
		"latitude": "46-30-0 N",
		"longitude": "106-0-0 W",
		"state": "MONTANA",
		"artcc": "ZLC",
		"type": "NRS",
		"updated": "04/06/2004",
	},
	{
		"name": "KU09W",
		"latitude": "46-30-0 N",
		"longitude": "104-0-0 W",
		"state": "NORTH DAKOTA",
		"artcc": "ZLC",
		"type": "NRS",
		"updated": "04/06/2004",
	},
	{
		"name": "KU12M",
		"latitude": "47-0-0 N",
		"longitude": "114-0-0 W",
		"state": "MONTANA",
		"artcc": "ZLC",
		"type": "NRS",
		"updated": "04/06/2004",
	},
	{
		"name": "KU12O",
		"latitude": "47-0-0 N",
		"longitude": "112-0-0 W",
		"state": "MONTANA",
		"artcc": "ZLC",
		"type": "NRS",
		"updated": "04/06/2004",
	},
	{
		"name": "KU12Q",
		"latitude": "47-0-0 N",
		"longitude": "110-0-0 W",
		"state": "MONTANA",
		"artcc": "ZLC",
		"type": "NRS",
		"updated": "04/06/2004",
	},
	{
		"name": "KU12S",
		"latitude": "47-0-0 N",
		"longitude": "108-0-0 W",
		"state": "MONTANA",
		"artcc": "ZLC",
		"type": "NRS",
		"updated": "04/06/2004",
	},
	{
		"name": "KU12U",
		"latitude": "47-0-0 N",
		"longitude": "106-0-0 W",
		"state": "MONTANA",
		"artcc": "ZLC",
		"type": "NRS",
		"updated": "04/06/2004",
	},
	{
		"name": "KU12W",
		"latitude": "47-0-0 N",
		"longitude": "104-0-0 W",
		"state": "NORTH DAKOTA",
		"artcc": "ZLC",
		"type": "NRS",
		"updated": "04/06/2004",
	},
	{
		"name": "KU15M",
		"latitude": "47-30-0 N",
		"longitude": "114-0-0 W",
		"state": "MONTANA",
		"artcc": "ZLC",
		"type": "NRS",
		"updated": "04/06/2004",
	},
	{
		"name": "KU15O",
		"latitude": "47-30-0 N",
		"longitude": "112-0-0 W",
		"state": "MONTANA",
		"artcc": "ZLC",
		"type": "NRS",
		"updated": "04/06/2004",
	},
	{
		"name": "KU15Q",
		"latitude": "47-30-0 N",
		"longitude": "110-0-0 W",
		"state": "MONTANA",
		"artcc": "ZLC",
		"type": "NRS",
		"updated": "04/06/2004",
	},
	{
		"name": "KU15S",
		"latitude": "47-30-0 N",
		"longitude": "108-0-0 W",
		"state": "MONTANA",
		"artcc": "ZLC",
		"type": "NRS",
		"updated": "04/06/2004",
	},
	{
		"name": "KU15U",
		"latitude": "47-30-0 N",
		"longitude": "106-0-0 W",
		"state": "MONTANA",
		"artcc": "ZLC",
		"type": "NRS",
		"updated": "04/06/2004",
	},
	{
		"name": "KU15W",
		"latitude": "47-30-0 N",
		"longitude": "104-0-0 W",
		"state": "NORTH DAKOTA",
		"artcc": "ZLC",
		"type": "NRS",
		"updated": "04/06/2004",
	},
	{
		"name": "KU18M",
		"latitude": "48-0-0 N",
		"longitude": "114-0-0 W",
		"state": "MONTANA",
		"artcc": "ZLC",
		"type": "NRS",
		"updated": "04/06/2004",
	},
	{
		"name": "KU18O",
		"latitude": "48-0-0 N",
		"longitude": "112-0-0 W",
		"state": "MONTANA",
		"artcc": "ZLC",
		"type": "NRS",
		"updated": "04/06/2004",
	},
	{
		"name": "KU18Q",
		"latitude": "48-0-0 N",
		"longitude": "110-0-0 W",
		"state": "MONTANA",
		"artcc": "ZLC",
		"type": "NRS",
		"updated": "04/06/2004",
	},
	{
		"name": "KU18S",
		"latitude": "48-0-0 N",
		"longitude": "108-0-0 W",
		"state": "MONTANA",
		"artcc": "ZLC",
		"type": "NRS",
		"updated": "04/06/2004",
	},
	{
		"name": "KU18U",
		"latitude": "48-0-0 N",
		"longitude": "106-0-0 W",
		"state": "MONTANA",
		"artcc": "ZLC",
		"type": "NRS",
		"updated": "04/06/2004",
	},
	{
		"name": "KU18W",
		"latitude": "48-0-0 N",
		"longitude": "104-0-0 W",
		"state": "NORTH DAKOTA",
		"artcc": "ZLC",
		"type": "NRS",
		"updated": "04/06/2004",
	},
	{
		"name": "KU21M",
		"latitude": "48-30-0 N",
		"longitude": "114-0-0 W",
		"state": "MONTANA",
		"artcc": "ZLC",
		"type": "NRS",
		"updated": "04/06/2004",
	},
	{
		"name": "KU21O",
		"latitude": "48-30-0 N",
		"longitude": "112-0-0 W",
		"state": "MONTANA",
		"artcc": "ZLC",
		"type": "NRS",
		"updated": "04/06/2004",
	},
	{
		"name": "KU21Q",
		"latitude": "48-30-0 N",
		"longitude": "110-0-0 W",
		"state": "MONTANA",
		"artcc": "ZLC",
		"type": "NRS",
		"updated": "04/06/2004",
	},
	{
		"name": "KU21S",
		"latitude": "48-30-0 N",
		"longitude": "108-0-0 W",
		"state": "MONTANA",
		"artcc": "ZLC",
		"type": "NRS",
		"updated": "04/06/2004",
	},
	{
		"name": "KU21U",
		"latitude": "48-30-0 N",
		"longitude": "106-0-0 W",
		"state": "MONTANA",
		"artcc": "ZLC",
		"type": "NRS",
		"updated": "04/06/2004",
	},
	{
		"name": "KU21W",
		"latitude": "48-30-0 N",
		"longitude": "104-0-0 W",
		"state": "NORTH DAKOTA",
		"artcc": "ZLC",
		"type": "NRS",
		"updated": "04/06/2004",
	},
	{
		"name": "KU45O",
		"latitude": "37-30-0 N",
		"longitude": "112-0-0 W",
		"state": "UTAH",
		"artcc": "ZLC",
		"type": "NRS",
		"updated": "04/06/2004",
	},
	{
		"name": "KU48K",
		"latitude": "38-0-0 N",
		"longitude": "116-0-0 W",
		"state": "NEVADA",
		"artcc": "ZLC",
		"type": "NRS",
		"updated": "04/06/2004",
	},
	{
		"name": "KU48M",
		"latitude": "38-0-0 N",
		"longitude": "114-0-0 W",
		"state": "UTAH",
		"artcc": "ZLC",
		"type": "NRS",
		"updated": "04/06/2004",
	},
	{
		"name": "KU48O",
		"latitude": "38-0-0 N",
		"longitude": "112-0-0 W",
		"state": "UTAH",
		"artcc": "ZLC",
		"type": "NRS",
		"updated": "04/06/2004",
	},
	{
		"name": "KU51K",
		"latitude": "38-30-0 N",
		"longitude": "116-0-0 W",
		"state": "NEVADA",
		"artcc": "ZLC",
		"type": "NRS",
		"updated": "04/06/2004",
	},
	{
		"name": "KU51M",
		"latitude": "38-30-0 N",
		"longitude": "114-0-0 W",
		"state": "UTAH",
		"artcc": "ZLC",
		"type": "NRS",
		"updated": "04/06/2004",
	},
	{
		"name": "KU51O",
		"latitude": "38-30-0 N",
		"longitude": "112-0-0 W",
		"state": "UTAH",
		"artcc": "ZLC",
		"type": "NRS",
		"updated": "04/06/2004",
	},
	{
		"name": "KU51Q",
		"latitude": "38-30-0 N",
		"longitude": "110-0-0 W",
		"state": "UTAH",
		"artcc": "ZLC",
		"type": "NRS",
		"updated": "04/06/2004",
	},
	{
		"name": "KU54K",
		"latitude": "39-0-0 N",
		"longitude": "116-0-0 W",
		"state": "NEVADA",
		"artcc": "ZLC",
		"type": "NRS",
		"updated": "04/06/2004",
	},
	{
		"name": "KU54M",
		"latitude": "39-0-0 N",
		"longitude": "114-0-0 W",
		"state": "UTAH",
		"artcc": "ZLC",
		"type": "NRS",
		"updated": "04/06/2004",
	},
	{
		"name": "KU54O",
		"latitude": "39-0-0 N",
		"longitude": "112-0-0 W",
		"state": "UTAH",
		"artcc": "ZLC",
		"type": "NRS",
		"updated": "04/06/2004",
	},
	{
		"name": "KU54Q",
		"latitude": "39-0-0 N",
		"longitude": "110-0-0 W",
		"state": "UTAH",
		"artcc": "ZLC",
		"type": "NRS",
		"updated": "04/06/2004",
	},
	{
		"name": "KU57K",
		"latitude": "39-30-0 N",
		"longitude": "116-0-0 W",
		"state": "NEVADA",
		"artcc": "ZLC",
		"type": "NRS",
		"updated": "04/06/2004",
	},
	{
		"name": "KU57M",
		"latitude": "39-30-0 N",
		"longitude": "114-0-0 W",
		"state": "UTAH",
		"artcc": "ZLC",
		"type": "NRS",
		"updated": "04/06/2004",
	},
	{
		"name": "KU57O",
		"latitude": "39-30-0 N",
		"longitude": "112-0-0 W",
		"state": "UTAH",
		"artcc": "ZLC",
		"type": "NRS",
		"updated": "04/06/2004",
	},
	{
		"name": "KU60K",
		"latitude": "40-0-0 N",
		"longitude": "116-0-0 W",
		"state": "NEVADA",
		"artcc": "ZLC",
		"type": "NRS",
		"updated": "04/06/2004",
	},
	{
		"name": "KU60M",
		"latitude": "40-0-0 N",
		"longitude": "114-0-0 W",
		"state": "UTAH",
		"artcc": "ZLC",
		"type": "NRS",
		"updated": "04/06/2004",
	},
	{
		"name": "KU60O",
		"latitude": "40-0-0 N",
		"longitude": "112-0-0 W",
		"state": "UTAH",
		"artcc": "ZLC",
		"type": "NRS",
		"updated": "04/06/2004",
	},
	{
		"name": "KU60Q",
		"latitude": "40-0-0 N",
		"longitude": "110-0-0 W",
		"state": "UTAH",
		"artcc": "ZLC",
		"type": "NRS",
		"updated": "04/06/2004",
	},
	{
		"name": "KU63I",
		"latitude": "40-30-0 N",
		"longitude": "118-0-0 W",
		"state": "NEVADA",
		"artcc": "ZLC",
		"type": "NRS",
		"updated": "04/06/2004",
	},
	{
		"name": "KU63K",
		"latitude": "40-30-0 N",
		"longitude": "116-0-0 W",
		"state": "NEVADA",
		"artcc": "ZLC",
		"type": "NRS",
		"updated": "04/06/2004",
	},
	{
		"name": "KU63M",
		"latitude": "40-30-0 N",
		"longitude": "114-0-0 W",
		"state": "UTAH",
		"artcc": "ZLC",
		"type": "NRS",
		"updated": "04/06/2004",
	},
	{
		"name": "KU63O",
		"latitude": "40-30-0 N",
		"longitude": "112-0-0 W",
		"state": "UTAH",
		"artcc": "ZLC",
		"type": "NRS",
		"updated": "04/06/2004",
	},
	{
		"name": "KU63Q",
		"latitude": "40-30-0 N",
		"longitude": "110-0-0 W",
		"state": "UTAH",
		"artcc": "ZLC",
		"type": "NRS",
		"updated": "04/06/2004",
	},
	{
		"name": "KU66I",
		"latitude": "41-0-0 N",
		"longitude": "118-0-0 W",
		"state": "NEVADA",
		"artcc": "ZLC",
		"type": "NRS",
		"updated": "04/06/2004",
	},
	{
		"name": "KU66K",
		"latitude": "41-0-0 N",
		"longitude": "116-0-0 W",
		"state": "NEVADA",
		"artcc": "ZLC",
		"type": "NRS",
		"updated": "04/06/2004",
	},
	{
		"name": "KU66M",
		"latitude": "41-0-0 N",
		"longitude": "114-0-0 W",
		"state": "UTAH",
		"artcc": "ZLC",
		"type": "NRS",
		"updated": "04/06/2004",
	},
	{
		"name": "KU66O",
		"latitude": "41-0-0 N",
		"longitude": "112-0-0 W",
		"state": "UTAH",
		"artcc": "ZLC",
		"type": "NRS",
		"updated": "04/06/2004",
	},
	{
		"name": "KU66Q",
		"latitude": "41-0-0 N",
		"longitude": "110-0-0 W",
		"state": "WYOMING",
		"artcc": "ZLC",
		"type": "NRS",
		"updated": "04/06/2004",
	},
	{
		"name": "KU69I",
		"latitude": "41-30-0 N",
		"longitude": "118-0-0 W",
		"state": "NEVADA",
		"artcc": "ZLC",
		"type": "NRS",
		"updated": "04/06/2004",
	},
	{
		"name": "KU69K",
		"latitude": "41-30-0 N",
		"longitude": "116-0-0 W",
		"state": "NEVADA",
		"artcc": "ZLC",
		"type": "NRS",
		"updated": "04/06/2004",
	},
	{
		"name": "KU69M",
		"latitude": "41-30-0 N",
		"longitude": "114-0-0 W",
		"state": "UTAH",
		"artcc": "ZLC",
		"type": "NRS",
		"updated": "04/06/2004",
	},
	{
		"name": "KU69O",
		"latitude": "41-30-0 N",
		"longitude": "112-0-0 W",
		"state": "UTAH",
		"artcc": "ZLC",
		"type": "NRS",
		"updated": "04/06/2004",
	},
	{
		"name": "KU69Q",
		"latitude": "41-30-0 N",
		"longitude": "110-0-0 W",
		"state": "WYOMING",
		"artcc": "ZLC",
		"type": "NRS",
		"updated": "04/06/2004",
	},
	{
		"name": "KU72I",
		"latitude": "42-0-0 N",
		"longitude": "118-0-0 W",
		"state": "OREGON",
		"artcc": "ZLC",
		"type": "NRS",
		"updated": "04/06/2004",
	},
	{
		"name": "KU72K",
		"latitude": "42-0-0 N",
		"longitude": "116-0-0 W",
		"state": "IDAHO",
		"artcc": "ZLC",
		"type": "NRS",
		"updated": "04/06/2004",
	},
	{
		"name": "KU72M",
		"latitude": "42-0-0 N",
		"longitude": "114-0-0 W",
		"state": "IDAHO",
		"artcc": "ZLC",
		"type": "NRS",
		"updated": "04/06/2004",
	},
	{
		"name": "KU72O",
		"latitude": "42-0-0 N",
		"longitude": "112-0-0 W",
		"state": "IDAHO",
		"artcc": "ZLC",
		"type": "NRS",
		"updated": "04/06/2004",
	},
	{
		"name": "KU72Q",
		"latitude": "42-0-0 N",
		"longitude": "110-0-0 W",
		"state": "WYOMING",
		"artcc": "ZLC",
		"type": "NRS",
		"updated": "04/06/2004",
	},
	{
		"name": "KU72S",
		"latitude": "42-0-0 N",
		"longitude": "108-0-0 W",
		"state": "WYOMING",
		"artcc": "ZLC",
		"type": "NRS",
		"updated": "04/06/2004",
	},
	{
		"name": "KU75I",
		"latitude": "42-30-0 N",
		"longitude": "118-0-0 W",
		"state": "OREGON",
		"artcc": "ZLC",
		"type": "NRS",
		"updated": "04/06/2004",
	},
	{
		"name": "KU75K",
		"latitude": "42-30-0 N",
		"longitude": "116-0-0 W",
		"state": "IDAHO",
		"artcc": "ZLC",
		"type": "NRS",
		"updated": "04/06/2004",
	},
	{
		"name": "KU75M",
		"latitude": "42-30-0 N",
		"longitude": "114-0-0 W",
		"state": "IDAHO",
		"artcc": "ZLC",
		"type": "NRS",
		"updated": "04/06/2004",
	},
	{
		"name": "KU75O",
		"latitude": "42-30-0 N",
		"longitude": "112-0-0 W",
		"state": "IDAHO",
		"artcc": "ZLC",
		"type": "NRS",
		"updated": "04/06/2004",
	},
	{
		"name": "KU75Q",
		"latitude": "42-30-0 N",
		"longitude": "110-0-0 W",
		"state": "WYOMING",
		"artcc": "ZLC",
		"type": "NRS",
		"updated": "04/06/2004",
	},
	{
		"name": "KU75S",
		"latitude": "42-30-0 N",
		"longitude": "108-0-0 W",
		"state": "WYOMING",
		"artcc": "ZLC",
		"type": "NRS",
		"updated": "04/06/2004",
	},
	{
		"name": "KU78I",
		"latitude": "43-0-0 N",
		"longitude": "118-0-0 W",
		"state": "OREGON",
		"artcc": "ZLC",
		"type": "NRS",
		"updated": "04/06/2004",
	},
	{
		"name": "KU78K",
		"latitude": "43-0-0 N",
		"longitude": "116-0-0 W",
		"state": "IDAHO",
		"artcc": "ZLC",
		"type": "NRS",
		"updated": "04/06/2004",
	},
	{
		"name": "KU78M",
		"latitude": "43-0-0 N",
		"longitude": "114-0-0 W",
		"state": "IDAHO",
		"artcc": "ZLC",
		"type": "NRS",
		"updated": "04/06/2004",
	},
	{
		"name": "KU78O",
		"latitude": "43-0-0 N",
		"longitude": "112-0-0 W",
		"state": "IDAHO",
		"artcc": "ZLC",
		"type": "NRS",
		"updated": "04/06/2004",
	},
	{
		"name": "KU78Q",
		"latitude": "43-0-0 N",
		"longitude": "110-0-0 W",
		"state": "WYOMING",
		"artcc": "ZLC",
		"type": "NRS",
		"updated": "04/06/2004",
	},
	{
		"name": "KU78S",
		"latitude": "43-0-0 N",
		"longitude": "108-0-0 W",
		"state": "WYOMING",
		"artcc": "ZLC",
		"type": "NRS",
		"updated": "04/06/2004",
	},
	{
		"name": "KU81I",
		"latitude": "43-30-0 N",
		"longitude": "118-0-0 W",
		"state": "OREGON",
		"artcc": "ZLC",
		"type": "NRS",
		"updated": "04/06/2004",
	},
	{
		"name": "KU81K",
		"latitude": "43-30-0 N",
		"longitude": "116-0-0 W",
		"state": "IDAHO",
		"artcc": "ZLC",
		"type": "NRS",
		"updated": "04/06/2004",
	},
	{
		"name": "KU81M",
		"latitude": "43-30-0 N",
		"longitude": "114-0-0 W",
		"state": "IDAHO",
		"artcc": "ZLC",
		"type": "NRS",
		"updated": "04/06/2004",
	},
	{
		"name": "KU81O",
		"latitude": "43-30-0 N",
		"longitude": "112-0-0 W",
		"state": "IDAHO",
		"artcc": "ZLC",
		"type": "NRS",
		"updated": "04/06/2004",
	},
	{
		"name": "KU81Q",
		"latitude": "43-30-0 N",
		"longitude": "110-0-0 W",
		"state": "WYOMING",
		"artcc": "ZLC",
		"type": "NRS",
		"updated": "04/06/2004",
	},
	{
		"name": "KU81S",
		"latitude": "43-30-0 N",
		"longitude": "108-0-0 W",
		"state": "WYOMING",
		"artcc": "ZLC",
		"type": "NRS",
		"updated": "04/06/2004",
	},
	{
		"name": "KU84I",
		"latitude": "44-0-0 N",
		"longitude": "118-0-0 W",
		"state": "OREGON",
		"artcc": "ZLC",
		"type": "NRS",
		"updated": "04/06/2004",
	},
	{
		"name": "KU84K",
		"latitude": "44-0-0 N",
		"longitude": "116-0-0 W",
		"state": "IDAHO",
		"artcc": "ZLC",
		"type": "NRS",
		"updated": "04/06/2004",
	},
	{
		"name": "KU84M",
		"latitude": "44-0-0 N",
		"longitude": "114-0-0 W",
		"state": "IDAHO",
		"artcc": "ZLC",
		"type": "NRS",
		"updated": "04/06/2004",
	},
	{
		"name": "KU84O",
		"latitude": "44-0-0 N",
		"longitude": "112-0-0 W",
		"state": "IDAHO",
		"artcc": "ZLC",
		"type": "NRS",
		"updated": "04/06/2004",
	},
	{
		"name": "KU84Q",
		"latitude": "44-0-0 N",
		"longitude": "110-0-0 W",
		"state": "WYOMING",
		"artcc": "ZLC",
		"type": "NRS",
		"updated": "04/06/2004",
	},
	{
		"name": "KU84S",
		"latitude": "44-0-0 N",
		"longitude": "108-0-0 W",
		"state": "WYOMING",
		"artcc": "ZLC",
		"type": "NRS",
		"updated": "04/06/2004",
	},
	{
		"name": "KU87I",
		"latitude": "44-30-0 N",
		"longitude": "118-0-0 W",
		"state": "OREGON",
		"artcc": "ZLC",
		"type": "NRS",
		"updated": "04/06/2004",
	},
	{
		"name": "KU87K",
		"latitude": "44-30-0 N",
		"longitude": "116-0-0 W",
		"state": "IDAHO",
		"artcc": "ZLC",
		"type": "NRS",
		"updated": "04/06/2004",
	},
	{
		"name": "KU87M",
		"latitude": "44-30-0 N",
		"longitude": "114-0-0 W",
		"state": "IDAHO",
		"artcc": "ZLC",
		"type": "NRS",
		"updated": "04/06/2004",
	},
	{
		"name": "KU87O",
		"latitude": "44-30-0 N",
		"longitude": "112-0-0 W",
		"state": "IDAHO",
		"artcc": "ZLC",
		"type": "NRS",
		"updated": "04/06/2004",
	},
	{
		"name": "KU87Q",
		"latitude": "44-30-0 N",
		"longitude": "110-0-0 W",
		"state": "WYOMING",
		"artcc": "ZLC",
		"type": "NRS",
		"updated": "04/06/2004",
	},
	{
		"name": "KU87S",
		"latitude": "44-30-0 N",
		"longitude": "108-0-0 W",
		"state": "WYOMING",
		"artcc": "ZLC",
		"type": "NRS",
		"updated": "04/06/2004",
	},
	{
		"name": "KU90I",
		"latitude": "45-0-0 N",
		"longitude": "118-0-0 W",
		"state": "OREGON",
		"artcc": "ZLC",
		"type": "NRS",
		"updated": "04/06/2004",
	},
	{
		"name": "KU90K",
		"latitude": "45-0-0 N",
		"longitude": "116-0-0 W",
		"state": "IDAHO",
		"artcc": "ZLC",
		"type": "NRS",
		"updated": "04/06/2004",
	},
	{
		"name": "KU90M",
		"latitude": "45-0-0 N",
		"longitude": "114-0-0 W",
		"state": "IDAHO",
		"artcc": "ZLC",
		"type": "NRS",
		"updated": "04/06/2004",
	},
	{
		"name": "KU90O",
		"latitude": "45-0-0 N",
		"longitude": "112-0-0 W",
		"state": "MONTANA",
		"artcc": "ZLC",
		"type": "NRS",
		"updated": "04/06/2004",
	},
	{
		"name": "KU90Q",
		"latitude": "45-0-0 N",
		"longitude": "110-0-0 W",
		"state": "WYOMING",
		"artcc": "ZLC",
		"type": "NRS",
		"updated": "04/06/2004",
	},
	{
		"name": "KU90S",
		"latitude": "45-0-0 N",
		"longitude": "108-0-0 W",
		"state": "WYOMING",
		"artcc": "ZLC",
		"type": "NRS",
		"updated": "04/06/2004",
	},
	{
		"name": "KUDEY",
		"latitude": "47-31-33.47 N",
		"longitude": "111-18-0.6 W",
		"state": "MONTANA",
		"artcc": "ZLC",
		"type": "RNAV",
		"updated": "09/01/2011",
	},
	{
		"name": "KUDME",
		"latitude": "39-51-13.27 N",
		"longitude": "112-59-19.28 W",
		"state": "UTAH",
		"artcc": "ZLC",
		"type": "MR",
		"updated": "MIJ*TACAN*175.60/20.50",
	},
	{
		"name": "KULJI",
		"latitude": "48-2-53.31 N",
		"longitude": "103-21-30.76 W",
		"state": "NORTH DAKOTA",
		"artcc": "ZLC",
		"type": "RP",
		"updated": "ISN*VOR/DME*/20.00",
	},
	{
		"name": "KULTE",
		"latitude": "47-49-23.77 N",
		"longitude": "114-7-17.87 W",
		"state": "MONTANA",
		"artcc": "ZLC",
		"type": "RNAV",
		"updated": "07/26/2004",
	},
	{
		"name": "KUMSE",
		"latitude": "43-1-49.48 N",
		"longitude": "115-51-16.34 W",
		"state": "IDAHO",
		"artcc": "ZLC",
		"type": "MR",
		"updated": "MUO*TACAN*/1.07",
	},
	{
		"name": "KUNEC",
		"latitude": "38-33-11.37 N",
		"longitude": "113-0-46.84 W",
		"state": "UTAH",
		"artcc": "ZLC",
		"type": "RNAV",
		"updated": "02/13/2012",
	},
	{
		"name": "KUOLT",
		"latitude": "43-26-57.37 N",
		"longitude": "114-15-30.68 W",
		"state": "IDAHO",
		"artcc": "ZLC",
		"type": "RNAV",
		"updated": "08/23/2016",
	},
	{
		"name": "KUSTR",
		"latitude": "45-56-38.94 N",
		"longitude": "108-1-26.72 W",
		"state": "MONTANA",
		"artcc": "ZLC",
		"type": "RNAV",
		"updated": "12/18/2017",
	},
	{
		"name": "KUTOJ",
		"latitude": "37-56-7.59 N",
		"longitude": "112-21-21.92 W",
		"state": "UTAH",
		"artcc": "ZLC",
		"type": "RNAV",
		"updated": "01/27/2011",
	},
	{
		"name": "KUVLE",
		"latitude": "48-33-50.41 N",
		"longitude": "106-29-19.84 W",
		"state": "MONTANA",
		"artcc": "ZLC",
		"type": "RNAV",
		"updated": "03/05/2014",
	},
	{
		"name": "KYAAN",
		"latitude": "43-49-47.93 N",
		"longitude": "116-38-43.45 W",
		"state": "IDAHO",
		"artcc": "ZLC",
		"type": "RNAV",
		"updated": "08/05/2014",
	},
	{
		"name": "KYELL",
		"latitude": "47-36-37.04 N",
		"longitude": "111-32-35.5 W",
		"state": "MONTANA",
		"artcc": "ZLC",
		"type": "RP",
		"updated": "GTF*VORTAC*315.08/11.00",
	},
	{
		"name": "KYOTT",
		"latitude": "42-45-5.82 N",
		"longitude": "116-18-23.71 W",
		"state": "IDAHO",
		"artcc": "ZLC",
		"type": "RNAV",
		"updated": "08/05/2014",
	},
	{
		"name": "KYTES",
		"latitude": "45-36-26.25 N",
		"longitude": "113-28-24.43 W",
		"state": "MONTANA",
		"artcc": "ZLC",
		"type": "RNAV",
		"updated": "02/23/2016",
	},
