[
	{
		"name": "NABNE",
		"latitude": "47-12-34.85 N",
		"longitude": "114-36-2.72 W",
		"state": "MONTANA",
		"artcc": "ZLC",
		"type": "RNAV",
		"updated": "07/17/2009"
	},
	{
		"name": "NACCI",
		"latitude": "45-21-0.14 N",
		"longitude": "112-33-19.52 W",
		"state": "MONTANA",
		"artcc": "ZLC",
		"type": "RNAV",
		"updated": "05/07/2013"
	},
	{
		"name": "NAGNE",
		"latitude": "41-10-19.42 N",
		"longitude": "111-15-9.74 W",
		"state": "UTAH",
		"artcc": "ZLC",
		"type": "RP",
		"updated": "EVW*VOR/DME*224.21/11.10"
	},
	{
		"name": "NALSE",
		"latitude": "47-17-38.26 N",
		"longitude": "114-13-23.83 W",
		"state": "MONTANA",
		"artcc": "ZLC",
		"type": "RNAV",
		"updated": "09/03/2009"
	},
	{
		"name": "NALSI",
		"latitude": "43-51-31.43 N",
		"longitude": "110-32-33.63 W",
		"state": "WYOMING",
		"artcc": "ZLC",
		"type": "RP",
		"updated": "DNW*VOR/DME*266.55/9.18"
	},
	{
		"name": "NAMKE",
		"latitude": "38-16-36.96 N",
		"longitude": "113-0-48.77 W",
		"state": "UTAH",
		"artcc": "ZLC",
		"type": "RP",
		"updated": "MLF*VORTAC*164.17/5.00"
	},
	{
		"name": "NARBE",
		"latitude": "43-10-24.11 N",
		"longitude": "112-22-16.81 W",
		"state": "IDAHO",
		"artcc": "ZLC",
		"type": "RNAV",
		"updated": "12/20/2007"
	},
	{
		"name": "NARUW",
		"latitude": "45-47-37.29 N",
		"longitude": "108-54-46.56 W",
		"state": "MONTANA",
		"artcc": "ZLC",
		"type": "RP",
		"updated": "BIL*VORTAC*251.89/12.13"
	},
	{
		"name": "NASVE",
		"latitude": "44-54-56.46 N",
		"longitude": "110-57-35 W",
		"state": "WYOMING",
		"artcc": "ZLC",
		"type": "RNAV",
		"updated": "11/29/2011"
	},
	{
		"name": "NATZZ",
		"latitude": "43-34-19.65 N",
		"longitude": "115-18-0.03 W",
		"state": "IDAHO",
		"artcc": "ZLC",
		"type": "RNAV",
		"updated": "05/14/2014"
	},
	{
		"name": "NECIT",
		"latitude": "43-51-46.88 N",
		"longitude": "110-34-19.54 W",
		"state": "WYOMING",
		"artcc": "ZLC",
		"type": "RP",
		"updated": "DNW*VOR/DME*266.55/10.48"
	},
	{
		"name": "NECPI",
		"latitude": "43-17-39.96 N",
		"longitude": "110-53-22.23 W",
		"state": "WYOMING",
		"artcc": "ZLC",
		"type": "RNAV",
		"updated": "12/06/2006"
	},
	{
		"name": "NEEBO",
		"latitude": "39-56-36.11 N",
		"longitude": "111-59-19.13 W",
		"state": "UTAH",
		"artcc": "ZLC",
		"type": "RP",
		"updated": "FFU*VORTAC*170.37/20.00"
	},
	{
		"name": "NEEDS",
		"latitude": "43-31-54.37 N",
		"longitude": "109-35-25.18 W",
		"state": "WYOMING",
		"artcc": "ZLC",
		"type": "RP",
		"updated": "DNW*VOR/DME*103.48/37.00"
	},
	{
		"name": "NEERO",
		"latitude": "41-49-3.35 N",
		"longitude": "118-1-29.27 W",
		"state": "NEVADA",
		"artcc": "ZLC",
		"type": "RNAV",
		"updated": "08/08/2014"
	},
	{
		"name": "NEGAE",
		"latitude": "48-9-23.09 N",
		"longitude": "106-8-6.46 W",
		"state": "MONTANA",
		"artcc": "ZLC",
		"type": "RP",
		"updated": "GGW*VOR/DME*086.00/20.00"
	},
	{
		"name": "NEGOE",
		"latitude": "47-10-45.58 N",
		"longitude": "114-32-45.01 W",
		"state": "MONTANA",
		"artcc": "ZLC",
		"type": "RP",
		"updated": "MLP*VOR/DME*094.95/47.90"
	},
	{
		"name": "NEJAP",
		"latitude": "43-17-50.2 N",
		"longitude": "113-17-35.8 W",
		"state": "IDAHO",
		"artcc": "ZLC",
		"type": "RNAV",
		"updated": "07/26/2004"
	},
	{
		"name": "NELKS",
		"latitude": "45-20-36.95 N",
		"longitude": "109-12-40.26 W",
		"state": "MONTANA",
		"artcc": "ZLC",
		"type": "RNAV",
		"updated": "09/19/2017"
	},
	{
		"name": "NELWN",
		"latitude": "45-32-35.86 N",
		"longitude": "108-35-11.55 W",
		"state": "MONTANA",
		"artcc": "ZLC",
		"type": "RP",
		"updated": "BIL*VORTAC*160.24/16.00"
	},
	{
		"name": "NEMEW",
		"latitude": "43-31-43.38 N",
		"longitude": "116-25-20.38 W",
		"state": "IDAHO",
		"artcc": "ZLC",
		"type": "RNAV",
		"updated": "10/12/2006"
	},
	{
		"name": "NEOLA",
		"latitude": "40-28-48.37 N",
		"longitude": "110-0-6.42 W",
		"state": "UTAH",
		"artcc": "ZLC",
		"type": "RP",
		"updated": "MTU*VOR/DME*002.19"
	},
	{
		"name": "NERKE",
		"latitude": "45-37-7 N",
		"longitude": "108-54-21.8 W",
		"state": "MONTANA",
		"artcc": "ZLC",
		"type": "RNAV",
		"updated": "12/20/2011"
	},
	{
		"name": "NESLE",
		"latitude": "43-26-33.55 N",
		"longitude": "115-55-11.63 W",
		"state": "IDAHO",
		"artcc": "ZLC",
		"type": "RNAV",
		"updated": "10/21/2015"
	},
	{
		"name": "NEUMS",
		"latitude": "46-9-49.85 N",
		"longitude": "105-50-26.64 W",
		"state": "MONTANA",
		"artcc": "ZLC",
		"type": "RNAV",
		"updated": "03/15/2016"
	},
	{
		"name": "NEWKU",
		"latitude": "43-27-18.86 N",
		"longitude": "115-45-0.44 W",
		"state": "IDAHO",
		"artcc": "ZLC",
		"type": "RNAV",
		"updated": "07/20/2009"
	},
	{
		"name": "NEYGI",
		"latitude": "44-26-35.62 N",
		"longitude": "116-59-28.83 W",
		"state": "IDAHO",
		"artcc": "ZLC",
		"type": "RP",
		"updated": "DNJ*VOR/DME*221.27/38.86"
	},
	{
		"name": "NEYOC",
		"latitude": "47-19-53.71 N",
		"longitude": "114-18-6.86 W",
		"state": "MONTANA",
		"artcc": "ZLC",
		"type": "RNAV",
		"updated": "07/17/2009"
	},
	{
		"name": "NGMOR",
		"latitude": "46-51-55.62 N",
		"longitude": "107-12-48 W",
		"state": "MONTANA",
		"artcc": "ZLC",
		"type": "RNAV",
		"updated": "12/12/2016"
	},
	{
		"name": "NIBBE",
		"latitude": "45-56-11.9 N",
		"longitude": "108-3-25.99 W",
		"state": "MONTANA",
		"artcc": "ZLC",
		"type": "RP",
		"updated": "BIL*VORTAC*057.89/25.00"
	},
	{
		"name": "NICIG",
		"latitude": "44-18-52.94 N",
		"longitude": "106-38-19.37 W",
		"state": "WYOMING",
		"artcc": "ZLC",
		"type": "RNAV",
		"updated": "02/12/2014"
	},
	{
		"name": "NICKH",
		"latitude": "47-15-11.15 N",
		"longitude": "111-22-22.61 W",
		"state": "MONTANA",
		"artcc": "ZLC",
		"type": "RNAV",
		"updated": "07/12/2017"
	},
	{
		"name": "NICPE",
		"latitude": "43-44-5.9 N",
		"longitude": "116-24-53.08 W",
		"state": "IDAHO",
		"artcc": "ZLC",
		"type": "RP",
		"updated": "BOI*VORTAC*301.49/14.61"
	},
	{
		"name": "NICQE",
		"latitude": "44-19-7.55 N",
		"longitude": "108-47-19.57 W",
		"state": "WYOMING",
		"artcc": "ZLC",
		"type": "RP",
		"updated": "COD*VOR/DME*143.25/19.62"
	},
	{
		"name": "NIDIC",
		"latitude": "43-25-14.76 N",
		"longitude": "119-12-14.1 W",
		"state": "OREGON",
		"artcc": "ZLC",
		"type": "RP",
		"updated": "ILR*VOR/DME*208.51/15.00"
	},
	{
		"name": "NIICK",
		"latitude": "43-33-59.93 N",
		"longitude": "116-29-20.07 W",
		"state": "IDAHO",
		"artcc": "ZLC",
		"type": "RNAV",
		"updated": "08/06/2014"
	},
	{
		"name": "NIJBU",
		"latitude": "48-51-19.23 N",
		"longitude": "105-41-47.61 W",
		"state": "MONTANA",
		"artcc": "ZLC",
		"type": "RNAV",
		"updated": "04/10/2002"
	},
	{
		"name": "NIKSE",
		"latitude": "42-57-33.8 N",
		"longitude": "111-1-25.39 W",
		"state": "WYOMING",
		"artcc": "ZLC",
		"type": "RNAV",
		"updated": "08/11/2006"
	},
	{
		"name": "NILLS",
		"latitude": "38-33-0 N",
		"longitude": "114-20-0 W",
		"state": "NEVADA",
		"artcc": "ZLC",
		"type": "RNAV",
		"updated": "05/08/2002"
	},
	{
		"name": "NIMPH",
		"latitude": "47-25-54.9 N",
		"longitude": "111-39-47.27 W",
		"state": "MONTANA",
		"artcc": "ZLC",
		"type": "RNAV",
		"updated": "06/08/2011"
	},
	{
		"name": "NITLE",
		"latitude": "44-39-19.57 N",
		"longitude": "106-54-46.91 W",
		"state": "WYOMING",
		"artcc": "ZLC",
		"type": "RP",
		"updated": "SHR*LD*146.32/8.13"
	},
	{
		"name": "NIWTE",
		"latitude": "41-30-23.48 N",
		"longitude": "111-38-42.15 W",
		"state": "UTAH",
		"artcc": "ZLC",
		"type": "RP",
		"updated": "LHO*VOR/DME*122.19"
	},
	{
		"name": "NIXIE",
		"latitude": "40-50-34.69 N",
		"longitude": "115-40-17.59 W",
		"state": "NEVADA",
		"artcc": "ZLC",
		"type": "RNAV",
		"updated": "04/18/2016"
	},
	{
		"name": "NIYID",
		"latitude": "46-14-14.13 N",
		"longitude": "112-28-0.37 W",
		"state": "MONTANA",
		"artcc": "ZLC",
		"type": "RP",
		"updated": "CPN*VOR/DME*027.46/17.00"
	},
	{
		"name": "NNORA",
		"latitude": "46-16-48.76 N",
		"longitude": "112-2-56.26 W",
		"state": "MONTANA",
		"artcc": "ZLC",
		"type": "RP",
		"updated": "HLN*VORTAC*175.46/20.00"
	},
	{
		"name": "NOBTE",
		"latitude": "47-57-48.74 N",
		"longitude": "114-46-47.91 W",
		"state": "MONTANA",
		"artcc": "ZLC",
		"type": "RNAV",
		"updated": "04/24/2009"
	},
	{
		"name": "NOFFE",
		"latitude": "43-34-20.31 N",
		"longitude": "117-2-27.59 W",
		"state": "OREGON",
		"artcc": "ZLC",
		"type": "RP",
		"updated": "BOI*VORTAC*255.10/37.05"
	},
	{
		"name": "NOHHA",
		"latitude": "46-33-29.24 N",
		"longitude": "114-5-1.51 W",
		"state": "MONTANA",
		"artcc": "ZLC",
		"type": "RP",
		"updated": "MSO*VOR/DME*167.01/21.00"
	},
	{
		"name": "NOMOF",
		"latitude": "45-42-25.66 N",
		"longitude": "110-25-38.3 W",
		"state": "MONTANA",
		"artcc": "ZLC",
		"type": "RNAV",
		"updated": "08/10/2011"
	},
	{
		"name": "NONTY",
		"latitude": "40-14-21.75 N",
		"longitude": "111-23-3.43 W",
		"state": "UTAH",
		"artcc": "ZLC",
		"type": "RP",
		"updated": "FFU*VORTAC*078.58/25.64"
	},
	{
		"name": "NORDD",
		"latitude": "42-6-19.9 N",
		"longitude": "113-14-3.97 W",
		"state": "IDAHO",
		"artcc": "ZLC",
		"type": "RP",
		"updated": "BYI*VOR/DME*117.17/40.00"
	},
	{
		"name": "NORDK",
		"latitude": "41-29-26.06 N",
		"longitude": "112-3-26.94 W",
		"state": "UTAH",
		"artcc": "ZLC",
		"type": "RNAV",
		"updated": "08/28/2007"
	},
	{
		"name": "NOSEY",
		"latitude": "45-11-57.32 N",
		"longitude": "112-53-37.91 W",
		"state": "MONTANA",
		"artcc": "ZLC",
		"type": "RP",
		"updated": "DLN*VOR/DME*241.00/15.00"
	},
	{
		"name": "NOSIY",
		"latitude": "40-24-21 N",
		"longitude": "118-4-23 W",
		"state": "NEVADA",
		"artcc": "ZLC",
		"type": "RNAV",
		"updated": "08/15/2007"
	},
	{
		"name": "NOSPE",
		"latitude": "47-0-33.48 N",
		"longitude": "114-21-47.53 W",
		"state": "MONTANA",
		"artcc": "ZLC",
		"type": "RP",
		"updated": "MSO*VOR/DME*285.00/13.00"
	},
	{
		"name": "NOSRE",
		"latitude": "48-38-33.19 N",
		"longitude": "112-43-28.07 W",
		"state": "MONTANA",
		"artcc": "ZLC",
		"type": "RNAV",
		"updated": "09/21/2014"
	},
	{
		"name": "NOTCH",
		"latitude": "42-39-49.84 N",
		"longitude": "115-16-8.23 W",
		"state": "IDAHO",
		"artcc": "ZLC",
		"type": "MR",
		"updated": "MUO*TACAN*112.00/35.00"
	},
	{
		"name": "NOYIY",
		"latitude": "48-5-17.09 N",
		"longitude": "114-43-0.01 W",
		"state": "MONTANA",
		"artcc": "ZLC",
		"type": "CN",
		"updated": "04/24/2009"
	},
	{
		"name": "NUBGE",
		"latitude": "41-19-58.67 N",
		"longitude": "112-25-52.16 W",
		"state": "UTAH",
		"artcc": "ZLC",
		"type": "RP",
		"updated": "MLD*VOR/DME*162.00/52.00"
	},
	{
		"name": "NUBIE",
		"latitude": "44-47-44.45 N",
		"longitude": "113-37-18.53 W",
		"state": "IDAHO",
		"artcc": "ZLC",
		"type": "RNAV",
		"updated": "02/23/2016"
	},
	{
		"name": "NUCIC",
		"latitude": "43-34-37.84 N",
		"longitude": "116-6-31.57 W",
		"state": "IDAHO",
		"artcc": "ZLC",
		"type": "RNAV",
		"updated": "08/06/2014"
	},
	{
		"name": "NUDEQ",
		"latitude": "45-3-56.82 N",
		"longitude": "117-53-37.65 W",
		"state": "OREGON",
		"artcc": "ZLC",
		"type": "RP",
		"updated": "BKE*VOR/DME*324.87/14.00"
	},
	{
		"name": "NUKUW",
		"latitude": "46-4-9.77 N",
		"longitude": "110-51-18.39 W",
		"state": "MONTANA",
		"artcc": "ZLC",
		"type": "RP",
		"updated": "LVM*VOR/DME*307.00/28.00"
	},
	{
		"name": "NULTE",
		"latitude": "42-17-2.23 N",
		"longitude": "113-28-12.4 W",
		"state": "IDAHO",
		"artcc": "ZLC",
		"type": "RP",
		"updated": "BYI*VOR/DME*117.17/25.00"
	},
	{
		"name": "NUMIJ",
		"latitude": "47-11-27.42 N",
		"longitude": "111-34-49.71 W",
		"state": "MONTANA",
		"artcc": "ZLC",
		"type": "RP",
		"updated": "GTF*VORTAC*187.90/17.00"
	},
	{
		"name": "NUMSE",
		"latitude": "48-38-18.55 N",
		"longitude": "112-24-7.1 W",
		"state": "MONTANA",
		"artcc": "ZLC",
		"type": "RNAV",
		"updated": "09/22/2014"
	},
	{
		"name": "NUNZU",
		"latitude": "46-7-1.06 N",
		"longitude": "112-37-54.03 W",
		"state": "MONTANA",
		"artcc": "ZLC",
		"type": "RP",
		"updated": "CPN*VOR/DME*027.46/7.03"
	},
	{
		"name": "NUPSE",
		"latitude": "38-8-31.44 N",
		"longitude": "112-9-46.18 W",
		"state": "UTAH",
		"artcc": "ZLC",
		"type": "RNAV",
		"updated": "01/27/2011"
	},
	{
		"name": "NUPZU",
		"latitude": "43-32-54.11 N",
		"longitude": "111-53-25.26 W",
		"state": "IDAHO",
		"artcc": "ZLC",
		"type": "CN",
		"updated": "08/09/2010"
	},
	{
		"name": "NUWLI",
		"latitude": "45-30-39.69 N",
		"longitude": "112-36-49.05 W",
		"state": "MONTANA",
		"artcc": "ZLC",
		"type": "RP",
		"updated": "DLN*VOR/DME*331.90/16.00"
	},
	{
		"name": "NWLYN",
		"latitude": "38-7-0 N",
		"longitude": "114-0-0 W",
		"state": "UTAH",
		"artcc": "ZLC",
		"type": "RNAV",
		"updated": "01/05/2005"
	},
	{
		"name": "NYMPF",
		"latitude": "45-31-15.29 N",
		"longitude": "111-38-31.52 W",
		"state": "MONTANA",
		"artcc": "ZLC",
		"type": "RNAV",
		"updated": "12/20/2013"
	}
]
