	{
		"name": "PAAET",
		"latitude": "43-58-0.32 N",
		"longitude": "115-49-40.1 W",
		"state": "IDAHO",
		"artcc": "ZLC",
		"type": "WP",
		"updated": "DNJ*VOR/DME*142.00/50.70",
	},
	{
		"name": "PACIK",
		"latitude": "48-28-46.58 N",
		"longitude": "106-40-49.47 W",
		"state": "MONTANA",
		"artcc": "ZLC",
		"type": "RNAV",
		"updated": "03/05/2014",
	},
	{
		"name": "PACKY",
		"latitude": "41-18-6.61 N",
		"longitude": "111-17-20.47 W",
		"state": "UTAH",
		"artcc": "ZLC",
		"type": "RP",
		"updated": "EVW*VOR/DME*266.20/11.10",
	},
	{
		"name": "PACOT",
		"latitude": "43-25-8.48 N",
		"longitude": "110-50-21.97 W",
		"state": "WYOMING",
		"artcc": "ZLC",
		"type": "RP",
		"updated": "JAC*VOR/DME*188.25/13.00",
	},
	{
		"name": "PADDL",
		"latitude": "47-28-41.47 N",
		"longitude": "111-11-28.5 W",
		"state": "MONTANA",
		"artcc": "ZLC",
		"type": "RNAV",
		"updated": "06/15/2011",
	},
	{
		"name": "PAMEE",
		"latitude": "40-20-58.89 N",
		"longitude": "111-50-24.62 W",
		"state": "UTAH",
		"artcc": "ZLC",
		"type": "RP",
		"updated": "PVU*VOR/DME*311.00/9.75",
	},
	{
		"name": "PANEL",
		"latitude": "40-15-41.18 N",
		"longitude": "111-43-56.22 W",
		"state": "UTAH",
		"artcc": "ZLC",
		"type": "RP",
		"updated": "TCH*VORTAC*146.00",
	},
	{
		"name": "PARBE",
		"latitude": "45-0-30.55 N",
		"longitude": "107-19-25.99 W",
		"state": "MONTANA",
		"artcc": "ZLC",
		"type": "RP",
		"updated": "SHR*VOR/DME*301.77/15.00",
	},
	{
		"name": "PARKA",
		"latitude": "41-51-1.3 N",
		"longitude": "113-28-15 W",
		"state": "UTAH",
		"artcc": "ZLC",
		"type": "RP",
		"updated": "MLD*VOR/DME*228.65/50.18",
	},
	{
		"name": "PARLE",
		"latitude": "40-46-40.9 N",
		"longitude": "111-47-11.56 W",
		"state": "UTAH",
		"artcc": "ZLC",
		"type": "RP",
		"updated": "TCH*VORTAC*099.88/9.90",
	},
	{
		"name": "PARME",
		"latitude": "38-3-43.21 N",
		"longitude": "116-54-54.65 W",
		"state": "NEVADA",
		"artcc": "ZLC",
		"type": "MW",
		"updated": "12/17/2007",
	},
	{
		"name": "PARMO",
		"latitude": "43-45-32.78 N",
		"longitude": "116-49-10.43 W",
		"state": "IDAHO",
		"artcc": "ZLC",
		"type": "RP",
		"updated": "DNJ*VOR/DME*184.83",
	},
	{
		"name": "PARUE",
		"latitude": "44-39-2.01 N",
		"longitude": "113-3-24.58 W",
		"state": "MONTANA",
		"artcc": "ZLC",
		"type": "RNAV",
		"updated": "11/04/2015",
	},
	{
		"name": "PARZZ",
		"latitude": "41-36-14.64 N",
		"longitude": "115-2-9.69 W",
		"state": "NEVADA",
		"artcc": "ZLC",
		"type": "RNAV",
		"updated": "04/25/2017",
	},
	{
		"name": "PATIO",
		"latitude": "41-16-0 N",
		"longitude": "112-32-0 W",
		"state": "UTAH",
		"artcc": "ZLC",
		"type": "RNAV",
		"updated": "01/19/2016",
	},
	{
		"name": "PATKI",
		"latitude": "43-56-44.72 N",
		"longitude": "110-25-46.44 W",
		"state": "WYOMING",
		"artcc": "ZLC",
		"type": "RNAV",
		"updated": "02/09/2018",
	},
	{
		"name": "PATRR",
		"latitude": "46-54-43.99 N",
		"longitude": "111-45-34.55 W",
		"state": "MONTANA",
		"artcc": "ZLC",
		"type": "RP",
		"updated": "HLN*VORTAC*007.50/20.00",
	},
	{
		"name": "PAWLY",
		"latitude": "39-11-49.7 N",
		"longitude": "113-26-23.38 W",
		"state": "UTAH",
		"artcc": "ZLC",
		"type": "RP",
		"updated": "DTA*VORTAC*246.06/44.00",
	},
	{
		"name": "PAYET",
		"latitude": "44-3-37.59 N",
		"longitude": "116-49-2.05 W",
		"state": "IDAHO",
		"artcc": "ZLC",
		"type": "RP",
		"updated": "DNJ*VOR/DME*193.00/49.88",
	},
	{
		"name": "PAYIL",
		"latitude": "44-18-46.92 N",
		"longitude": "108-1-36.17 W",
		"state": "WYOMING",
		"artcc": "ZLC",
		"type": "RNAV",
		"updated": "01/26/2007",
	},
	{
		"name": "PECKK",
		"latitude": "44-29-36.15 N",
		"longitude": "108-26-21.1 W",
		"state": "WYOMING",
		"artcc": "ZLC",
		"type": "RP",
		"updated": "COD*VOR/DME*094.49",
	},
	{
		"name": "PECOP",
		"latitude": "40-50-0 N",
		"longitude": "114-45-0 W",
		"state": "NEVADA",
		"artcc": "ZLC",
		"type": "RNAV",
		"updated": "11/01/2007",
	},
	{
		"name": "PEDLE",
		"latitude": "40-28-28.86 N",
		"longitude": "111-55-41.98 W",
		"state": "UTAH",
		"artcc": "ZLC",
		"type": "RP",
		"updated": "UTJ*LD*163.95/17.75",
	},
	{
		"name": "PEERC",
		"latitude": "40-43-55.48 N",
		"longitude": "111-50-11 W",
		"state": "UTAH",
		"artcc": "ZLC",
		"type": "MR",
		"updated": "HIF*TACAN*152.00/24.00",
	},
	{
		"name": "PEKBE",
		"latitude": "47-38-37.97 N",
		"longitude": "114-6-4.07 W",
		"state": "MONTANA",
		"artcc": "ZLC",
		"type": "RNAV",
		"updated": "09/08/2009",
	},
	{
		"name": "PELJE",
		"latitude": "46-1-28.2 N",
		"longitude": "109-8-36.09 W",
		"state": "MONTANA",
		"artcc": "ZLC",
		"type": "RP",
		"updated": "BIL*VORTAC*287.00/25.30",
	},
	{
		"name": "PELYT",
		"latitude": "42-46-48.25 N",
		"longitude": "117-15-16.17 W",
		"state": "OREGON",
		"artcc": "ZLC",
		"type": "RNAV",
		"updated": "08/05/2014",
	},
	{
		"name": "PEMVE",
		"latitude": "37-54-6.26 N",
		"longitude": "116-50-6.88 W",
		"state": "NEVADA",
		"artcc": "ZLC",
		"type": "MW",
		"updated": "06/21/2007",
	},
	{
		"name": "PENRY",
		"latitude": "48-4-55.03 N",
		"longitude": "112-14-39.58 W",
		"state": "MONTANA",
		"artcc": "ZLC",
		"type": "RP",
		"updated": "CRD*NDB*232.00",
	},
	{
		"name": "PEPIY",
		"latitude": "40-38-52.68 N",
		"longitude": "115-35-55.13 W",
		"state": "NEVADA",
		"artcc": "ZLC",
		"type": "RP",
		"updated": "BQU*VOR/DME*115.00/10.00",
	},
	{
		"name": "PEPUC",
		"latitude": "44-35-26.08 N",
		"longitude": "116-4-5.91 W",
		"state": "IDAHO",
		"artcc": "ZLC",
		"type": "RP",
		"updated": "DNJ*VOR/DME*131.80/12.13",
	},
	{
		"name": "PERTY",
		"latitude": "40-44-34.77 N",
		"longitude": "110-2-51.12 W",
		"state": "UTAH",
		"artcc": "ZLC",
		"type": "RNAV",
		"updated": "10/30/2007",
	},
	{
		"name": "PERYY",
		"latitude": "43-30-10.8 N",
		"longitude": "114-17-41.28 W",
		"state": "IDAHO",
		"artcc": "ZLC",
		"type": "RNAV",
		"updated": "08/23/2016",
	},
	{
		"name": "PESRE",
		"latitude": "45-39-19.22 N",
		"longitude": "110-46-32.73 W",
		"state": "MONTANA",
		"artcc": "ZLC",
		"type": "RNAV",
		"updated": "06/22/2010",
	},
	{
		"name": "PETIY",
		"latitude": "47-58-46.55 N",
		"longitude": "114-36-20.31 W",
		"state": "MONTANA",
		"artcc": "ZLC",
		"type": "RNAV",
		"updated": "04/11/2012",
	},
	{
		"name": "PEWKE",
		"latitude": "38-11-35.82 N",
		"longitude": "113-0-46.84 W",
		"state": "UTAH",
		"artcc": "ZLC",
		"type": "RNAV",
		"updated": "02/13/2012",
	},
	{
		"name": "PEYIP",
		"latitude": "44-3-12.37 N",
		"longitude": "107-57-49.04 W",
		"state": "WYOMING",
		"artcc": "ZLC",
		"type": "RNAV",
		"updated": "07/17/2012",
	},
	{
		"name": "PICHO",
		"latitude": "39-58-0 N",
		"longitude": "112-35-0 W",
		"state": "UTAH",
		"artcc": "ZLC",
		"type": "RNAV",
		"updated": "01/20/2016",
	},
	{
		"name": "PICTO",
		"latitude": "45-46-25.67 N",
		"longitude": "108-24-55.39 W",
		"state": "MONTANA",
		"artcc": "ZLC",
		"type": "RP",
		"updated": "BMO*LD*101.75/6.49",
	},
	{
		"name": "PIDSE",
		"latitude": "44-42-48.42 N",
		"longitude": "106-56-55.1 W",
		"state": "WYOMING",
		"artcc": "ZLC",
		"type": "RNAV",
		"updated": "04/15/2015",
	},
	{
		"name": "PIETZ",
		"latitude": "37-35-57.31 N",
		"longitude": "113-8-42.1 W",
		"state": "UTAH",
		"artcc": "ZLC",
		"type": "RP",
		"updated": "EHK*VOR/DME*182.00/11.85",
	},
	{
		"name": "PIINE",
		"latitude": "43-34-24.11 N",
		"longitude": "111-22-49.61 W",
		"state": "IDAHO",
		"artcc": "ZLC",
		"type": "RP",
		"updated": "IDA*VOR/DME*068.52/30.00",
	},
	{
		"name": "PIKEQ",
		"latitude": "43-56-39.91 N",
		"longitude": "111-8-29.56 W",
		"state": "IDAHO",
		"artcc": "ZLC",
		"type": "RNAV",
		"updated": "12/19/2011",
	},
	{
		"name": "PIKUN",
		"latitude": "47-46-11.22 N",
		"longitude": "112-31-48.02 W",
		"state": "MONTANA",
		"artcc": "ZLC",
		"type": "RP",
		"updated": "CTB*VOR/DME*172.00",
	},
	{
		"name": "PILLR",
		"latitude": "45-45-41.96 N",
		"longitude": "108-13-18.46 W",
		"state": "MONTANA",
		"artcc": "ZLC",
		"type": "RNAV",
		"updated": "12/18/2017",
	},
	{
		"name": "PILTE",
		"latitude": "39-23-46.09 N",
		"longitude": "111-59-27.52 W",
		"state": "UTAH",
		"artcc": "ZLC",
		"type": "RNAV",
		"updated": "08/31/2011",
	},
	{
		"name": "PIMIE",
		"latitude": "41-49-18.67 N",
		"longitude": "112-18-47.48 W",
		"state": "UTAH",
		"artcc": "ZLC",
		"type": "RP",
		"updated": "MLD*VOR/DME*147.72/23.50",
	},
	{
		"name": "PINIY",
		"latitude": "42-44-41.96 N",
		"longitude": "109-42-14.53 W",
		"state": "WYOMING",
		"artcc": "ZLC",
		"type": "RNAV",
		"updated": "06/15/2012",
	},
	{
		"name": "PINTO",
		"latitude": "42-43-47.22 N",
		"longitude": "114-28-49.14 W",
		"state": "IDAHO",
		"artcc": "ZLC",
		"type": "RNAV",
		"updated": "09/14/2009",
	},
	{
		"name": "PITOY",
		"latitude": "44-0-52.95 N",
		"longitude": "107-57-32.22 W",
		"state": "WYOMING",
		"artcc": "ZLC",
		"type": "RNAV",
		"updated": "07/13/2012",
	},
	{
		"name": "PITSZ",
		"latitude": "42-35-56.73 N",
		"longitude": "110-56-33.22 W",
		"state": "WYOMING",
		"artcc": "ZLC",
		"type": "RNAV",
		"updated": "08/11/2006",
	},
	{
		"name": "PITTT",
		"latitude": "40-38-0.57 N",
		"longitude": "112-4-41.39 W",
		"state": "UTAH",
		"artcc": "ZLC",
		"type": "RNAV",
		"updated": "08/27/2007",
	},
	{
		"name": "PIXXI",
		"latitude": "46-43-8.8 N",
		"longitude": "112-42-45.55 W",
		"state": "MONTANA",
		"artcc": "ZLC",
		"type": "RP",
		"updated": "HLN*VORTAC*266.40/32.09",
	},
	{
		"name": "PIYID",
		"latitude": "44-16-28.17 N",
		"longitude": "117-23-31.21 W",
		"state": "OREGON",
		"artcc": "ZLC",
		"type": "RP",
		"updated": "DNJ*VOR/DME*221.27/58.86",
	},
	{
		"name": "PLAGE",
		"latitude": "40-26-12.1 N",
		"longitude": "111-56-2.83 W",
		"state": "UTAH",
		"artcc": "ZLC",
		"type": "RP",
		"updated": "SLC*LD*163.96/20.17",
	},
	{
		"name": "PLEZZ",
		"latitude": "39-33-27.46 N",
		"longitude": "111-23-20.47 W",
		"state": "UTAH",
		"artcc": "ZLC",
		"type": "RNAV",
		"updated": "10/30/2007",
	},
	{
		"name": "PLUTO",
		"latitude": "43-48-39.31 N",
		"longitude": "115-49-59.48 W",
		"state": "IDAHO",
		"artcc": "ZLC",
		"type": "RP",
		"updated": "BOI*VORTAC*028.15/22.00",
	},
	{
		"name": "POCOV",
		"latitude": "46-4-5.84 N",
		"longitude": "108-42-38.89 W",
		"state": "MONTANA",
		"artcc": "ZLC",
		"type": "RP",
		"updated": "BIL*VORTAC*333.00/16.00",
	},
	{
		"name": "POISN",
		"latitude": "40-26-9.13 N",
		"longitude": "113-18-32.19 W",
		"state": "UTAH",
		"artcc": "ZLC",
		"type": "MR",
		"updated": "MIJ*TACAN*296.64/23.00",
	},
	{
		"name": "POKEE",
		"latitude": "42-33-56.69 N",
		"longitude": "110-56-33.64 W",
		"state": "WYOMING",
		"artcc": "ZLC",
		"type": "RNAV",
		"updated": "08/11/2006",
	},
	{
		"name": "POLAE",
		"latitude": "47-27-53.75 N",
		"longitude": "114-17-57.3 W",
		"state": "MONTANA",
		"artcc": "ZLC",
		"type": "RNAV",
		"updated": "07/26/2004",
	},
	{
		"name": "PONNI",
		"latitude": "43-29-25.37 N",
		"longitude": "118-41-52.54 W",
		"state": "OREGON",
		"artcc": "ZLC",
		"type": "RNAV",
		"updated": "06/07/2004",
	},
	{
		"name": "PONVE",
		"latitude": "46-59-50.18 N",
		"longitude": "111-42-18.54 W",
		"state": "MONTANA",
		"artcc": "ZLC",
		"type": "RP",
		"updated": "HLN*VORTAC*007.50/25.57",
	},
	{
		"name": "POOMA",
		"latitude": "39-22-2.61 N",
		"longitude": "112-0-52.98 W",
		"state": "UTAH",
		"artcc": "ZLC",
		"type": "RNAV",
		"updated": "07/13/2015",
	},
	{
		"name": "POPLE",
		"latitude": "41-9-34.97 N",
		"longitude": "110-44-25.49 W",
		"state": "WYOMING",
		"artcc": "ZLC",
		"type": "RNAV",
		"updated": "10/30/2007",
	},
	{
		"name": "POPWI",
		"latitude": "45-44-53.24 N",
		"longitude": "111-21-54.06 W",
		"state": "MONTANA",
		"artcc": "ZLC",
		"type": "RNAV",
		"updated": "06/22/2010",
	},
	{
		"name": "PORKY",
		"latitude": "45-33-24.41 N",
		"longitude": "111-42-56.22 W",
		"state": "MONTANA",
		"artcc": "ZLC",
		"type": "RNAV",
		"updated": "05/09/2011",
	},
	{
		"name": "POTSY",
		"latitude": "44-14-45.28 N",
		"longitude": "118-21-43.76 W",
		"state": "OREGON",
		"artcc": "ZLC",
		"type": "RP",
		"updated": "IMB*VOR/DME*092.13/62.83",
	},
	{
		"name": "POWIV",
		"latitude": "40-42-46.75 N",
		"longitude": "114-15-44.53 W",
		"state": "NEVADA",
		"artcc": "ZLC",
		"type": "RP",
		"updated": "BVL*VORTAC*256.21/23.05",
	},
	{
		"name": "POXRI",
		"latitude": "45-46-21.21 N",
		"longitude": "108-24-39.74 W",
		"state": "MONTANA",
		"artcc": "ZLC",
		"type": "RNAV",
		"updated": "02/15/2012",
	},
	{
		"name": "PREIS",
		"latitude": "44-10-9.8 N",
		"longitude": "116-45-49.44 W",
		"state": "IDAHO",
		"artcc": "ZLC",
		"type": "RNAV",
		"updated": "05/19/2014",
	},
	{
		"name": "PRESN",
		"latitude": "43-12-23.15 N",
		"longitude": "114-18-54.14 W",
		"state": "IDAHO",
		"artcc": "ZLC",
		"type": "RP",
		"updated": "PIH*VOR/DME*268.97/75.89",
	},
	{
		"name": "PRISN",
		"latitude": "43-21-32.82 N",
		"longitude": "116-17-25.44 W",
		"state": "IDAHO",
		"artcc": "ZLC",
		"type": "RNAV",
		"updated": "10/20/2015",
	},
	{
		"name": "PRNCS",
		"latitude": "42-26-35.65 N",
		"longitude": "117-48-52.57 W",
		"state": "OREGON",
		"artcc": "ZLC",
		"type": "RNAV",
		"updated": "08/05/2014",
	},
	{
		"name": "PROMT",
		"latitude": "37-30-6.7 N",
		"longitude": "111-52-12.94 W",
		"state": "UTAH",
		"artcc": "ZLC",
		"type": "RNAV",
		"updated": "01/20/2016",
	},
	{
		"name": "PROXI",
		"latitude": "41-58-20.81 N",
		"longitude": "112-31-33.79 W",
		"state": "UTAH",
		"artcc": "ZLC",
		"type": "RNAV",
		"updated": "09/22/2014",
	},
	{
		"name": "PRYER",
		"latitude": "45-23-38.65 N",
		"longitude": "108-33-55.18 W",
		"state": "MONTANA",
		"artcc": "ZLC",
		"type": "RP",
		"updated": "BIL*VORTAC*160.24/25.00",
	},
	{
		"name": "PRYES",
		"latitude": "40-58-3.67 N",
		"longitude": "111-57-43.6 W",
		"state": "UTAH",
		"artcc": "ZLC",
		"type": "RP",
		"updated": "BNT*LD*348.99/11.89",
	},
	{
		"name": "PSHKN",
		"latitude": "47-40-28.94 N",
		"longitude": "111-4-55.97 W",
		"state": "MONTANA",
		"artcc": "ZLC",
		"type": "RP",
		"updated": "GTF*VORTAC*028.70/19.02",
	},
	{
		"name": "PSNIP",
		"latitude": "42-52-17.57 N",
		"longitude": "116-50-33.29 W",
		"state": "IDAHO",
		"artcc": "ZLC",
		"type": "RNAV",
		"updated": "01/12/2007",
	},
	{
		"name": "PUCIT",
		"latitude": "39-40-59.53 N",
		"longitude": "112-17-10.98 W",
		"state": "UTAH",
		"artcc": "ZLC",
		"type": "RP",
		"updated": "DTA*VORTAC*007.96/25.00",
	},
	{
		"name": "PUDIY",
		"latitude": "44-57-38.54 N",
		"longitude": "111-41-11.29 W",
		"state": "MONTANA",
		"artcc": "ZLC",
		"type": "RNAV",
		"updated": "06/23/2016",
	},
	{
		"name": "PUDVY",
		"latitude": "41-32-33.79 N",
		"longitude": "109-20-32.36 W",
		"state": "WYOMING",
		"artcc": "ZLC",
		"type": "RP",
		"updated": "OCS*VOR/DME*246.16/15.00",
	},
	{
		"name": "PUFFS",
		"latitude": "44-30-6.93 N",
		"longitude": "111-57-31.32 W",
		"state": "IDAHO",
		"artcc": "ZLC",
		"type": "RP",
		"updated": "DBS*VORTAC*008.46/27.04",
	},
	{
		"name": "PUHGI",
		"latitude": "40-47-37.81 N",
		"longitude": "117-45-32.46 W",
		"state": "NEVADA",
		"artcc": "ZLC",
		"type": "WP",
		"updated": "04/01/2011",
	},
	{
		"name": "PUKNE",
		"latitude": "39-25-7.98 N",
		"longitude": "110-51-15.69 W",
		"state": "UTAH",
		"artcc": "ZLC",
		"type": "RP",
		"updated": "PUC*VOR/DME*189.00/12.00",
	},
	{
		"name": "PULAE",
		"latitude": "46-31-17.23 N",
		"longitude": "108-13-46.02 W",
		"state": "MONTANA",
		"artcc": "ZLC",
		"type": "RNAV",
		"updated": "08/08/2012",
	},
	{
		"name": "PULTE",
		"latitude": "43-36-27.29 N",
		"longitude": "111-59-36.67 W",
		"state": "IDAHO",
		"artcc": "ZLC",
		"type": "RP",
		"updated": "IDA*VOR/DME*015.00/6.14",
	},
	{
		"name": "PUMVE",
		"latitude": "43-37-39.08 N",
		"longitude": "111-51-16.05 W",
		"state": "IDAHO",
		"artcc": "ZLC",
		"type": "RNAV",
		"updated": "08/09/2010",
	},
	{
		"name": "PUNNS",
		"latitude": "46-43-32.85 N",
		"longitude": "113-48-0.74 W",
		"state": "MONTANA",
		"artcc": "ZLC",
		"type": "RP",
		"updated": "MSO*VOR/DME*120.01/16.00",
	},
	{
		"name": "PUSVY",
		"latitude": "43-4-10.38 N",
		"longitude": "108-28-21.18 W",
		"state": "WYOMING",
		"artcc": "ZLC",
		"type": "WP",
		"updated": "11/02/1998",
	},
	{
		"name": "PUTER",
		"latitude": "40-26-6.75 N",
		"longitude": "111-57-22.23 W",
		"state": "UTAH",
		"artcc": "ZLC",
		"type": "RP",
		"updated": "UUH*LD*163.95/20.28",
	},
	{
		"name": "PUWIR",
		"latitude": "43-20-45.86 N",
		"longitude": "114-14-54.72 W",
		"state": "IDAHO",
		"artcc": "ZLC",
		"type": "RP",
		"updated": "HLE*NDB/DME*334.76/1.00",
	},
	{
		"name": "PUYKU",
		"latitude": "41-52-26.86 N",
		"longitude": "80-57-29.96 W",
		"state": "OHIO",
		"artcc": "ZLC",
		"type": "RNAV",
		"updated": "07/19/2017",
	},
	{
		"name": "PYGMY",
		"latitude": "48-10-53.01 N",
		"longitude": "114-30-32.28 W",
		"state": "MONTANA",
		"artcc": "ZLC",
		"type": "RNAV",
		"updated": "04/25/2017",
	},
	{
		"name": "PYLOT",
		"latitude": "43-6-16.19 N",
		"longitude": "108-35-36.9 W",
		"state": "WYOMING",
		"artcc": "ZLC",
		"type": "RP",
		"updated": "BOY*VOR/DME*195.00",
	},
