[
	{
		"name": "RAACE",
		"latitude": "40-45-54.3 N",
		"longitude": "112-15-19.77 W",
		"state": "UTAH",
		"artcc": "ZLC",
		"type": "RNAV",
		"updated": "08/27/2007"
	},
	{
		"name": "RAAMZ",
		"latitude": "41-5-57.42 N",
		"longitude": "112-13-36.39 W",
		"state": "UTAH",
		"artcc": "ZLC",
		"type": "RP",
		"updated": "HIF*TACAN*250.00/12.00"
	},
	{
		"name": "RACGO",
		"latitude": "41-23-6.43 N",
		"longitude": "112-9-20.65 W",
		"state": "UTAH",
		"artcc": "ZLC",
		"type": "RP",
		"updated": "OGD*VORTAC*330.95/10.00"
	},
	{
		"name": "RADOC",
		"latitude": "43-40-53.46 N",
		"longitude": "114-20-39.51 W",
		"state": "IDAHO",
		"artcc": "ZLC",
		"type": "RNAV",
		"updated": "09/18/2007"
	},
	{
		"name": "RAJKO",
		"latitude": "40-28-9.65 N",
		"longitude": "117-18-14.27 W",
		"state": "NEVADA",
		"artcc": "ZLC",
		"type": "RNAV",
		"updated": "04/08/2004"
	},
	{
		"name": "RAMVE",
		"latitude": "44-57-48.46 N",
		"longitude": "107-6-10.83 W",
		"state": "WYOMING",
		"artcc": "ZLC",
		"type": "RNAV",
		"updated": "01/30/2007"
	},
	{
		"name": "RANBW",
		"latitude": "45-26-51.84 N",
		"longitude": "111-39-48.37 W",
		"state": "MONTANA",
		"artcc": "ZLC",
		"type": "RNAV",
		"updated": "12/23/2013"
	},
	{
		"name": "RANCR",
		"latitude": "45-43-28.44 N",
		"longitude": "111-26-37.82 W",
		"state": "MONTANA",
		"artcc": "ZLC",
		"type": "RNAV",
		"updated": "05/09/2011"
	},
	{
		"name": "RANEY",
		"latitude": "45-30-59.11 N",
		"longitude": "111-19-34.94 W",
		"state": "MONTANA",
		"artcc": "ZLC",
		"type": "RP",
		"updated": "HIA*VOR/DME*102.00"
	},
	{
		"name": "RANKK",
		"latitude": "43-52-5.62 N",
		"longitude": "107-45-44.11 W",
		"state": "WYOMING",
		"artcc": "ZLC",
		"type": "RP",
		"updated": "BOY*VOR/DME*027.74/33.74"
	},
	{
		"name": "RAPOY",
		"latitude": "48-23-23.52 N",
		"longitude": "114-24-32.58 W",
		"state": "MONTANA",
		"artcc": "ZLC",
		"type": "RNAV",
		"updated": "04/27/2009"
	},
	{
		"name": "RAPPO",
		"latitude": "39-20-30.17 N",
		"longitude": "112-7-20.33 W",
		"state": "UTAH",
		"artcc": "ZLC",
		"type": "RNAV",
		"updated": "08/31/2011"
	},
	{
		"name": "RAPYO",
		"latitude": "39-16-53.57 N",
		"longitude": "116-0-48.7 W",
		"state": "NEVADA",
		"artcc": "ZLC",
		"type": "RNAV",
		"updated": "07/03/2013"
	},
	{
		"name": "RAQEF",
		"latitude": "41-56-38.92 N",
		"longitude": "80-29-40.29 W",
		"state": "PENNSYLVANIA",
		"artcc": "ZLC",
		"type": "RNAV",
		"updated": "07/19/2017"
	},
	{
		"name": "RARAC",
		"latitude": "42-37-58.22 N",
		"longitude": "114-28-29.58 W",
		"state": "IDAHO",
		"artcc": "ZLC",
		"type": "RP",
		"updated": "TWF*VORTAC*346.02/9.20"
	},
	{
		"name": "RATLR",
		"latitude": "42-55-1.66 N",
		"longitude": "115-39-36.42 W",
		"state": "IDAHO",
		"artcc": "ZLC",
		"type": "MR",
		"updated": "MUO*TACAN*115.00/12.00"
	},
	{
		"name": "RAVCO",
		"latitude": "43-32-36.07 N",
		"longitude": "110-46-23.57 W",
		"state": "WYOMING",
		"artcc": "ZLC",
		"type": "RP",
		"updated": "JAC*VOR/DME*188.25/5.00"
	},
	{
		"name": "RDHIL",
		"latitude": "46-48-24.14 N",
		"longitude": "109-12-14.56 W",
		"state": "MONTANA",
		"artcc": "ZLC",
		"type": "RNAV",
		"updated": "07/21/2016"
	},
	{
		"name": "REANA",
		"latitude": "38-24-0 N",
		"longitude": "114-20-0 W",
		"state": "NEVADA",
		"artcc": "ZLC",
		"type": "RNAV",
		"updated": "05/08/2002"
	},
	{
		"name": "REAPS",
		"latitude": "43-9-47.53 N",
		"longitude": "114-5-34.46 W",
		"state": "IDAHO",
		"artcc": "ZLC",
		"type": "RP",
		"updated": "PIH*VOR/DME*268.97/65.80"
	},
	{
		"name": "RECAP",
		"latitude": "45-26-28.26 N",
		"longitude": "104-38-36.65 W",
		"state": "MONTANA",
		"artcc": "ZLC",
		"type": "RP",
		"updated": "DPR*VOR/DME*271.00/126.00"
	},
	{
		"name": "REDLO",
		"latitude": "45-14-36.11 N",
		"longitude": "109-7-38.28 W",
		"state": "MONTANA",
		"artcc": "ZLC",
		"type": "RP",
		"updated": "BIL*VORTAC*198.19/40.00"
	},
	{
		"name": "REDVE",
		"latitude": "43-46-43.39 N",
		"longitude": "116-49-26.85 W",
		"state": "IDAHO",
		"artcc": "ZLC",
		"type": "RNAV",
		"updated": "07/16/2008"
	},
	{
		"name": "REEKA",
		"latitude": "40-3-43.36 N",
		"longitude": "112-3-56.51 W",
		"state": "UTAH",
		"artcc": "ZLC",
		"type": "RP",
		"updated": "FFU*VORTAC*188.32/14.00"
	},
	{
		"name": "REEPO",
		"latitude": "45-45-34.41 N",
		"longitude": "109-31-36.76 W",
		"state": "MONTANA",
		"artcc": "ZLC",
		"type": "RP",
		"updated": "BIL*VORTAC*251.88/38.00"
	},
	{
		"name": "REGVE",
		"latitude": "41-38-35.07 N",
		"longitude": "109-20-30.96 W",
		"state": "WYOMING",
		"artcc": "ZLC",
		"type": "RNAV",
		"updated": "02/03/2010"
	},
	{
		"name": "REKKA",
		"latitude": "39-46-56.25 N",
		"longitude": "115-16-10.82 W",
		"state": "NEVADA",
		"artcc": "ZLC",
		"type": "RNAV",
		"updated": "11/06/2007"
	},
	{
		"name": "RELAE",
		"latitude": "43-52-40.16 N",
		"longitude": "110-40-26.87 W",
		"state": "WYOMING",
		"artcc": "ZLC",
		"type": "RP",
		"updated": "DNW*VOR/DME*266.55/15.00"
	},
	{
		"name": "RENOL",
		"latitude": "43-20-2.38 N",
		"longitude": "116-34-54.24 W",
		"state": "IDAHO",
		"artcc": "ZLC",
		"type": "RP",
		"updated": "BOI*VORTAC*215.51/21.50"
	},
	{
		"name": "RESLE",
		"latitude": "47-44-0.19 N",
		"longitude": "110-59-43.27 W",
		"state": "MONTANA",
		"artcc": "ZLC",
		"type": "RP",
		"updated": "GTF*VORTAC*028.70/24.00"
	},
	{
		"name": "REWAY",
		"latitude": "43-30-37.71 N",
		"longitude": "116-4-3.31 W",
		"state": "IDAHO",
		"artcc": "ZLC",
		"type": "RP",
		"updated": "BOI*VORTAC*098.00/6.00"
	},
	{
		"name": "REWIN",
		"latitude": "45-12-39.66 N",
		"longitude": "113-49-31.54 W",
		"state": "IDAHO",
		"artcc": "ZLC",
		"type": "RNAV",
		"updated": "01/11/2018"
	},
	{
		"name": "RFLAY",
		"latitude": "43-59-0.92 N",
		"longitude": "107-25-50.2 W",
		"state": "WYOMING",
		"artcc": "ZLC",
		"type": "RNAV",
		"updated": "07/21/2008"
	},
	{
		"name": "RHINO",
		"latitude": "48-32-58.88 N",
		"longitude": "109-41-27.36 W",
		"state": "MONTANA",
		"artcc": "ZLC",
		"type": "RP",
		"updated": "HVR*VOR/DME*064.00/3.20"
	},
	{
		"name": "RICHD",
		"latitude": "46-40-34.52 N",
		"longitude": "112-25-6.84 W",
		"state": "MONTANA",
		"artcc": "ZLC",
		"type": "RP",
		"updated": "HLN*VORTAC*266.40/19.67"
	},
	{
		"name": "RICOV",
		"latitude": "45-10-0.55 N",
		"longitude": "112-35-11.11 W",
		"state": "MONTANA",
		"artcc": "ZLC",
		"type": "RNAV",
		"updated": "11/04/2015"
	},
	{
		"name": "RIDDG",
		"latitude": "48-8-6.37 N",
		"longitude": "114-42-16.95 W",
		"state": "MONTANA",
		"artcc": "ZLC",
		"type": "RNAV",
		"updated": "04/25/2017"
	},
	{
		"name": "RIDEN",
		"latitude": "41-8-58.43 N",
		"longitude": "112-25-37.15 W",
		"state": "UTAH",
		"artcc": "ZLC",
		"type": "RP",
		"updated": "MLD*VOR/DME*162.00/63.00"
	},
	{
		"name": "RIGBY",
		"latitude": "43-39-17.67 N",
		"longitude": "111-57-20.87 W",
		"state": "IDAHO",
		"artcc": "ZLC",
		"type": "RP",
		"updated": "IDA*VOR/DME*015.00"
	},
	{
		"name": "RIJSO",
		"latitude": "39-0-44.32 N",
		"longitude": "112-18-4.94 W",
		"state": "UTAH",
		"artcc": "ZLC",
		"type": "RNAV",
		"updated": "08/24/2017"
	},
	{
		"name": "RILMY",
		"latitude": "48-9-15.45 N",
		"longitude": "104-52-7.19 W",
		"state": "MONTANA",
		"artcc": "ZLC",
		"type": "RP",
		"updated": "ISN*VOR/DME*250.86/45.26"
	},
	{
		"name": "RINIJ",
		"latitude": "43-21-57.52 N",
		"longitude": "113-13-42.74 W",
		"state": "IDAHO",
		"artcc": "ZLC",
		"type": "RNAV",
		"updated": "07/26/2004"
	},
	{
		"name": "RITYO",
		"latitude": "40-36-56.19 N",
		"longitude": "116-51-7.29 W",
		"state": "NEVADA",
		"artcc": "ZLC",
		"type": "RP",
		"updated": "BAM*VORTAC*031.04/4.25"
	},
	{
		"name": "RIVAL",
		"latitude": "46-48-42.79 N",
		"longitude": "114-37-27.79 W",
		"state": "MONTANA",
		"artcc": "ZLC",
		"type": "RP",
		"updated": "MSO*VOR/DME*242.67/23.00"
	},
	{
		"name": "RIXRI",
		"latitude": "46-0-42.85 N",
		"longitude": "106-20-9.04 W",
		"state": "MONTANA",
		"artcc": "ZLC",
		"type": "RNAV",
		"updated": "02/09/2018"
	},
	{
		"name": "RIYAJ",
		"latitude": "40-19-54.99 N",
		"longitude": "109-30-32.83 W",
		"state": "UTAH",
		"artcc": "ZLC",
		"type": "RNAV",
		"updated": "09/26/2017"
	},
	{
		"name": "RNNCH",
		"latitude": "46-51-43.47 N",
		"longitude": "108-50-19.01 W",
		"state": "MONTANA",
		"artcc": "ZLC",
		"type": "RNAV",
		"updated": "07/21/2016"
	},
	{
		"name": "ROARR",
		"latitude": "43-17-31.08 N",
		"longitude": "115-22-10.15 W",
		"state": "IDAHO",
		"artcc": "ZLC",
		"type": "RNAV",
		"updated": "06/16/2015"
	},
	{
		"name": "ROBUD",
		"latitude": "40-38-37.54 N",
		"longitude": "118-42-28.39 W",
		"state": "NEVADA",
		"artcc": "ZLC",
		"type": "RP",
		"updated": "SDO*VORTAC*195.96/55.04"
	},
	{
		"name": "ROCCA",
		"latitude": "43-24-4.16 N",
		"longitude": "112-27-41.62 W",
		"state": "IDAHO",
		"artcc": "ZLC",
		"type": "RP",
		"updated": "IDA*VOR/DME*233.00/18.76"
	},
	{
		"name": "ROCCY",
		"latitude": "37-49-41.63 N",
		"longitude": "111-59-59.84 W",
		"state": "UTAH",
		"artcc": "ZLC",
		"type": "RNAV",
		"updated": "09/26/2014"
	},
	{
		"name": "ROCEN",
		"latitude": "38-4-27.56 N",
		"longitude": "116-54-10.64 W",
		"state": "NEVADA",
		"artcc": "ZLC",
		"type": "MR",
		"updated": "TQQ*VORTAC*325.00/18.00"
	},
	{
		"name": "ROGET",
		"latitude": "42-16-52.55 N",
		"longitude": "114-22-20.15 W",
		"state": "IDAHO",
		"artcc": "ZLC",
		"type": "RP",
		"updated": "BYI*VOR/DME*213.62"
	},
	{
		"name": "ROGUU",
		"latitude": "48-44-23.6 N",
		"longitude": "105-30-53.59 W",
		"state": "MONTANA",
		"artcc": "ZLC",
		"type": "RNAV",
		"updated": "04/10/2002"
	},
	{
		"name": "ROJGE",
		"latitude": "46-0-22.56 N",
		"longitude": "112-39-33.41 W",
		"state": "MONTANA",
		"artcc": "ZLC",
		"type": "CN",
		"updated": "07/03/2003"
	},
	{
		"name": "ROKNY",
		"latitude": "46-37-37.44 N",
		"longitude": "113-49-56.17 W",
		"state": "MONTANA",
		"artcc": "ZLC",
		"type": "RNAV",
		"updated": "07/17/2009"
	},
	{
		"name": "ROKTY",
		"latitude": "43-27-38.04 N",
		"longitude": "115-50-28.9 W",
		"state": "IDAHO",
		"artcc": "ZLC",
		"type": "RNAV",
		"updated": "07/20/2009"
	},
	{
		"name": "ROMMN",
		"latitude": "40-5-46.88 N",
		"longitude": "111-47-37.95 W",
		"state": "UTAH",
		"artcc": "ZLC",
		"type": "RNAV",
		"updated": "03/26/2018"
	},
	{
		"name": "ROOHZ",
		"latitude": "41-14-12.31 N",
		"longitude": "116-12-58.14 W",
		"state": "NEVADA",
		"artcc": "ZLC",
		"type": "RNAV",
		"updated": "03/08/2011"
	},
	{
		"name": "ROSOE",
		"latitude": "47-19-8.51 N",
		"longitude": "112-5-30.62 W",
		"state": "MONTANA",
		"artcc": "ZLC",
		"type": "RP",
		"updated": "HLN*VORTAC*336.47"
	},
	{
		"name": "ROTMN",
		"latitude": "40-57-27 N",
		"longitude": "114-20-49 W",
		"state": "NEVADA",
		"artcc": "ZLC",
		"type": "RNAV",
		"updated": "02/13/2017"
	},
	{
		"name": "ROUTS",
		"latitude": "41-12-57.93 N",
		"longitude": "112-3-8.46 W",
		"state": "UTAH",
		"artcc": "ZLC",
		"type": "MR",
		"updated": "HIF*TACAN*311.00/7.00"
	},
	{
		"name": "ROUTY",
		"latitude": "43-9-0 N",
		"longitude": "117-0-0 W",
		"state": "IDAHO",
		"artcc": "ZLC",
		"type": "RNAV",
		"updated": "06/15/2005"
	},
	{
		"name": "ROWBI",
		"latitude": "43-35-30.52 N",
		"longitude": "116-2-33.52 W",
		"state": "IDAHO",
		"artcc": "ZLC",
		"type": "RNAV",
		"updated": "08/06/2014"
	},
	{
		"name": "ROWER",
		"latitude": "47-20-16.56 N",
		"longitude": "111-16-9.41 W",
		"state": "MONTANA",
		"artcc": "ZLC",
		"type": "RNAV",
		"updated": "06/15/2011"
	},
	{
		"name": "ROWEY",
		"latitude": "43-19-13.41 N",
		"longitude": "109-4-10.89 W",
		"state": "WYOMING",
		"artcc": "ZLC",
		"type": "RP",
		"updated": "BOY*VOR/DME*240.00"
	},
	{
		"name": "ROYOG",
		"latitude": "48-26-58.78 N",
		"longitude": "114-24-28.55 W",
		"state": "MONTANA",
		"artcc": "ZLC",
		"type": "RNAV",
		"updated": "04/27/2009"
	},
	{
		"name": "ROZZL",
		"latitude": "43-35-0 N",
		"longitude": "118-30-0 W",
		"state": "OREGON",
		"artcc": "ZLC",
		"type": "RNAV",
		"updated": "06/17/2005"
	},
	{
		"name": "RPEEN",
		"latitude": "39-9-50.79 N",
		"longitude": "111-49-49.98 W",
		"state": "UTAH",
		"artcc": "ZLC",
		"type": "RNAV",
		"updated": "04/18/2017"
	},
	{
		"name": "RRICH",
		"latitude": "38-45-18.53 N",
		"longitude": "112-9-22.12 W",
		"state": "UTAH",
		"artcc": "ZLC",
		"type": "RNAV",
		"updated": "08/27/2007"
	},
	{
		"name": "RROYY",
		"latitude": "41-13-19.25 N",
		"longitude": "112-8-52.75 W",
		"state": "UTAH",
		"artcc": "ZLC",
		"type": "RP",
		"updated": "OGD*VORTAC*252.84/2.26"
	},
	{
		"name": "RRUFF",
		"latitude": "41-8-39.42 N",
		"longitude": "112-2-19.12 W",
		"state": "UTAH",
		"artcc": "ZLC",
		"type": "RP",
		"updated": "UAT*LD*343.95/22.40"
	},
	{
		"name": "RUBII",
		"latitude": "40-27-3.58 N",
		"longitude": "115-16-15.97 W",
		"state": "NEVADA",
		"artcc": "ZLC",
		"type": "RNAV",
		"updated": "11/06/2007"
	},
	{
		"name": "RUBOY",
		"latitude": "39-34-35.76 N",
		"longitude": "112-20-52.77 W",
		"state": "UTAH",
		"artcc": "ZLC",
		"type": "RP",
		"updated": "DTA*VORTAC*007.96/18.00"
	},
	{
		"name": "RUDTO",
		"latitude": "43-25-58.8 N",
		"longitude": "111-21-16.8 W",
		"state": "IDAHO",
		"artcc": "ZLC",
		"type": "RNAV",
		"updated": "09/08/2011"
	},
	{
		"name": "RUGGD",
		"latitude": "41-8-8.31 N",
		"longitude": "111-46-3.29 W",
		"state": "UTAH",
		"artcc": "ZLC",
		"type": "RNAV",
		"updated": "03/23/2018"
	},
	{
		"name": "RULFO",
		"latitude": "40-40-18.36 N",
		"longitude": "111-57-40.36 W",
		"state": "UTAH",
		"artcc": "ZLC",
		"type": "RNAV",
		"updated": "01/31/2001"
	},
	{
		"name": "RULIE",
		"latitude": "48-11-19.69 N",
		"longitude": "105-49-12.4 W",
		"state": "MONTANA",
		"artcc": "ZLC",
		"type": "RNAV",
		"updated": "07/26/2012"
	},
	{
		"name": "RUSBE",
		"latitude": "37-57-13.36 N",
		"longitude": "113-3-8.46 W",
		"state": "UTAH",
		"artcc": "ZLC",
		"type": "RP",
		"updated": "EHK*VOR/DME*348.32/10.00"
	},
	{
		"name": "RUYBE",
		"latitude": "37-58-15 N",
		"longitude": "113-19-37.8 W",
		"state": "UTAH",
		"artcc": "ZLC",
		"type": "CN",
		"updated": "11/25/2002"
	},
	{
		"name": "RUYOS",
		"latitude": "41-11-59.4 N",
		"longitude": "112-1-40.61 W",
		"state": "UTAH",
		"artcc": "ZLC",
		"type": "RP",
		"updated": "OGD*VORTAC*100.54/3.50"
	},
	{
		"name": "RYLEE",
		"latitude": "48-18-3.07 N",
		"longitude": "106-12-59.37 W",
		"state": "MONTANA",
		"artcc": "ZLC",
		"type": "RNAV",
		"updated": "03/05/2014"
	}
]
