[
	{
		"name": "WAANE",
		"latitude": "46-51-18.62 N",
		"longitude": "114-23-23.89 W",
		"state": "MONTANA",
		"artcc": "ZLC",
		"type": "RP",
		"updated": "MSO*VOR/DME*243.00/13.00"
	},
	{
		"name": "WAATS",
		"latitude": "40-43-10.49 N",
		"longitude": "112-31-47.54 W",
		"state": "UTAH",
		"artcc": "ZLC",
		"type": "RP",
		"updated": "BVL*VORTAC*078.00/56.00"
	},
	{
		"name": "WABNU",
		"latitude": "42-56-11.2 N",
		"longitude": "114-30-4.58 W",
		"state": "IDAHO",
		"artcc": "ZLC",
		"type": "RNAV",
		"updated": "08/01/2008"
	},
	{
		"name": "WABUD",
		"latitude": "44-30-55.5 N",
		"longitude": "113-44-12.6 W",
		"state": "IDAHO",
		"artcc": "ZLC",
		"type": "RP",
		"updated": "LKT*VOR/DME*140.81/33.79"
	},
	{
		"name": "WADOK",
		"latitude": "39-33-6.93 N",
		"longitude": "112-28-58.83 W",
		"state": "UTAH",
		"artcc": "ZLC",
		"type": "RP",
		"updated": "DTA*VORTAC*348.00/15.00"
	},
	{
		"name": "WADPO",
		"latitude": "44-59-54.01 N",
		"longitude": "116-17-23.59 W",
		"state": "IDAHO",
		"artcc": "ZLC",
		"type": "RNAV",
		"updated": "09/01/2017"
	},
	{
		"name": "WAGAN",
		"latitude": "47-30-51.87 N",
		"longitude": "111-19-2.15 W",
		"state": "MONTANA",
		"artcc": "ZLC",
		"type": "RNAV",
		"updated": "06/15/2011"
	},
	{
		"name": "WAGEX",
		"latitude": "41-53-36.46 N",
		"longitude": "110-34-4.2 W",
		"state": "WYOMING",
		"artcc": "ZLC",
		"type": "RNAV",
		"updated": "11/21/2014"
	},
	{
		"name": "WAGUG",
		"latitude": "40-22-11.2 N",
		"longitude": "109-30-35.84 W",
		"state": "UTAH",
		"artcc": "ZLC",
		"type": "RNAV",
		"updated": "09/26/2017"
	},
	{
		"name": "WAHNZ",
		"latitude": "44-17-15.61 N",
		"longitude": "111-13-32.75 W",
		"state": "IDAHO",
		"artcc": "ZLC",
		"type": "RNAV",
		"updated": "04/28/2017"
	},
	{
		"name": "WAIDE",
		"latitude": "44-50-48.98 N",
		"longitude": "111-44-47.18 W",
		"state": "MONTANA",
		"artcc": "ZLC",
		"type": "RP",
		"updated": "DBS*VORTAC*008.46/49.64"
	},
	{
		"name": "WAKIX",
		"latitude": "46-26-7.21 N",
		"longitude": "113-21-15.99 W",
		"state": "MONTANA",
		"artcc": "ZLC",
		"type": "RP",
		"updated": "CPN*VOR/DME*297.98/35.00"
	},
	{
		"name": "WAKUX",
		"latitude": "45-20-25.5 N",
		"longitude": "112-29-28.22 W",
		"state": "MONTANA",
		"artcc": "ZLC",
		"type": "RP",
		"updated": "DLN*VOR/DME*005.25/6.00"
	},
	{
		"name": "WALIL",
		"latitude": "42-38-30.15 N",
		"longitude": "114-36-21.99 W",
		"state": "IDAHO",
		"artcc": "ZLC",
		"type": "RP",
		"updated": "TWF*VORTAC*313.99/11.00"
	},
	{
		"name": "WALIV",
		"latitude": "48-12-39.71 N",
		"longitude": "103-41-30.7 W",
		"state": "NORTH DAKOTA",
		"artcc": "ZLC",
		"type": "RP",
		"updated": "ISN*VOR/DME*125.15/3.47"
	},
	{
		"name": "WAMAS",
		"latitude": "46-59-9.51 N",
		"longitude": "114-17-54.96 W",
		"state": "MONTANA",
		"artcc": "ZLC",
		"type": "RP",
		"updated": "MSO*VOR/DME*285.00/10.00"
	},
	{
		"name": "WAMIS",
		"latitude": "46-36-59.56 N",
		"longitude": "113-57-7.93 W",
		"state": "MONTANA",
		"artcc": "ZLC",
		"type": "RNAV",
		"updated": "07/17/2009"
	},
	{
		"name": "WAPSU",
		"latitude": "43-51-48.03 N",
		"longitude": "107-56-26.66 W",
		"state": "WYOMING",
		"artcc": "ZLC",
		"type": "RNAV",
		"updated": "07/16/2012"
	},
	{
		"name": "WARPU",
		"latitude": "43-2-11.53 N",
		"longitude": "111-4-0.21 W",
		"state": "IDAHO",
		"artcc": "ZLC",
		"type": "RNAV",
		"updated": "08/14/2006"
	},
	{
		"name": "WARRM",
		"latitude": "38-9-29.33 N",
		"longitude": "116-10-59.11 W",
		"state": "NEVADA",
		"artcc": "ZLC",
		"type": "RNAV",
		"updated": "10/28/2015"
	},
	{
		"name": "WASIV",
		"latitude": "40-41-7.67 N",
		"longitude": "111-49-47.99 W",
		"state": "UTAH",
		"artcc": "ZLC",
		"type": "RNAV",
		"updated": "11/06/2015"
	},
	{
		"name": "WASLI",
		"latitude": "39-28-59.49 N",
		"longitude": "111-30-3.11 W",
		"state": "UTAH",
		"artcc": "ZLC",
		"type": "RNAV",
		"updated": "08/31/2011"
	},
	{
		"name": "WATBU",
		"latitude": "43-56-2.34 N",
		"longitude": "110-14-51.34 W",
		"state": "WYOMING",
		"artcc": "ZLC",
		"type": "RNAV",
		"updated": "01/11/2013"
	},
	{
		"name": "WATUM",
		"latitude": "41-34-46.43 N",
		"longitude": "108-58-46.66 W",
		"state": "WYOMING",
		"artcc": "ZLC",
		"type": "RP",
		"updated": "RKS*LD*090.22/4.93"
	},
	{
		"name": "WAUTS",
		"latitude": "46-36-42.26 N",
		"longitude": "111-27-16.66 W",
		"state": "MONTANA",
		"artcc": "ZLC",
		"type": "RP",
		"updated": "HLN*VORTAC*073.00/20.64"
	},
	{
		"name": "WAVIT",
		"latitude": "40-18-21.91 N",
		"longitude": "111-47-59.41 W",
		"state": "UTAH",
		"artcc": "ZLC",
		"type": "RP",
		"updated": "PVU*LD*313.79/7.08"
	},
	{
		"name": "WAVUV",
		"latitude": "40-48-2.95 N",
		"longitude": "112-18-5.94 W",
		"state": "UTAH",
		"artcc": "ZLC",
		"type": "RNAV",
		"updated": "11/06/2015"
	},
	{
		"name": "WAXIV",
		"latitude": "48-9-15.99 N",
		"longitude": "105-17-23.31 W",
		"state": "MONTANA",
		"artcc": "ZLC",
		"type": "RNAV",
		"updated": "03/11/2013"
	},
	{
		"name": "WEBER",
		"latitude": "41-19-11.85 N",
		"longitude": "112-2-13.36 W",
		"state": "UTAH",
		"artcc": "ZLC",
		"type": "RP",
		"updated": "MOY*LD*343.95/33.00"
	},
	{
		"name": "WEBVO",
		"latitude": "48-33-46.65 N",
		"longitude": "111-27-17.11 W",
		"state": "MONTANA",
		"artcc": "ZLC",
		"type": "RP",
		"updated": "CTB*VOR/DME*072.86/35.41"
	},
	{
		"name": "WEDAK",
		"latitude": "45-53-17.96 N",
		"longitude": "114-5-2.46 W",
		"state": "MONTANA",
		"artcc": "ZLC",
		"type": "RP",
		"updated": "LKT*VOR/DME*347.01/52.03"
	},
	{
		"name": "WEDAP",
		"latitude": "48-34-47.93 N",
		"longitude": "112-21-19.45 W",
		"state": "MONTANA",
		"artcc": "ZLC",
		"type": "RNAV",
		"updated": "09/21/2014"
	},
	{
		"name": "WEDAR",
		"latitude": "47-31-46.56 N",
		"longitude": "111-12-45.06 W",
		"state": "MONTANA",
		"artcc": "ZLC",
		"type": "RNAV",
		"updated": "06/15/2011"
	},
	{
		"name": "WEDEK",
		"latitude": "43-32-39.87 N",
		"longitude": "116-10-3.29 W",
		"state": "IDAHO",
		"artcc": "ZLC",
		"type": "RNAV",
		"updated": "08/05/2014"
	},
	{
		"name": "WEEEL",
		"latitude": "40-44-24.68 N",
		"longitude": "111-57-32.54 W",
		"state": "UTAH",
		"artcc": "ZLC",
		"type": "RP",
		"updated": "UTJ*LD*163.95/1.76"
	},
	{
		"name": "WEGEM",
		"latitude": "41-26-44.34 N",
		"longitude": "109-59-24.49 W",
		"state": "WYOMING",
		"artcc": "ZLC",
		"type": "RP",
		"updated": "FBR*VOR/DME*064.23/20.00"
	},
	{
		"name": "WEGET",
		"latitude": "40-49-35.19 N",
		"longitude": "112-21-18.42 W",
		"state": "UTAH",
		"artcc": "ZLC",
		"type": "RP",
		"updated": "TCH*VORTAC*249.32"
	},
	{
		"name": "WEGVU",
		"latitude": "48-20-18.29 N",
		"longitude": "114-24-36.22 W",
		"state": "MONTANA",
		"artcc": "ZLC",
		"type": "CN",
		"updated": "04/27/2009"
	},
	{
		"name": "WEKPI",
		"latitude": "38-6-41.84 N",
		"longitude": "111-54-24.19 W",
		"state": "UTAH",
		"artcc": "ZLC",
		"type": "RNAV",
		"updated": "08/06/2010"
	},
	{
		"name": "WELDU",
		"latitude": "46-1-34.34 N",
		"longitude": "112-31-15.79 W",
		"state": "MONTANA",
		"artcc": "ZLC",
		"type": "RP",
		"updated": "BEY*LD*334.87/5.38"
	},
	{
		"name": "WELEN",
		"latitude": "39-31-29.11 N",
		"longitude": "110-47-47.42 W",
		"state": "UTAH",
		"artcc": "ZLC",
		"type": "RP",
		"updated": "PUC*VOR/DME*188.99/5.11"
	},
	{
		"name": "WELUR",
		"latitude": "48-23-59.78 N",
		"longitude": "112-18-33.37 W",
		"state": "MONTANA",
		"artcc": "ZLC",
		"type": "RP",
		"updated": "CTB*VOR/DME*155.19/10.00"
	},
	{
		"name": "WEMET",
		"latitude": "48-7-2.19 N",
		"longitude": "103-30-28.45 W",
		"state": "NORTH DAKOTA",
		"artcc": "ZLC",
		"type": "RNAV",
		"updated": "05/15/2010"
	},
	{
		"name": "WEMKO",
		"latitude": "44-37-43.23 N",
		"longitude": "112-21-53.52 W",
		"state": "MONTANA",
		"artcc": "ZLC",
		"type": "RP",
		"updated": "DBS*VORTAC*333.38/33.07"
	},
	{
		"name": "WENKE",
		"latitude": "47-0-12.11 N",
		"longitude": "114-14-28.75 W",
		"state": "MONTANA",
		"artcc": "ZLC",
		"type": "RNAV",
		"updated": "07/17/2009"
	},
	{
		"name": "WEPAP",
		"latitude": "45-43-27.99 N",
		"longitude": "110-22-41.49 W",
		"state": "MONTANA",
		"artcc": "ZLC",
		"type": "RNAV",
		"updated": "08/15/2011"
	},
	{
		"name": "WEPIV",
		"latitude": "39-36-9.21 N",
		"longitude": "110-45-22.42 W",
		"state": "UTAH",
		"artcc": "ZLC",
		"type": "RP",
		"updated": "PUC*LD*187.35/1.70"
	},
	{
		"name": "WEPLI",
		"latitude": "40-43-7.95 N",
		"longitude": "114-7-12.51 W",
		"state": "NEVADA",
		"artcc": "ZLC",
		"type": "RNAV",
		"updated": "10/08/2014"
	},
	{
		"name": "WESOP",
		"latitude": "43-29-47.99 N",
		"longitude": "114-17-19.16 W",
		"state": "IDAHO",
		"artcc": "ZLC",
		"type": "RNAV",
		"updated": "12/04/2006"
	},
	{
		"name": "WETIG",
		"latitude": "45-51-31.91 N",
		"longitude": "109-42-58.28 W",
		"state": "MONTANA",
		"artcc": "ZLC",
		"type": "RNAV",
		"updated": "10/18/2017"
	},
	{
		"name": "WIBGI",
		"latitude": "41-11-7.96 N",
		"longitude": "111-58-8.19 W",
		"state": "UTAH",
		"artcc": "ZLC",
		"type": "RNAV",
		"updated": "11/06/2015"
	},
	{
		"name": "WIBMU",
		"latitude": "45-55-29.75 N",
		"longitude": "108-54-10.73 W",
		"state": "MONTANA",
		"artcc": "ZLC",
		"type": "RP",
		"updated": "BIL*VORTAC*287.00/13.60"
	},
	{
		"name": "WIBON",
		"latitude": "45-52-53.96 N",
		"longitude": "108-48-13.24 W",
		"state": "MONTANA",
		"artcc": "ZLC",
		"type": "RP",
		"updated": "BIL*LD*281.71/11.04"
	},
	{
		"name": "WIBTI",
		"latitude": "43-40-22.67 N",
		"longitude": "108-34-52.74 W",
		"state": "WYOMING",
		"artcc": "ZLC",
		"type": "RNAV",
		"updated": "01/23/2017"
	},
	{
		"name": "WIDES",
		"latitude": "43-15-20.58 N",
		"longitude": "114-8-9.31 W",
		"state": "IDAHO",
		"artcc": "ZLC",
		"type": "RNAV",
		"updated": "01/10/2001"
	},
	{
		"name": "WIDGA",
		"latitude": "43-29-44.29 N",
		"longitude": "110-47-31.61 W",
		"state": "WYOMING",
		"artcc": "ZLC",
		"type": "RNAV",
		"updated": "12/06/2006"
	},
	{
		"name": "WIDOE",
		"latitude": "41-15-6.7 N",
		"longitude": "112-38-57.53 W",
		"state": "UTAH",
		"artcc": "ZLC",
		"type": "MR",
		"updated": "HIF*TACAN*271.46/32.04"
	},
	{
		"name": "WIDOP",
		"latitude": "43-30-52.36 N",
		"longitude": "116-4-27.22 W",
		"state": "IDAHO",
		"artcc": "ZLC",
		"type": "RP",
		"updated": "AAD*LD*102.16/8.05"
	},
	{
		"name": "WIDUG",
		"latitude": "42-29-7.38 N",
		"longitude": "114-46-0.13 W",
		"state": "IDAHO",
		"artcc": "ZLC",
		"type": "RNAV",
		"updated": "03/25/2009"
	},
	{
		"name": "WIKIS",
		"latitude": "43-27-49.24 N",
		"longitude": "116-11-21.46 W",
		"state": "IDAHO",
		"artcc": "ZLC",
		"type": "RNAV",
		"updated": "08/05/2014"
	},
	{
		"name": "WIKLO",
		"latitude": "40-32-52.62 N",
		"longitude": "117-10-59.49 W",
		"state": "NEVADA",
		"artcc": "ZLC",
		"type": "RP",
		"updated": "BAM*VORTAC*246.00/12.00"
	},
	{
		"name": "WILID",
		"latitude": "41-27-32.05 N",
		"longitude": "112-12-10.91 W",
		"state": "UTAH",
		"artcc": "ZLC",
		"type": "MR",
		"updated": "HIF*TACAN*318.00/23.00"
	},
	{
		"name": "WILSN",
		"latitude": "47-51-16.53 N",
		"longitude": "103-20-31.31 W",
		"state": "NORTH DAKOTA",
		"artcc": "ZLC",
		"type": "RNAV",
		"updated": "04/08/2010"
	},
	{
		"name": "WILTO",
		"latitude": "48-7-2.15 N",
		"longitude": "114-19-25.26 W",
		"state": "MONTANA",
		"artcc": "ZLC",
		"type": "RNAV",
		"updated": "05/02/2018"
	},
	{
		"name": "WIMEG",
		"latitude": "40-30-7.18 N",
		"longitude": "118-23-19.29 W",
		"state": "NEVADA",
		"artcc": "ZLC",
		"type": "RNAV",
		"updated": "07/28/2017"
	},
	{
		"name": "WINEN",
		"latitude": "37-56-0 N",
		"longitude": "113-30-0 W",
		"state": "UTAH",
		"artcc": "ZLC",
		"type": "RNAV",
		"updated": "03/26/2018"
	},
	{
		"name": "WINIX",
		"latitude": "45-46-43.5 N",
		"longitude": "111-20-36.05 W",
		"state": "MONTANA",
		"artcc": "ZLC",
		"type": "RNAV",
		"updated": "06/22/2010"
	},
	{
		"name": "WINQY",
		"latitude": "41-0-1.72 N",
		"longitude": "117-51-37.26 W",
		"state": "NEVADA",
		"artcc": "ZLC",
		"type": "WP",
		"updated": "08/16/2006"
	},
	{
		"name": "WIRIM",
		"latitude": "47-27-35.18 N",
		"longitude": "105-36-41.11 W",
		"state": "MONTANA",
		"artcc": "ZLC",
		"type": "RNAV",
		"updated": "10/01/2012"
	},
	{
		"name": "WISEB",
		"latitude": "37-57-58.5 N",
		"longitude": "112-55-27.12 W",
		"state": "UTAH",
		"artcc": "ZLC",
		"type": "RP",
		"updated": "EHK*VOR/DME*016.50"
	},
	{
		"name": "WITUS",
		"latitude": "47-22-1.26 N",
		"longitude": "105-29-47.52 W",
		"state": "MONTANA",
		"artcc": "ZLC",
		"type": "RNAV",
		"updated": "10/01/2012"
	},
	{
		"name": "WIZSI",
		"latitude": "41-21-31.11 N",
		"longitude": "112-6-28.23 W",
		"state": "UTAH",
		"artcc": "ZLC",
		"type": "RNAV",
		"updated": "10/26/2011"
	},
	{
		"name": "WKARA",
		"latitude": "39-5-35.92 N",
		"longitude": "111-55-20.27 W",
		"state": "UTAH",
		"artcc": "ZLC",
		"type": "RNAV",
		"updated": "04/18/2017"
	},
	{
		"name": "WLCOM",
		"latitude": "46-47-48.27 N",
		"longitude": "108-36-46.59 W",
		"state": "MONTANA",
		"artcc": "ZLC",
		"type": "RNAV",
		"updated": "03/20/2017"
	},
	{
		"name": "WLLES",
		"latitude": "48-57-33.29 N",
		"longitude": "110-8-17.57 W",
		"state": "MONTANA",
		"artcc": "ZLC",
		"type": "RNAV",
		"updated": "03/17/2011"
	},
	{
		"name": "WLLLO",
		"latitude": "46-50-48.74 N",
		"longitude": "108-24-16.79 W",
		"state": "MONTANA",
		"artcc": "ZLC",
		"type": "RNAV",
		"updated": "03/20/2017"
	},
	{
		"name": "WNDEE",
		"latitude": "48-15-32 N",
		"longitude": "106-6-31.42 W",
		"state": "MONTANA",
		"artcc": "ZLC",
		"type": "RNAV",
		"updated": "03/05/2014"
	},
	{
		"name": "WOBNO",
		"latitude": "37-44-55.83 N",
		"longitude": "112-5-20.6 W",
		"state": "UTAH",
		"artcc": "ZLC",
		"type": "RNAV",
		"updated": "01/05/2012"
	},
	{
		"name": "WODEN",
		"latitude": "42-20-24.23 N",
		"longitude": "114-15-57.25 W",
		"state": "IDAHO",
		"artcc": "ZLC",
		"type": "RP",
		"updated": "BYI*VOR/DME*213.10"
	},
	{
		"name": "WODIM",
		"latitude": "48-16-17.23 N",
		"longitude": "114-17-46.14 W",
		"state": "MONTANA",
		"artcc": "ZLC",
		"type": "RP",
		"updated": "FCA*VOR/DME*287.57"
	},
	{
		"name": "WODNI",
		"latitude": "44-56-57.44 N",
		"longitude": "108-52-19.96 W",
		"state": "WYOMING",
		"artcc": "ZLC",
		"type": "RNAV",
		"updated": "07/26/2013"
	},
	{
		"name": "WODOS",
		"latitude": "48-52-44.35 N",
		"longitude": "104-42-50.94 W",
		"state": "MONTANA",
		"artcc": "ZLC",
		"type": "RNAV",
		"updated": "10/01/2012"
	},
	{
		"name": "WOGAR",
		"latitude": "43-31-48.56 N",
		"longitude": "114-28-46.97 W",
		"state": "IDAHO",
		"artcc": "ZLC",
		"type": "RNAV",
		"updated": "06/06/2016"
	},
	{
		"name": "WOJHO",
		"latitude": "46-47-45.68 N",
		"longitude": "114-3-57.74 W",
		"state": "MONTANA",
		"artcc": "ZLC",
		"type": "RNAV",
		"updated": "03/13/2018"
	},
	{
		"name": "WOKAL",
		"latitude": "48-16-16.07 N",
		"longitude": "106-40-47.33 W",
		"state": "MONTANA",
		"artcc": "ZLC",
		"type": "RP",
		"updated": "GGW*VOR/DME*313.00/4.00"
	},
	{
		"name": "WOKEN",
		"latitude": "46-58-54.79 N",
		"longitude": "112-1-33.14 W",
		"state": "MONTANA",
		"artcc": "ZLC",
		"type": "RP",
		"updated": "HLN*VORTAC*336.47/22.71"
	},
	{
		"name": "WOKIN",
		"latitude": "41-27-40.98 N",
		"longitude": "112-12-11.7 W",
		"state": "UTAH",
		"artcc": "ZLC",
		"type": "MR",
		"updated": "OGD*VORTAC*/15.00"
	},
	{
		"name": "WOLAT",
		"latitude": "45-43-24.92 N",
		"longitude": "111-4-36.68 W",
		"state": "MONTANA",
		"artcc": "ZLC",
		"type": "RNAV",
		"updated": "06/22/2010"
	},
	{
		"name": "WOLEN",
		"latitude": "42-46-6.31 N",
		"longitude": "110-56-31.06 W",
		"state": "WYOMING",
		"artcc": "ZLC",
		"type": "RNAV",
		"updated": "07/25/2006"
	},
	{
		"name": "WOLIV",
		"latitude": "48-8-20.61 N",
		"longitude": "105-41-25.97 W",
		"state": "MONTANA",
		"artcc": "ZLC",
		"type": "RNAV",
		"updated": "07/26/2012"
	},
	{
		"name": "WOLLY",
		"latitude": "47-39-2.5 N",
		"longitude": "111-22-25.38 W",
		"state": "MONTANA",
		"artcc": "ZLC",
		"type": "RNAV",
		"updated": "06/15/2011"
	},
	{
		"name": "WOLUN",
		"latitude": "41-46-16.4 N",
		"longitude": "111-54-17.31 W",
		"state": "UTAH",
		"artcc": "ZLC",
		"type": "RNAV",
		"updated": "11/06/2015"
	},
	{
		"name": "WOMET",
		"latitude": "45-36-52.27 N",
		"longitude": "111-15-50.03 W",
		"state": "MONTANA",
		"artcc": "ZLC",
		"type": "RP",
		"updated": "BZN*VOR/DME*186.20/11.14"
	},
	{
		"name": "WOMRU",
		"latitude": "43-43-54.16 N",
		"longitude": "110-40-37.12 W",
		"state": "WYOMING",
		"artcc": "ZLC",
		"type": "RNAV",
		"updated": "01/22/2013"
	},
	{
		"name": "WONIT",
		"latitude": "43-38-51.37 N",
		"longitude": "116-28-15.65 W",
		"state": "IDAHO",
		"artcc": "ZLC",
		"type": "RNAV",
		"updated": "04/30/2007"
	},
	{
		"name": "WOOOP",
		"latitude": "38-18-0 N",
		"longitude": "113-47-39.37 W",
		"state": "UTAH",
		"artcc": "ZLC",
		"type": "RNAV",
		"updated": "04/21/2017"
	},
	{
		"name": "WOPKU",
		"latitude": "47-20-0.08 N",
		"longitude": "105-27-17.88 W",
		"state": "MONTANA",
		"artcc": "ZLC",
		"type": "RNAV",
		"updated": "10/01/2012"
	},
	{
		"name": "WORAT",
		"latitude": "43-33-24.95 N",
		"longitude": "116-28-34.65 W",
		"state": "IDAHO",
		"artcc": "ZLC",
		"type": "RNAV",
		"updated": "08/22/2013"
	},
	{
		"name": "WOSAG",
		"latitude": "45-51-38.39 N",
		"longitude": "111-16-3.72 W",
		"state": "MONTANA",
		"artcc": "ZLC",
		"type": "RNAV",
		"updated": "06/22/2010"
	},
	{
		"name": "WOSEP",
		"latitude": "43-34-27.53 N",
		"longitude": "116-6-4.15 W",
		"state": "IDAHO",
		"artcc": "ZLC",
		"type": "RNAV",
		"updated": "08/05/2014"
	},
	{
		"name": "WOSKO",
		"latitude": "43-36-5.03 N",
		"longitude": "111-44-43.9 W",
		"state": "IDAHO",
		"artcc": "ZLC",
		"type": "RNAV",
		"updated": "08/09/2010"
	},
	{
		"name": "WOSLA",
		"latitude": "46-36-24.86 N",
		"longitude": "111-59-14.49 W",
		"state": "MONTANA",
		"artcc": "ZLC",
		"type": "RP",
		"updated": "HLN*VORTAC*254.22/1.40"
	},
	{
		"name": "WOTES",
		"latitude": "43-35-59.3 N",
		"longitude": "111-58-49.97 W",
		"state": "IDAHO",
		"artcc": "ZLC",
		"type": "RNAV",
		"updated": "02/02/2009"
	},
	{
		"name": "WOTOP",
		"latitude": "41-58-1.97 N",
		"longitude": "110-34-43.27 W",
		"state": "WYOMING",
		"artcc": "ZLC",
		"type": "RNAV",
		"updated": "11/21/2014"
	},
	{
		"name": "WUBIT",
		"latitude": "48-33-37.94 N",
		"longitude": "112-31-35.04 W",
		"state": "MONTANA",
		"artcc": "ZLC",
		"type": "RNAV",
		"updated": "09/21/2014"
	},
	{
		"name": "WUKUK",
		"latitude": "40-46-36.43 N",
		"longitude": "112-4-26.82 W",
		"state": "UTAH",
		"artcc": "ZLC",
		"type": "RNAV",
		"updated": "11/06/2015"
	},
	{
		"name": "WUKUX",
		"latitude": "43-42-31.85 N",
		"longitude": "107-41-33 W",
		"state": "WYOMING",
		"artcc": "ZLC",
		"type": "RNAV",
		"updated": "07/13/2012"
	},
	{
		"name": "WULAX",
		"latitude": "44-13-51.93 N",
		"longitude": "108-0-20.11 W",
		"state": "WYOMING",
		"artcc": "ZLC",
		"type": "RNAV",
		"updated": "01/25/2007"
	},
	{
		"name": "WULEX",
		"latitude": "48-3-56.71 N",
		"longitude": "114-30-33.48 W",
		"state": "MONTANA",
		"artcc": "ZLC",
		"type": "RNAV",
		"updated": "04/27/2009"
	},
	{
		"name": "WULFE",
		"latitude": "41-8-1.79 N",
		"longitude": "112-5-31.38 W",
		"state": "UTAH",
		"artcc": "ZLC",
		"type": "RP",
		"updated": "OGD*LD*SW CRS/5.95"
	},
	{
		"name": "WULMU",
		"latitude": "37-40-41.58 N",
		"longitude": "113-19-27.45 W",
		"state": "UTAH",
		"artcc": "ZLC",
		"type": "RNAV",
		"updated": "12/01/2016"
	},
	{
		"name": "WULOL",
		"latitude": "47-19-54.8 N",
		"longitude": "111-8-5.88 W",
		"state": "MONTANA",
		"artcc": "ZLC",
		"type": "RP",
		"updated": "GTF*VORTAC*106.00/13.34"
	},
	{
		"name": "WUNDI",
		"latitude": "39-39-24.14 N",
		"longitude": "112-30-1.95 W",
		"state": "UTAH",
		"artcc": "ZLC",
		"type": "RNAV",
		"updated": "10/21/2005"
	},
	{
		"name": "WUNIB",
		"latitude": "43-4-43.91 N",
		"longitude": "108-30-8.07 W",
		"state": "WYOMING",
		"artcc": "ZLC",
		"type": "RP",
		"updated": "RIW*VOR/DME*281.01/2.20"
	},
	{
		"name": "WUPAS",
		"latitude": "41-10-30.48 N",
		"longitude": "112-0-51.54 W",
		"state": "UTAH",
		"artcc": "ZLC",
		"type": "MR",
		"updated": "HIF*TACAN*311.00/4.00"
	},
	{
		"name": "WURAG",
		"latitude": "43-32-56.36 N",
		"longitude": "116-28-1.56 W",
		"state": "IDAHO",
		"artcc": "ZLC",
		"type": "MR",
		"updated": "BOI*VORTAC*252.00/12.00"
	},
	{
		"name": "WURTH",
		"latitude": "46-38-38.37 N",
		"longitude": "114-1-47.23 W",
		"state": "MONTANA",
		"artcc": "ZLC",
		"type": "RP",
		"updated": "MSO*VOR/DME*159.00/16.00"
	},
	{
		"name": "WUSEP",
		"latitude": "42-49-52.32 N",
		"longitude": "109-52-48.94 W",
		"state": "WYOMING",
		"artcc": "ZLC",
		"type": "RNAV",
		"updated": "10/29/2009"
	},
	{
		"name": "WUTBO",
		"latitude": "48-39-23.91 N",
		"longitude": "112-13-49.01 W",
		"state": "MONTANA",
		"artcc": "ZLC",
		"type": "RNAV",
		"updated": "09/21/2014"
	},
	{
		"name": "WUTEK",
		"latitude": "46-26-13.13 N",
		"longitude": "105-29-17.28 W",
		"state": "MONTANA",
		"artcc": "ZLC",
		"type": "RNAV",
		"updated": "03/18/2016"
	},
	{
		"name": "WUVOK",
		"latitude": "44-3-35.82 N",
		"longitude": "116-45-57.03 W",
		"state": "IDAHO",
		"artcc": "ZLC",
		"type": "RNAV",
		"updated": "08/14/2008"
	},
	{
		"name": "WUXOT",
		"latitude": "39-9-57.77 N",
		"longitude": "111-43-24.35 W",
		"state": "UTAH",
		"artcc": "ZLC",
		"type": "RNAV",
		"updated": "04/19/2017"
	},
	{
		"name": "WYLED",
		"latitude": "45-47-47.12 N",
		"longitude": "108-27-40.26 W",
		"state": "MONTANA",
		"artcc": "ZLC",
		"type": "RP",
		"updated": "BIL*VORTAC*082.00/6.90"
	},
	{
		"name": "WYMAN",
		"latitude": "41-49-11.03 N",
		"longitude": "118-43-22.71 W",
		"state": "NEVADA",
		"artcc": "ZLC",
		"type": "RNAV",
		"updated": "04/03/2018"
	}
]
