	{
		"name": "YACSE",
		"latitude": "44-42-4.66 N",
		"longitude": "108-37-33.9 W",
		"state": "WYOMING",
		"artcc": "ZLC",
		"type": "RNAV",
		"updated": "07/26/2013",
	},
	{
		"name": "YADDY",
		"latitude": "40-49-2.37 N",
		"longitude": "112-29-35.26 W",
		"state": "UTAH",
		"artcc": "ZLC",
		"type": "RP",
		"updated": "TCH*VORTAC*249.32/23.37",
	},
	{
		"name": "YADNU",
		"latitude": "39-8-43.04 N",
		"longitude": "112-14-45.95 W",
		"state": "UTAH",
		"artcc": "ZLC",
		"type": "RNAV",
		"updated": "08/24/2017",
	},
	{
		"name": "YAFLU",
		"latitude": "47-7-45.8 N",
		"longitude": "104-28-56.83 W",
		"state": "MONTANA",
		"artcc": "ZLC",
		"type": "RP",
		"updated": "MLS*VOR/DME*044.00/75.46",
	},
	{
		"name": "YAGUP",
		"latitude": "43-40-50.64 N",
		"longitude": "111-53-35.33 W",
		"state": "IDAHO",
		"artcc": "ZLC",
		"type": "RNAV",
		"updated": "02/02/2009",
	},
	{
		"name": "YAKKY",
		"latitude": "48-29-13.66 N",
		"longitude": "106-42-0.4 W",
		"state": "MONTANA",
		"artcc": "ZLC",
		"type": "RNAV",
		"updated": "03/05/2014",
	},
	{
		"name": "YANKU",
		"latitude": "40-20-18.4 N",
		"longitude": "115-29-37.21 W",
		"state": "NEVADA",
		"artcc": "ZLC",
		"type": "RP",
		"updated": "BQU*VOR/DME*137.05/28.00",
	},
	{
		"name": "YARUL",
		"latitude": "43-35-56.64 N",
		"longitude": "116-18-50.76 W",
		"state": "IDAHO",
		"artcc": "ZLC",
		"type": "RP",
		"updated": "10/11/2011",
	},
	{
		"name": "YARUP",
		"latitude": "45-32-21.57 N",
		"longitude": "112-22-9.31 W",
		"state": "MONTANA",
		"artcc": "ZLC",
		"type": "RP",
		"updated": "DLN*VOR/DME*005.25/19.00",
	},
	{
		"name": "YAWVA",
		"latitude": "41-4-19.08 N",
		"longitude": "112-0-28.11 W",
		"state": "UTAH",
		"artcc": "ZLC",
		"type": "RNAV",
		"updated": "12/29/2015",
	},
	{
		"name": "YAYDO",
		"latitude": "37-51-26.47 N",
		"longitude": "111-56-36.32 W",
		"state": "UTAH",
		"artcc": "ZLC",
		"type": "RNAV",
		"updated": "01/14/2011",
	},
	{
		"name": "YEALO",
		"latitude": "46-16-50.84 N",
		"longitude": "108-51-32.54 W",
		"state": "MONTANA",
		"artcc": "ZLC",
		"type": "MR",
		"updated": "BIL*VORTAC*284.00/30.00",
	},
	{
		"name": "YEGUL",
		"latitude": "45-46-48.21 N",
		"longitude": "108-14-44.31 W",
		"state": "MONTANA",
		"artcc": "ZLC",
		"type": "RP",
		"updated": "BIL*VORTAC*082.00/16.00",
	},
	{
		"name": "YEGUR",
		"latitude": "42-28-59.98 N",
		"longitude": "114-37-49.38 W",
		"state": "IDAHO",
		"artcc": "ZLC",
		"type": "RNAV",
		"updated": "08/22/2013",
	},
	{
		"name": "YENUP",
		"latitude": "48-37-56.16 N",
		"longitude": "111-34-36.34 W",
		"state": "MONTANA",
		"artcc": "ZLC",
		"type": "RNAV",
		"updated": "11/06/2013",
	},
	{
		"name": "YENUR",
		"latitude": "43-55-0.87 N",
		"longitude": "116-57-26.85 W",
		"state": "IDAHO",
		"artcc": "ZLC",
		"type": "RNAV",
		"updated": "11/02/2017",
	},
	{
		"name": "YEPDU",
		"latitude": "43-38-5.35 N",
		"longitude": "116-37-32.83 W",
		"state": "IDAHO",
		"artcc": "ZLC",
		"type": "RNAV",
		"updated": "02/28/2011",
	},
	{
		"name": "YERUP",
		"latitude": "42-47-58.54 N",
		"longitude": "112-57-15.92 W",
		"state": "IDAHO",
		"artcc": "ZLC",
		"type": "RP",
		"updated": "PIH*VOR/DME*235.45/14.00",
	},
	{
		"name": "YERUT",
		"latitude": "46-32-27.13 N",
		"longitude": "111-34-8.3 W",
		"state": "MONTANA",
		"artcc": "ZLC",
		"type": "RP",
		"updated": "HLN*VORTAC*/16.40",
	},
	{
		"name": "YESUT",
		"latitude": "47-0-38.44 N",
		"longitude": "109-50-30.61 W",
		"state": "MONTANA",
		"artcc": "ZLC",
		"type": "RP",
		"updated": "LWT*VOR/DME*240.38/10.00",
	},
	{
		"name": "YICUN",
		"latitude": "45-47-16.21 N",
		"longitude": "108-27-56.25 W",
		"state": "MONTANA",
		"artcc": "ZLC",
		"type": "RP",
		"updated": "BMO*LD*101.75/4.22",
	},
	{
		"name": "YICYU",
		"latitude": "40-44-24.81 N",
		"longitude": "111-57-30.59 W",
		"state": "UTAH",
		"artcc": "ZLC",
		"type": "RNAV",
		"updated": "07/11/2017",
	},
	{
		"name": "YIGUD",
		"latitude": "45-45-9.82 N",
		"longitude": "108-20-25.42 W",
		"state": "MONTANA",
		"artcc": "ZLC",
		"type": "RP",
		"updated": "BMO*LD*101.75/9.88",
	},
	{
		"name": "YIKUK",
		"latitude": "41-59-5.16 N",
		"longitude": "114-51-49.12 W",
		"state": "NEVADA",
		"artcc": "ZLC",
		"type": "RP",
		"updated": "TWF*VORTAC*191.45/34.06",
	},
	{
		"name": "YILKO",
		"latitude": "43-17-38.81 N",
		"longitude": "112-17-52.99 W",
		"state": "IDAHO",
		"artcc": "ZLC",
		"type": "RNAV",
		"updated": "12/12/2007",
	},
	{
		"name": "YIPKU",
		"latitude": "45-46-42.03 N",
		"longitude": "108-26-35.59 W",
		"state": "MONTANA",
		"artcc": "ZLC",
		"type": "RNAV",
		"updated": "03/06/2015",
	},
	{
		"name": "YIRUR",
		"latitude": "42-20-4.63 N",
		"longitude": "114-35-59.77 W",
		"state": "IDAHO",
		"artcc": "ZLC",
		"type": "RP",
		"updated": "TWF*VORTAC*191.45/10.00",
	},
	{
		"name": "YITUL",
		"latitude": "40-43-7.3 N",
		"longitude": "114-13-43.36 W",
		"state": "NEVADA",
		"artcc": "ZLC",
		"type": "RNAV",
		"updated": "11/14/2014",
	},
	{
		"name": "YLSTN",
		"latitude": "45-7-5.75 N",
		"longitude": "109-10-56.33 W",
		"state": "MONTANA",
		"artcc": "ZLC",
		"type": "RNAV",
		"updated": "03/06/2015",
	},
	{
		"name": "YMONT",
		"latitude": "40-1-47.79 N",
		"longitude": "111-30-9.04 W",
		"state": "UTAH",
		"artcc": "ZLC",
		"type": "RP",
		"updated": "PUC*VOR/DME*292.70/43.05",
	},
	{
		"name": "YOBBO",
		"latitude": "41-9-15.18 N",
		"longitude": "115-28-35.47 W",
		"state": "NEVADA",
		"artcc": "ZLC",
		"type": "RP",
		"updated": "BQU*VOR/DME*011.60/26.97",
	},
	{
		"name": "YODUS",
		"latitude": "44-56-25.44 N",
		"longitude": "108-35-7.58 W",
		"state": "WYOMING",
		"artcc": "ZLC",
		"type": "RNAV",
		"updated": "11/05/2013",
	},
	{
		"name": "YODVU",
		"latitude": "43-32-9.21 N",
		"longitude": "116-8-32.25 W",
		"state": "IDAHO",
		"artcc": "ZLC",
		"type": "RP",
		"updated": "BOI*VORTAC*098.00/2.40",
	},
	{
		"name": "YOGOS",
		"latitude": "47-19-30.51 N",
		"longitude": "110-49-37.75 W",
		"state": "MONTANA",
		"artcc": "ZLC",
		"type": "RP",
		"updated": "GTF*VORTAC*091.23/25.00",
	},
	{
		"name": "YOGUC",
		"latitude": "43-27-17.09 N",
		"longitude": "115-47-57.9 W",
		"state": "IDAHO",
		"artcc": "ZLC",
		"type": "RNAV",
		"updated": "10/21/2015",
	},
	{
		"name": "YOGUT",
		"latitude": "42-50-9.24 N",
		"longitude": "112-41-24.09 W",
		"state": "IDAHO",
		"artcc": "ZLC",
		"type": "RNAV",
		"updated": "08/14/2006",
	},
	{
		"name": "YONUL",
		"latitude": "43-19-55.79 N",
		"longitude": "110-52-16.67 W",
		"state": "WYOMING",
		"artcc": "ZLC",
		"type": "RNAV",
		"updated": "12/06/2006",
	},
	{
		"name": "YOSWO",
		"latitude": "46-36-54.37 N",
		"longitude": "110-36-50.58 W",
		"state": "MONTANA",
		"artcc": "ZLC",
		"type": "CN",
		"updated": "12/04/2014",
	},
	{
		"name": "YOTUV",
		"latitude": "48-23-24.44 N",
		"longitude": "114-14-47.74 W",
		"state": "MONTANA",
		"artcc": "ZLC",
		"type": "CN",
		"updated": "04/27/2009",
	},
	{
		"name": "YOURN",
		"latitude": "40-23-48.38 N",
		"longitude": "111-47-34.57 W",
		"state": "UTAH",
		"artcc": "ZLC",
		"type": "RNAV",
		"updated": "11/06/2015",
	},
	{
		"name": "YOWLS",
		"latitude": "44-27-30.72 N",
		"longitude": "114-16-25.29 W",
		"state": "IDAHO",
		"artcc": "ZLC",
		"type": "RP",
		"updated": "DNJ*VOR/DME*082.92/84.87",
	},
	{
		"name": "YOYNO",
		"latitude": "48-21-39.2 N",
		"longitude": "110-2-51.82 W",
		"state": "MONTANA",
		"artcc": "ZLC",
		"type": "RP",
		"updated": "HVR*VOR/DME*209.92/15.47",
	},
	{
		"name": "YOYYU",
		"latitude": "43-56-53.7 N",
		"longitude": "113-21-19.31 W",
		"state": "IDAHO",
		"artcc": "ZLC",
		"type": "RP",
		"updated": "PIH*VOR/DME*317.81/71.60",
	},
	{
		"name": "YULUG",
		"latitude": "41-16-19.14 N",
		"longitude": "111-2-52.1 W",
		"state": "UTAH",
		"artcc": "ZLC",
		"type": "RP",
		"updated": "EVW*VOR/DME*224.21/0.06",
	},
	{
		"name": "YULUT",
		"latitude": "46-23-49.38 N",
		"longitude": "105-56-31.66 W",
		"state": "MONTANA",
		"artcc": "ZLC",
		"type": "RNAV",
		"updated": "07/12/2011",
	},
	{
		"name": "YURCU",
		"latitude": "48-7-7.34 N",
		"longitude": "103-30-39.72 W",
		"state": "NORTH DAKOTA",
		"artcc": "ZLC",
		"type": "RP",
		"updated": "ISN*VOR/DME*/12.57",
	},
	{
		"name": "YURUB",
		"latitude": "45-47-17.2 N",
		"longitude": "108-49-13.63 W",
		"state": "MONTANA",
		"artcc": "ZLC",
		"type": "RNAV",
		"updated": "04/02/2012",
	},
	{
		"name": "YURUV",
		"latitude": "46-12-1.22 N",
		"longitude": "112-34-46.63 W",
		"state": "MONTANA",
		"artcc": "ZLC",
		"type": "RNAV",
		"updated": "10/31/2017",
	},
	{
		"name": "YUSGU",
		"latitude": "43-41-22.02 N",
		"longitude": "110-41-51.57 W",
		"state": "WYOMING",
		"artcc": "ZLC",
		"type": "RP",
		"updated": "JAC*LD*186.51/5.91",
	},
	{
		"name": "YUSUN",
		"latitude": "42-18-11.07 N",
		"longitude": "114-33-19.12 W",
		"state": "IDAHO",
		"artcc": "ZLC",
		"type": "RP",
		"updated": "TWF*VORTAC*177.46/11.00",
	},
	{
		"name": "YUTUR",
		"latitude": "45-52-42.69 N",
		"longitude": "108-5-42.43 W",
		"state": "MONTANA",
		"artcc": "ZLC",
		"type": "RNAV",
		"updated": "03/06/2015",
	},
	{
		"name": "YUWFE",
		"latitude": "43-0-28.6 N",
		"longitude": "115-18-54.2 W",
		"state": "IDAHO",
		"artcc": "ZLC",
		"type": "CN",
		"updated": "12/04/2014",
	},
	{
		"name": "YYIPP",
		"latitude": "40-53-44.95 N",
		"longitude": "111-59-14.02 W",
		"state": "UTAH",
		"artcc": "ZLC",
		"type": "RP",
		"updated": "MOY*LD*343.95/7.47",
	},
