	{
		"name": "ZABIG",
		"latitude": "44-46-58.8 N",
		"longitude": "108-42-24.78 W",
		"state": "WYOMING",
		"artcc": "ZLC",
		"type": "RNAV",
		"updated": "07/26/2013",
	},
	{
		"name": "ZABOV",
		"latitude": "48-37-28.49 N",
		"longitude": "112-19-46.01 W",
		"state": "MONTANA",
		"artcc": "ZLC",
		"type": "RNAV",
		"updated": "09/21/2014",
	},
	{
		"name": "ZABTU",
		"latitude": "40-49-33.44 N",
		"longitude": "115-47-3.12 W",
		"state": "NEVADA",
		"artcc": "ZLC",
		"type": "RP",
		"updated": "EKO*DD*062.60/0.81",
	},
	{
		"name": "ZAGHI",
		"latitude": "45-27-55.87 N",
		"longitude": "107-38-15.24 W",
		"state": "MONTANA",
		"artcc": "ZLC",
		"type": "RP",
		"updated": "BIL*VORTAC*102.00/46.37",
	},
	{
		"name": "ZAKEM",
		"latitude": "47-29-3.2 N",
		"longitude": "105-38-30.45 W",
		"state": "MONTANA",
		"artcc": "ZLC",
		"type": "RNAV",
		"updated": "10/01/2012",
	},
	{
		"name": "ZAKLA",
		"latitude": "39-2-45.13 N",
		"longitude": "112-16-1.26 W",
		"state": "UTAH",
		"artcc": "ZLC",
		"type": "RNAV",
		"updated": "08/24/2017",
	},
	{
		"name": "ZAKVA",
		"latitude": "43-33-53.76 N",
		"longitude": "116-6-11.48 W",
		"state": "IDAHO",
		"artcc": "ZLC",
		"type": "RNAV",
		"updated": "10/02/2014",
	},
	{
		"name": "ZALGI",
		"latitude": "40-31-53.39 N",
		"longitude": "111-52-8.06 W",
		"state": "UTAH",
		"artcc": "ZLC",
		"type": "RNAV",
		"updated": "11/06/2015",
	},
	{
		"name": "ZAMDA",
		"latitude": "43-34-42.41 N",
		"longitude": "116-21-47.31 W",
		"state": "IDAHO",
		"artcc": "ZLC",
		"type": "RNAV",
		"updated": "08/05/2014",
	},
	{
		"name": "ZAMON",
		"latitude": "48-4-17.96 N",
		"longitude": "114-38-57.94 W",
		"state": "MONTANA",
		"artcc": "ZLC",
		"type": "RNAV",
		"updated": "04/25/2017",
	},
	{
		"name": "ZANGY",
		"latitude": "40-44-21.54 N",
		"longitude": "111-22-0 W",
		"state": "UTAH",
		"artcc": "ZLC",
		"type": "RNAV",
		"updated": "08/04/2017",
	},
	{
		"name": "ZAROD",
		"latitude": "44-39-39.58 N",
		"longitude": "114-3-3.17 W",
		"state": "IDAHO",
		"artcc": "ZLC",
		"type": "RNAV",
		"updated": "02/23/2016",
	},
	{
		"name": "ZASGO",
		"latitude": "42-43-35.83 N",
		"longitude": "110-56-38.66 W",
		"state": "WYOMING",
		"artcc": "ZLC",
		"type": "RNAV",
		"updated": "09/14/2004",
	},
	{
		"name": "ZASKA",
		"latitude": "44-56-22.7 N",
		"longitude": "117-55-20.79 W",
		"state": "OREGON",
		"artcc": "ZLC",
		"type": "RNAV",
		"updated": "01/11/2013",
	},
	{
		"name": "ZASKO",
		"latitude": "40-50-43.39 N",
		"longitude": "111-52-24.11 W",
		"state": "UTAH",
		"artcc": "ZLC",
		"type": "MR",
		"updated": "HIF*TACAN*152.00/17.00",
	},
	{
		"name": "ZAVAD",
		"latitude": "40-22-2.91 N",
		"longitude": "111-53-0.51 W",
		"state": "UTAH",
		"artcc": "ZLC",
		"type": "RNAV",
		"updated": "11/06/2015",
	},
	{
		"name": "ZAVON",
		"latitude": "41-9-52.25 N",
		"longitude": "112-1-8.85 W",
		"state": "UTAH",
		"artcc": "ZLC",
		"type": "RNAV",
		"updated": "11/06/2015",
	},
	{
		"name": "ZEDRI",
		"latitude": "44-22-12.73 N",
		"longitude": "106-42-29.35 W",
		"state": "WYOMING",
		"artcc": "ZLC",
		"type": "RP",
		"updated": "CZI*VOR/DME*319.21/25.15",
	},
	{
		"name": "ZEENO",
		"latitude": "43-28-37.52 N",
		"longitude": "116-13-43.24 W",
		"state": "IDAHO",
		"artcc": "ZLC",
		"type": "RNAV",
		"updated": "11/12/2015",
	},
	{
		"name": "ZEGEL",
		"latitude": "48-27-29.08 N",
		"longitude": "112-42-24.87 W",
		"state": "MONTANA",
		"artcc": "ZLC",
		"type": "RNAV",
		"updated": "09/21/2014",
	},
	{
		"name": "ZEKEL",
		"latitude": "47-7-54.98 N",
		"longitude": "109-57-11.91 W",
		"state": "MONTANA",
		"artcc": "ZLC",
		"type": "RP",
		"updated": "LWT*VOR/DME*273.55/15.00",
	},
	{
		"name": "ZEKIK",
		"latitude": "47-29-22.62 N",
		"longitude": "111-21-13.26 W",
		"state": "MONTANA",
		"artcc": "ZLC",
		"type": "RP",
		"updated": "GTF*VORTAC*028.88/3.37",
	},
	{
		"name": "ZEKLO",
		"latitude": "45-49-18.31 N",
		"longitude": "108-18-39.44 W",
		"state": "MONTANA",
		"artcc": "ZLC",
		"type": "RNAV",
		"updated": "12/20/2011",
	},
	{
		"name": "ZEKOL",
		"latitude": "43-38-5.49 N",
		"longitude": "111-46-14.66 W",
		"state": "IDAHO",
		"artcc": "ZLC",
		"type": "RNAV",
		"updated": "02/02/2009",
	},
	{
		"name": "ZEKSA",
		"latitude": "46-36-39.51 N",
		"longitude": "112-0-51.11 W",
		"state": "MONTANA",
		"artcc": "ZLC",
		"type": "RNAV",
		"updated": "11/30/2012",
	},
	{
		"name": "ZEKUG",
		"latitude": "43-32-55.31 N",
		"longitude": "110-45-58.73 W",
		"state": "WYOMING",
		"artcc": "ZLC",
		"type": "RNAV",
		"updated": "01/11/2013",
	},
	{
		"name": "ZELNO",
		"latitude": "48-13-46.86 N",
		"longitude": "103-45-18.37 W",
		"state": "NORTH DAKOTA",
		"artcc": "ZLC",
		"type": "RNAV",
		"updated": "05/15/2010",
	},
	{
		"name": "ZELOR",
		"latitude": "43-20-10.55 N",
		"longitude": "112-40-40.73 W",
		"state": "IDAHO",
		"artcc": "ZLC",
		"type": "RP",
		"updated": "IDA*VOR/DME*233.00/29.00",
	},
	{
		"name": "ZELTI",
		"latitude": "45-46-37.83 N",
		"longitude": "110-15-53.88 W",
		"state": "MONTANA",
		"artcc": "ZLC",
		"type": "RNAV",
		"updated": "10/18/2017",
	},
	{
		"name": "ZEMTI",
		"latitude": "44-8-10.23 N",
		"longitude": "117-4-35.84 W",
		"state": "OREGON",
		"artcc": "ZLC",
		"type": "RNAV",
		"updated": "11/02/2017",
	},
	{
		"name": "ZEPAT",
		"latitude": "40-30-59.69 N",
		"longitude": "116-58-33.89 W",
		"state": "NEVADA",
		"artcc": "ZLC",
		"type": "RP",
		"updated": "BAM*VORTAC*200.00/4.00",
	},
	{
		"name": "ZEPOG",
		"latitude": "40-31-36.86 N",
		"longitude": "111-56-3.66 W",
		"state": "UTAH",
		"artcc": "ZLC",
		"type": "RP",
		"updated": "UTJ*LD*163.95/14.60",
	},
	{
		"name": "ZERAM",
		"latitude": "40-28-0 N",
		"longitude": "118-7-0 W",
		"state": "NEVADA",
		"artcc": "ZLC",
		"type": "RNAV",
		"updated": "03/15/2011",
	},
	{
		"name": "ZEREX",
		"latitude": "41-37-12.6 N",
		"longitude": "109-12-37.54 W",
		"state": "WYOMING",
		"artcc": "ZLC",
		"type": "RNAV",
		"updated": "02/08/2010",
	},
	{
		"name": "ZERZO",
		"latitude": "46-52-25.99 N",
		"longitude": "110-5-8.51 W",
		"state": "MONTANA",
		"artcc": "ZLC",
		"type": "RP",
		"updated": "LWT*VOR/DME*226.56",
	},
	{
		"name": "ZESER",
		"latitude": "40-44-9.41 N",
		"longitude": "112-25-10.28 W",
		"state": "UTAH",
		"artcc": "ZLC",
		"type": "RNAV",
		"updated": "07/03/2013",
	},
	{
		"name": "ZETIL",
		"latitude": "43-27-42.58 N",
		"longitude": "115-55-15.82 W",
		"state": "IDAHO",
		"artcc": "ZLC",
		"type": "RP",
		"updated": "AAD*LD*102.16/15.45",
	},
	{
		"name": "ZETNI",
		"latitude": "47-25-6.35 N",
		"longitude": "111-27-31.78 W",
		"state": "MONTANA",
		"artcc": "ZLC",
		"type": "RNAV",
		"updated": "06/15/2011",
	},
	{
		"name": "ZETVI",
		"latitude": "40-43-8.25 N",
		"longitude": "113-59-27.31 W",
		"state": "UTAH",
		"artcc": "ZLC",
		"type": "RNAV",
		"updated": "10/08/2014",
	},
	{
		"name": "ZEVIL",
		"latitude": "48-11-24.85 N",
		"longitude": "106-34-32.47 W",
		"state": "MONTANA",
		"artcc": "ZLC",
		"type": "RP",
		"updated": "GGW*VOR/DME*113.00/2.50",
	},
	{
		"name": "ZEXAX",
		"latitude": "48-10-42.3 N",
		"longitude": "114-11-27.46 W",
		"state": "MONTANA",
		"artcc": "ZLC",
		"type": "CN",
		"updated": "10/15/2009",
	},
	{
		"name": "ZEXUP",
		"latitude": "44-57-9.46 N",
		"longitude": "110-56-2.11 W",
		"state": "WYOMING",
		"artcc": "ZLC",
		"type": "RNAV",
		"updated": "11/29/2011",
	},
	{
		"name": "ZIBIV",
		"latitude": "43-48-51.78 N",
		"longitude": "110-31-52.55 W",
		"state": "WYOMING",
		"artcc": "ZLC",
		"type": "RNAV",
		"updated": "01/11/2013",
	},
	{
		"name": "ZIBOR",
		"latitude": "43-26-22.61 N",
		"longitude": "115-51-37.45 W",
		"state": "IDAHO",
		"artcc": "ZLC",
		"type": "RP",
		"updated": "BOI*VORTAC*098.00/16.00",
	},
	{
		"name": "ZIBRA",
		"latitude": "38-59-42.46 N",
		"longitude": "112-40-21.9 W",
		"state": "UTAH",
		"artcc": "ZLC",
		"type": "RP",
		"updated": "DTA*VORTAC*187.02/20.00",
	},
	{
		"name": "ZIBTU",
		"latitude": "43-3-22.52 N",
		"longitude": "115-53-29.02 W",
		"state": "IDAHO",
		"artcc": "ZLC",
		"type": "MR",
		"updated": "MUO*TACAN*309.00/1.20",
	},
	{
		"name": "ZIDAN",
		"latitude": "45-43-20.36 N",
		"longitude": "110-6-38.47 W",
		"state": "MONTANA",
		"artcc": "ZLC",
		"type": "RP",
		"updated": "LVM*VOR/DME*070.00/14.00",
	},
	{
		"name": "ZIDLO",
		"latitude": "38-33-37.16 N",
		"longitude": "112-12-14.15 W",
		"state": "UTAH",
		"artcc": "ZLC",
		"type": "RNAV",
		"updated": "06/25/2015",
	},
	{
		"name": "ZIGAB",
		"latitude": "48-7-19.61 N",
		"longitude": "105-38-47.63 W",
		"state": "MONTANA",
		"artcc": "ZLC",
		"type": "RNAV",
		"updated": "07/26/2012",
	},
	{
		"name": "ZIGBI",
		"latitude": "39-51-33.13 N",
		"longitude": "115-56-21.7 W",
		"state": "NEVADA",
		"artcc": "ZLC",
		"type": "RNAV",
		"updated": "07/03/2013",
	},
	{
		"name": "ZIKIK",
		"latitude": "48-10-44.95 N",
		"longitude": "105-26-4.4 W",
		"state": "MONTANA",
		"artcc": "ZLC",
		"type": "RNAV",
		"updated": "03/11/2013",
	},
	{
		"name": "ZILEP",
		"latitude": "47-28-42.39 N",
		"longitude": "111-6-56.14 W",
		"state": "MONTANA",
		"artcc": "ZLC",
		"type": "RNAV",
		"updated": "06/15/2011",
	},
	{
		"name": "ZIMNU",
		"latitude": "43-34-23 N",
		"longitude": "110-45-16.02 W",
		"state": "WYOMING",
		"artcc": "ZLC",
		"type": "RNAV",
		"updated": "01/11/2013",
	},
	{
		"name": "ZIMUM",
		"latitude": "46-41-58.43 N",
		"longitude": "111-29-19.35 W",
		"state": "MONTANA",
		"artcc": "ZLC",
		"type": "RP",
		"updated": "HLN*VORTAC*057.67/20.00",
	},
	{
		"name": "ZINUD",
		"latitude": "43-3-24.45 N",
		"longitude": "115-53-25.49 W",
		"state": "IDAHO",
		"artcc": "ZLC",
		"type": "MR",
		"updated": "MUO*TACAN*/1.20",
	},
	{
		"name": "ZIONZ",
		"latitude": "40-16-7.09 N",
		"longitude": "111-56-19.34 W",
		"state": "UTAH",
		"artcc": "ZLC",
		"type": "RNAV",
		"updated": "03/26/2018",
	},
	{
		"name": "ZIPET",
		"latitude": "43-29-48.24 N",
		"longitude": "110-47-53.08 W",
		"state": "WYOMING",
		"artcc": "ZLC",
		"type": "RP",
		"updated": "JAC*VOR/DME*188.25/8.00",
	},
	{
		"name": "ZIPGO",
		"latitude": "45-39-3.22 N",
		"longitude": "110-58-34.16 W",
		"state": "MONTANA",
		"artcc": "ZLC",
		"type": "RNAV",
		"updated": "06/30/2003",
	},
	{
		"name": "ZIPPR",
		"latitude": "46-5-58.28 N",
		"longitude": "112-32-44.39 W",
		"state": "MONTANA",
		"artcc": "ZLC",
		"type": "RP",
		"updated": "BEY*LD*334.87/9.90",
	},
	{
		"name": "ZIPUT",
		"latitude": "40-8-5.3 N",
		"longitude": "111-38-52.59 W",
		"state": "UTAH",
		"artcc": "ZLC",
		"type": "RP",
		"updated": "PVU*VOR/DME*129.89/5.87",
	},
	{
		"name": "ZIRTA",
		"latitude": "48-33-24.58 N",
		"longitude": "111-49-18.45 W",
		"state": "MONTANA",
		"artcc": "ZLC",
		"type": "RNAV",
		"updated": "11/06/2013",
	},
	{
		"name": "ZISON",
		"latitude": "46-11-17.78 N",
		"longitude": "112-47-19.1 W",
		"state": "MONTANA",
		"artcc": "ZLC",
		"type": "RNAV",
		"updated": "11/01/2012",
	},
	{
		"name": "ZITGA",
		"latitude": "46-54-24.27 N",
		"longitude": "105-21-23.95 W",
		"state": "MONTANA",
		"artcc": "ZLC",
		"type": "RP",
		"updated": "MLS*VOR/DME*028.87/40.00",
	},
	{
		"name": "ZITKO",
		"latitude": "44-30-22.69 N",
		"longitude": "108-15-13.6 W",
		"state": "WYOMING",
		"artcc": "ZLC",
		"type": "RNAV",
		"updated": "02/05/2013",
	},
	{
		"name": "ZIVEN",
		"latitude": "42-40-24.58 N",
		"longitude": "114-10-48.27 W",
		"state": "IDAHO",
		"artcc": "ZLC",
		"type": "RP",
		"updated": "BYI*VOR/DME*274.00/15.00",
	},
	{
		"name": "ZIVSU",
		"latitude": "41-47-46 N",
		"longitude": "112-7-20.51 W",
		"state": "UTAH",
		"artcc": "ZLC",
		"type": "RNAV",
		"updated": "11/06/2015",
	},
	{
		"name": "ZIVTI",
		"latitude": "45-59-46.49 N",
		"longitude": "111-21-51.17 W",
		"state": "MONTANA",
		"artcc": "ZLC",
		"type": "RNAV",
		"updated": "06/22/2010",
	},
	{
		"name": "ZIXIP",
		"latitude": "43-29-23.99 N",
		"longitude": "116-0-10.09 W",
		"state": "IDAHO",
		"artcc": "ZLC",
		"type": "RP",
		"updated": "AAD*LD*102.16/11.50",
	},
	{
		"name": "ZIXIV",
		"latitude": "41-17-35.45 N",
		"longitude": "112-17-57.75 W",
		"state": "UTAH",
		"artcc": "ZLC",
		"type": "RP",
		"updated": "OGD*VORTAC*280.54/10.00",
	},
	{
		"name": "ZOBMA",
		"latitude": "39-24-52.21 N",
		"longitude": "112-30-7.27 W",
		"state": "UTAH",
		"artcc": "ZLC",
		"type": "RNAV",
		"updated": "07/06/2011",
	},
	{
		"name": "ZOBUM",
		"latitude": "45-49-36.81 N",
		"longitude": "108-36-20.7 W",
		"state": "MONTANA",
		"artcc": "ZLC",
		"type": "RP",
		"updated": "BIL*VORTAC*021.77",
	},
	{
		"name": "ZOKEG",
		"latitude": "40-49-42.59 N",
		"longitude": "115-46-26.18 W",
		"state": "NEVADA",
		"artcc": "ZLC",
		"type": "RNAV",
		"updated": "04/19/2016",
	},
	{
		"name": "ZOKID",
		"latitude": "42-32-43.53 N",
		"longitude": "113-46-42.88 W",
		"state": "IDAHO",
		"artcc": "ZLC",
		"type": "RP",
		"updated": "BYI*VOR/DME*100.32/4.40",
	},
	{
		"name": "ZOKPU",
		"latitude": "40-10-25.72 N",
		"longitude": "115-56-8.92 W",
		"state": "NEVADA",
		"artcc": "ZLC",
		"type": "RNAV",
		"updated": "07/03/2013",
	},
	{
		"name": "ZOLOB",
		"latitude": "39-14-9.31 N",
		"longitude": "114-51-31.2 W",
		"state": "NEVADA",
		"artcc": "ZLC",
		"type": "RNAV",
		"updated": "10/31/2011",
	},
	{
		"name": "ZOMOL",
		"latitude": "43-23-57.96 N",
		"longitude": "118-53-22.78 W",
		"state": "OREGON",
		"artcc": "ZLC",
		"type": "RNAV",
		"updated": "06/07/2004",
	},
	{
		"name": "ZONOG",
		"latitude": "46-29-2.04 N",
		"longitude": "105-46-53.93 W",
		"state": "MONTANA",
		"artcc": "ZLC",
		"type": "RNAV",
		"updated": "03/15/2016",
	},
	{
		"name": "ZONSU",
		"latitude": "40-44-24.57 N",
		"longitude": "113-34-29.32 W",
		"state": "UTAH",
		"artcc": "ZLC",
		"type": "RP",
		"updated": "BVL*VORTAC*072.16/8.37",
	},
	{
		"name": "ZOPKA",
		"latitude": "45-59-9.27 N",
		"longitude": "111-21-58.3 W",
		"state": "MONTANA",
		"artcc": "ZLC",
		"type": "RP",
		"updated": "BZN*VOR/DME*306.00/15.00",
	},
	{
		"name": "ZORAS",
		"latitude": "47-4-18.26 N",
		"longitude": "104-42-48.9 W",
		"state": "MONTANA",
		"artcc": "ZLC",
		"type": "RNAV",
		"updated": "07/12/2011",
	},
	{
		"name": "ZORKE",
		"latitude": "45-30-24.65 N",
		"longitude": "110-40-13.39 W",
		"state": "MONTANA",
		"artcc": "ZLC",
		"type": "RNAV",
		"updated": "05/09/2011",
	},
	{
		"name": "ZOSIL",
		"latitude": "42-28-56.43 N",
		"longitude": "114-34-6.69 W",
		"state": "IDAHO",
		"artcc": "ZLC",
		"type": "RNAV",
		"updated": "06/30/2013",
	},
	{
		"name": "ZOSUV",
		"latitude": "43-47-2.37 N",
		"longitude": "110-37-11.6 W",
		"state": "WYOMING",
		"artcc": "ZLC",
		"type": "RNAV",
		"updated": "01/11/2013",
	},
	{
		"name": "ZOVAM",
		"latitude": "43-31-19.59 N",
		"longitude": "116-7-19.09 W",
		"state": "IDAHO",
		"artcc": "ZLC",
		"type": "RNAV",
		"updated": "08/05/2014",
	},
	{
		"name": "ZOVRO",
		"latitude": "45-47-46.89 N",
		"longitude": "108-51-44.07 W",
		"state": "MONTANA",
		"artcc": "ZLC",
		"type": "RP",
		"updated": "BIL*VORTAC*251.89/10.00",
	},
	{
		"name": "ZOVTA",
		"latitude": "43-7-9.41 N",
		"longitude": "115-57-31.18 W",
		"state": "IDAHO",
		"artcc": "ZLC",
		"type": "MR",
		"updated": "MUO*TACAN*309.00/6.00",
	},
	{
		"name": "ZUBIM",
		"latitude": "48-29-31.26 N",
		"longitude": "106-48-34.62 W",
		"state": "MONTANA",
		"artcc": "ZLC",
		"type": "RNAV",
		"updated": "03/05/2014",
	},
	{
		"name": "ZUBLI",
		"latitude": "45-38-58.24 N",
		"longitude": "110-54-38.42 W",
		"state": "MONTANA",
		"artcc": "ZLC",
		"type": "RP",
		"updated": "BZN*VOR/DME*110.00",
	},
	{
		"name": "ZUDPO",
		"latitude": "47-0-40.94 N",
		"longitude": "104-37-46.83 W",
		"state": "MONTANA",
		"artcc": "ZLC",
		"type": "RNAV",
		"updated": "07/12/2011",
	},
	{
		"name": "ZUGEN",
		"latitude": "43-27-11.61 N",
		"longitude": "110-48-45.73 W",
		"state": "WYOMING",
		"artcc": "ZLC",
		"type": "RNAV",
		"updated": "02/16/2006",
	},
	{
		"name": "ZUGOV",
		"latitude": "37-51-36.7 N",
		"longitude": "111-56-22.31 W",
		"state": "UTAH",
		"artcc": "ZLC",
		"type": "RNAV",
		"updated": "01/05/2012",
	},
	{
		"name": "ZULEG",
		"latitude": "48-35-35.89 N",
		"longitude": "112-25-32.97 W",
		"state": "MONTANA",
		"artcc": "ZLC",
		"type": "RNAV",
		"updated": "09/22/2014",
	},
	{
		"name": "ZULTU",
		"latitude": "48-42-1.12 N",
		"longitude": "112-5-40.48 W",
		"state": "MONTANA",
		"artcc": "ZLC",
		"type": "RNAV",
		"updated": "09/21/2014",
	},
	{
		"name": "ZUMAS",
		"latitude": "37-37-14.07 N",
		"longitude": "113-10-3.89 W",
		"state": "UTAH",
		"artcc": "ZLC",
		"type": "RNAV",
		"updated": "12/01/2016",
	},
	{
		"name": "ZUNIG",
		"latitude": "40-43-1.14 N",
		"longitude": "114-7-1.09 W",
		"state": "NEVADA",
		"artcc": "ZLC",
		"type": "RP",
		"updated": "BVL*VORTAC*256.21/16.41",
	},
	{
		"name": "ZUNOB",
		"latitude": "44-30-36.13 N",
		"longitude": "108-10-20.15 W",
		"state": "WYOMING",
		"artcc": "ZLC",
		"type": "RNAV",
		"updated": "08/09/2017",
	},
	{
		"name": "ZUNSA",
		"latitude": "41-8-53.88 N",
		"longitude": "111-18-4.42 W",
		"state": "UTAH",
		"artcc": "ZLC",
		"type": "CN",
		"updated": "10/12/2006",
	},
	{
		"name": "ZURLU",
		"latitude": "47-54-13.26 N",
		"longitude": "114-11-51.32 W",
		"state": "MONTANA",
		"artcc": "ZLC",
		"type": "RNAV",
		"updated": "04/27/2009",
	},
	{
		"name": "ZURMU",
		"latitude": "43-42-41.66 N",
		"longitude": "116-46-25.86 W",
		"state": "IDAHO",
		"artcc": "ZLC",
		"type": "RNAV",
		"updated": "08/25/2017",
	},
	{
		"name": "ZURNA",
		"latitude": "43-40-53.69 N",
		"longitude": "108-8-54.29 W",
		"state": "WYOMING",
		"artcc": "ZLC",
		"type": "RP",
		"updated": "RLY*VOR/DME*193.92/19.00",
	},
	{
		"name": "ZUROV",
		"latitude": "42-24-32.13 N",
		"longitude": "114-9-11.02 W",
		"state": "IDAHO",
		"artcc": "ZLC",
		"type": "RNAV",
		"updated": "08/22/2013",
	},
	{
		"name": "ZUSAD",
		"latitude": "40-12-47.02 N",
		"longitude": "112-57-21.07 W",
		"state": "UTAH",
		"artcc": "ZLC",
		"type": "MR",
		"updated": "MIJ*TACAN*296.64/2.00",
	},
	{
		"name": "ZUSRU",
		"latitude": "40-29-33.47 N",
		"longitude": "117-49-52.14 W",
		"state": "NEVADA",
		"artcc": "ZLC",
		"type": "CN",
		"updated": "12/04/2014",
	},
	{
		"name": "ZUTOG",
		"latitude": "47-3-10.3 N",
		"longitude": "109-18-15.92 W",
		"state": "MONTANA",
		"artcc": "ZLC",
		"type": "RNAV",
		"updated": "07/30/2012",
	},
	{
		"name": "ZUVEM",
		"latitude": "39-40-54.24 N",
		"longitude": "112-29-27.54 W",
		"state": "UTAH",
		"artcc": "ZLC",
		"type": "CN",
		"updated": "10/24/2005",
	},
	{
		"name": "ZUVIB",
		"latitude": "40-17-57.04 N",
		"longitude": "111-56-26 W",
		"state": "UTAH",
		"artcc": "ZLC",
		"type": "CN",
		"updated": "07/25/2005",
	},
	{
		"name": "ZUVUN",
		"latitude": "41-36-22 N",
		"longitude": "110-44-57.52 W",
		"state": "WYOMING",
		"artcc": "ZLC",
		"type": "RNAV",
		"updated": "11/21/2014",
	},
	{
		"name": "ZUXAG",
		"latitude": "40-19-44.58 N",
		"longitude": "112-4-58.34 W",
		"state": "UTAH",
		"artcc": "ZLC",
		"type": "RNAV",
		"updated": "10/26/2011",
	},
	{
		"name": "ZUXIB",
		"latitude": "46-25-0.65 N",
		"longitude": "104-21-1.81 W",
		"state": "MONTANA",
		"artcc": "ZLC",
		"type": "RNAV",
		"updated": "07/21/2016",
	},
